timestamp_utc,mission_id,frame_id,waypoint_id,inspection_phase,site_id,latitude_deg,longitude_deg,altitude_m,heading_deg,ground_speed_ms,vertical_speed_ms,distance_to_tower_m,roll_deg,pitch_deg,yaw_deg,quat_w,quat_x,quat_y,quat_z,accel_x_ms2,accel_y_ms2,accel_z_ms2,gyro_x_rads,gyro_y_rads,gyro_z_rads,vibration_level,gps_fix_type,gps_satellite_count,gps_hdop,gps_vdop,position_error_m,battery_voltage_v,battery_current_a,battery_remaining_pct,battery_temp_c,battery_capacity_mah,motor_fl_rpm,motor_fr_rpm,motor_rl_rpm,motor_rr_rpm,motor_fl_temp_c,motor_fr_temp_c,motor_rl_temp_c,motor_rr_temp_c,motor_fl_thrust_n,motor_fr_thrust_n,motor_rl_thrust_n,motor_rr_thrust_n,wind_speed_ms,wind_dir_deg,air_temp_c,humidity_pct,pressure_hpa,gimbal_pitch_deg,gimbal_roll_deg,zoom_factor,ir_temp_min_c,ir_temp_max_c,ir_temp_avg_c,anomaly_detected,anomaly_class,anomaly_confidence,anomaly_bbox_x,anomaly_bbox_y,anomaly_bbox_w,anomaly_bbox_h,anomaly_gps_lat,anomaly_gps_lon,anomaly_gps_alt_m,ir_temp_delta_c
2024-02-06T18:40:00.000Z,MISSION_0013,0,0,takeoff,SITE_CHE_004,13.0826967,80.2707044,1.5,9.1,0.0,0.14,0.61,1.4726,0.2918,9.1012,0.99676,0.01261,0.00356,0.0793,0.2874,0.004,-9.836,0.1705,0.2449,0.2712,0.2836,3,16,0.72,1.21,0.4,24.712,17.99,96.4,41.7,21198.0,7353,7361,6930,7137,57.9,60.4,60.5,63.3,2.856,2.423,2.829,2.466,7.12,37.8,34.4,33.0,1010.71,-30.87,1.29,1.45,29.3,49.0,35.7,0,no_anomaly,0.0,0,0,0,0,13.0826967,80.2707044,1.5,0.0
2024-02-06T18:40:00.100Z,MISSION_0013,1,0,takeoff,SITE_CHE_004,13.0826953,80.2707052,3.0,8.74,0.154,0.097,0.78,-6.5261,-2.101,8.7441,0.99539,-0.05535,-0.02259,0.07506,0.4005,0.0673,-9.7916,0.7006,0.3368,-0.0889,0.2868,3,12,0.74,0.81,0.32,24.683,15.7,96.3,42.5,21177.0,7459,7290,7105,7131,63.8,58.3,57.0,60.4,2.56,2.815,2.651,2.947,6.61,34.8,34.5,31.9,1010.74,-33.21,0.79,1.76,31.5,44.7,36.4,0,no_anomaly,0.0,0,0,0,0,13.0826953,80.2707052,3.0,0.0
2024-02-06T18:40:00.200Z,MISSION_0013,2,0,takeoff,SITE_CHE_004,13.0826957,80.2707011,4.5,9.87,0.824,0.135,0.5,1.2866,-1.0628,9.8745,0.99617,0.01198,-0.00827,0.08616,-0.1363,-0.0097,-9.8324,-1.0654,0.0841,-0.0713,0.2556,3,10,0.62,1.03,0.26,24.732,20.61,96.2,42.9,21157.0,7247,7349,6995,7074,57.8,59.1,65.4,63.9,2.88,2.673,3.031,2.795,6.84,36.7,34.3,32.6,1011.21,-23.14,-0.76,1.73,30.3,42.0,33.5,0,no_anomaly,0.0,0,0,0,0,13.0826957,80.2707011,4.5,0.0
2024-02-06T18:40:00.300Z,MISSION_0013,3,0,takeoff,SITE_CHE_004,13.0826972,80.2707026,5.0,7.29,1.391,0.13,0.42,-1.8033,-4.9046,7.2882,0.99698,-0.01297,-0.0437,0.06282,-0.1065,0.0268,-9.9333,0.7455,-0.7813,-0.3419,0.2614,3,14,0.8,0.6,0.4,24.681,16.62,96.1,42.1,21136.0,7107,7305,7385,7293,61.7,59.8,56.1,57.4,2.7,2.842,3.044,2.621,7.02,35.1,34.4,33.1,1011.22,-36.86,-0.66,2.21,31.4,39.1,36.7,0,no_anomaly,0.0,0,0,0,0,13.0826972,80.2707026,5.0,0.0
2024-02-06T18:40:00.400Z,MISSION_0013,4,0,takeoff,SITE_CHE_004,13.082699,80.2706984,5.0,3.42,1.282,0.126,0.21,1.0558,-1.8302,3.4247,0.99938,0.00968,-0.01569,0.03002,-0.0756,-0.0408,-9.84,0.3667,-0.93,0.4237,0.1949,3,14,0.5,0.64,0.28,24.755,13.66,96.0,43.4,21116.0,7401,7029,7315,7311,61.3,61.6,62.6,58.8,2.865,2.792,2.683,2.666,5.37,35.8,34.5,32.6,1010.83,-28.26,-0.45,1.8,30.8,41.1,36.1,0,no_anomaly,0.0,0,0,0,0,13.082699,80.2706984,5.0,0.0
2024-02-06T18:40:00.500Z,MISSION_0013,5,0,takeoff,SITE_CHE_004,13.0826977,80.2707003,5.0,3.63,1.821,0.132,0.26,8.1419,-0.234,3.6319,0.99697,0.07102,0.00021,0.03175,0.1011,0.0313,-9.6901,0.5302,0.8367,0.3789,0.2523,3,14,0.6,0.93,0.3,24.7,17.01,95.9,42.7,21096.0,7312,7243,7160,7160,61.6,59.8,56.3,56.6,2.838,2.589,2.441,2.984,6.51,40.4,34.5,32.3,1011.13,-35.47,-0.48,1.0,31.2,41.7,35.4,0,no_anomaly,0.0,0,0,0,0,13.0826977,80.2707003,5.0,0.0
2024-02-06T18:40:00.600Z,MISSION_0013,6,0,takeoff,SITE_CHE_004,13.0826989,80.2707011,5.0,3.02,1.799,0.074,0.18,-2.4957,1.0036,3.0204,0.99937,-0.022,0.00818,0.02654,-0.0802,-0.0058,-9.8969,-0.6043,0.3505,-0.0008,0.2932,3,18,0.72,0.74,0.34,24.631,21.94,95.8,42.6,21075.0,7148,7272,7536,7324,59.1,56.0,57.6,59.1,2.515,2.992,2.661,2.914,6.4,41.9,34.8,33.0,1010.99,-33.75,0.79,1.28,28.9,43.0,39.9,0,no_anomaly,0.0,0,0,0,0,13.0826989,80.2707011,5.0,0.0
2024-02-06T18:40:00.700Z,MISSION_0013,7,0,takeoff,SITE_CHE_004,13.0826979,80.270699,5.0,3.93,1.593,0.065,0.26,1.5771,-0.7578,3.9286,0.99929,0.01398,-0.00614,0.03436,0.0592,-0.0161,-9.7996,0.0656,-0.3587,-0.5987,0.2957,3,16,0.73,0.74,0.25,24.588,20.05,95.7,42.5,21055.0,6969,7048,7203,7229,57.8,60.2,59.8,61.6,2.816,2.719,2.877,2.84,7.43,36.6,34.6,32.8,1010.96,-27.6,0.12,1.5,26.8,45.3,35.7,0,no_anomaly,0.0,0,0,0,0,13.0826979,80.270699,5.0,0.0
2024-02-06T18:40:00.800Z,MISSION_0013,8,0,takeoff,SITE_CHE_004,13.0827029,80.2706923,5.0,6.15,1.498,0.028,0.91,4.7025,-0.4826,6.1463,0.9977,0.04119,-0.002,0.05374,0.1866,0.0329,-9.7408,0.5802,0.7546,-0.2439,0.227,3,14,0.92,0.8,0.35,24.647,17.78,95.6,42.4,21035.0,7206,7232,7453,7311,59.1,56.8,58.2,58.3,3.114,2.711,2.663,3.068,7.0,41.4,34.4,32.8,1010.8,-30.0,1.41,1.7,27.0,46.3,38.3,0,no_anomaly,0.0,0,0,0,0,13.0827029,80.2706923,5.0,0.0
2024-02-06T18:40:00.900Z,MISSION_0013,9,0,takeoff,SITE_CHE_004,13.082702,80.2706953,5.0,5.58,1.732,0.06,0.57,-0.6756,-3.1262,5.5839,0.99843,-0.00456,-0.02753,0.04853,0.2394,-0.0922,-9.8053,-1.125,-0.2076,-0.4128,0.2613,3,12,0.87,0.83,0.2,24.613,18.36,95.5,42.4,21014.0,7095,7223,7315,7454,60.3,59.6,58.8,58.0,2.611,2.841,2.897,2.823,6.61,32.1,34.5,34.3,1011.12,-31.83,-0.76,1.4,27.0,45.6,34.2,0,no_anomaly,0.0,0,0,0,0,13.082702,80.2706953,5.0,0.0
2024-02-06T18:40:01.000Z,MISSION_0013,10,0,takeoff,SITE_CHE_004,13.0827067,80.2706957,5.0,7.64,2.149,0.115,0.89,8.1784,-2.1388,7.6444,0.99497,0.07238,-0.01382,0.06781,-0.0272,0.0125,-9.7787,0.7258,-0.2644,-0.286,0.2757,3,18,0.7,1.0,0.41,24.773,22.12,95.4,42.3,20994.0,7187,7153,7281,7214,55.4,60.4,61.8,59.8,2.942,2.645,2.681,2.617,7.27,38.3,34.5,32.8,1010.95,-31.64,-1.24,1.09,27.8,38.6,37.8,0,no_anomaly,0.0,0,0,0,0,13.0827067,80.2706957,5.0,0.0
2024-02-06T18:40:01.100Z,MISSION_0013,11,0,takeoff,SITE_CHE_004,13.0827074,80.2706939,5.0,11.55,2.141,0.118,1.07,-4.3988,-0.5682,11.5463,0.9942,-0.03768,-0.00879,0.10033,0.1286,0.0001,-9.8306,-0.4426,0.6517,0.1923,0.2094,3,14,0.7,0.97,0.23,24.696,21.43,95.3,42.1,20974.0,7257,7343,7331,7046,59.0,62.1,56.3,57.1,2.721,2.643,2.98,2.8,7.12,25.6,34.3,33.2,1011.07,-31.61,0.38,2.0,29.1,39.1,33.7,0,no_anomaly,0.0,0,0,0,0,13.0827074,80.2706939,5.0,0.0
2024-02-06T18:40:01.200Z,MISSION_0013,12,0,takeoff,SITE_CHE_004,13.0827096,80.2706957,5.0,15.7,2.008,0.083,1.17,-5.6749,-1.943,15.7032,0.98938,-0.04672,-0.02354,0.13559,-0.0842,-0.0796,-9.8117,0.113,0.1025,0.2333,0.256,3,14,0.58,0.7,0.2,24.695,22.49,95.2,41.6,20953.0,7396,7338,7133,7370,55.4,60.9,60.3,59.8,2.974,2.655,2.706,2.862,6.69,42.3,34.7,33.8,1011.01,-33.99,-0.05,1.79,27.3,47.2,37.2,0,no_anomaly,0.0,0,0,0,0,13.0827096,80.2706957,5.0,0.0
2024-02-06T18:40:01.300Z,MISSION_0013,13,0,takeoff,SITE_CHE_004,13.0827061,80.2706917,5.0,15.86,1.585,0.077,1.15,5.1814,-2.3531,15.8581,0.98909,0.04759,-0.01408,0.1387,-0.1338,0.0156,-9.8583,-0.4387,0.1841,-0.1884,0.2208,3,19,0.69,0.94,0.31,24.683,20.79,95.1,42.2,20933.0,7280,7122,7368,7504,57.5,61.3,58.8,59.4,2.884,2.854,2.851,2.788,6.44,39.1,34.3,32.8,1010.37,-27.2,-1.02,1.16,26.5,43.9,35.6,0,no_anomaly,0.0,0,0,0,0,13.0827061,80.2706917,5.0,0.0
2024-02-06T18:40:01.400Z,MISSION_0013,14,0,takeoff,SITE_CHE_004,13.0827069,80.2706919,5.0,15.52,1.565,0.061,1.19,2.1903,-0.1265,15.5203,0.99066,0.01909,0.00149,0.13502,-0.0601,0.042,-9.7568,0.2313,-0.1312,0.259,0.2387,3,13,0.5,0.94,0.2,24.695,15.91,95.1,42.2,20913.0,7290,7177,7499,7283,59.8,59.8,62.1,61.0,2.745,2.923,2.841,2.844,7.33,40.2,34.5,32.7,1010.86,-31.11,0.46,1.28,31.0,41.1,37.8,0,no_anomaly,0.0,0,0,0,0,13.0827069,80.2706919,5.0,0.0
2024-02-06T18:40:01.500Z,MISSION_0013,15,0,takeoff,SITE_CHE_004,13.0827083,80.2706953,5.0,17.2,1.679,0.001,1.06,1.2731,-3.4067,17.2024,0.98821,0.01543,-0.02773,0.14981,-0.1986,0.0191,-9.8625,0.3418,0.4084,0.3166,0.1715,3,14,0.74,1.1,0.29,24.769,19.35,95.0,41.9,20892.0,7293,7316,7424,7194,61.4,58.3,59.7,60.5,2.777,2.804,3.03,2.391,6.69,42.5,34.2,32.9,1010.37,-27.01,0.99,1.62,31.4,40.2,35.7,0,no_anomaly,0.0,0,0,0,0,13.0827083,80.2706953,5.0,0.0
2024-02-06T18:40:01.600Z,MISSION_0013,16,0,takeoff,SITE_CHE_004,13.0827101,80.2706948,5.0,17.24,1.822,0.159,1.27,0.2242,-2.8105,17.2448,0.98839,0.00561,-0.02395,0.14992,-0.3306,0.0377,-9.829,0.6246,0.8109,-0.01,0.2233,3,17,0.5,1.04,0.2,24.669,17.48,94.9,42.1,20872.0,7363,7537,7399,7332,58.5,57.3,57.4,58.9,2.81,2.674,2.581,2.769,7.32,40.2,34.5,33.1,1011.17,-26.75,0.41,1.0,28.3,47.0,38.6,0,no_anomaly,0.0,0,0,0,0,13.0827101,80.2706948,5.0,0.0
2024-02-06T18:40:01.700Z,MISSION_0013,17,0,takeoff,SITE_CHE_004,13.082715,80.2706955,5.0,17.13,1.961,0.074,1.74,4.0696,-2.2351,17.131,0.98793,0.03801,-0.01399,0.1495,0.0374,0.0827,-9.8556,-0.0773,0.1887,0.0386,0.2608,3,16,0.93,0.79,0.37,24.648,17.39,94.8,42.5,20852.0,7579,7319,7091,7257,58.7,60.0,59.9,57.9,2.921,2.94,2.634,2.822,7.25,34.8,34.7,32.0,1011.12,-28.81,-0.38,1.59,28.3,47.5,37.3,0,no_anomaly,0.0,0,0,0,0,13.082715,80.2706955,5.0,0.0
2024-02-06T18:40:01.800Z,MISSION_0013,18,0,takeoff,SITE_CHE_004,13.0827159,80.270697,5.0,16.24,1.857,0.127,1.8,3.7563,-0.7709,16.2414,0.98939,0.03339,-0.00203,0.1414,-0.0758,0.0222,-9.7879,0.533,0.1745,-0.4148,0.2237,3,19,0.66,0.98,0.25,24.747,20.14,94.7,43.0,20831.0,7306,7043,7112,7146,55.5,59.6,58.9,61.1,2.767,2.885,2.85,2.687,6.21,49.2,34.3,32.7,1010.83,-25.68,1.32,2.2,31.6,39.2,36.3,0,no_anomaly,0.0,0,0,0,0,13.0827159,80.270697,5.0,0.0
2024-02-06T18:40:01.900Z,MISSION_0013,19,0,takeoff,SITE_CHE_004,13.0827167,80.2706966,5.0,16.73,2.124,0.135,1.9,2.5792,-1.322,16.7293,0.98901,0.02394,-0.00814,0.14568,-0.0212,0.0643,-9.7476,0.3647,0.4819,0.3201,0.2803,3,13,0.81,1.04,0.25,24.644,19.87,94.6,42.8,20811.0,7106,7151,7288,7079,57.2,62.3,57.9,59.1,2.913,2.846,2.786,2.897,7.24,33.4,34.4,32.9,1011.21,-34.1,-0.09,1.97,27.7,42.7,37.1,0,no_anomaly,0.0,0,0,0,0,13.0827167,80.2706966,5.0,0.0
2024-02-06T18:40:02.000Z,MISSION_0013,20,0,takeoff,SITE_CHE_004,13.0827121,80.2706987,5.0,17.44,3.021,0.116,1.35,2.3459,-3.6384,17.4436,0.98763,0.02504,-0.02827,0.15217,-0.3118,-0.0189,-9.8979,-0.3958,-1.1903,-0.382,0.1722,3,13,0.64,1.0,0.2,24.704,20.08,94.5,42.6,20791.0,7574,7056,7255,7093,60.9,63.0,61.8,61.8,2.946,2.689,2.784,2.841,6.71,35.9,34.4,33.3,1010.94,-29.15,0.53,2.12,29.1,41.9,37.9,0,no_anomaly,0.0,0,0,0,0,13.0827121,80.2706987,5.0,0.0
2024-02-06T18:40:02.100Z,MISSION_0013,21,0,takeoff,SITE_CHE_004,13.0827124,80.270702,5.0,18.63,2.931,0.09,1.4,-2.0796,-2.9816,18.6258,0.9864,-0.01369,-0.0286,0.16128,0.2213,-0.0381,-9.8042,0.0651,-0.2338,0.8928,0.1941,3,16,0.76,0.86,0.22,24.727,17.63,94.4,43.0,20770.0,7315,7331,7149,7073,59.5,57.2,64.4,59.6,2.713,2.808,2.712,2.53,6.99,39.3,34.4,32.8,1010.79,-30.73,1.68,1.28,27.8,41.7,37.1,0,no_anomaly,0.0,0,0,0,0,13.0827124,80.270702,5.0,0.0
2024-02-06T18:40:02.200Z,MISSION_0013,22,0,takeoff,SITE_CHE_004,13.0827093,80.2706971,5.0,20.94,2.92,0.108,1.09,-1.0802,-0.8022,20.944,0.98329,-0.008,-0.0086,0.18168,0.0124,0.0095,-9.8288,0.251,0.077,0.0174,0.2931,3,12,0.56,1.19,0.2,24.636,19.78,94.3,42.3,20750.0,7047,7376,7053,7177,57.5,56.4,61.1,60.2,2.473,2.894,2.638,2.754,6.67,39.6,34.5,32.4,1010.54,-34.04,-0.02,1.0,29.2,38.3,35.5,0,no_anomaly,0.0,0,0,0,0,13.0827093,80.2706971,5.0,0.0
2024-02-06T18:40:02.300Z,MISSION_0013,23,0,takeoff,SITE_CHE_004,13.0827095,80.2706901,5.0,21.53,3.488,0.157,1.52,-6.1878,-1.3778,21.5327,0.98102,-0.05078,-0.02188,0.18588,0.034,0.0034,-9.8404,-0.129,0.1,-0.089,0.1359,3,11,0.71,0.98,0.32,24.693,22.91,94.2,42.2,20730.0,7244,7087,6869,7413,56.2,61.7,56.7,61.4,2.799,3.012,2.759,2.46,7.02,30.9,34.6,32.9,1010.69,-30.25,-1.41,1.53,29.5,47.8,34.2,0,no_anomaly,0.0,0,0,0,0,13.0827095,80.2706901,5.0,0.0
2024-02-06T18:40:02.400Z,MISSION_0013,24,0,takeoff,SITE_CHE_004,13.0827084,80.2706875,5.0,19.55,3.329,0.156,1.68,4.1484,-3.3775,19.5535,0.98422,0.04065,-0.02288,0.17068,0.1451,-0.0834,-9.8664,-0.2098,-0.169,-0.0732,0.3214,3,10,0.69,1.07,0.2,24.611,21.1,94.1,43.8,20709.0,7049,7318,7352,7111,55.8,56.3,60.6,59.2,2.811,2.681,2.793,2.866,6.56,35.5,34.4,32.9,1011.2,-28.1,0.07,1.84,29.4,43.1,37.8,0,no_anomaly,0.0,0,0,0,0,13.0827084,80.2706875,5.0,0.0
2024-02-06T18:40:02.500Z,MISSION_0013,25,0,takeoff,SITE_CHE_004,13.0827128,80.2706861,5.0,19.81,2.856,0.152,2.1,-0.3351,-3.0213,19.8118,0.98476,0.00166,-0.02647,0.17189,0.0754,0.0256,-9.8359,0.0107,-0.1412,0.7327,0.1965,3,19,0.69,0.93,0.25,24.701,14.69,94.0,42.3,20689.0,7241,7268,6997,7358,55.6,62.2,62.9,59.4,2.986,2.833,2.909,2.566,6.91,25.4,33.9,33.1,1011.25,-37.34,0.12,1.62,30.8,41.6,35.6,0,no_anomaly,0.0,0,0,0,0,13.0827128,80.2706861,5.0,0.0
2024-02-06T18:40:02.600Z,MISSION_0013,26,0,takeoff,SITE_CHE_004,13.0827075,80.2706846,5.0,18.17,2.994,0.113,1.91,-6.2032,-1.8417,18.1745,0.98601,-0.05089,-0.02439,0.15683,-0.2797,0.0418,-9.8525,1.0382,0.5304,-0.3156,0.2117,3,13,0.79,0.83,0.27,24.668,19.69,93.9,42.6,20668.0,7137,7180,7485,7269,58.4,62.0,61.2,59.6,2.859,2.902,2.585,2.725,7.3,30.9,34.3,33.9,1011.07,-25.73,0.97,1.0,29.1,47.8,39.5,0,no_anomaly,0.0,0,0,0,0,13.0827075,80.2706846,5.0,0.0
2024-02-06T18:40:02.700Z,MISSION_0013,27,0,takeoff,SITE_CHE_004,13.0827078,80.2706895,5.0,18.65,2.636,0.149,1.45,7.9972,-3.6533,18.6519,0.98352,0.07393,-0.02008,0.16377,-0.013,-0.034,-9.828,-0.541,-0.3323,-0.1843,0.2524,3,15,0.83,1.28,0.23,24.673,19.98,93.9,41.1,20648.0,7396,7030,7193,7211,60.0,63.3,59.5,61.7,2.922,2.543,3.137,2.971,6.75,30.9,34.4,32.1,1010.96,-27.38,1.49,1.36,30.2,43.9,36.8,0,no_anomaly,0.0,0,0,0,0,13.0827078,80.2706895,5.0,0.0
2024-02-06T18:40:02.800Z,MISSION_0013,28,0,takeoff,SITE_CHE_004,13.0827067,80.2706894,5.0,19.99,2.645,0.157,1.39,1.7664,-3.4312,19.9895,0.98419,0.02037,-0.02681,0.17391,0.1184,0.0425,-9.7479,0.1808,0.1923,-0.1163,0.2213,3,19,0.57,0.93,0.2,24.644,18.41,93.8,42.1,20628.0,7083,7235,7175,7282,57.9,58.1,57.6,57.9,2.788,2.973,2.919,2.798,6.94,34.2,34.5,32.9,1010.9,-31.06,0.51,1.88,28.7,46.7,33.8,0,no_anomaly,0.0,0,0,0,0,13.0827067,80.2706894,5.0,0.0
2024-02-06T18:40:02.900Z,MISSION_0013,29,0,takeoff,SITE_CHE_004,13.0827081,80.2706894,5.0,17.99,2.428,0.033,1.48,-2.6842,-3.2714,17.9906,0.98713,-0.01866,-0.03185,0.15559,0.1344,-0.093,-9.8449,-1.208,-0.387,0.3345,0.2824,3,11,0.82,0.87,0.21,24.601,19.67,93.7,41.8,20607.0,7178,7306,7292,7523,60.8,59.8,57.8,58.5,2.728,2.814,2.824,2.459,6.33,33.7,34.3,33.1,1011.06,-25.68,0.77,1.82,31.5,48.5,36.3,0,no_anomaly,0.0,0,0,0,0,13.0827081,80.2706894,5.0,0.0
2024-02-06T18:40:03.000Z,MISSION_0013,30,0,takeoff,SITE_CHE_004,13.0827097,80.2706836,5.0,18.95,2.513,0.085,2.12,1.3411,-4.2834,18.949,0.98553,0.01769,-0.03493,0.16491,-0.1389,0.0836,-9.8765,-0.7137,0.3419,-0.2081,0.2632,3,13,0.71,1.2,0.28,24.709,21.42,93.6,42.9,20587.0,7521,7290,7440,6971,62.0,60.6,57.0,60.5,2.659,2.618,3.134,2.684,6.6,33.8,33.9,32.7,1010.77,-27.12,0.85,1.43,29.7,48.4,35.7,0,no_anomaly,0.0,0,0,0,0,13.0827097,80.2706836,5.0,0.0
2024-02-06T18:40:03.100Z,MISSION_0013,31,0,takeoff,SITE_CHE_004,13.0827109,80.2706819,5.0,19.75,2.52,0.105,2.35,0.0113,-0.8978,19.7454,0.98516,0.00144,-0.0077,0.17146,-0.141,-0.0106,-9.7741,0.7448,0.2301,-0.1346,0.221,3,19,0.73,1.08,0.26,24.625,22.21,93.5,43.1,20567.0,7246,7505,7313,7216,59.5,60.1,58.7,60.3,2.776,2.683,3.316,2.716,5.95,35.3,34.4,32.9,1011.08,-30.61,0.81,1.29,29.1,44.5,36.1,0,no_anomaly,0.0,0,0,0,0,13.0827109,80.2706819,5.0,0.0
2024-02-06T18:40:03.200Z,MISSION_0013,32,0,transit,SITE_CHE_004,13.0827129,80.270681,5.5,21.96,2.056,0.194,2.55,-2.7051,-1.3085,21.9646,0.9814,-0.021,-0.0157,0.19018,-0.1634,0.0477,-9.8394,-0.0475,0.5547,-0.1476,0.1711,3,17,0.68,0.86,0.25,24.648,17.23,93.4,42.3,20546.0,7362,6900,7430,7202,60.0,55.4,61.1,60.5,2.783,2.91,2.548,2.994,6.28,38.1,34.4,33.2,1010.85,-29.13,-0.32,1.54,30.8,43.8,36.5,0,no_anomaly,0.0,0,0,0,0,13.0827129,80.270681,5.5,0.0
2024-02-06T18:40:03.300Z,MISSION_0013,33,0,transit,SITE_CHE_004,13.0827096,80.2706794,6.0,19.62,1.69,0.064,2.53,-4.5971,-3.4856,19.6216,0.98434,-0.03432,-0.03677,0.16898,0.1408,0.0565,-9.808,0.1981,0.7083,-0.5618,0.2571,3,14,0.73,0.66,0.2,24.659,18.9,93.3,42.2,20526.0,7090,7049,7284,7416,57.6,58.7,57.2,58.5,2.566,3.215,2.771,2.787,6.31,38.4,34.5,33.2,1011.0,-31.44,-1.34,1.25,31.4,44.9,37.6,0,no_anomaly,0.0,0,0,0,0,13.0827096,80.2706794,6.0,0.0
2024-02-06T18:40:03.400Z,MISSION_0013,34,0,transit,SITE_CHE_004,13.0827066,80.2706777,6.5,21.16,1.634,0.055,2.59,-8.9589,-2.2892,21.16,0.98009,-0.0731,-0.03391,0.18148,-0.2992,0.0623,-9.7947,0.6708,-0.0301,0.0517,0.2331,3,17,0.77,0.9,0.38,24.661,16.78,93.2,42.7,20506.0,7039,7234,7267,7197,62.9,58.8,60.3,59.5,2.976,2.78,2.891,2.832,6.77,38.0,34.5,32.8,1010.97,-26.58,-0.44,1.29,29.5,51.0,39.9,0,no_anomaly,0.0,0,0,0,0,13.0827066,80.2706777,6.5,0.0
2024-02-06T18:40:03.500Z,MISSION_0013,35,0,transit,SITE_CHE_004,13.0827082,80.2706744,7.0,22.01,1.872,0.105,2.99,-5.277,-0.5849,22.0067,0.98061,-0.04421,-0.01379,0.19043,-0.3126,0.0732,-9.8642,-0.3678,-1.1005,0.0363,0.2505,3,13,0.67,0.91,0.2,24.603,17.3,93.1,42.7,20485.0,7456,7372,7286,7084,56.0,59.0,56.7,58.1,2.881,2.787,2.79,2.853,7.04,25.6,34.5,32.1,1010.76,-29.28,0.61,1.65,31.2,45.1,37.0,0,no_anomaly,0.0,0,0,0,0,13.0827082,80.2706744,7.0,0.0
2024-02-06T18:40:03.600Z,MISSION_0013,36,0,transit,SITE_CHE_004,13.0827057,80.2706747,7.5,18.72,1.228,0.13,2.89,3.8171,-3.3054,18.7185,0.98557,0.03753,-0.02303,0.16341,0.2838,0.041,-9.8648,0.6173,1.1494,0.1243,0.2415,3,19,0.64,0.94,0.23,24.541,13.68,93.0,42.7,20465.0,7310,7413,7462,7179,60.1,58.9,57.5,60.0,2.827,2.74,2.82,2.827,6.44,44.3,34.4,32.4,1011.03,-33.06,-0.98,1.06,29.5,48.9,40.9,0,no_anomaly,0.0,0,0,0,0,13.0827057,80.2706747,7.5,0.0
2024-02-06T18:40:03.700Z,MISSION_0013,37,0,transit,SITE_CHE_004,13.0827057,80.2706744,8.0,19.14,1.914,0.114,2.92,-2.6713,-1.7241,19.1369,0.98577,-0.02048,-0.01871,0.16582,0.1102,0.0085,-9.7965,-0.4606,0.1581,0.4045,0.2615,3,10,0.5,0.6,0.23,24.622,21.81,92.9,41.9,20445.0,6994,7386,7400,7307,59.6,60.1,57.2,58.1,2.82,2.989,2.68,2.788,5.54,39.0,34.6,32.7,1010.73,-29.74,-0.09,1.5,30.0,41.3,34.0,0,no_anomaly,0.0,0,0,0,0,13.0827057,80.2706744,8.0,0.0
2024-02-06T18:40:03.800Z,MISSION_0013,38,0,transit,SITE_CHE_004,13.082707,80.2706737,8.5,20.57,2.379,0.069,3.04,0.9915,-1.8415,20.5664,0.98375,0.01138,-0.01427,0.17862,-0.3026,-0.0101,-9.8558,-0.6747,0.5572,0.0627,0.2433,3,11,0.5,1.0,0.23,24.591,16.94,92.8,42.0,20424.0,7691,7478,7250,7310,63.1,56.3,60.1,56.5,3.115,2.977,2.843,2.851,6.34,34.3,34.4,32.8,1011.01,-32.18,0.54,2.07,28.7,45.2,36.9,0,no_anomaly,0.0,0,0,0,0,13.082707,80.2706737,8.5,0.0
2024-02-06T18:40:03.900Z,MISSION_0013,39,0,transit,SITE_CHE_004,13.0827062,80.2706703,9.0,20.01,2.702,-0.014,3.38,-5.3067,0.2072,20.0149,0.98371,-0.0459,-0.00627,0.17367,0.1444,-0.0564,-9.843,0.0709,0.4116,-0.044,0.2023,3,13,0.77,0.77,0.41,24.539,17.47,92.7,41.3,20404.0,7220,7074,7107,7063,54.4,59.7,63.3,58.8,2.79,2.824,2.943,3.039,7.08,42.1,34.5,32.1,1010.8,-25.55,-1.65,1.91,28.5,48.4,36.1,0,no_anomaly,0.0,0,0,0,0,13.0827062,80.2706703,9.0,0.0
2024-02-06T18:40:04.000Z,MISSION_0013,40,0,transit,SITE_CHE_004,13.082708,80.2706681,9.5,20.51,3.23,0.111,3.66,4.4885,-3.5704,20.5118,0.98257,0.04406,-0.02366,0.17902,-0.1152,-0.015,-9.7348,-0.9065,-0.4365,0.3232,0.2646,3,14,0.82,0.89,0.52,24.651,13.25,92.7,42.9,20384.0,7407,7175,7503,7309,62.0,61.3,56.1,58.3,2.688,3.116,2.935,2.646,6.34,42.6,34.5,32.9,1010.98,-30.64,-2.09,1.23,28.5,41.0,36.2,0,no_anomaly,0.0,0,0,0,0,13.082708,80.2706681,9.5,0.0
2024-02-06T18:40:04.100Z,MISSION_0013,41,0,transit,SITE_CHE_004,13.0827108,80.2706656,10.0,19.75,3.421,0.106,4.02,-2.3466,-0.908,19.7506,0.98497,-0.01881,-0.01132,0.1713,0.1777,0.0362,-9.7684,0.7904,0.3956,0.015,0.264,3,11,0.59,0.6,0.3,24.592,17.39,92.6,42.2,20363.0,7724,7126,7110,7212,63.1,59.4,60.7,59.4,2.605,2.842,3.283,2.925,6.71,40.5,34.7,32.7,1010.86,-29.32,-0.76,1.56,31.8,41.7,36.4,0,no_anomaly,0.0,0,0,0,0,13.0827108,80.2706656,10.0,0.0
2024-02-06T18:40:04.200Z,MISSION_0013,42,0,transit,SITE_CHE_004,13.0827087,80.2706635,10.5,20.77,3.642,0.101,4.18,-2.9884,-3.049,20.7685,0.98306,-0.02085,-0.03086,0.17944,-0.0896,0.0058,-9.7756,0.0314,-0.341,0.0572,0.2643,3,15,0.69,0.91,0.3,24.577,19.68,92.5,42.2,20343.0,7430,7225,7228,7316,62.1,59.6,60.7,58.3,2.804,2.568,2.65,2.593,5.9,34.5,34.5,32.6,1011.38,-28.66,0.26,1.47,28.2,41.3,36.1,0,no_anomaly,0.0,0,0,0,0,13.0827087,80.2706635,10.5,0.0
2024-02-06T18:40:04.300Z,MISSION_0013,43,0,transit,SITE_CHE_004,13.0827105,80.2706638,11.0,21.59,3.615,0.097,4.19,3.059,-1.3092,21.5884,0.98183,0.02836,-0.00622,0.1875,0.0499,0.0895,-9.81,-0.331,-0.1869,-0.0925,0.1928,3,18,0.74,0.99,0.2,24.499,18.4,92.4,42.4,20323.0,7309,7136,7311,7206,61.0,58.5,58.5,56.7,2.957,3.032,2.685,2.645,5.63,37.4,34.5,33.1,1011.28,-36.58,1.18,1.93,32.5,46.3,37.9,0,no_anomaly,0.0,0,0,0,0,13.0827105,80.2706638,11.0,0.0
2024-02-06T18:40:04.400Z,MISSION_0013,44,0,transit,SITE_CHE_004,13.0827106,80.2706629,11.5,21.78,3.04,0.066,4.29,-0.4967,-3.853,21.7805,0.98145,0.0021,-0.03383,0.18868,0.0733,0.0462,-9.7856,-0.9116,0.4992,-0.0205,0.1285,3,16,0.59,0.81,0.33,24.624,21.2,92.3,42.1,20302.0,7233,7237,7227,7281,59.9,60.4,57.1,60.7,2.613,2.687,2.67,2.995,5.86,42.2,34.8,33.6,1011.12,-25.43,1.27,1.82,31.8,48.6,38.0,0,no_anomaly,0.0,0,0,0,0,13.0827106,80.2706629,11.5,0.0
2024-02-06T18:40:04.500Z,MISSION_0013,45,0,transit,SITE_CHE_004,13.0827046,80.2706587,12.0,19.71,2.73,0.059,4.63,-2.5459,-1.1862,19.7097,0.98499,-0.02012,-0.014,0.17087,-0.1989,-0.0683,-9.8143,-0.126,0.3155,0.4641,0.2729,3,10,0.79,0.93,0.32,24.592,18.81,92.2,42.5,20282.0,7259,7180,7142,7536,61.4,56.7,59.3,60.1,2.946,2.735,2.649,2.879,6.72,40.4,34.7,32.8,1011.16,-25.81,-0.21,1.46,30.1,45.7,36.7,0,no_anomaly,0.0,0,0,0,0,13.0827046,80.2706587,12.0,0.0
2024-02-06T18:40:04.600Z,MISSION_0013,46,0,transit,SITE_CHE_004,13.0827012,80.2706605,12.5,19.0,2.98,0.064,4.4,-4.8605,-2.3926,19.0009,0.98533,-0.03837,-0.02757,0.164,-0.0641,0.0281,-9.8608,-0.3538,-0.067,0.274,0.1991,3,13,0.63,0.86,0.22,24.55,21.37,92.1,42.0,20261.0,7409,7156,7231,7188,60.2,62.5,61.7,56.2,2.693,2.834,2.653,2.686,6.0,38.7,34.6,32.7,1011.22,-25.74,0.38,1.41,28.8,42.2,36.8,0,no_anomaly,0.0,0,0,0,0,13.0827012,80.2706605,12.5,0.0
2024-02-06T18:40:04.700Z,MISSION_0013,47,0,transit,SITE_CHE_004,13.0826976,80.2706631,13.0,19.12,3.403,0.109,4.11,-2.9582,-0.1297,19.1199,0.98579,-0.02527,-0.0054,0.166,0.0419,0.0031,-9.8672,-0.5558,-0.4843,-0.1919,0.1858,3,19,0.86,0.8,0.41,24.547,16.28,92.0,41.6,20241.0,7235,7245,7456,7346,59.6,57.6,57.2,58.1,2.895,2.949,2.868,2.847,7.17,38.5,34.6,32.8,1010.49,-27.29,0.22,1.23,28.0,39.9,36.8,0,no_anomaly,0.0,0,0,0,0,13.0826976,80.2706631,13.0,0.0
2024-02-06T18:40:04.800Z,MISSION_0013,48,0,transit,SITE_CHE_004,13.0826994,80.2706662,13.5,19.01,3.216,0.138,3.76,4.9265,0.6337,19.0078,0.98539,0.04148,0.01255,0.16472,0.1428,-0.0325,-9.8474,-0.3627,0.9165,0.3103,0.2487,3,18,0.75,0.76,0.36,24.566,23.09,91.9,42.6,20221.0,7450,7409,7345,7207,55.9,59.9,60.0,59.7,2.745,2.706,2.889,2.861,6.38,41.5,34.8,33.1,1011.08,-26.64,0.07,1.14,32.7,43.6,36.1,0,no_anomaly,0.0,0,0,0,0,13.0826994,80.2706662,13.5,0.0
2024-02-06T18:40:04.900Z,MISSION_0013,49,0,transit,SITE_CHE_004,13.0826946,80.2706573,14.0,19.08,3.437,0.085,4.79,2.6075,-1.0198,19.0842,0.98584,0.02391,-0.005,0.16592,0.137,0.0528,-9.8394,-0.1655,-0.2653,-0.0242,0.1522,3,10,0.69,0.64,0.24,24.589,20.7,91.8,42.6,20200.0,7357,7437,7297,7090,58.9,59.8,60.7,58.9,3.04,2.833,2.944,2.727,6.15,34.6,34.4,32.8,1011.36,-27.53,-0.85,1.76,29.5,39.9,39.0,0,no_anomaly,0.0,0,0,0,0,13.0826946,80.2706573,14.0,0.0
2024-02-06T18:40:05.000Z,MISSION_0013,50,0,transit,SITE_CHE_004,13.082698,80.2706588,14.5,21.38,3.324,0.079,4.6,-1.3027,-1.5653,21.3829,0.98251,-0.00864,-0.01553,0.18534,-0.0259,-0.054,-9.7926,0.0043,0.0764,0.1832,0.2569,3,15,0.86,0.83,0.3,24.559,22.55,91.7,42.6,20180.0,7411,7246,7154,7250,60.8,54.4,58.1,59.2,2.746,2.641,2.815,2.754,6.98,43.8,34.5,33.2,1011.12,-30.36,-0.3,1.31,30.9,47.6,34.3,0,no_anomaly,0.0,0,0,0,0,13.082698,80.2706588,14.5,0.0
2024-02-06T18:40:05.100Z,MISSION_0013,51,0,transit,SITE_CHE_004,13.0826974,80.2706599,15.0,22.64,3.348,0.042,4.47,0.2436,-4.3694,22.637,0.97982,0.00956,-0.03696,0.1962,0.0461,0.0004,-9.8368,-0.1039,-0.1308,0.0278,0.2972,3,15,0.72,1.03,0.36,24.579,16.31,91.6,42.2,20160.0,7313,7323,7439,7034,61.5,58.3,57.5,60.8,2.752,2.814,2.844,2.799,8.06,31.8,34.3,32.9,1011.11,-28.91,0.14,1.62,30.8,49.0,35.0,0,no_anomaly,0.0,0,0,0,0,13.0826974,80.2706599,15.0,0.0
2024-02-06T18:40:05.200Z,MISSION_0013,52,0,transit,SITE_CHE_004,13.0826992,80.2706602,15.2,23.29,3.428,0.132,4.44,-8.5329,-1.3473,23.29,0.97681,-0.07049,-0.0265,0.20042,-0.1957,0.0051,-9.7302,-0.3356,0.3048,0.7031,0.2646,3,16,0.67,1.03,0.35,24.572,20.62,91.5,42.5,20139.0,7203,7337,7178,7286,59.1,59.1,59.1,64.2,2.792,2.823,2.942,2.599,6.79,34.4,34.4,33.7,1010.77,-27.63,0.82,1.2,25.9,39.1,37.3,0,no_anomaly,0.0,0,0,0,0,13.0826992,80.2706602,15.2,0.0
2024-02-06T18:40:05.300Z,MISSION_0013,53,0,transit,SITE_CHE_004,13.0826938,80.2706626,15.2,23.82,3.312,0.049,4.22,4.691,-2.4212,23.8173,0.97726,0.04439,-0.01221,0.20698,0.0908,-0.0174,-9.8023,0.0646,-0.5666,-0.0059,0.2495,3,19,0.79,0.95,0.41,24.609,17.23,91.5,43.0,20119.0,7194,7322,7475,7452,55.8,57.9,57.7,59.4,2.76,2.591,2.968,2.466,6.85,32.3,34.8,32.8,1010.82,-31.04,0.7,1.0,26.3,40.4,37.3,0,no_anomaly,0.0,0,0,0,0,13.0826938,80.2706626,15.2,0.0
2024-02-06T18:40:05.400Z,MISSION_0013,54,0,transit,SITE_CHE_004,13.0826946,80.2706616,15.2,23.64,3.395,0.176,4.32,-1.9577,-2.127,23.6352,0.97856,-0.01292,-0.02166,0.20442,0.1753,0.029,-9.8378,0.2681,-0.295,-0.4691,0.236,3,10,0.73,0.8,0.2,24.522,23.84,91.4,42.2,20099.0,7245,7368,7410,7016,58.2,56.6,59.1,60.8,2.867,2.745,2.843,2.908,6.79,42.9,34.8,33.3,1010.99,-25.44,-0.35,1.67,28.4,45.0,37.3,0,no_anomaly,0.0,0,0,0,0,13.0826946,80.2706616,15.2,0.0
2024-02-06T18:40:05.500Z,MISSION_0013,55,0,transit,SITE_CHE_004,13.0826967,80.2706635,15.2,23.36,3.25,0.042,4.08,3.3198,-2.0175,23.3631,0.97862,0.03193,-0.01137,0.20285,-0.2573,-0.0619,-9.895,-1.2135,-0.4137,0.1627,0.2443,3,10,0.67,0.69,0.2,24.566,14.62,91.3,42.9,20078.0,7346,7378,7555,7261,58.2,58.5,60.0,59.1,2.72,2.962,2.773,2.738,6.78,35.3,34.5,32.8,1010.84,-32.42,-0.31,1.23,25.9,48.5,34.1,0,no_anomaly,0.0,0,0,0,0,13.0826967,80.2706635,15.2,0.0
2024-02-06T18:40:05.600Z,MISSION_0013,56,0,transit,SITE_CHE_004,13.0827008,80.270669,15.2,23.56,3.534,0.107,3.45,-1.2626,-5.3333,23.5599,0.97792,-0.00128,-0.04779,0.20342,-0.1873,0.037,-9.9006,0.2449,-0.4458,0.0445,0.2777,3,11,0.66,0.69,0.3,24.624,22.29,91.2,42.3,20058.0,7081,7231,7370,7344,61.5,60.3,59.0,57.7,2.749,3.142,2.848,2.612,6.21,41.5,34.7,32.5,1010.89,-29.74,0.63,1.92,30.7,48.9,36.6,0,no_anomaly,0.0,0,0,0,0,13.0827008,80.270669,15.2,0.0
2024-02-06T18:40:05.700Z,MISSION_0013,57,0,transit,SITE_CHE_004,13.0827016,80.270664,15.2,22.85,3.581,0.153,4.01,-5.4606,-3.8841,22.8508,0.97883,-0.03996,-0.04261,0.19617,0.3643,-0.0041,-9.7849,-0.0004,-0.0445,-0.325,0.2455,3,19,0.7,0.89,0.29,24.607,18.07,91.1,41.8,20038.0,7310,7174,7047,7530,54.7,56.8,60.7,59.4,2.974,2.794,2.81,2.682,6.51,44.7,34.5,32.6,1011.12,-32.05,0.07,1.49,26.7,46.2,36.6,0,no_anomaly,0.0,0,0,0,0,13.0827016,80.270664,15.2,0.0
2024-02-06T18:40:05.800Z,MISSION_0013,58,0,transit,SITE_CHE_004,13.0826973,80.2706622,15.2,19.93,3.249,0.14,4.22,-3.2937,-0.6793,19.9343,0.98451,-0.02728,-0.01081,0.17284,0.1595,0.029,-9.7573,-0.2832,-0.5145,-0.0239,0.1424,3,12,0.59,0.81,0.24,24.554,22.72,91.0,43.5,20017.0,7269,7149,7385,7325,57.1,56.2,56.9,58.3,2.776,2.622,2.89,2.776,6.89,40.9,34.2,32.0,1010.65,-32.76,0.79,1.74,27.1,40.2,38.0,0,no_anomaly,0.0,0,0,0,0,13.0826973,80.2706622,15.2,0.0
2024-02-06T18:40:05.900Z,MISSION_0013,59,0,transit,SITE_CHE_004,13.082698,80.2706643,15.2,20.99,3.364,0.177,3.98,-1.7191,-2.5642,20.9865,0.98298,-0.01067,-0.02473,0.18172,0.1301,-0.0279,-9.8675,-0.4124,-0.315,0.277,0.2731,3,11,0.65,1.12,0.23,24.426,19.57,90.9,42.6,19997.0,7235,7312,7010,7366,58.0,64.3,56.4,59.2,2.804,2.755,2.842,2.517,7.02,29.6,34.3,34.0,1010.93,-24.88,1.21,1.12,30.4,43.4,39.5,0,no_anomaly,0.0,0,0,0,0,13.082698,80.2706643,15.2,0.0
2024-02-06T18:40:06.000Z,MISSION_0013,60,0,transit,SITE_CHE_004,13.0826983,80.2706621,15.2,22.25,3.189,0.123,4.22,4.1116,-1.8,22.2535,0.98034,0.03822,-0.00848,0.19338,-0.1236,0.0318,-9.8747,-0.0147,0.5446,-0.2504,0.1306,3,13,0.81,0.84,0.39,24.621,17.25,90.8,42.9,19977.0,7328,7268,7287,7310,58.6,60.1,59.8,60.9,2.639,2.882,2.817,2.939,6.62,34.9,34.4,33.2,1010.99,-28.01,0.7,1.31,30.0,39.7,37.0,0,no_anomaly,0.0,0,0,0,0,13.0826983,80.2706621,15.2,0.0
2024-02-06T18:40:06.100Z,MISSION_0013,61,0,transit,SITE_CHE_004,13.0826945,80.2706556,15.2,22.43,2.715,0.201,4.98,0.1045,0.25,22.4298,0.9809,0.00047,0.00232,0.19449,-0.073,-0.0301,-9.8189,0.7717,-0.4527,-0.2308,0.2218,3,11,0.58,1.02,0.2,24.521,19.23,90.7,41.8,19956.0,7329,7488,7162,7109,62.4,58.8,58.1,60.9,2.656,2.803,3.041,2.886,7.64,34.4,34.1,32.9,1011.14,-34.73,0.75,1.7,28.7,47.2,35.6,0,no_anomaly,0.0,0,0,0,0,13.0826945,80.2706556,15.2,0.0
2024-02-06T18:40:06.200Z,MISSION_0013,62,0,transit,SITE_CHE_004,13.0826945,80.2706556,15.2,23.27,2.6,0.118,4.98,-1.2864,0.519,23.2746,0.97936,-0.01191,0.00217,0.20175,-0.1049,-0.0331,-9.8276,0.1061,-0.4239,-0.0054,0.3707,3,18,0.81,1.01,0.45,24.577,22.07,90.6,43.3,19936.0,7369,7392,7530,7339,60.6,58.1,62.2,55.7,2.638,2.759,2.949,3.049,6.39,39.0,34.4,34.0,1010.86,-28.65,-0.85,2.13,31.6,41.4,37.4,0,no_anomaly,0.0,0,0,0,0,13.0826945,80.2706556,15.2,0.0
2024-02-06T18:40:06.300Z,MISSION_0013,63,0,transit,SITE_CHE_004,13.0826977,80.2706539,15.2,21.44,2.655,0.031,5.14,-3.2764,-2.6826,21.4377,0.98201,-0.02373,-0.02831,0.18521,-0.0014,-0.0117,-9.7874,0.1129,0.9634,0.0912,0.3452,3,13,0.61,0.78,0.2,24.566,13.3,90.5,42.7,19916.0,7307,7253,7646,7239,58.9,57.9,56.2,59.2,2.867,2.527,2.576,2.783,6.49,38.4,34.6,33.5,1010.79,-28.02,-0.52,1.72,29.4,43.6,39.0,0,no_anomaly,0.0,0,0,0,0,13.0826977,80.2706539,15.2,0.0
2024-02-06T18:40:06.400Z,MISSION_0013,64,1,transit,SITE_CHE_004,13.0827013,80.2706544,15.2,22.87,2.491,0.122,5.08,-2.4851,2.2854,22.8747,0.97963,-0.0252,0.01524,0.19863,0.0031,0.0056,-9.7627,1.3035,-0.9102,-0.3871,0.162,3,14,0.66,0.86,0.25,24.645,24.04,90.4,42.9,19895.0,7583,7308,7177,7538,60.5,62.2,62.0,64.1,2.78,2.393,2.825,2.761,7.33,30.8,34.5,33.3,1010.72,-28.93,-1.01,1.46,26.2,46.0,37.2,0,no_anomaly,0.0,0,0,0,0,13.0827013,80.2706544,15.2,0.0
2024-02-06T18:40:06.500Z,MISSION_0013,65,1,transit,SITE_CHE_004,13.0827004,80.2706583,15.2,23.36,2.789,0.238,4.64,3.0123,0.1317,23.3574,0.97897,0.02551,0.00645,0.20232,-0.0585,0.023,-9.8203,-0.4504,-0.0607,-0.0521,0.3132,3,17,0.56,0.79,0.31,24.445,25.44,90.3,42.2,19875.0,7203,7413,7166,7167,59.5,60.4,61.6,59.5,2.613,2.914,2.73,2.618,5.98,39.1,34.6,33.4,1010.66,-27.1,1.89,1.39,30.2,48.9,38.9,0,no_anomaly,0.0,0,0,0,0,13.0827004,80.2706583,15.2,0.0
2024-02-06T18:40:06.600Z,MISSION_0013,66,1,transit,SITE_CHE_004,13.0827011,80.2706556,15.2,22.7,2.557,0.143,4.94,4.3731,-3.347,22.6986,0.97909,0.04313,-0.02111,0.19766,-0.3314,-0.0313,-9.7795,-0.3518,-0.1139,-0.0244,0.1922,3,15,0.76,0.83,0.26,24.466,21.16,90.2,42.7,19854.0,7409,7223,7184,7124,59.6,61.2,59.5,59.6,2.879,2.565,2.764,2.939,6.23,35.9,34.5,34.3,1010.95,-37.96,0.07,1.2,31.7,47.5,39.1,0,no_anomaly,0.0,0,0,0,0,13.0827011,80.2706556,15.2,0.0
2024-02-06T18:40:06.700Z,MISSION_0013,67,1,transit,SITE_CHE_004,13.0827054,80.2706595,15.2,24.34,2.494,0.123,4.55,-1.0227,-2.0025,24.3393,0.97737,-0.00504,-0.01896,0.21061,0.0332,0.0394,-9.8585,0.0489,-0.679,-0.2053,0.2032,3,11,0.56,0.71,0.22,24.535,20.95,90.2,43.4,19834.0,7465,7644,7514,7170,61.6,59.9,58.3,58.8,2.617,2.965,2.608,3.008,5.59,38.5,34.1,33.0,1011.1,-31.56,-0.38,1.44,27.6,40.8,39.6,0,no_anomaly,0.0,0,0,0,0,13.0827054,80.2706595,15.2,0.0
2024-02-06T18:40:06.800Z,MISSION_0013,68,1,transit,SITE_CHE_004,13.0827052,80.2706611,15.2,23.46,2.485,0.067,4.37,-3.0862,-1.6813,23.4625,0.97873,-0.02338,-0.01983,0.20284,-0.1723,-0.0586,-9.7854,-0.0511,0.0865,-0.5132,0.2863,3,14,0.59,0.84,0.23,24.615,20.11,90.1,41.8,19814.0,7484,7385,7427,7145,61.7,61.2,58.9,61.7,2.926,2.701,2.753,2.864,7.35,39.6,34.4,33.0,1010.74,-30.51,1.17,1.56,28.5,45.0,38.4,0,no_anomaly,0.0,0,0,0,0,13.0827052,80.2706611,15.2,0.0
2024-02-06T18:40:06.900Z,MISSION_0013,69,1,transit,SITE_CHE_004,13.0827058,80.2706608,15.2,23.92,2.39,0.089,4.41,2.4157,-1.4223,23.9165,0.97795,0.02319,-0.00777,0.20739,0.2417,0.0813,-9.726,-0.5292,0.296,-0.2167,0.2168,3,12,0.63,0.83,0.2,24.56,18.16,90.0,42.1,19793.0,7287,7505,7439,7596,59.3,58.3,59.9,61.3,2.855,2.646,2.742,2.91,6.52,38.9,34.6,32.5,1010.88,-26.94,-0.11,2.16,30.8,41.3,36.3,0,no_anomaly,0.0,0,0,0,0,13.0827058,80.2706608,15.2,0.0
2024-02-06T18:40:07.000Z,MISSION_0013,70,1,transit,SITE_CHE_004,13.0827064,80.2706614,15.2,23.28,2.406,0.147,4.36,-2.4305,-2.0531,23.277,0.97914,-0.01716,-0.02182,0.20129,0.0623,-0.0088,-9.7686,0.0964,0.6818,-0.1532,0.3058,3,10,0.6,0.9,0.26,24.575,17.42,89.9,42.5,19773.0,7376,7201,7311,7455,60.5,58.9,57.3,58.1,2.743,2.788,2.849,2.358,7.42,34.2,34.7,33.5,1011.27,-36.86,-0.29,1.48,32.9,44.7,38.7,0,no_anomaly,0.0,0,0,0,0,13.0827064,80.2706614,15.2,0.0
2024-02-06T18:40:07.100Z,MISSION_0013,71,1,transit,SITE_CHE_004,13.082704,80.2706569,15.2,24.18,2.793,0.06,4.82,2.3292,-4.7686,24.1837,0.97659,0.02857,-0.03642,0.21008,-0.0135,0.01,-9.8309,0.9976,-0.5648,-0.1336,0.1664,3,14,0.68,1.19,0.22,24.551,20.13,89.8,42.6,19753.0,7276,7246,7189,7246,59.6,56.8,57.5,60.9,2.522,2.9,2.724,2.889,6.48,29.4,34.1,32.0,1010.6,-36.66,-0.25,1.73,32.0,49.8,37.9,0,no_anomaly,0.0,0,0,0,0,13.082704,80.2706569,15.2,0.0
2024-02-06T18:40:07.200Z,MISSION_0013,72,1,transit,SITE_CHE_004,13.0827035,80.270656,15.2,23.15,2.729,0.1,4.92,-1.8562,-2.0729,23.1496,0.97943,-0.01224,-0.02097,0.2003,0.2215,0.0408,-9.8219,-0.1663,0.5992,-0.2712,0.307,3,20,0.6,0.92,0.25,24.462,18.82,89.7,42.7,19732.0,7079,6935,7180,7384,59.4,57.9,57.0,62.6,2.695,2.651,2.879,2.993,7.34,42.1,34.4,33.5,1010.75,-26.92,-0.13,1.48,28.7,43.1,36.5,0,no_anomaly,0.0,0,0,0,0,13.0827035,80.270656,15.2,0.0
2024-02-06T18:40:07.300Z,MISSION_0013,73,1,transit,SITE_CHE_004,13.0827024,80.2706574,15.2,21.91,3.06,0.219,4.75,2.0051,-3.1312,21.9073,0.98117,0.02236,-0.0235,0.19038,-0.0746,0.1039,-9.7875,0.1119,0.1968,-0.0173,0.2361,3,11,0.57,1.06,0.24,24.596,16.9,89.6,41.8,19712.0,7252,7411,7489,7549,58.4,59.9,59.6,56.1,2.778,2.846,2.792,2.753,6.77,39.7,34.2,31.9,1010.9,-32.5,-1.0,1.75,31.2,40.4,34.9,0,no_anomaly,0.0,0,0,0,0,13.0827024,80.2706574,15.2,0.0
2024-02-06T18:40:07.400Z,MISSION_0013,74,1,transit,SITE_CHE_004,13.0827016,80.2706576,15.2,24.72,2.654,0.16,4.72,-0.8929,-1.8425,24.7153,0.9767,-0.00417,-0.01737,0.21386,-0.0985,-0.0022,-9.843,-0.3018,0.4739,0.1157,0.2932,3,11,0.6,1.05,0.23,24.539,24.03,89.5,42.1,19692.0,7436,7403,7339,7598,61.5,58.6,61.3,55.8,2.837,3.005,2.682,2.745,6.52,33.3,34.3,33.1,1010.81,-29.98,-0.7,1.81,25.5,47.3,34.3,0,no_anomaly,0.0,0,0,0,0,13.0827016,80.2706576,15.2,0.0
2024-02-06T18:40:07.500Z,MISSION_0013,75,1,transit,SITE_CHE_004,13.0827005,80.2706584,15.2,25.34,2.717,0.135,4.64,3.1179,-2.5912,25.3426,0.9749,0.03149,-0.01609,0.21982,0.1092,-0.0406,-9.7929,0.2323,0.4116,-0.3068,0.173,3,13,0.69,1.21,0.25,24.529,16.84,89.4,43.2,19671.0,7278,7321,7509,7309,57.8,61.2,57.1,58.4,2.675,2.991,2.871,2.832,7.31,45.7,34.5,32.5,1010.92,-28.82,-0.54,1.64,31.3,46.5,36.7,0,no_anomaly,0.0,0,0,0,0,13.0827005,80.2706584,15.2,0.0
2024-02-06T18:40:07.600Z,MISSION_0013,76,1,transit,SITE_CHE_004,13.0826981,80.2706605,15.2,25.76,2.81,0.034,4.41,2.7033,-5.5076,25.761,0.97319,0.03368,-0.04157,0.2237,0.07,0.0114,-9.7293,-0.6894,0.115,0.3831,0.2189,3,16,0.78,1.02,0.28,24.566,15.78,89.3,43.2,19651.0,7548,7404,7469,7329,61.8,58.7,60.9,59.0,2.742,2.517,2.721,2.801,7.12,40.6,34.5,33.2,1010.98,-30.95,0.91,1.89,31.6,45.4,39.1,0,no_anomaly,0.0,0,0,0,0,13.0826981,80.2706605,15.2,0.0
2024-02-06T18:40:07.700Z,MISSION_0013,77,1,orbit_base,SITE_CHE_004,13.0826461,80.2707591,15.5,26.01,2.482,0.114,8.91,-3.5471,-1.9684,26.0131,0.97385,-0.02629,-0.02369,0.2244,0.2087,-0.0837,-9.8718,-0.8354,0.3021,-0.0349,0.2759,3,16,0.77,1.0,0.26,24.535,18.38,89.2,42.9,19631.0,7177,7217,6969,7298,61.5,57.0,59.7,59.6,2.938,2.919,2.855,2.591,6.64,33.4,34.1,32.8,1011.11,-31.72,0.76,1.86,27.1,40.7,36.1,0,no_anomaly,0.0,0,0,0,0,13.0826461,80.2707591,15.5,0.0
2024-02-06T18:40:07.800Z,MISSION_0013,78,1,orbit_base,SITE_CHE_004,13.0826444,80.2707575,15.8,27.65,2.117,0.158,8.91,1.8103,0.4161,27.6513,0.97091,0.01447,0.0073,0.23888,0.0262,-0.0581,-9.7966,-0.1122,-1.3733,-0.5143,0.2304,3,14,0.84,1.14,0.22,24.537,17.69,89.1,41.9,19610.0,7425,7407,7247,7129,59.6,58.8,55.6,59.9,2.894,2.846,2.617,2.876,5.95,44.9,34.5,33.0,1011.02,-28.91,-1.55,1.11,27.4,42.7,38.9,0,no_anomaly,0.0,0,0,0,0,13.0826444,80.2707575,15.8,0.0
2024-02-06T18:40:07.900Z,MISSION_0013,79,1,orbit_base,SITE_CHE_004,13.0826427,80.2707558,16.1,26.97,1.981,0.095,8.91,6.2563,-2.2636,26.9671,0.97055,0.05765,-0.00646,0.23382,0.0662,0.0325,-9.7981,0.13,0.5038,-0.5944,0.239,3,10,0.5,0.95,0.2,24.462,15.91,89.0,42.7,19590.0,7350,7164,7386,7450,56.9,61.6,62.4,61.1,2.716,2.613,2.971,2.755,6.44,44.4,34.6,33.3,1011.08,-28.31,0.49,1.43,31.8,48.7,36.3,0,no_anomaly,0.0,0,0,0,0,13.0826427,80.2707558,16.1,0.0
2024-02-06T18:40:08.000Z,MISSION_0013,80,1,orbit_base,SITE_CHE_004,13.082641,80.270754,16.4,27.81,2.032,0.183,8.91,3.1853,-1.4284,27.8085,0.97017,0.02997,-0.00542,0.24052,0.0871,0.0435,-9.8813,-0.4007,0.1597,0.0535,0.2307,3,11,0.84,0.88,0.37,24.545,20.59,89.0,43.0,19570.0,7175,7392,7310,7268,57.8,56.0,57.6,55.8,2.803,2.673,2.641,3.01,6.61,39.4,34.4,33.1,1010.91,-32.93,-0.58,1.24,28.2,39.4,37.9,0,no_anomaly,0.0,0,0,0,0,13.082641,80.270754,16.4,0.0
2024-02-06T18:40:08.100Z,MISSION_0013,81,1,orbit_base,SITE_CHE_004,13.0826394,80.2707522,16.7,30.25,1.875,0.097,8.91,1.4057,-4.0092,30.2506,0.96458,0.02096,-0.03057,0.26117,-0.0472,0.072,-9.7904,0.1954,0.3707,-0.0935,0.2137,3,18,0.67,1.1,0.3,24.547,19.97,88.9,42.7,19549.0,7650,7518,7403,7262,63.6,60.3,60.2,63.6,2.589,2.706,2.677,2.707,6.64,36.3,34.8,32.8,1010.72,-30.93,0.01,1.09,29.2,43.4,34.1,0,no_anomaly,0.0,0,0,0,0,13.0826394,80.2707522,16.7,0.0
2024-02-06T18:40:08.200Z,MISSION_0013,82,1,orbit_base,SITE_CHE_004,13.0826379,80.2707504,17.0,28.46,2.282,0.096,8.91,-2.3512,-2.9018,28.4611,0.96893,-0.01366,-0.02958,0.24519,-0.1145,0.1505,-9.7943,-0.2326,-0.0422,-0.1172,0.22,3,17,0.72,0.85,0.28,24.472,22.69,88.8,42.4,19529.0,7390,7324,7392,7380,58.6,60.1,62.7,57.5,2.661,2.623,3.056,2.843,7.21,35.0,34.2,32.9,1011.13,-31.07,-0.55,1.66,29.4,44.8,35.8,0,no_anomaly,0.0,0,0,0,0,13.0826379,80.2707504,17.0,0.0
2024-02-06T18:40:08.300Z,MISSION_0013,83,1,orbit_base,SITE_CHE_004,13.0826364,80.2707485,17.3,28.82,2.39,0.123,8.91,-0.9553,-3.8914,28.8228,0.96801,0.00038,-0.03496,0.24846,-0.1306,-0.1134,-9.8943,0.6742,-0.2617,0.4198,0.2149,3,10,0.61,1.29,0.27,24.486,18.67,88.7,42.4,19509.0,7404,7477,7160,7401,60.4,58.9,61.6,62.7,2.816,2.702,2.781,2.546,7.57,39.9,34.5,31.8,1011.04,-34.68,0.53,1.41,33.8,44.0,36.5,0,no_anomaly,0.0,0,0,0,0,13.0826364,80.2707485,17.3,0.0
2024-02-06T18:40:08.400Z,MISSION_0013,84,1,orbit_base,SITE_CHE_004,13.082635,80.2707466,17.6,30.12,2.484,0.116,8.91,-4.4059,-1.458,30.1244,0.96498,-0.03381,-0.02227,0.25918,-0.102,-0.0417,-9.7914,-0.7239,-0.4645,0.0129,0.1853,3,13,0.57,1.1,0.29,24.494,18.99,88.6,42.8,19488.0,7327,7112,7588,7284,58.3,60.0,59.3,59.1,2.899,2.545,2.866,2.993,5.8,35.2,34.4,33.9,1010.52,-29.69,-1.25,1.51,28.4,42.4,36.7,0,no_anomaly,0.0,0,0,0,0,13.082635,80.2707466,17.6,0.0
2024-02-06T18:40:08.500Z,MISSION_0013,85,1,orbit_base,SITE_CHE_004,13.0826336,80.2707446,17.9,27.78,2.396,0.027,8.91,0.0935,-0.4587,27.7757,0.97076,0.00175,-0.00369,0.24002,0.1678,-0.0148,-9.8089,0.1601,-0.1987,-0.4273,0.2836,3,13,0.64,0.73,0.28,24.47,21.08,88.5,42.6,19468.0,7464,7074,7356,7199,59.9,57.1,61.4,58.5,2.78,2.604,3.007,2.679,7.31,46.6,34.3,32.2,1010.9,-37.61,0.04,1.49,24.6,46.4,33.7,0,no_anomaly,0.0,0,0,0,0,13.0826336,80.2707446,17.9,0.0
2024-02-06T18:40:08.600Z,MISSION_0013,86,1,orbit_base,SITE_CHE_004,13.0826323,80.2707426,18.2,29.28,2.143,0.153,8.91,4.7072,-6.7583,29.2825,0.96442,0.05455,-0.04662,0.25446,0.1853,0.0117,-9.8703,0.4973,0.3272,0.3168,0.2218,3,17,0.62,0.9,0.22,24.475,15.77,88.4,43.3,19448.0,7409,7440,7342,7327,58.0,57.9,59.6,59.5,2.663,2.724,2.778,2.756,6.73,34.5,34.3,32.8,1010.97,-26.5,-1.2,1.46,32.0,46.1,39.5,0,no_anomaly,0.0,0,0,0,0,13.0826323,80.2707426,18.2,0.0
2024-02-06T18:40:08.700Z,MISSION_0013,87,1,orbit_base,SITE_CHE_004,13.082631,80.2707406,18.5,28.51,2.339,0.245,8.91,4.3885,-2.9923,28.5108,0.96792,0.04352,-0.01586,0.24695,-0.1011,-0.0821,-9.8031,-0.0784,0.5353,-0.3909,0.2323,3,17,0.67,1.1,0.33,24.477,23.04,88.3,43.6,19427.0,7463,7377,7271,7441,61.9,58.7,60.4,55.5,2.787,2.735,2.847,2.585,6.74,26.1,34.2,32.2,1011.14,-27.08,0.04,1.2,27.9,42.7,36.5,0,no_anomaly,0.0,0,0,0,0,13.082631,80.2707406,18.5,0.0
2024-02-06T18:40:08.800Z,MISSION_0013,88,1,orbit_base,SITE_CHE_004,13.0826299,80.2707385,18.8,27.95,2.616,0.118,8.91,3.6485,-0.6009,27.948,0.96986,0.03216,0.0026,0.24152,0.1101,0.016,-9.7397,-0.0848,-0.4178,-0.0094,0.3048,3,15,0.87,0.88,0.33,24.532,15.63,88.2,43.2,19407.0,7557,7132,7153,7361,61.4,57.3,60.1,57.8,2.873,2.768,2.404,2.792,6.75,40.4,34.6,33.2,1011.09,-31.44,1.72,1.04,29.7,45.0,41.1,0,no_anomaly,0.0,0,0,0,0,13.0826299,80.2707385,18.8,0.0
2024-02-06T18:40:08.900Z,MISSION_0013,89,1,orbit_base,SITE_CHE_004,13.0826287,80.2707363,19.1,26.34,2.177,0.085,8.91,-2.0929,-3.6806,26.3431,0.97316,-0.01046,-0.03542,0.22714,0.0526,-0.06,-9.9165,-0.0081,-0.2881,0.1159,0.2471,3,18,0.63,0.91,0.2,24.504,15.36,88.1,43.0,19386.0,7480,7565,7243,7358,62.4,57.4,62.8,60.4,2.763,2.896,2.904,2.77,7.59,44.6,34.3,32.9,1010.78,-31.4,-0.48,1.54,31.4,48.4,40.5,0,no_anomaly,0.0,0,0,0,0,13.0826287,80.2707363,19.1,0.0
2024-02-06T18:40:09.000Z,MISSION_0013,90,1,orbit_base,SITE_CHE_004,13.0826277,80.2707342,19.4,25.3,1.973,0.141,8.91,4.3069,-0.8841,25.2966,0.97495,0.03835,0.0007,0.21909,0.0454,-0.0128,-9.763,0.2121,-0.0576,0.4024,0.1565,3,16,0.64,0.82,0.2,24.566,20.09,88.0,42.8,19366.0,7095,7563,7130,7320,62.4,59.2,59.2,57.9,2.896,2.942,2.955,2.98,7.0,34.8,34.3,33.0,1011.58,-33.61,0.63,1.76,33.4,42.9,40.9,0,no_anomaly,0.0,0,0,0,0,13.0826277,80.2707342,19.4,0.0
2024-02-06T18:40:09.100Z,MISSION_0013,91,1,orbit_base,SITE_CHE_004,13.0826267,80.270732,19.7,24.69,2.206,0.065,8.91,3.7367,0.6674,24.694,0.97638,0.0306,0.01266,0.21353,0.0348,-0.0303,-9.8698,-0.2407,-0.4726,0.0162,0.2418,3,15,0.85,1.31,0.46,24.563,21.07,87.9,42.3,19346.0,7306,7194,7352,7275,58.1,59.2,61.0,58.1,2.502,2.922,2.83,2.665,6.89,43.1,34.4,33.0,1011.04,-29.04,-0.61,1.15,29.2,45.7,35.9,0,no_anomaly,0.0,0,0,0,0,13.0826267,80.270732,19.7,0.0
2024-02-06T18:40:09.200Z,MISSION_0013,92,1,orbit_base,SITE_CHE_004,13.0826258,80.2707298,20.0,24.48,2.107,0.114,8.91,-4.2145,-2.3448,24.4809,0.97656,-0.03159,-0.02778,0.21109,-0.0955,-0.0046,-9.8936,-0.4552,0.2211,-0.1004,0.1998,3,15,0.74,1.15,0.23,24.425,23.51,87.8,42.9,19325.0,7015,7123,7368,7331,59.9,59.2,60.4,61.5,2.994,2.73,2.896,2.775,6.59,42.1,34.2,33.2,1011.37,-33.03,-1.58,1.41,33.7,48.9,35.9,0,no_anomaly,0.0,0,0,0,0,13.0826258,80.2707298,20.0,0.0
2024-02-06T18:40:09.300Z,MISSION_0013,93,1,orbit_base,SITE_CHE_004,13.0826249,80.2707276,20.3,22.64,1.724,0.15,8.91,4.802,-3.7032,22.6389,0.97891,0.04739,-0.02344,0.19733,0.1488,0.0305,-9.8108,0.1138,0.2,0.9766,0.2759,3,19,0.59,0.82,0.29,24.623,20.59,87.8,42.4,19305.0,7164,7352,7410,7305,60.4,61.4,58.6,58.4,2.823,2.905,2.745,2.924,6.99,47.3,34.1,33.5,1011.4,-28.68,0.98,1.58,31.3,47.3,36.5,0,no_anomaly,0.0,0,0,0,0,13.0826249,80.2707276,20.3,0.0
2024-02-06T18:40:09.400Z,MISSION_0013,94,1,orbit_base,SITE_CHE_004,13.0826241,80.2707253,20.6,22.75,1.951,0.024,8.91,-2.7017,-2.8853,22.7456,0.9799,-0.01814,-0.02932,0.19649,0.3362,-0.0153,-9.8079,-0.5273,-1.1886,0.3432,0.2917,3,20,0.64,0.98,0.2,24.409,22.91,87.7,43.4,19285.0,7419,7099,7259,7437,63.1,58.8,59.3,58.7,3.092,2.849,2.893,2.913,6.53,33.4,34.6,32.9,1010.83,-29.49,1.41,1.75,29.4,43.5,40.3,0,no_anomaly,0.0,0,0,0,0,13.0826241,80.2707253,20.6,0.0
2024-02-06T18:40:09.500Z,MISSION_0013,95,1,orbit_base,SITE_CHE_004,13.0826234,80.270723,20.9,22.79,1.96,0.053,8.91,1.4947,-0.1095,22.7866,0.98021,0.01298,0.00164,0.19754,-0.0965,-0.0286,-9.7921,1.0452,-0.0672,0.0398,0.176,3,13,0.66,0.74,0.35,24.478,18.95,87.6,42.4,19264.0,7187,7384,7396,7206,60.4,57.6,62.3,58.5,2.78,2.72,3.077,2.919,7.1,42.1,34.4,32.5,1010.91,-33.08,2.09,1.33,28.5,41.9,33.8,0,no_anomaly,0.0,0,0,0,0,13.0826234,80.270723,20.9,0.0
2024-02-06T18:40:09.600Z,MISSION_0013,96,1,orbit_base,SITE_CHE_004,13.0826227,80.2707207,21.2,23.02,2.123,0.138,8.91,1.6857,-2.528,23.0226,0.97948,0.01881,-0.01868,0.19981,0.0963,-0.0251,-9.7989,0.4503,0.2449,-0.0777,0.2072,3,13,0.51,0.96,0.2,24.381,20.67,87.5,42.6,19244.0,7199,7258,7152,7152,59.1,58.0,57.7,56.3,2.83,2.843,2.59,2.981,6.7,37.1,34.3,31.9,1010.87,-33.86,-1.51,1.89,30.1,49.1,40.4,0,no_anomaly,0.0,0,0,0,0,13.0826227,80.2707207,21.2,0.0
2024-02-06T18:40:09.700Z,MISSION_0013,97,1,orbit_base,SITE_CHE_004,13.0826221,80.2707184,21.5,23.12,1.617,0.114,8.91,7.7103,-1.7516,23.1223,0.97717,0.06892,-0.00147,0.20094,0.2582,-0.0453,-9.8053,-0.2801,-1.0107,0.1451,0.2075,3,18,0.79,0.91,0.23,24.497,14.28,87.4,43.2,19224.0,7239,7351,7510,7322,58.3,58.3,60.1,60.2,2.818,2.828,2.907,2.752,6.75,34.6,34.3,32.7,1010.68,-33.28,0.46,1.66,30.0,41.4,37.2,0,no_anomaly,0.0,0,0,0,0,13.0826221,80.2707184,21.5,0.0
2024-02-06T18:40:09.800Z,MISSION_0013,98,1,orbit_base,SITE_CHE_004,13.0826216,80.270716,21.8,24.03,1.369,0.046,8.91,-2.0018,-2.5014,24.0267,0.9778,-0.01254,-0.02498,0.20769,0.0343,0.0088,-9.8093,-0.0182,0.767,-0.1601,0.183,3,15,0.99,1.07,0.24,24.417,18.37,87.3,42.8,19203.0,7723,7437,7440,7323,60.9,55.9,62.4,60.4,3.107,2.973,2.653,2.671,6.28,35.6,34.2,32.8,1010.56,-29.97,-0.61,1.69,31.0,40.1,38.2,0,no_anomaly,0.0,0,0,0,0,13.0826216,80.270716,21.8,0.0
2024-02-06T18:40:09.900Z,MISSION_0013,99,1,orbit_base,SITE_CHE_004,13.0826212,80.2707137,22.1,24.4,1.58,0.143,8.91,-0.0712,0.3681,24.3965,0.97742,-0.00129,0.00301,0.2113,0.109,-0.0348,-9.8352,-0.3269,0.3732,-0.108,0.212,3,12,0.59,0.65,0.27,24.541,17.9,87.2,43.0,19183.0,7255,7589,7268,7426,59.2,64.7,55.4,60.0,2.889,2.791,2.696,2.816,6.38,37.7,34.4,33.9,1010.78,-33.47,-0.35,1.24,33.3,42.8,39.4,0,no_anomaly,0.0,0,0,0,0,13.0826212,80.2707137,22.1,0.0
2024-02-06T18:40:10.000Z,MISSION_0013,100,1,orbit_base,SITE_CHE_004,13.0826208,80.2707113,22.4,24.55,1.563,0.185,8.91,-5.0734,-1.492,24.5491,0.97622,-0.04048,-0.02212,0.21181,-0.0015,0.0299,-9.8652,0.1631,-0.1002,-0.2664,0.2324,3,19,0.62,1.17,0.22,24.466,22.86,87.1,42.8,19163.0,7365,7059,7298,7348,59.9,57.5,59.3,61.8,2.881,2.678,2.717,2.892,6.46,39.3,34.4,32.5,1011.04,-35.52,-0.57,1.34,27.9,47.2,39.3,0,no_anomaly,0.0,0,0,0,0,13.0826208,80.2707113,22.4,0.0
2024-02-06T18:40:10.100Z,MISSION_0013,101,1,orbit_base,SITE_CHE_004,13.0826205,80.2707089,22.7,24.68,1.279,0.135,8.91,-0.6972,-3.2207,24.6821,0.97653,6e-05,-0.02875,0.21348,-0.1221,-0.0086,-9.8092,0.0672,-1.0252,0.05,0.2478,3,13,0.72,0.73,0.33,24.562,16.74,87.0,42.8,19142.0,7351,7322,7360,7332,62.0,57.8,59.6,60.3,2.731,2.854,2.832,2.595,6.68,42.3,34.1,33.6,1010.65,-29.36,0.32,1.56,28.5,40.5,36.1,0,no_anomaly,0.0,0,0,0,0,13.0826205,80.2707089,22.7,0.0
2024-02-06T18:40:10.200Z,MISSION_0013,102,1,orbit_base,SITE_CHE_004,13.0826203,80.2707065,23.0,25.33,1.396,0.179,8.91,0.1193,-1.7774,25.326,0.97555,0.00442,-0.0149,0.21921,0.3471,0.0595,-9.7435,0.2376,0.257,0.0627,0.2104,3,12,0.62,0.95,0.31,24.529,20.15,86.9,42.4,19122.0,7324,7336,7417,7701,58.1,57.1,65.2,60.1,2.986,2.758,2.943,2.893,6.64,45.6,34.4,32.7,1011.01,-30.94,0.75,1.15,29.5,47.1,35.3,0,no_anomaly,0.0,0,0,0,0,13.0826203,80.2707065,23.0,0.0
2024-02-06T18:40:10.300Z,MISSION_0013,103,1,orbit_base,SITE_CHE_004,13.0826201,80.2707041,23.3,26.92,1.564,0.052,8.91,-1.5168,0.0274,26.922,0.97244,-0.01293,-0.00285,0.23277,0.1763,0.0409,-9.8008,-0.5282,0.6764,-0.1023,0.2691,3,18,0.69,0.82,0.23,24.463,17.67,86.8,42.8,19102.0,7134,7411,7437,7294,57.8,54.8,63.1,58.1,2.755,2.728,2.979,2.856,7.37,44.2,34.5,33.4,1011.34,-32.11,-2.14,1.6,26.4,39.9,35.5,0,no_anomaly,0.0,0,0,0,0,13.0826201,80.2707041,23.3,0.0
2024-02-06T18:40:10.400Z,MISSION_0013,104,1,orbit_base,SITE_CHE_004,13.08262,80.2707017,23.6,27.3,1.938,0.078,8.91,-3.1383,-1.6298,27.2959,0.97139,-0.02325,-0.02028,0.23546,-0.0389,-0.0342,-9.7746,-0.3182,0.3649,-0.0486,0.2519,3,16,0.72,0.82,0.2,24.414,25.16,86.7,42.6,19081.0,7188,7331,7422,7070,61.5,60.6,61.4,57.0,2.968,2.912,2.779,2.773,6.22,33.1,34.5,32.7,1011.06,-34.1,-2.03,1.55,30.2,45.6,38.4,0,no_anomaly,0.0,0,0,0,0,13.08262,80.2707017,23.6,0.0
2024-02-06T18:40:10.500Z,MISSION_0013,105,1,orbit_base,SITE_CHE_004,13.08262,80.2706993,23.9,26.59,1.836,0.081,8.91,2.4401,-0.7642,26.5915,0.97292,0.02225,-0.00159,0.23006,0.0529,-0.04,-9.781,0.1529,-0.2598,-0.1539,0.2725,3,10,0.7,0.92,0.24,24.527,21.23,86.6,42.6,19061.0,7661,7147,7546,7411,60.0,56.9,62.4,61.2,2.784,2.62,2.919,2.925,6.74,37.6,34.4,33.1,1011.11,-30.38,0.61,1.76,31.6,42.1,38.7,0,no_anomaly,0.0,0,0,0,0,13.08262,80.2706993,23.9,0.0
2024-02-06T18:40:10.600Z,MISSION_0013,106,1,orbit_base,SITE_CHE_004,13.0826201,80.2706969,24.2,29.26,1.429,0.151,8.91,3.5771,-1.1061,29.2637,0.96698,0.03263,-0.00145,0.25276,-0.1916,-0.0067,-9.8388,-0.0214,-0.9166,-0.2035,0.1993,3,14,0.76,0.87,0.25,24.432,20.06,86.5,42.5,19041.0,7417,7464,7400,7488,58.8,57.5,61.4,60.8,2.838,3.046,2.992,2.633,6.92,38.1,34.4,33.2,1011.37,-28.41,-1.14,1.76,29.9,43.4,33.9,0,no_anomaly,0.0,0,0,0,0,13.0826201,80.2706969,24.2,0.0
2024-02-06T18:40:10.700Z,MISSION_0013,107,1,orbit_base,SITE_CHE_004,13.0826202,80.2706945,24.5,28.62,1.797,0.125,8.91,2.5427,-1.0888,28.6211,0.96864,0.02385,-0.00372,0.24731,-0.0884,0.0044,-9.8623,-0.4791,-0.5139,0.3014,0.2002,3,14,0.7,0.94,0.34,24.455,18.3,86.5,42.8,19020.0,7343,7438,7248,7552,63.4,60.4,61.8,59.2,2.384,2.996,2.569,3.029,6.28,41.0,34.0,33.2,1010.88,-25.55,-0.31,1.15,29.7,42.0,36.7,0,no_anomaly,0.0,0,0,0,0,13.0826202,80.2706945,24.5,0.0
2024-02-06T18:40:10.800Z,MISSION_0013,108,1,orbit_base,SITE_CHE_004,13.0826204,80.2706921,24.8,27.43,1.788,0.135,8.91,0.2355,-2.4648,27.4328,0.97124,0.0071,-0.02041,0.2371,-0.1821,0.0557,-9.7945,-0.0928,-0.1612,0.064,0.1546,3,18,0.71,0.89,0.2,24.477,13.87,86.4,42.9,19000.0,7184,7333,7328,7062,59.2,59.2,58.2,61.5,2.78,2.807,2.815,2.772,6.89,34.9,34.5,32.4,1011.01,-34.88,-0.47,1.44,25.1,39.6,37.2,0,no_anomaly,0.0,0,0,0,0,13.0826204,80.2706921,24.8,0.0
2024-02-06T18:40:10.900Z,MISSION_0013,109,1,orbit_base,SITE_CHE_004,13.0826207,80.2706898,25.1,26.8,1.967,0.054,8.91,-0.4706,-1.3102,26.7964,0.97272,-0.00135,-0.01207,0.23165,0.0622,0.0341,-9.8063,-0.6468,0.064,0.3829,0.1968,3,12,0.8,0.94,0.39,24.434,14.88,86.3,42.5,18979.0,7333,7309,7319,7203,62.4,58.8,60.6,57.7,2.584,2.692,2.888,2.877,6.62,39.3,34.7,33.2,1011.17,-34.83,1.24,1.5,32.7,48.7,40.9,0,no_anomaly,0.0,0,0,0,0,13.0826207,80.2706898,25.1,0.0
2024-02-06T18:40:11.000Z,MISSION_0013,110,1,orbit_base,SITE_CHE_004,13.082621,80.2706874,25.4,30.28,2.28,0.155,8.91,-2.8869,0.0712,30.2841,0.96497,-0.02448,-0.00598,0.26114,-0.2051,0.0375,-9.8778,-0.5575,1.1147,-0.2424,0.3319,3,13,0.6,1.09,0.2,24.427,20.9,86.2,42.3,18959.0,7308,7430,7034,7145,56.0,63.8,56.3,58.5,2.852,3.13,2.897,2.807,7.67,37.4,34.5,33.2,1010.8,-27.89,-0.91,1.27,26.8,46.8,36.1,0,no_anomaly,0.0,0,0,0,0,13.082621,80.2706874,25.4,0.0
2024-02-06T18:40:11.100Z,MISSION_0013,111,1,orbit_base,SITE_CHE_004,13.0826214,80.270685,25.7,28.62,2.488,0.085,8.91,1.6736,-1.8673,28.6188,0.96868,0.01818,-0.01218,0.24733,0.0013,0.0375,-9.8416,0.0107,0.3971,-0.0005,0.2336,3,18,0.53,0.67,0.2,24.443,18.03,86.1,43.6,18939.0,7298,7341,7436,7550,59.6,56.7,59.3,61.2,2.916,2.645,2.768,3.008,6.13,41.8,34.8,32.6,1010.75,-30.93,-1.26,1.4,30.8,47.2,35.9,0,no_anomaly,0.0,0,0,0,0,13.0826214,80.270685,25.7,0.0
2024-02-06T18:40:11.200Z,MISSION_0013,112,1,orbit_base,SITE_CHE_004,13.0826219,80.2706827,26.0,27.05,2.791,0.112,8.91,-2.2227,-1.2222,27.0467,0.97208,-0.01636,-0.0149,0.23358,-0.3521,0.0321,-9.7835,-0.3413,0.6067,-0.8863,0.2742,3,13,0.57,1.25,0.27,24.35,18.68,86.0,42.4,18918.0,7265,7171,7659,7479,60.5,61.8,59.0,57.1,2.52,3.008,2.473,2.757,6.35,41.6,34.5,32.6,1011.07,-32.04,0.64,2.07,28.3,47.5,38.3,0,no_anomaly,0.0,0,0,0,0,13.0826219,80.2706827,26.0,0.0
2024-02-06T18:40:11.300Z,MISSION_0013,113,1,orbit_base,SITE_CHE_004,13.0826225,80.2706803,26.3,28.13,3.175,0.041,8.91,2.0577,-1.5562,28.1336,0.96971,0.02072,-0.00881,0.24323,-0.0161,-0.0147,-9.8434,1.3032,0.4746,0.6031,0.1896,3,16,0.65,0.9,0.28,24.479,16.97,85.9,43.0,18898.0,7153,7238,7171,7077,58.4,62.8,59.2,61.1,2.985,3.013,2.82,2.582,6.68,43.9,34.5,32.9,1011.07,-28.51,0.33,1.69,30.8,44.9,37.3,0,no_anomaly,0.0,0,0,0,0,13.0826225,80.2706803,26.3,0.0
2024-02-06T18:40:11.400Z,MISSION_0013,114,1,orbit_base,SITE_CHE_004,13.0826231,80.270678,26.6,26.91,3.227,0.053,8.91,4.2526,0.0579,26.9056,0.9719,0.03597,0.00912,0.23247,-0.3508,0.0063,-9.8938,0.5203,0.3408,0.3195,0.2444,3,13,0.7,0.78,0.36,24.421,20.4,85.8,42.4,18878.0,7402,7348,7468,7349,59.8,60.7,59.1,62.3,2.478,2.759,2.902,2.958,7.36,37.4,34.7,33.1,1010.95,-30.79,0.68,1.15,30.3,42.0,38.6,0,no_anomaly,0.0,0,0,0,0,13.0826231,80.270678,26.6,0.0
2024-02-06T18:40:11.500Z,MISSION_0013,115,1,orbit_base,SITE_CHE_004,13.0826238,80.2706757,26.9,29.04,3.212,0.158,8.91,-4.4266,-2.7463,29.0418,0.96729,-0.03137,-0.03286,0.24958,0.3011,-0.0208,-9.8648,-0.2428,-0.0548,-0.137,0.144,3,19,0.88,0.68,0.29,24.459,18.84,85.7,42.9,18857.0,7350,7446,7469,7464,61.5,59.8,61.4,57.4,3.045,2.909,2.862,3.054,7.07,37.8,34.5,33.0,1011.06,-28.64,-1.07,1.96,31.0,41.8,38.4,0,no_anomaly,0.0,0,0,0,0,13.0826238,80.2706757,26.9,0.0
2024-02-06T18:40:11.600Z,MISSION_0013,116,1,orbit_base,SITE_CHE_004,13.0826245,80.2706734,27.2,26.74,3.026,-0.058,8.91,3.377,-2.87,26.7405,0.972,0.03445,-0.01754,0.23179,0.3178,0.0283,-9.7292,-0.7018,0.1452,-0.557,0.192,3,18,0.71,0.96,0.2,24.458,20.04,85.6,42.7,18837.0,7390,7484,7436,7624,59.8,60.0,61.6,58.8,3.001,2.755,2.637,2.581,7.21,40.8,34.2,31.7,1010.9,-27.0,-2.6,1.0,29.1,44.9,37.0,0,no_anomaly,0.0,0,0,0,0,13.0826245,80.2706734,27.2,0.0
2024-02-06T18:40:11.700Z,MISSION_0013,117,1,orbit_base,SITE_CHE_004,13.0826254,80.2706712,27.5,29.39,2.593,0.159,8.91,1.7663,0.4769,29.3875,0.96719,0.01385,0.00793,0.25356,0.1488,0.0216,-9.8343,-0.6181,0.324,-0.1329,0.2183,3,14,0.64,0.87,0.2,24.47,20.51,85.5,42.7,18817.0,7412,7295,7118,6988,59.9,60.4,60.3,59.5,2.681,2.818,2.853,3.01,6.23,33.7,34.6,33.2,1010.91,-32.28,-0.24,1.59,26.4,42.4,36.6,0,no_anomaly,0.0,0,0,0,0,13.0826254,80.2706712,27.5,0.0
2024-02-06T18:40:11.800Z,MISSION_0013,118,1,orbit_base,SITE_CHE_004,13.0826263,80.270669,27.8,29.91,3.113,0.094,8.91,0.9046,-2.1849,29.9094,0.96589,0.01255,-0.01638,0.25815,-0.0196,-0.0213,-9.8084,0.3118,0.2918,0.3056,0.2927,3,10,0.59,0.76,0.24,24.402,17.22,85.4,43.1,18796.0,7323,7367,7579,6986,60.3,59.6,61.2,60.1,2.681,2.846,2.739,2.547,7.72,38.1,34.1,32.5,1011.09,-34.0,-0.86,1.58,26.2,45.0,36.6,0,no_anomaly,0.0,0,0,0,0,13.0826263,80.270669,27.8,0.0
2024-02-06T18:40:11.900Z,MISSION_0013,119,1,orbit_base,SITE_CHE_004,13.0826272,80.2706668,28.1,32.39,3.074,0.085,8.91,-4.6917,-1.3515,32.3869,0.95959,-0.03602,-0.02273,0.27816,-0.3432,-0.0288,-9.8138,0.1498,-0.0265,0.0259,0.2484,3,18,0.61,0.72,0.29,24.44,17.99,85.3,43.7,18776.0,7143,7467,7462,7615,61.6,60.7,59.2,57.9,2.927,3.022,2.622,2.924,5.75,29.1,34.4,33.7,1010.85,-29.57,-0.35,1.0,29.7,48.2,36.1,0,no_anomaly,0.0,0,0,0,0,13.0826272,80.2706668,28.1,0.0
2024-02-06T18:40:12.000Z,MISSION_0013,120,1,orbit_base,SITE_CHE_004,13.0826283,80.2706646,28.4,33.03,2.826,0.15,8.91,3.6961,-3.9858,33.0286,0.95735,0.04078,-0.02416,0.28501,0.1229,0.0039,-9.8384,0.351,1.0495,-0.4933,0.1856,3,19,0.59,0.92,0.2,24.294,20.92,85.3,42.4,18756.0,7082,7420,7439,7572,60.4,60.8,60.2,59.8,2.873,2.758,2.778,2.743,7.75,40.3,34.6,33.1,1010.97,-28.99,-0.84,1.23,30.6,44.7,36.7,0,no_anomaly,0.0,0,0,0,0,13.0826283,80.2706646,28.4,0.0
2024-02-06T18:40:12.100Z,MISSION_0013,121,1,orbit_base,SITE_CHE_004,13.0826294,80.2706625,28.7,33.17,2.532,0.051,8.91,-2.4515,-3.3993,33.1706,0.95794,-0.01203,-0.03452,0.28464,0.3027,0.0076,-9.7552,-0.1945,-0.8138,-0.1024,0.1016,3,14,0.61,0.71,0.24,24.431,15.66,85.2,42.7,18735.0,7266,7460,7620,7290,60.1,58.9,57.1,59.8,2.878,2.96,2.942,2.822,6.28,40.7,34.4,32.6,1010.73,-32.05,0.79,1.5,28.4,42.1,39.2,0,no_anomaly,0.0,0,0,0,0,13.0826294,80.2706625,28.7,0.0
2024-02-06T18:40:12.200Z,MISSION_0013,122,1,orbit_base,SITE_CHE_004,13.0826305,80.2706604,29.0,34.24,2.575,0.215,8.91,7.2939,-4.6032,34.2353,0.95225,0.07254,-0.0196,0.29594,0.1043,0.0183,-9.8153,0.1867,-0.4326,0.2234,0.2803,3,19,0.78,0.93,0.34,24.41,15.58,85.1,42.3,18715.0,7347,7298,7385,7418,55.8,57.5,61.0,57.0,2.994,2.677,2.886,2.696,5.99,35.1,34.6,32.8,1011.0,-30.83,1.12,1.23,28.2,42.0,38.9,0,no_anomaly,0.0,0,0,0,0,13.0826305,80.2706604,29.0,0.0
2024-02-06T18:40:12.300Z,MISSION_0013,123,1,orbit_base,SITE_CHE_004,13.0826317,80.2706583,29.3,32.9,2.626,0.088,8.91,-2.8779,-3.3629,32.9045,0.95855,-0.01577,-0.03524,0.2823,-0.2292,-0.0376,-9.8243,-0.1366,0.3545,0.0689,0.2614,3,14,0.96,0.67,0.21,24.441,11.84,85.0,42.8,18695.0,7500,7186,7410,7561,65.8,61.0,59.9,57.5,2.901,2.675,2.639,2.94,6.6,37.6,34.6,32.9,1011.33,-31.24,0.19,1.26,29.2,49.2,34.9,0,no_anomaly,0.0,0,0,0,0,13.0826317,80.2706583,29.3,0.0
2024-02-06T18:40:12.400Z,MISSION_0013,124,1,orbit_base,SITE_CHE_004,13.082633,80.2706563,29.6,31.23,2.108,0.166,8.91,-4.2963,-0.1128,31.228,0.96243,-0.03584,-0.01104,0.26893,-0.3062,0.0371,-9.7794,0.3819,-0.3883,0.2576,0.3109,3,17,0.57,0.94,0.33,24.383,20.33,84.9,42.0,18674.0,7414,7406,7612,7599,56.8,60.7,60.8,58.8,2.752,2.758,2.746,3.064,6.77,42.6,34.5,32.5,1011.15,-33.72,0.46,1.06,31.3,46.4,35.8,0,no_anomaly,0.0,0,0,0,0,13.082633,80.2706563,29.6,0.0
2024-02-06T18:40:12.500Z,MISSION_0013,125,1,orbit_base,SITE_CHE_004,13.0826344,80.2706543,29.9,29.56,2.074,0.188,8.91,2.2437,-3.6855,29.5635,0.96606,0.02712,-0.02609,0.25557,0.057,0.0875,-9.8856,0.5343,-0.3758,0.3172,0.1943,3,11,0.81,1.04,0.45,24.399,21.81,84.8,42.9,18654.0,7545,7451,7449,7305,58.9,58.3,58.1,61.2,2.871,2.936,2.826,3.048,6.05,44.5,34.1,32.9,1010.92,-29.08,0.48,1.29,26.8,40.7,38.2,0,no_anomaly,0.0,0,0,0,0,13.0826344,80.2706543,29.9,0.0
2024-02-06T18:40:12.600Z,MISSION_0013,126,1,orbit_base,SITE_CHE_004,13.0826358,80.2706523,30.2,29.94,2.393,0.057,8.91,-0.4611,-0.2718,29.9408,0.96605,-0.00327,-0.00333,0.25831,-0.0262,-0.0094,-9.777,-1.2305,0.6515,-0.1777,0.3076,3,14,0.58,1.05,0.23,24.408,18.41,84.7,42.5,18634.0,7243,7515,7190,7439,62.1,59.9,59.5,59.5,2.731,2.539,2.877,2.857,6.79,33.7,34.5,33.0,1010.98,-20.99,1.13,1.48,29.6,44.5,34.2,0,no_anomaly,0.0,0,0,0,0,13.0826358,80.2706523,30.2,0.0
2024-02-06T18:40:12.700Z,MISSION_0013,127,1,orbit_base,SITE_CHE_004,13.0826372,80.2706504,30.5,26.34,2.411,0.067,8.91,-0.3186,-3.9115,26.3361,0.97316,0.00507,-0.03386,0.22758,-0.1837,-0.0781,-9.7868,-0.1813,0.187,-0.2514,0.25,3,14,0.82,0.78,0.32,24.417,16.18,84.6,42.9,18613.0,7325,7318,7182,7532,58.3,61.3,63.0,59.7,2.666,2.803,2.897,2.848,6.91,32.1,34.4,33.5,1011.0,-33.44,0.09,1.68,28.2,44.0,37.2,0,no_anomaly,0.0,0,0,0,0,13.0826372,80.2706504,30.5,0.0
2024-02-06T18:40:12.800Z,MISSION_0013,128,2,climb_tower,SITE_CHE_004,13.0826391,80.2706496,30.8,25.89,1.711,0.083,8.81,5.0657,-2.2671,25.8927,0.97324,0.04749,-0.00936,0.22463,-0.115,-0.0911,-9.8165,0.1648,-0.3065,0.2375,0.1773,3,11,0.77,1.18,0.24,24.33,22.31,84.5,42.9,18593.0,7425,7300,7541,7288,60.8,58.8,60.5,58.6,2.74,2.878,2.935,3.102,5.33,45.9,34.2,33.7,1010.83,-28.51,-0.33,1.61,27.6,47.8,37.2,0,no_anomaly,0.0,0,0,0,0,13.0826391,80.2706496,30.8,0.0
2024-02-06T18:40:12.900Z,MISSION_0013,129,2,climb_tower,SITE_CHE_004,13.0826396,80.2706466,31.1,26.15,1.579,0.005,8.97,0.4291,-2.4356,26.1548,0.97382,0.00846,-0.01985,0.22629,0.0634,-0.0172,-9.7843,-0.8244,-0.5396,-0.3829,0.1495,3,10,0.76,1.17,0.2,24.422,14.0,84.4,43.1,18573.0,7405,7244,7415,7625,62.0,56.7,58.3,58.6,2.802,2.657,2.822,2.698,6.1,35.9,34.7,31.8,1011.26,-24.66,-0.46,1.47,28.3,40.9,36.0,0,no_anomaly,0.0,0,0,0,0,13.0826396,80.2706466,31.1,0.0
