timestamp_utc,mission_id,frame_id,waypoint_id,inspection_phase,site_id,latitude_deg,longitude_deg,altitude_m,heading_deg,ground_speed_ms,vertical_speed_ms,distance_to_tower_m,roll_deg,pitch_deg,yaw_deg,quat_w,quat_x,quat_y,quat_z,accel_x_ms2,accel_y_ms2,accel_z_ms2,gyro_x_rads,gyro_y_rads,gyro_z_rads,vibration_level,gps_fix_type,gps_satellite_count,gps_hdop,gps_vdop,position_error_m,battery_voltage_v,battery_current_a,battery_remaining_pct,battery_temp_c,battery_capacity_mah,motor_fl_rpm,motor_fr_rpm,motor_rl_rpm,motor_rr_rpm,motor_fl_temp_c,motor_fr_temp_c,motor_rl_temp_c,motor_rr_temp_c,motor_fl_thrust_n,motor_fr_thrust_n,motor_rl_thrust_n,motor_rr_thrust_n,wind_speed_ms,wind_dir_deg,air_temp_c,humidity_pct,pressure_hpa,gimbal_pitch_deg,gimbal_roll_deg,zoom_factor,ir_temp_min_c,ir_temp_max_c,ir_temp_avg_c,anomaly_detected,anomaly_class,anomaly_confidence,anomaly_bbox_x,anomaly_bbox_y,anomaly_bbox_w,anomaly_bbox_h,anomaly_gps_lat,anomaly_gps_lon,anomaly_gps_alt_m,ir_temp_delta_c
2024-05-06T06:03:00.000Z,MISSION_0008,0,0,takeoff,SITE_JAI_009,26.912398,75.7872999,1.5,90.37,0.0,0.058,0.22,0.8798,-0.6895,90.3704,0.70475,0.00968,0.00121,0.70939,0.1519,0.0445,-9.7968,0.2121,0.0154,-0.2474,0.1692,3,11,0.62,1.03,0.3,24.765,17.27,96.5,38.1,21221.0,8401,8710,8482,8123,52.3,49.8,56.4,58.2,2.976,2.658,2.906,3.011,4.32,160.3,30.4,35.4,1010.31,-36.03,0.81,1.18,25.2,36.9,35.8,0,no_anomaly,0.0,0,0,0,0,26.912398,75.7872999,1.5,0.0
2024-05-06T06:03:00.100Z,MISSION_0008,1,0,takeoff,SITE_JAI_009,26.9123977,75.7873009,3.0,90.03,0.0,0.051,0.28,-3.0273,-1.4499,90.0346,0.70683,-0.00972,-0.02762,0.70678,-0.1476,0.0186,-9.9501,-0.8494,-0.7929,0.1728,0.2537,3,15,0.5,0.77,0.25,24.61,13.48,96.4,38.5,21209.0,8139,8259,8215,8392,56.0,51.5,56.2,53.6,2.9,2.719,2.828,2.711,3.81,166.4,30.0,35.9,1010.46,-29.5,-0.63,1.85,25.8,43.4,35.9,0,no_anomaly,0.0,0,0,0,0,26.9123977,75.7873009,3.0,0.0
2024-05-06T06:03:00.200Z,MISSION_0008,2,0,takeoff,SITE_JAI_009,26.9123945,75.7873059,4.5,90.3,0.382,0.089,0.9,-0.4696,-0.8226,90.2995,0.70525,0.0022,-0.00797,0.70891,-0.1701,0.0221,-9.8474,0.2874,-0.2148,-0.0543,0.1277,3,16,0.67,0.74,0.4,24.705,22.25,96.4,38.0,21197.0,8766,8628,8425,8402,60.1,53.7,53.6,53.7,2.788,2.913,2.948,2.735,4.12,160.7,30.3,35.1,1010.28,-26.95,0.82,1.47,26.2,36.5,31.6,0,no_anomaly,0.0,0,0,0,0,26.9123945,75.7873059,4.5,0.0
2024-05-06T06:03:00.300Z,MISSION_0008,3,0,takeoff,SITE_JAI_009,26.9123986,75.7873091,5.0,90.45,0.309,0.029,1.03,-3.2312,1.3113,90.4455,0.7038,-0.02798,-0.01196,0.70975,-0.0202,0.0314,-9.8532,0.1513,-0.7892,-0.2265,0.1273,3,18,0.89,0.6,0.34,24.635,20.54,96.3,38.1,21185.0,8459,8264,8445,8316,54.9,53.2,55.9,55.3,2.534,2.773,3.154,2.857,3.92,153.8,30.2,35.4,1010.57,-32.69,-0.08,1.31,26.4,40.7,33.4,0,no_anomaly,0.0,0,0,0,0,26.9123986,75.7873091,5.0,0.0
2024-05-06T06:03:00.400Z,MISSION_0008,4,0,takeoff,SITE_JAI_009,26.9123982,75.7873076,5.0,92.45,0.409,0.167,0.87,1.7907,-2.8436,92.4536,0.69123,0.02872,-0.00588,0.72204,-0.139,-0.0359,-9.8066,0.5717,-0.2354,0.1755,0.1876,3,13,0.82,0.8,0.46,24.592,18.86,96.2,38.6,21173.0,8319,8340,8373,8603,55.9,57.7,55.6,55.3,2.642,2.402,2.839,2.792,3.53,156.9,30.0,34.7,1010.64,-33.34,-0.24,1.44,22.0,42.8,33.0,0,no_anomaly,0.0,0,0,0,0,26.9123982,75.7873076,5.0,0.0
2024-05-06T06:03:00.500Z,MISSION_0008,5,0,takeoff,SITE_JAI_009,26.9123947,75.7873104,5.0,90.33,0.574,0.088,1.3,1.1284,-2.6386,90.329,0.70469,0.02327,-0.00925,0.70907,0.1503,-0.0236,-9.7706,-0.8061,0.6076,-0.0285,0.2376,3,18,0.63,0.95,0.29,24.727,16.93,96.2,37.3,21161.0,8117,8420,8423,8245,60.2,56.3,56.3,54.0,2.688,2.612,2.709,2.703,3.82,157.8,30.3,36.0,1011.06,-31.97,-1.04,1.33,24.8,41.8,34.1,0,no_anomaly,0.0,0,0,0,0,26.9123947,75.7873104,5.0,0.0
2024-05-06T06:03:00.600Z,MISSION_0008,6,0,takeoff,SITE_JAI_009,26.9123959,75.7873137,5.0,91.15,0.255,0.064,1.6,2.6911,-0.9515,91.1455,0.69965,0.02236,0.01096,0.71405,0.0616,0.053,-9.8407,0.9213,0.7057,-0.0316,0.1135,3,13,0.63,0.97,0.3,24.726,19.91,96.1,37.9,21149.0,8290,8461,8452,8620,57.2,55.4,52.4,55.9,2.668,2.901,2.851,3.196,4.84,157.8,30.1,35.9,1010.42,-31.21,1.43,1.34,27.2,40.2,33.2,0,no_anomaly,0.0,0,0,0,0,26.9123959,75.7873137,5.0,0.0
2024-05-06T06:03:00.700Z,MISSION_0008,7,0,takeoff,SITE_JAI_009,26.9123975,75.7873136,5.0,90.59,0.244,0.042,1.53,4.5117,-1.6298,90.588,0.70245,0.03779,0.01798,0.7105,0.0615,-0.0394,-9.8323,0.2907,0.1134,0.2379,0.1401,3,10,0.66,0.76,0.21,24.706,20.73,96.1,38.2,21137.0,8319,8627,8547,8544,52.6,56.5,55.8,58.2,2.376,2.779,2.693,2.924,3.93,163.1,30.3,35.7,1010.33,-29.44,2.71,1.17,23.0,35.9,30.7,0,no_anomaly,0.0,0,0,0,0,26.9123975,75.7873136,5.0,0.0
2024-05-06T06:03:00.800Z,MISSION_0008,8,0,takeoff,SITE_JAI_009,26.9124026,75.7873156,5.0,94.32,0.111,0.109,1.76,0.8162,-3.3231,94.3235,0.67948,0.0261,-0.01449,0.73309,-0.1222,-0.0296,-9.8461,-0.5557,0.3003,-0.4637,0.1779,3,11,0.81,0.74,0.2,24.805,20.33,96.0,38.4,21125.0,8381,8455,8338,8490,55.5,54.5,57.4,55.1,2.416,2.916,2.839,2.66,3.44,163.2,30.3,35.6,1010.4,-30.78,0.06,1.34,26.8,34.2,33.7,0,no_anomaly,0.0,0,0,0,0,26.9124026,75.7873156,5.0,0.0
2024-05-06T06:03:00.900Z,MISSION_0008,9,0,takeoff,SITE_JAI_009,26.9124017,75.7873111,5.0,95.24,0.0,0.042,1.25,3.5824,-0.3495,95.2399,0.67364,0.02332,0.02103,0.73839,-0.0541,-0.0573,-9.887,0.0554,-0.0857,-0.1943,0.3085,3,18,0.72,1.01,0.2,24.824,21.8,96.0,38.5,21113.0,8346,8125,8448,8331,52.4,55.9,55.3,58.4,2.849,2.621,2.605,2.998,4.28,161.6,30.2,34.9,1010.48,-32.75,0.63,1.85,24.2,35.7,34.0,0,no_anomaly,0.0,0,0,0,0,26.9124017,75.7873111,5.0,0.0
2024-05-06T06:03:01.000Z,MISSION_0008,10,0,takeoff,SITE_JAI_009,26.9124027,75.7873146,5.0,94.88,0.241,0.079,1.65,1.9191,0.0637,94.8778,0.67629,0.01092,0.01271,0.73645,0.2851,0.0508,-9.7635,-0.7345,0.1522,0.1438,0.1512,3,10,0.76,0.98,0.23,24.663,19.79,95.9,39.0,21101.0,8137,8338,8309,8301,59.1,56.0,57.2,56.3,2.892,2.69,2.838,2.673,4.12,160.1,29.9,35.5,1010.57,-26.58,-0.24,1.67,27.8,36.5,33.0,0,no_anomaly,0.0,0,0,0,0,26.9124027,75.7873146,5.0,0.0
2024-05-06T06:03:01.100Z,MISSION_0008,11,0,takeoff,SITE_JAI_009,26.9124079,75.787312,5.0,94.36,0.026,0.103,1.6,-2.8636,-4.0019,94.3597,0.67971,0.00863,-0.04204,0.73222,0.0809,-0.0776,-9.8269,-0.7599,-0.4737,0.0344,0.1833,3,18,0.63,0.73,0.35,24.777,11.06,95.9,38.0,21089.0,8400,8158,8758,8721,55.0,54.4,55.9,57.0,2.875,2.767,2.884,2.774,4.64,157.0,30.6,35.9,1010.55,-27.77,-2.47,1.67,26.5,39.7,34.3,0,no_anomaly,0.0,0,0,0,0,26.9124079,75.787312,5.0,0.0
2024-05-06T06:03:01.200Z,MISSION_0008,12,0,takeoff,SITE_JAI_009,26.9124058,75.7873134,5.0,92.75,0.206,0.032,1.63,1.7037,-1.2573,92.7522,0.68969,0.0182,0.00319,0.72387,0.154,0.0368,-9.8256,-0.4623,0.6536,0.1093,0.2171,3,14,0.68,1.11,0.2,24.732,20.11,95.8,38.6,21077.0,8360,8353,8499,8541,54.3,54.7,58.6,52.1,2.305,2.833,2.706,2.968,3.74,162.8,30.3,35.7,1010.46,-29.48,0.59,1.34,24.8,42.9,32.1,0,no_anomaly,0.0,0,0,0,0,26.9124058,75.7873134,5.0,0.0
2024-05-06T06:03:01.300Z,MISSION_0008,13,0,takeoff,SITE_JAI_009,26.9124032,75.7873068,5.0,90.21,0.255,0.104,0.84,0.1673,-0.8133,90.2128,0.70577,0.00606,-0.00398,0.70841,-0.0014,0.0091,-9.9042,0.1197,-0.1326,0.2737,0.1564,3,19,0.55,0.81,0.23,24.724,19.28,95.8,38.4,21065.0,8561,8345,8533,8522,52.6,54.4,52.8,57.3,2.725,2.841,2.668,2.842,4.5,153.7,30.5,36.4,1010.7,-33.94,1.03,1.44,29.2,44.8,33.7,0,no_anomaly,0.0,0,0,0,0,26.9124032,75.7873068,5.0,0.0
2024-05-06T06:03:01.400Z,MISSION_0008,14,0,takeoff,SITE_JAI_009,26.9124077,75.7873031,5.0,90.26,0.285,-0.002,0.92,4.0318,-3.5527,90.2604,0.70395,0.04676,0.00306,0.7087,-0.1608,0.0139,-9.7853,-0.4131,0.7908,0.3433,0.1413,3,12,0.57,1.0,0.2,24.744,17.19,95.7,39.0,21054.0,8446,8591,8455,8436,52.2,53.2,55.6,55.2,3.02,2.729,2.443,2.974,5.01,158.8,30.3,34.3,1010.45,-25.66,1.67,1.77,26.6,41.9,31.2,0,no_anomaly,0.0,0,0,0,0,26.9124077,75.7873031,5.0,0.0
2024-05-06T06:03:01.500Z,MISSION_0008,15,0,takeoff,SITE_JAI_009,26.9124122,75.7873025,5.0,91.6,0.237,0.121,1.39,-0.8346,-2.6501,91.5974,0.6971,0.0115,-0.02134,0.71657,-0.0188,0.0342,-9.8781,-0.4788,-0.583,-0.3091,0.1867,3,11,0.52,0.86,0.26,24.675,18.59,95.6,36.6,21042.0,8422,8607,8274,8210,57.7,58.4,55.6,54.8,2.428,2.687,2.928,2.988,4.82,162.5,30.3,36.4,1010.05,-24.19,-1.32,1.73,24.1,38.0,35.4,0,no_anomaly,0.0,0,0,0,0,26.9124122,75.7873025,5.0,0.0
2024-05-06T06:03:01.600Z,MISSION_0008,16,0,takeoff,SITE_JAI_009,26.9124125,75.7873043,5.0,87.86,0.218,0.158,1.47,1.5187,-0.1882,87.8595,0.72011,0.01068,0.00801,0.69373,0.0678,-0.0091,-9.779,-0.4217,-0.9154,-0.0182,0.239,3,18,0.81,0.78,0.32,24.652,15.94,95.6,38.3,21030.0,8155,8378,8606,8529,56.3,55.5,53.7,56.8,2.787,2.677,2.843,2.933,3.24,158.2,30.0,35.5,1010.37,-27.73,1.1,1.18,23.2,35.5,34.8,0,no_anomaly,0.0,0,0,0,0,26.9124125,75.7873043,5.0,0.0
2024-05-06T06:03:01.700Z,MISSION_0008,17,0,takeoff,SITE_JAI_009,26.9124097,75.7872976,5.0,90.27,0.506,0.05,1.11,0.1387,-4.5837,90.2736,0.70482,0.0292,-0.02735,0.70826,0.1753,-0.042,-9.8255,0.3208,-0.3716,-0.7157,0.1343,3,10,0.57,0.73,0.2,24.776,20.69,95.5,38.3,21018.0,8432,8478,8211,8510,54.7,51.3,56.0,55.9,2.688,2.491,3.189,2.551,4.38,153.4,29.7,34.8,1010.7,-26.5,0.38,1.26,24.7,40.3,34.9,0,no_anomaly,0.0,0,0,0,0,26.9124097,75.7872976,5.0,0.0
2024-05-06T06:03:01.800Z,MISSION_0008,18,0,takeoff,SITE_JAI_009,26.9124062,75.7872957,5.0,89.13,0.349,0.133,0.84,-2.2241,-1.0141,89.131,0.71241,-0.00762,-0.01992,0.70144,0.015,0.0391,-9.8583,0.0948,-0.6272,0.0116,0.1861,3,15,0.68,0.8,0.3,24.692,19.97,95.5,38.1,21006.0,8464,8245,8547,8379,53.4,52.1,57.1,55.4,2.882,2.66,2.456,2.841,4.01,168.2,30.5,35.3,1010.08,-34.55,-0.12,1.21,26.4,34.5,29.5,0,no_anomaly,0.0,0,0,0,0,26.9124062,75.7872957,5.0,0.0
2024-05-06T06:03:01.900Z,MISSION_0008,19,0,takeoff,SITE_JAI_009,26.9124047,75.7872934,5.0,89.71,0.54,0.044,0.91,-3.9986,-3.1383,89.7094,0.70887,-0.00542,-0.044,0.70394,0.0197,-0.0361,-9.8533,-0.3037,-0.4451,-0.3435,0.208,3,19,0.78,0.69,0.3,24.638,14.09,95.4,39.0,20994.0,8293,8484,8661,8482,56.8,56.9,56.7,56.0,2.868,2.887,2.884,2.802,3.33,157.9,30.0,36.6,1010.67,-27.17,1.2,1.45,25.4,45.8,36.8,0,no_anomaly,0.0,0,0,0,0,26.9124047,75.7872934,5.0,0.0
2024-05-06T06:03:02.000Z,MISSION_0008,20,0,takeoff,SITE_JAI_009,26.912405,75.7872885,5.0,91.23,0.577,0.073,1.4,-0.6496,-0.0219,91.2332,0.69945,-0.00383,-0.00419,0.71466,-0.0407,-0.0389,-9.8122,-0.2165,0.3563,-0.1172,0.171,3,11,0.79,1.07,0.5,24.747,14.82,95.4,38.5,20982.0,8439,8312,8405,8340,57.2,52.9,56.5,54.6,2.549,2.832,2.603,2.819,4.98,161.4,30.1,35.7,1010.78,-35.91,0.76,1.33,26.6,41.9,32.4,0,no_anomaly,0.0,0,0,0,0,26.912405,75.7872885,5.0,0.0
2024-05-06T06:03:02.100Z,MISSION_0008,21,0,takeoff,SITE_JAI_009,26.9124007,75.7872841,5.0,92.16,0.625,0.088,1.77,-6.7078,-4.6527,92.1556,0.69363,-0.01136,-0.07021,0.71681,-0.1602,-0.0358,-9.6945,0.1414,-0.0448,-0.3444,0.1715,3,13,0.81,1.08,0.43,24.618,20.64,95.3,37.9,20970.0,8390,8520,8604,8324,56.8,57.6,53.6,55.2,2.646,2.413,2.631,2.976,3.89,158.8,30.1,36.2,1010.62,-32.08,-1.89,1.55,24.2,37.3,36.2,0,no_anomaly,0.0,0,0,0,0,26.9124007,75.7872841,5.0,0.0
2024-05-06T06:03:02.200Z,MISSION_0008,22,0,takeoff,SITE_JAI_009,26.9123982,75.7872848,5.0,91.69,0.699,0.147,1.71,0.405,0.5789,91.6928,0.69658,-0.00116,0.00605,0.71745,-0.2365,-0.0936,-9.7622,-0.2209,-0.3435,-0.3648,0.1778,3,13,0.75,0.75,0.26,24.668,23.19,95.3,37.4,20958.0,8462,8313,8360,8279,55.4,56.2,54.5,54.8,2.641,2.839,2.637,2.927,4.07,161.7,30.1,35.5,1010.67,-26.38,0.78,1.59,21.9,36.2,31.1,0,no_anomaly,0.0,0,0,0,0,26.9123982,75.7872848,5.0,0.0
2024-05-06T06:03:02.300Z,MISSION_0008,23,0,takeoff,SITE_JAI_009,26.9124012,75.7872878,5.0,90.67,1.124,0.072,1.37,0.9512,-1.3476,90.6713,0.70281,0.0142,-0.00236,0.71123,-0.0261,0.063,-9.8699,-0.3746,-0.3639,-0.1956,0.1481,3,11,0.5,0.87,0.2,24.706,17.89,95.2,38.2,20946.0,8527,8507,8282,8344,55.9,56.5,54.4,52.5,2.965,2.856,2.822,2.855,3.44,167.4,30.5,35.9,1010.49,-29.51,1.19,1.16,24.8,39.9,31.7,0,no_anomaly,0.0,0,0,0,0,26.9124012,75.7872878,5.0,0.0
2024-05-06T06:03:02.400Z,MISSION_0008,24,0,takeoff,SITE_JAI_009,26.9124061,75.7872896,5.0,89.12,1.515,0.057,1.34,-1.0684,-1.113,89.1243,0.71249,0.00017,-0.01346,0.70155,-0.0676,-0.0214,-9.8233,-0.4677,0.2995,-0.2424,0.1464,3,11,0.81,0.93,0.36,24.681,24.87,95.2,37.7,20934.0,8391,8451,8526,8384,55.3,52.1,54.4,55.5,3.048,2.842,2.728,2.795,3.87,165.1,29.9,35.5,1010.59,-28.09,-0.67,1.85,27.6,39.9,32.4,0,no_anomaly,0.0,0,0,0,0,26.9124061,75.7872896,5.0,0.0
2024-05-06T06:03:02.500Z,MISSION_0008,25,0,takeoff,SITE_JAI_009,26.9124021,75.7872883,5.0,91.05,1.921,0.099,1.33,-4.2066,-2.4332,91.0494,0.70053,-0.01057,-0.04105,0.71237,-0.1684,0.0125,-9.7785,-0.0006,-0.2382,-0.091,0.0978,3,10,0.61,0.95,0.2,24.718,24.65,95.1,37.5,20922.0,8417,8536,8661,8575,55.0,53.7,51.1,53.7,2.734,3.09,2.812,2.649,4.01,160.5,30.3,36.8,1010.44,-36.26,-1.36,1.94,27.1,37.2,30.6,0,no_anomaly,0.0,0,0,0,0,26.9124021,75.7872883,5.0,0.0
2024-05-06T06:03:02.600Z,MISSION_0008,26,0,takeoff,SITE_JAI_009,26.9124049,75.7872893,5.0,92.61,2.038,0.184,1.31,-1.8718,-2.7308,92.6097,0.69081,0.00595,-0.02827,0.72246,-0.0125,-0.0282,-9.7978,-1.2923,0.3903,-0.3,0.1768,3,16,0.63,0.85,0.21,24.587,20.14,95.0,38.2,20910.0,8248,8373,8800,8301,51.4,55.7,57.0,58.2,2.804,3.089,2.708,2.498,4.16,157.7,30.2,35.9,1010.37,-28.5,-0.1,1.54,23.5,39.8,31.5,0,no_anomaly,0.0,0,0,0,0,26.9124049,75.7872893,5.0,0.0
2024-05-06T06:03:02.700Z,MISSION_0008,27,0,takeoff,SITE_JAI_009,26.9124039,75.7872822,5.0,93.66,2.133,0.044,2.03,1.4308,-2.1036,93.6577,0.68384,0.02193,-0.00345,0.72929,0.144,0.078,-9.8969,0.1091,0.3404,-0.16,0.1003,3,12,0.92,0.85,0.35,24.68,18.56,95.0,38.1,20898.0,8452,8302,8252,8539,55.2,55.7,55.2,57.6,2.551,2.912,2.68,3.021,4.1,157.5,29.9,35.8,1010.7,-33.58,-1.63,1.58,26.9,38.7,32.1,0,no_anomaly,0.0,0,0,0,0,26.9124039,75.7872822,5.0,0.0
2024-05-06T06:03:02.800Z,MISSION_0008,28,0,takeoff,SITE_JAI_009,26.9124029,75.7872803,5.0,95.3,2.057,0.193,2.21,6.8633,-1.5712,95.3039,0.67176,0.05043,0.03502,0.73822,-0.0564,-0.0144,-9.7847,-0.1015,-0.0572,0.2121,0.1289,3,16,0.67,0.81,0.43,24.692,20.23,94.9,38.6,20886.0,8381,8410,8688,8495,54.3,53.3,57.8,53.8,2.845,2.706,2.808,2.804,3.09,166.5,30.1,35.6,1010.35,-28.1,-0.5,1.46,26.6,37.7,31.6,0,no_anomaly,0.0,0,0,0,0,26.9124029,75.7872803,5.0,0.0
2024-05-06T06:03:02.900Z,MISSION_0008,29,0,takeoff,SITE_JAI_009,26.9124031,75.7872739,5.0,96.42,2.142,0.031,2.92,1.5873,-1.3843,96.4239,0.66614,0.01824,0.00228,0.7456,0.0615,0.0286,-9.7794,-0.7146,-0.9203,0.157,0.254,3,13,0.67,0.84,0.22,24.725,20.46,94.9,37.9,20874.0,8482,8534,8233,8488,53.0,55.6,54.5,57.8,2.556,2.811,2.968,2.798,4.3,153.3,30.2,34.7,1010.61,-27.3,-0.45,1.17,26.1,44.4,34.2,0,no_anomaly,0.0,0,0,0,0,26.9124031,75.7872739,5.0,0.0
2024-05-06T06:03:03.000Z,MISSION_0008,30,0,takeoff,SITE_JAI_009,26.9124016,75.7872761,5.0,98.68,1.793,0.083,2.67,-1.8241,-2.0024,98.6756,0.65163,0.00288,-0.02346,0.75817,0.0468,-0.1122,-9.7939,-0.5237,-0.5852,-0.1436,0.1667,3,12,0.65,0.63,0.2,24.749,20.22,94.8,37.8,20862.0,8412,8285,8561,8219,54.8,53.5,56.4,55.3,2.803,2.915,2.728,2.909,4.11,152.3,29.9,35.8,1010.74,-33.76,1.64,1.59,25.2,38.1,30.0,0,no_anomaly,0.0,0,0,0,0,26.9124016,75.7872761,5.0,0.0
2024-05-06T06:03:03.100Z,MISSION_0008,31,0,takeoff,SITE_JAI_009,26.9123998,75.7872785,5.0,98.46,1.514,0.12,2.39,1.5498,-2.5498,98.4554,0.65261,0.02568,-0.00429,0.75725,0.1427,-0.0346,-9.8569,-1.3307,0.3644,0.2108,0.1737,3,15,0.74,1.14,0.33,24.668,21.14,94.8,38.2,20850.0,8763,8655,8368,8109,58.7,53.2,56.9,52.6,2.979,2.699,3.129,2.745,3.72,164.2,30.2,35.4,1010.76,-26.68,1.44,1.32,22.1,43.0,34.1,0,no_anomaly,0.0,0,0,0,0,26.9123998,75.7872785,5.0,0.0
2024-05-06T06:03:03.200Z,MISSION_0008,32,0,takeoff,SITE_JAI_009,26.9123967,75.7872782,5.0,103.23,1.1,0.05,2.45,0.7726,-1.2956,103.233,0.62081,0.01305,-0.00174,0.78385,0.0165,-0.0367,-9.7601,-0.5525,0.1681,0.0179,0.0963,3,16,0.68,0.95,0.39,24.615,19.74,94.7,38.3,20838.0,8568,8502,8393,8249,50.1,53.0,58.0,51.9,2.724,2.658,2.495,2.736,3.83,161.2,30.4,35.4,1010.35,-31.13,-1.4,1.54,25.8,36.5,34.0,0,no_anomaly,0.0,0,0,0,0,26.9123967,75.7872782,5.0,0.0
2024-05-06T06:03:03.300Z,MISSION_0008,33,0,takeoff,SITE_JAI_009,26.9123993,75.7872767,5.0,104.7,1.28,0.052,2.6,-2.2905,-1.5619,104.7002,0.61087,-0.00142,-0.02415,0.79136,0.0821,-0.0726,-9.8133,-0.0078,-0.0428,0.4085,0.1078,3,15,0.55,0.87,0.27,24.719,12.97,94.7,38.4,20826.0,8625,8090,8457,8320,53.8,52.6,57.5,56.5,2.784,2.439,3.007,2.962,4.64,157.5,30.3,35.7,1010.52,-34.69,0.18,1.92,23.0,33.6,28.2,0,no_anomaly,0.0,0,0,0,0,26.9123993,75.7872767,5.0,0.0
2024-05-06T06:03:03.400Z,MISSION_0008,34,0,takeoff,SITE_JAI_009,26.9124009,75.7872755,5.0,105.99,1.571,0.02,2.73,0.2441,-2.5088,105.987,0.60172,0.01876,-0.01148,0.7984,-0.1109,0.0154,-9.8302,-1.3595,1.1119,0.1754,0.1836,3,12,0.74,1.04,0.2,24.632,20.45,94.6,38.0,20814.0,8469,8273,8729,8175,55.1,53.3,53.5,56.7,2.734,2.832,2.748,2.889,3.89,158.5,30.1,35.2,1010.83,-31.0,-0.48,1.45,26.3,39.1,33.1,0,no_anomaly,0.0,0,0,0,0,26.9124009,75.7872755,5.0,0.0
2024-05-06T06:03:03.500Z,MISSION_0008,35,0,takeoff,SITE_JAI_009,26.9124025,75.7872786,5.0,105.86,1.313,0.142,2.4,-2.0486,-1.0192,105.8648,0.60276,-0.00368,-0.01962,0.79767,-0.0168,-0.0086,-9.8,-0.4037,-0.2202,-0.1471,0.2469,3,17,0.58,1.13,0.2,24.66,18.4,94.6,37.9,20802.0,8431,8695,8483,8339,56.4,55.0,57.2,52.8,2.833,2.873,2.965,2.912,4.2,158.8,30.3,35.9,1010.59,-29.87,0.1,1.48,21.8,40.0,33.1,0,no_anomaly,0.0,0,0,0,0,26.9124025,75.7872786,5.0,0.0
2024-05-06T06:03:03.600Z,MISSION_0008,36,0,takeoff,SITE_JAI_009,26.9124055,75.7872734,5.0,102.61,0.992,0.18,3.02,0.8621,-2.6048,102.6125,0.62484,0.02244,-0.00834,0.78038,0.1789,0.0079,-9.7498,0.2666,0.0285,0.483,0.1665,3,13,0.66,0.98,0.25,24.635,19.75,94.5,38.9,20790.0,8362,8472,8120,8295,56.1,53.2,52.6,53.4,2.873,3.013,2.781,2.767,4.23,157.8,30.5,35.7,1009.99,-32.29,0.16,1.6,25.6,42.7,32.6,0,no_anomaly,0.0,0,0,0,0,26.9124055,75.7872734,5.0,0.0
2024-05-06T06:03:03.700Z,MISSION_0008,37,0,takeoff,SITE_JAI_009,26.9124142,75.7872698,5.0,104.32,0.603,0.056,3.72,2.302,-2.9121,104.3175,0.61275,0.03238,0.00027,0.78961,-0.3404,0.0621,-9.8694,0.0042,0.1946,-0.1197,0.111,3,13,0.74,0.81,0.42,24.625,17.48,94.4,38.0,20778.0,8461,8416,8447,8634,54.1,55.2,56.4,57.1,2.621,2.766,2.809,2.673,4.11,159.3,30.1,35.5,1010.67,-34.57,0.66,1.47,24.9,45.6,31.5,0,no_anomaly,0.0,0,0,0,0,26.9124142,75.7872698,5.0,0.0
2024-05-06T06:03:03.800Z,MISSION_0008,38,0,takeoff,SITE_JAI_009,26.912415,75.7872692,5.0,105.62,1.017,0.027,3.81,-0.6514,1.2913,105.6197,0.60436,-0.01241,0.00228,0.79661,0.0166,0.0138,-9.8335,0.8911,-0.4421,-0.1088,0.1735,3,15,0.62,0.91,0.21,24.653,17.55,94.4,38.6,20766.0,8591,8425,8862,8459,53.8,51.9,54.9,55.0,3.096,2.554,2.906,2.703,4.51,157.3,30.3,35.3,1010.5,-29.65,0.74,1.35,26.5,38.0,33.1,0,no_anomaly,0.0,0,0,0,0,26.912415,75.7872692,5.0,0.0
2024-05-06T06:03:03.900Z,MISSION_0008,39,0,takeoff,SITE_JAI_009,26.9124165,75.7872687,5.0,106.3,1.49,0.065,3.94,-3.6102,-1.4517,106.3023,0.59968,-0.00876,-0.0328,0.79952,0.2067,-0.0529,-9.8155,0.2987,0.0268,-0.1467,0.2264,3,15,0.64,0.89,0.28,24.658,16.87,94.3,37.9,20754.0,8472,8537,8265,8665,56.3,59.0,58.8,57.5,2.934,2.766,2.774,2.827,3.72,155.1,30.4,35.9,1010.38,-35.78,1.56,1.31,22.2,43.7,32.1,0,no_anomaly,0.0,0,0,0,0,26.9124165,75.7872687,5.0,0.0
2024-05-06T06:03:04.000Z,MISSION_0008,40,0,takeoff,SITE_JAI_009,26.9124113,75.7872661,5.0,105.7,1.634,0.048,3.98,-0.1467,0.7596,105.6973,0.6039,-0.00606,0.00298,0.79703,-0.2233,0.0505,-9.7955,0.697,-1.3603,0.0448,0.2082,3,17,0.72,0.6,0.22,24.62,14.4,94.3,37.7,20742.0,8337,8312,8245,8686,56.1,56.4,56.5,59.0,2.978,2.595,2.753,3.104,4.61,156.2,30.1,34.7,1010.54,-30.94,1.75,1.62,24.2,45.0,34.0,0,no_anomaly,0.0,0,0,0,0,26.9124113,75.7872661,5.0,0.0
2024-05-06T06:03:04.100Z,MISSION_0008,41,0,takeoff,SITE_JAI_009,26.9124107,75.7872668,5.0,105.09,1.41,0.106,3.89,2.7075,0.0808,105.0937,0.60796,0.01381,0.01918,0.79362,-0.0443,-0.0561,-9.7863,-0.5469,0.8111,-0.6752,0.21,3,13,0.62,1.02,0.23,24.641,19.19,94.2,39.1,20730.0,8628,8424,8515,8445,57.6,54.9,56.1,52.7,2.725,2.914,2.712,2.797,4.7,160.3,30.4,36.1,1010.53,-31.4,-0.1,1.76,27.6,36.5,33.1,0,no_anomaly,0.0,0,0,0,0,26.9124107,75.7872668,5.0,0.0
2024-05-06T06:03:04.200Z,MISSION_0008,42,0,takeoff,SITE_JAI_009,26.9124133,75.7872671,5.0,105.56,1.371,0.164,3.95,-3.5712,-0.7895,105.5613,0.60473,-0.01336,-0.02898,0.79579,0.0539,0.091,-9.8569,0.1398,0.3886,0.2776,0.219,3,10,0.72,1.04,0.34,24.715,16.2,94.2,38.9,20718.0,8775,8580,8722,8412,56.0,56.7,54.8,51.9,2.764,2.865,2.902,2.57,4.02,163.6,29.9,36.0,1010.67,-30.35,-0.49,1.71,27.8,37.5,34.1,0,no_anomaly,0.0,0,0,0,0,26.9124133,75.7872671,5.0,0.0
2024-05-06T06:03:04.300Z,MISSION_0008,43,0,takeoff,SITE_JAI_009,26.9124162,75.7872696,5.0,104.77,1.528,0.119,3.84,2.3821,-1.2774,104.7739,0.60997,0.02151,0.00966,0.79207,0.0595,0.0091,-9.6811,-0.3052,-0.9826,-0.0485,0.235,3,16,0.68,1.0,0.29,24.697,23.94,94.1,38.2,20707.0,8266,8498,8596,8563,55.7,53.9,54.8,57.0,2.794,2.747,2.997,3.001,4.46,161.7,30.3,35.6,1010.81,-31.32,-2.19,1.35,23.9,43.2,33.5,0,no_anomaly,0.0,0,0,0,0,26.9124162,75.7872696,5.0,0.0
2024-05-06T06:03:04.400Z,MISSION_0008,44,0,takeoff,SITE_JAI_009,26.9124178,75.7872649,5.0,104.6,1.685,0.097,4.38,-4.5323,-1.6031,104.6034,0.6114,-0.01312,-0.03983,0.79021,-0.1274,0.0049,-9.877,0.3394,-0.5463,-0.1575,0.0897,3,20,0.86,0.89,0.2,24.675,22.23,94.1,39.1,20695.0,8751,8800,8541,8361,54.8,53.5,56.7,59.8,2.942,2.638,2.828,2.801,4.9,149.0,30.2,36.5,1010.49,-32.62,-1.48,1.62,26.0,36.0,30.1,0,no_anomaly,0.0,0,0,0,0,26.9124178,75.7872649,5.0,0.0
2024-05-06T06:03:04.500Z,MISSION_0008,45,0,takeoff,SITE_JAI_009,26.9124186,75.7872628,5.0,106.95,1.484,0.092,4.64,-1.9467,-3.2998,106.9469,0.59526,0.01303,-0.03078,0.80284,-0.1355,-0.0711,-9.8639,-0.2256,0.4209,-0.3282,0.1968,3,10,0.81,1.28,0.32,24.607,23.72,94.0,37.9,20683.0,8529,8790,8331,8238,52.2,56.0,60.0,56.0,2.888,3.07,2.753,2.8,4.32,160.1,30.6,36.3,1010.4,-33.47,0.19,1.38,26.4,43.8,33.5,0,no_anomaly,0.0,0,0,0,0,26.9124186,75.7872628,5.0,0.0
2024-05-06T06:03:04.600Z,MISSION_0008,46,0,takeoff,SITE_JAI_009,26.9124191,75.7872626,5.0,106.67,1.204,0.131,4.68,0.2209,-1.0739,106.6659,0.59712,0.00867,-0.00405,0.80209,0.3664,-0.0414,-9.928,-0.5402,-0.3884,-0.3198,0.1554,3,11,0.62,0.78,0.2,24.633,16.9,94.0,38.6,20671.0,8537,8704,8507,8648,56.7,55.4,52.9,59.1,2.796,2.67,3.026,2.827,3.05,157.8,29.9,35.7,1010.71,-27.75,-0.67,1.15,26.0,38.0,32.4,0,no_anomaly,0.0,0,0,0,0,26.9124191,75.7872626,5.0,0.0
2024-05-06T06:03:04.700Z,MISSION_0008,47,0,takeoff,SITE_JAI_009,26.9124153,75.7872606,5.0,106.66,1.26,0.004,4.7,2.5156,-1.8934,106.6608,0.59668,0.02636,0.00774,0.80201,-0.0001,-0.0519,-9.7782,0.1553,-0.7376,-0.0254,0.1468,3,15,0.66,0.96,0.2,24.656,19.25,93.9,38.6,20659.0,8461,8488,8334,8499,55.0,56.1,54.7,55.4,2.917,3.087,2.686,2.796,2.93,166.6,30.1,35.2,1010.57,-31.33,1.52,1.0,29.9,43.6,33.5,0,no_anomaly,0.0,0,0,0,0,26.9124153,75.7872606,5.0,0.0
2024-05-06T06:03:04.800Z,MISSION_0008,48,0,takeoff,SITE_JAI_009,26.912414,75.7872611,5.0,105.57,1.219,0.109,4.61,2.5698,1.9194,105.5732,0.60485,0.00022,0.02798,0.79585,0.04,-0.0174,-9.7855,-0.5586,-0.0465,0.0706,0.1873,3,16,0.74,0.93,0.43,24.741,22.42,93.8,38.7,20647.0,8387,8192,8121,8478,55.5,57.5,57.5,55.6,2.561,2.617,2.847,2.825,4.05,162.0,30.5,35.4,1010.27,-30.96,1.03,1.59,24.4,43.3,32.2,0,no_anomaly,0.0,0,0,0,0,26.912414,75.7872611,5.0,0.0
2024-05-06T06:03:04.900Z,MISSION_0008,49,0,takeoff,SITE_JAI_009,26.9124157,75.7872646,5.0,105.06,1.343,0.072,4.31,-1.6987,-2.9575,105.0583,0.60839,0.01146,-0.02746,0.79308,-0.1107,0.0605,-9.8321,-0.3362,0.8992,0.0172,0.206,3,16,0.65,0.93,0.32,24.661,19.73,93.8,38.0,20635.0,8265,8539,8427,8354,54.9,57.6,56.0,54.7,2.998,2.654,2.784,2.64,4.15,161.8,29.9,36.1,1010.38,-30.18,-0.44,2.19,26.1,36.7,30.9,0,no_anomaly,0.0,0,0,0,0,26.9124157,75.7872646,5.0,0.0
2024-05-06T06:03:05.000Z,MISSION_0008,50,0,takeoff,SITE_JAI_009,26.9124158,75.7872591,5.0,106.23,1.604,0.159,4.88,-3.5291,-2.5997,106.2315,0.60032,-0.00034,-0.03823,0.79885,-0.1308,0.1084,-9.7118,0.5723,-0.696,-0.124,0.1493,3,15,0.72,1.05,0.26,24.581,17.64,93.7,37.0,20623.0,8452,8574,8349,8155,55.1,55.1,55.7,55.8,2.873,2.884,2.639,2.906,3.87,153.9,30.4,34.6,1010.3,-28.45,0.78,1.44,23.3,36.4,33.0,0,no_anomaly,0.0,0,0,0,0,26.9124158,75.7872591,5.0,0.0
2024-05-06T06:03:05.100Z,MISSION_0008,51,0,takeoff,SITE_JAI_009,26.9124155,75.7872555,5.0,105.85,1.596,0.146,5.24,2.832,-0.1146,105.8536,0.60263,0.01569,0.01911,0.79764,0.1538,-0.0547,-9.789,0.2959,-0.9656,-0.3766,0.1802,3,10,0.76,0.6,0.43,24.589,18.72,93.7,38.9,20611.0,8387,8199,8507,8171,55.4,53.5,55.0,57.4,2.58,2.706,3.022,2.827,3.91,154.6,30.2,36.1,1010.47,-31.83,0.28,1.43,28.0,43.2,34.5,0,no_anomaly,0.0,0,0,0,0,26.9124155,75.7872555,5.0,0.0
2024-05-06T06:03:05.200Z,MISSION_0008,52,0,takeoff,SITE_JAI_009,26.9124194,75.7872547,5.0,108.78,2.04,0.072,5.49,2.9982,-1.6594,108.7847,0.58166,0.027,0.01284,0.81288,0.0359,-0.02,-9.7074,-0.408,0.7099,-0.6384,0.1448,3,11,0.64,1.06,0.24,24.593,18.22,93.6,38.2,20599.0,8351,8503,8379,8185,55.9,59.2,53.1,57.1,2.595,2.666,2.692,2.264,4.99,158.6,30.6,35.3,1010.58,-28.01,3.24,1.56,25.0,44.4,30.6,0,no_anomaly,0.0,0,0,0,0,26.9124194,75.7872547,5.0,0.0
2024-05-06T06:03:05.300Z,MISSION_0008,53,0,takeoff,SITE_JAI_009,26.9124185,75.7872576,5.0,109.77,2.051,0.148,5.15,0.4161,-4.6358,109.7718,0.57461,0.03517,-0.0203,0.81742,0.0419,-0.0435,-9.7794,0.1379,-0.5791,-0.3293,0.1921,3,17,0.69,1.06,0.26,24.643,17.97,93.6,38.4,20587.0,8329,8488,8194,8429,57.6,53.0,54.0,55.4,2.893,2.497,2.877,2.919,3.06,157.3,30.2,35.1,1010.55,-25.07,0.01,1.22,29.7,43.3,32.4,0,no_anomaly,0.0,0,0,0,0,26.9124185,75.7872576,5.0,0.0
2024-05-06T06:03:05.400Z,MISSION_0008,54,0,takeoff,SITE_JAI_009,26.9124199,75.7872585,5.0,108.91,1.74,0.098,5.13,-1.8895,-1.3443,108.9053,0.58141,-4e-05,-0.02023,0.81336,0.0735,-0.0197,-9.8573,0.5906,-0.3307,0.2205,0.1681,3,17,0.81,1.12,0.44,24.606,19.7,93.5,38.9,20575.0,8394,8613,8388,8315,55.8,55.1,58.1,58.5,2.733,2.938,2.851,2.602,3.81,153.4,30.3,35.9,1010.86,-33.64,-1.73,1.69,28.7,45.5,32.1,0,no_anomaly,0.0,0,0,0,0,26.9124199,75.7872585,5.0,0.0
2024-05-06T06:03:05.500Z,MISSION_0008,55,0,takeoff,SITE_JAI_009,26.9124223,75.7872584,5.0,108.68,1.659,0.163,5.25,2.0707,-3.5352,108.6833,0.58213,0.03559,-0.0033,0.81231,-0.0859,0.0231,-9.8401,0.5523,0.0849,-0.082,0.1244,3,10,0.69,1.01,0.28,24.709,21.37,93.5,38.0,20563.0,8501,8472,8475,8295,53.5,55.4,55.7,50.8,2.876,2.963,2.843,2.866,3.24,173.9,30.4,35.3,1010.74,-33.74,-0.26,1.41,26.8,36.3,33.0,0,no_anomaly,0.0,0,0,0,0,26.9124223,75.7872584,5.0,0.0
2024-05-06T06:03:05.600Z,MISSION_0008,56,0,takeoff,SITE_JAI_009,26.912428,75.7872609,5.0,109.64,2.017,0.161,5.35,-0.4747,-2.6132,109.6382,0.57608,0.01625,-0.01652,0.81706,-0.0696,-0.0161,-9.9011,-0.2165,-0.1556,-0.1889,0.2406,3,19,0.62,1.06,0.25,24.646,24.48,93.4,39.0,20551.0,8190,8462,8349,8474,59.4,58.5,55.1,56.2,2.806,2.83,2.627,2.794,3.53,153.9,30.1,35.2,1010.51,-28.17,0.44,1.53,27.1,44.1,34.3,0,no_anomaly,0.0,0,0,0,0,26.912428,75.7872609,5.0,0.0
2024-05-06T06:03:05.700Z,MISSION_0008,57,0,takeoff,SITE_JAI_009,26.9124233,75.7872666,5.0,110.5,1.776,0.167,4.53,0.9177,-1.7136,110.5007,0.56981,0.01685,-0.00194,0.8216,0.1688,-0.0298,-9.8094,-0.0593,-0.3829,0.3083,0.2581,3,13,0.62,0.72,0.2,24.692,15.15,93.4,38.1,20539.0,8347,8122,8398,8500,55.3,60.1,59.9,55.4,2.948,2.741,2.829,2.54,4.01,156.3,30.1,35.6,1010.18,-31.33,-0.86,2.0,21.0,42.4,31.3,0,no_anomaly,0.0,0,0,0,0,26.9124233,75.7872666,5.0,0.0
2024-05-06T06:03:05.800Z,MISSION_0008,58,0,takeoff,SITE_JAI_009,26.9124212,75.7872732,5.0,111.67,1.483,0.098,3.8,-0.8552,0.0986,111.6686,0.56157,-0.0049,-0.00569,0.8274,-0.1711,-0.0196,-9.7888,-0.9,0.2632,0.0597,0.2342,3,19,0.55,0.79,0.2,24.713,14.3,93.3,37.2,20527.0,8461,8246,8710,8401,55.1,53.3,56.7,53.6,2.895,2.796,2.547,2.619,3.7,158.6,29.9,35.0,1010.27,-34.06,2.83,1.08,22.9,35.3,32.6,0,no_anomaly,0.0,0,0,0,0,26.9124212,75.7872732,5.0,0.0
2024-05-06T06:03:05.900Z,MISSION_0008,59,0,takeoff,SITE_JAI_009,26.9124189,75.7872712,5.0,110.99,1.187,0.037,3.83,-0.7791,-0.4509,110.9932,0.56646,-0.00061,-0.00783,0.82405,0.008,-0.0076,-9.7526,-0.1648,-0.4279,-0.0385,0.263,3,18,0.55,0.96,0.2,24.718,13.92,93.3,38.1,20515.0,8428,8890,8410,8416,53.1,59.5,58.1,53.9,2.676,2.88,2.872,2.691,4.11,162.7,30.5,36.3,1010.68,-25.79,-0.11,1.68,26.8,41.4,33.3,0,no_anomaly,0.0,0,0,0,0,26.9124189,75.7872712,5.0,0.0
2024-05-06T06:03:06.000Z,MISSION_0008,60,0,takeoff,SITE_JAI_009,26.9124212,75.7872709,5.0,112.22,1.054,0.1,4.01,0.4404,-3.9102,112.2157,0.55719,0.03046,-0.01584,0.82967,-0.2183,-0.0035,-9.7991,0.2456,-1.0507,0.6698,0.3151,3,19,0.83,0.99,0.35,24.646,20.84,93.2,39.1,20503.0,8645,8426,8456,8654,52.9,55.5,52.6,57.3,2.789,2.657,2.981,2.57,4.5,162.8,30.1,36.0,1010.62,-31.59,0.03,1.81,25.0,35.0,32.7,0,no_anomaly,0.0,0,0,0,0,26.9124212,75.7872709,5.0,0.0
2024-05-06T06:03:06.100Z,MISSION_0008,61,0,takeoff,SITE_JAI_009,26.9124203,75.7872677,5.0,113.33,1.528,0.028,4.25,-5.5835,-4.0123,113.328,0.54998,0.00246,-0.05988,0.83302,-0.0383,-0.0522,-9.884,0.0319,-0.2938,0.0761,0.1406,3,17,0.85,0.91,0.37,24.717,12.59,93.1,38.9,20491.0,8368,8398,8429,8391,57.0,57.7,51.7,56.6,2.938,2.789,2.794,2.76,4.58,167.6,30.4,35.8,1010.3,-32.49,1.0,1.23,21.2,36.2,32.3,0,no_anomaly,0.0,0,0,0,0,26.9124203,75.7872677,5.0,0.0
2024-05-06T06:03:06.200Z,MISSION_0008,62,0,takeoff,SITE_JAI_009,26.9124199,75.7872631,5.0,113.77,1.353,0.103,4.66,2.2897,-1.0412,113.7694,0.54604,0.01852,0.01177,0.83747,-0.0704,-0.0431,-9.7983,-0.4737,-0.2156,0.1415,0.1865,3,19,0.78,0.75,0.27,24.582,15.9,93.1,38.0,20479.0,8376,8543,8533,8210,53.5,57.8,54.4,54.0,2.573,2.7,2.575,2.944,3.51,159.3,30.4,36.4,1010.68,-30.62,0.89,1.49,26.4,42.4,30.2,0,no_anomaly,0.0,0,0,0,0,26.9124199,75.7872631,5.0,0.0
2024-05-06T06:03:06.300Z,MISSION_0008,63,0,takeoff,SITE_JAI_009,26.9124236,75.7872645,5.0,114.9,0.736,0.12,4.75,1.0168,-2.9318,114.8972,0.53767,0.02633,-0.00629,0.84272,0.1383,0.0793,-9.8286,-0.0778,-0.1371,0.4415,0.1968,3,10,0.72,0.74,0.27,24.628,19.3,93.0,38.4,20467.0,8489,8395,8553,8449,53.9,57.0,55.2,52.6,3.189,3.071,2.607,2.683,3.5,152.8,30.1,35.9,1010.74,-37.62,0.12,2.12,23.5,41.9,34.1,0,no_anomaly,0.0,0,0,0,0,26.9124236,75.7872645,5.0,0.0
2024-05-06T06:03:06.400Z,MISSION_0008,64,0,takeoff,SITE_JAI_009,26.9124232,75.7872616,5.0,114.64,0.777,0.084,5.0,-2.6546,0.6125,114.6415,0.53968,-0.017,-0.01661,0.84154,0.0061,0.087,-9.8476,0.291,-0.5796,-0.183,0.1271,3,19,0.63,0.78,0.21,24.693,14.36,93.0,38.1,20455.0,8344,8352,8378,8517,52.3,50.3,55.3,55.2,2.919,2.725,2.811,3.059,4.33,168.0,30.2,35.5,1010.34,-33.55,0.82,1.07,27.7,39.0,34.0,0,no_anomaly,0.0,0,0,0,0,26.9124232,75.7872616,5.0,0.0
2024-05-06T06:03:06.500Z,MISSION_0008,65,0,takeoff,SITE_JAI_009,26.912427,75.7872659,5.0,112.77,0.904,0.125,4.84,-2.3668,-3.813,112.7746,0.55372,0.01627,-0.0356,0.83178,0.0778,-0.0389,-9.8301,-1.4973,-0.5649,-0.0882,0.1785,3,13,0.62,1.06,0.23,24.664,21.72,92.9,38.2,20443.0,8265,8532,8398,8559,56.8,54.7,54.1,52.4,2.423,2.658,2.942,2.733,4.74,155.8,30.3,35.4,1010.43,-30.79,1.18,1.73,27.1,42.1,33.1,0,no_anomaly,0.0,0,0,0,0,26.912427,75.7872659,5.0,0.0
2024-05-06T06:03:06.600Z,MISSION_0008,66,0,takeoff,SITE_JAI_009,26.9124259,75.7872642,5.0,111.44,0.797,0.088,4.92,-3.2856,1.1541,111.443,0.56272,-0.02446,-0.01802,0.82609,-0.1009,-0.118,-9.7055,0.3216,0.9359,-0.2819,0.1687,3,13,0.81,0.88,0.23,24.665,12.97,92.9,38.5,20431.0,8622,8298,8320,8406,57.2,57.9,52.4,52.3,2.681,2.821,2.83,2.682,4.14,152.0,30.4,35.8,1010.57,-31.97,1.24,1.77,22.2,38.9,33.4,0,no_anomaly,0.0,0,0,0,0,26.9124259,75.7872642,5.0,0.0
2024-05-06T06:03:06.700Z,MISSION_0008,67,0,takeoff,SITE_JAI_009,26.9124243,75.7872687,5.0,113.58,0.677,0.169,4.41,-3.4774,-3.2471,113.5822,0.54794,0.00708,-0.04089,0.83549,-0.0687,-0.0034,-9.8158,-0.8591,0.7354,-0.3882,0.2382,3,10,0.81,0.91,0.29,24.586,14.39,92.8,38.9,20419.0,8475,8162,8311,8399,57.3,54.7,54.6,59.8,2.829,2.775,2.838,2.953,4.07,151.0,30.3,34.9,1010.16,-30.78,1.12,1.51,24.6,41.9,31.0,0,no_anomaly,0.0,0,0,0,0,26.9124243,75.7872687,5.0,0.0
2024-05-06T06:03:06.800Z,MISSION_0008,68,0,takeoff,SITE_JAI_009,26.9124237,75.7872662,5.0,112.52,0.535,0.081,4.6,1.4884,-2.8195,112.5182,0.55496,0.02767,-0.00287,0.83141,0.039,0.0085,-9.8155,0.2246,-0.8349,-0.3115,0.1546,3,14,0.5,1.0,0.2,24.595,12.38,92.8,38.3,20407.0,8618,8357,8674,8495,56.8,58.6,56.9,54.7,2.562,2.801,2.637,2.94,3.56,155.9,30.3,35.2,1010.38,-34.58,0.66,1.92,28.6,39.4,34.5,0,no_anomaly,0.0,0,0,0,0,26.9124237,75.7872662,5.0,0.0
2024-05-06T06:03:06.900Z,MISSION_0008,69,0,takeoff,SITE_JAI_009,26.9124222,75.7872676,5.0,113.76,0.388,0.128,4.38,2.1203,-1.0655,113.7645,0.5461,0.01789,0.01042,0.83746,0.0493,0.0044,-9.796,-0.8538,0.3917,0.0734,0.1741,3,20,0.64,1.2,0.23,24.597,19.81,92.7,38.1,20395.0,8251,8586,8492,8615,59.1,50.9,56.3,56.5,2.696,2.525,2.725,3.007,3.79,153.8,30.1,35.5,1010.48,-31.2,-0.3,1.45,26.3,45.0,31.8,0,no_anomaly,0.0,0,0,0,0,26.9124222,75.7872676,5.0,0.0
2024-05-06T06:03:07.000Z,MISSION_0008,70,0,takeoff,SITE_JAI_009,26.9124183,75.7872646,5.0,113.26,0.554,0.061,4.43,-3.7441,-0.0197,113.2557,0.54979,-0.01783,-0.02738,0.83467,0.0436,-0.0115,-9.7793,0.0441,-0.0268,-0.4338,0.1527,3,12,0.67,1.06,0.25,24.64,17.36,92.7,38.2,20383.0,8365,8238,8273,8275,57.9,54.1,53.3,56.2,2.971,2.719,2.758,2.731,3.75,156.9,30.1,35.8,1010.57,-32.0,-1.08,1.42,22.4,38.6,31.3,0,no_anomaly,0.0,0,0,0,0,26.9124183,75.7872646,5.0,0.0
2024-05-06T06:03:07.100Z,MISSION_0008,71,0,takeoff,SITE_JAI_009,26.9124146,75.7872653,5.0,114.17,0.945,0.111,4.19,0.1069,-1.9202,114.1701,0.5433,0.01457,-0.00832,0.83937,0.0293,0.0285,-9.9394,-0.9241,0.0257,0.2898,0.1478,3,15,0.66,0.78,0.31,24.575,12.32,92.6,38.0,20371.0,8326,8211,8329,8507,56.7,52.5,52.0,52.7,2.973,2.791,2.731,2.595,3.98,158.8,30.3,35.5,1010.3,-23.49,-0.85,1.66,24.2,40.6,33.2,0,no_anomaly,0.0,0,0,0,0,26.9124146,75.7872653,5.0,0.0
2024-05-06T06:03:07.200Z,MISSION_0008,72,0,takeoff,SITE_JAI_009,26.9124126,75.7872666,5.0,114.07,1.29,0.126,3.98,2.7909,-1.5434,114.0744,0.54361,0.02455,0.01311,0.83888,0.1597,-0.0148,-9.7522,0.1678,0.2349,-0.4543,0.1288,3,16,0.61,0.8,0.22,24.653,13.75,92.5,39.0,20360.0,8368,8514,8301,8496,55.3,55.9,55.4,57.7,2.624,3.015,2.726,2.941,3.86,166.3,30.3,34.8,1010.78,-30.22,0.04,1.79,22.1,34.3,30.6,0,no_anomaly,0.0,0,0,0,0,26.9124126,75.7872666,5.0,0.0
2024-05-06T06:03:07.300Z,MISSION_0008,73,0,takeoff,SITE_JAI_009,26.9124149,75.7872692,5.0,113.87,1.288,0.218,3.8,4.3346,-1.8268,113.865,0.54466,0.03398,0.023,0.83765,-0.08,0.0764,-9.9495,-0.8484,0.3745,-0.722,0.1492,3,12,0.83,0.9,0.35,24.747,16.94,92.5,37.6,20348.0,8204,8661,8170,8150,59.8,54.0,56.8,57.0,2.709,2.756,2.683,3.028,4.79,161.1,30.0,35.3,1010.46,-33.75,-0.85,1.18,22.6,39.5,34.3,0,no_anomaly,0.0,0,0,0,0,26.9124149,75.7872692,5.0,0.0
2024-05-06T06:03:07.400Z,MISSION_0008,74,0,takeoff,SITE_JAI_009,26.91242,75.7872688,5.0,111.95,0.665,0.082,4.12,5.1038,0.928,111.946,0.55931,0.01821,0.04143,0.82772,-0.1577,0.0603,-9.73,0.0738,0.7507,0.007,0.2755,3,15,0.69,0.75,0.35,24.547,17.85,92.4,38.4,20336.0,8505,8260,8403,8567,53.9,50.5,56.0,55.7,2.858,3.074,2.755,2.954,4.53,159.1,30.2,35.4,1010.45,-23.5,1.46,1.57,23.5,39.6,31.7,0,no_anomaly,0.0,0,0,0,0,26.91242,75.7872688,5.0,0.0
2024-05-06T06:03:07.500Z,MISSION_0008,75,0,takeoff,SITE_JAI_009,26.9124149,75.7872711,5.0,110.58,0.705,0.091,3.61,4.3871,-0.4474,110.5816,0.56887,0.025,0.02924,0.82153,0.0467,-0.0003,-9.7834,-0.5073,0.4163,0.3581,0.1874,3,17,0.86,0.8,0.48,24.67,13.07,92.4,37.8,20324.0,8387,8268,8517,8271,58.2,56.2,58.2,55.5,2.532,2.811,2.766,3.115,4.6,158.1,30.5,35.7,1010.41,-30.24,1.63,1.68,27.3,41.6,30.8,0,no_anomaly,0.0,0,0,0,0,26.9124149,75.7872711,5.0,0.0
2024-05-06T06:03:07.600Z,MISSION_0008,76,0,takeoff,SITE_JAI_009,26.9124138,75.787273,5.0,109.57,0.691,0.101,3.38,2.6782,-1.9005,109.5703,0.57609,0.02702,0.00953,0.81688,-0.0365,0.0098,-9.8317,0.182,-0.7622,0.6195,0.0772,3,10,0.76,1.03,0.28,24.576,20.55,92.3,38.1,20312.0,8456,8514,8516,8403,55.7,54.7,57.9,55.3,2.808,2.995,2.967,2.766,4.43,155.2,30.2,35.3,1010.37,-30.07,0.48,1.0,25.3,46.6,36.0,0,no_anomaly,0.0,0,0,0,0,26.9124138,75.787273,5.0,0.0
2024-05-06T06:03:07.700Z,MISSION_0008,77,0,takeoff,SITE_JAI_009,26.912416,75.7872695,5.0,109.6,0.802,0.096,3.83,0.8043,1.2775,109.5983,0.57646,-0.00506,0.01216,0.81702,-0.0843,-0.0334,-9.8187,-0.1961,-0.2511,0.0243,0.1643,3,20,0.69,0.7,0.34,24.621,12.86,92.3,38.9,20300.0,8143,8485,8503,8432,58.2,57.4,57.3,55.7,2.786,2.891,2.825,3.008,4.9,156.9,30.1,35.1,1010.55,-29.15,1.67,1.11,26.1,42.8,35.2,0,no_anomaly,0.0,0,0,0,0,26.912416,75.7872695,5.0,0.0
2024-05-06T06:03:07.800Z,MISSION_0008,78,0,takeoff,SITE_JAI_009,26.912415,75.7872713,5.0,110.85,0.451,0.072,3.6,-2.1683,-2.6093,110.8463,0.56762,0.00801,-0.02849,0.82276,-0.0807,-0.0509,-9.8218,0.2278,-0.8692,-0.0329,0.2118,3,11,0.78,1.06,0.3,24.604,21.79,92.2,38.6,20288.0,8460,8362,8619,8306,53.6,54.8,52.9,55.0,2.709,2.541,2.736,2.659,4.24,160.2,30.1,35.9,1010.16,-30.56,-0.17,1.45,26.3,41.8,36.0,0,no_anomaly,0.0,0,0,0,0,26.912415,75.7872713,5.0,0.0
2024-05-06T06:03:07.900Z,MISSION_0008,79,0,takeoff,SITE_JAI_009,26.9124155,75.7872733,5.0,110.67,0.357,0.091,3.44,7.003,-1.886,110.6732,0.56679,0.04824,0.04088,0.82143,0.0748,-0.0009,-9.8267,-0.1862,-1.4472,-0.1668,0.185,3,11,0.74,0.89,0.25,24.601,17.21,92.2,38.6,20276.0,8461,8394,8266,8403,51.4,55.2,55.7,55.6,2.886,2.92,2.908,2.76,3.82,157.9,30.2,35.1,1010.58,-28.63,0.42,1.25,29.1,42.4,36.0,0,no_anomaly,0.0,0,0,0,0,26.9124155,75.7872733,5.0,0.0
2024-05-06T06:03:08.000Z,MISSION_0008,80,0,takeoff,SITE_JAI_009,26.9124149,75.7872676,5.0,110.14,0.378,0.097,3.97,-2.9489,-1.0313,110.1355,0.57258,-0.00736,-0.02625,0.81939,-0.0314,0.03,-9.7877,0.5881,0.2396,0.0641,0.2068,3,13,0.66,0.94,0.3,24.496,24.26,92.1,38.4,20264.0,8402,8483,8586,8565,54.3,55.6,55.1,57.4,2.789,3.001,2.383,2.963,4.01,162.3,30.1,35.5,1010.2,-31.03,0.82,1.27,25.5,35.1,33.3,0,no_anomaly,0.0,0,0,0,0,26.9124149,75.7872676,5.0,0.0
2024-05-06T06:03:08.100Z,MISSION_0008,81,0,takeoff,SITE_JAI_009,26.9124143,75.7872639,5.0,110.82,0.074,0.1,4.32,-0.439,-2.9487,110.8175,0.56761,0.01901,-0.01776,0.82289,0.0578,-0.0164,-9.7666,-0.3738,-0.2805,0.6188,0.1162,3,19,0.8,0.76,0.28,24.585,18.98,92.1,38.1,20252.0,8486,8387,8392,8412,56.6,53.0,57.7,58.4,2.854,2.774,2.87,2.664,2.74,166.3,30.2,35.5,1010.42,-34.23,-0.4,1.41,26.9,41.3,34.7,0,no_anomaly,0.0,0,0,0,0,26.9124143,75.7872639,5.0,0.0
2024-05-06T06:03:08.200Z,MISSION_0008,82,0,transit,SITE_JAI_009,26.9124195,75.7872615,5.5,112.59,0.0,0.048,4.8,7.0009,0.5698,112.5869,0.55415,0.02975,0.05355,0.83016,-0.0316,0.0506,-9.7101,-0.2814,-0.187,0.0938,0.1114,3,11,0.72,1.04,0.2,24.555,13.56,92.0,38.6,20240.0,8513,8157,8281,8473,57.2,54.4,56.0,53.9,2.771,2.867,2.8,2.812,3.8,155.3,30.1,35.5,1010.08,-29.29,1.71,1.39,24.2,35.6,34.5,0,no_anomaly,0.0,0,0,0,0,26.9124195,75.7872615,5.5,0.0
2024-05-06T06:03:08.300Z,MISSION_0008,83,0,transit,SITE_JAI_009,26.9124215,75.7872623,6.0,112.78,0.147,0.144,4.83,-0.0062,0.1211,112.785,0.5535,-0.00091,0.00054,0.83285,0.3399,0.0661,-9.8457,0.515,-0.6073,-0.0052,0.1964,3,12,0.68,1.09,0.21,24.556,21.14,91.9,38.9,20228.0,8318,8404,8319,8635,58.2,56.3,54.0,56.1,2.916,2.997,2.783,2.947,4.5,170.5,30.0,34.8,1010.77,-28.78,0.77,1.86,25.8,39.9,31.6,0,no_anomaly,0.0,0,0,0,0,26.9124215,75.7872623,6.0,0.0
2024-05-06T06:03:08.400Z,MISSION_0008,84,0,transit,SITE_JAI_009,26.9124229,75.7872604,6.5,111.36,0.0,0.124,5.09,-0.4411,-4.4104,111.3602,0.56351,0.02961,-0.02487,0.8252,-0.0988,0.013,-9.7215,1.1618,-0.2879,0.1862,0.1178,3,10,0.58,0.99,0.3,24.566,16.28,91.9,38.0,20216.0,8543,8532,8687,8500,56.9,57.3,56.6,55.7,2.738,2.772,2.837,3.092,4.07,161.0,30.5,35.5,1010.89,-33.96,-0.39,1.42,25.8,43.3,33.2,0,no_anomaly,0.0,0,0,0,0,26.9124229,75.7872604,6.5,0.0
2024-05-06T06:03:08.500Z,MISSION_0008,85,0,transit,SITE_JAI_009,26.9124275,75.7872622,7.0,110.94,0.142,0.144,5.2,-2.1911,0.32,110.9403,0.56669,-0.01314,-0.01417,0.82371,0.0267,-0.0028,-9.7538,-0.0455,-0.3865,-0.1524,0.2712,3,18,0.65,0.89,0.28,24.543,26.01,91.8,39.0,20204.0,8311,8217,8423,8473,55.3,55.5,55.6,57.9,2.586,2.947,2.702,2.713,3.56,163.7,30.1,34.5,1010.5,-26.39,2.52,1.22,23.0,41.0,32.0,0,no_anomaly,0.0,0,0,0,0,26.9124275,75.7872622,7.0,0.0
2024-05-06T06:03:08.600Z,MISSION_0008,86,0,transit,SITE_JAI_009,26.9124304,75.7872583,7.5,110.22,0.34,0.173,5.74,-1.7533,-2.4342,110.2243,0.57204,0.00867,-0.0247,0.81981,0.2229,-0.0883,-9.8287,0.1292,0.4135,0.0473,0.1555,3,10,0.64,0.94,0.2,24.643,17.01,91.8,38.0,20192.0,8569,8607,8642,8475,52.4,52.5,59.5,54.4,2.923,2.637,2.854,2.732,3.48,157.0,30.0,35.9,1010.46,-25.95,2.73,1.63,27.5,41.7,32.3,0,no_anomaly,0.0,0,0,0,0,26.9124304,75.7872583,7.5,0.0
2024-05-06T06:03:08.700Z,MISSION_0008,87,0,transit,SITE_JAI_009,26.9124291,75.7872597,8.0,111.15,0.182,0.204,5.54,0.9463,-1.2463,111.154,0.56517,0.01364,0.00066,0.82486,0.2169,0.0049,-9.8387,-0.7167,0.204,-0.449,0.2652,3,16,0.58,0.93,0.2,24.632,21.83,91.7,38.5,20180.0,8470,8618,8499,8650,57.4,52.8,55.5,55.5,2.774,2.709,2.819,3.013,3.97,160.8,30.6,35.7,1010.7,-27.22,2.28,1.59,26.6,45.5,32.2,0,no_anomaly,0.0,0,0,0,0,26.9124291,75.7872597,8.0,0.0
2024-05-06T06:03:08.800Z,MISSION_0008,88,0,transit,SITE_JAI_009,26.9124272,75.7872586,8.5,111.98,0.002,0.034,5.51,-0.6978,-0.3357,111.9764,0.55937,-0.00098,-0.00669,0.82889,-0.0731,-0.0857,-9.8668,0.4297,0.3171,0.3091,0.1874,3,19,0.82,1.08,0.31,24.564,20.81,91.7,37.9,20168.0,8430,8564,8459,8498,55.8,52.2,51.5,52.7,2.663,2.602,3.197,2.544,4.31,162.8,30.2,35.7,1010.26,-30.4,-0.49,1.0,24.9,40.4,32.8,0,no_anomaly,0.0,0,0,0,0,26.9124272,75.7872586,8.5,0.0
2024-05-06T06:03:08.900Z,MISSION_0008,89,0,transit,SITE_JAI_009,26.9124251,75.7872614,9.0,109.94,0.0,0.047,5.13,-1.9944,-3.0591,109.944,0.57407,0.01187,-0.02956,0.81819,-0.0436,-0.0243,-9.83,-0.0812,0.152,-0.2857,0.2216,3,19,0.77,1.21,0.25,24.552,18.85,91.6,38.6,20156.0,8441,8386,8606,8542,57.2,53.9,56.1,56.5,3.127,2.884,2.815,2.734,4.23,164.3,30.3,35.8,1010.41,-29.21,0.84,1.3,22.9,38.4,30.5,0,no_anomaly,0.0,0,0,0,0,26.9124251,75.7872614,9.0,0.0
2024-05-06T06:03:09.000Z,MISSION_0008,90,0,transit,SITE_JAI_009,26.9124221,75.7872622,9.5,109.96,0.0,0.051,4.88,-0.3039,-2.0804,109.9581,0.57382,0.01335,-0.01259,0.81878,-0.0297,0.0857,-9.8263,-0.6675,-0.5326,-0.2966,0.2468,3,17,0.83,1.15,0.46,24.561,22.01,91.6,38.8,20144.0,8570,8268,8585,8440,55.7,58.1,57.6,55.1,2.971,2.785,2.795,2.832,4.17,159.8,30.5,35.6,1010.06,-29.34,0.96,1.68,24.5,40.5,34.0,0,no_anomaly,0.0,0,0,0,0,26.9124221,75.7872622,9.5,0.0
2024-05-06T06:03:09.100Z,MISSION_0008,91,0,transit,SITE_JAI_009,26.9124173,75.7872602,10.0,109.54,0.35,0.035,4.83,6.3541,-3.2498,109.538,0.57447,0.05508,0.02892,0.81616,0.1028,0.0483,-9.7848,1.3118,0.8518,0.0269,0.1428,3,15,0.75,0.79,0.28,24.545,15.55,91.5,38.8,20132.0,8541,8531,8717,8247,52.4,56.6,54.8,55.0,2.723,2.981,2.955,2.677,4.55,145.9,30.2,35.0,1010.32,-31.71,-0.02,1.7,25.7,43.0,33.5,0,no_anomaly,0.0,0,0,0,0,26.9124173,75.7872602,10.0,0.0
2024-05-06T06:03:09.200Z,MISSION_0008,92,0,transit,SITE_JAI_009,26.9124133,75.7872617,10.5,107.48,0.408,0.074,4.51,-1.7221,-2.9885,107.4757,0.59153,0.01214,-0.02753,0.80572,0.0944,0.0356,-9.8062,-0.75,-0.1864,0.301,0.1302,3,19,0.65,0.72,0.3,24.63,17.74,91.5,38.4,20120.0,8324,8506,8427,8262,55.7,55.6,55.8,56.3,2.574,2.857,2.835,2.767,3.45,157.9,30.2,34.5,1010.31,-30.04,-1.51,1.24,23.1,36.5,31.8,0,no_anomaly,0.0,0,0,0,0,26.9124133,75.7872617,10.5,0.0
2024-05-06T06:03:09.300Z,MISSION_0008,93,0,transit,SITE_JAI_009,26.9124085,75.7872652,11.0,106.23,0.791,0.149,3.98,-0.5635,-5.0773,106.2336,0.59976,0.03248,-0.03051,0.79894,0.0491,-0.0251,-9.8165,-0.017,-0.0785,-0.4639,0.1875,3,11,0.66,0.84,0.28,24.615,14.18,91.4,38.0,20108.0,8328,8267,8714,8529,54.6,55.7,57.1,56.8,2.637,3.098,2.759,2.835,4.18,156.3,30.1,35.7,1010.59,-26.32,-0.37,1.67,21.7,38.2,30.7,0,no_anomaly,0.0,0,0,0,0,26.9124085,75.7872652,11.0,0.0
2024-05-06T06:03:09.400Z,MISSION_0008,94,0,transit,SITE_JAI_009,26.9124104,75.7872669,11.5,107.65,1.148,0.117,3.86,4.1812,-2.839,107.6543,0.58892,0.04151,0.01483,0.80699,0.0547,-0.0434,-9.7691,0.0214,-0.4091,-0.0012,0.2081,3,19,0.78,0.96,0.21,24.55,20.69,91.3,38.0,20096.0,8433,8750,8413,8741,54.7,54.9,57.8,60.0,2.661,2.676,2.793,2.774,3.6,158.9,30.1,35.5,1010.49,-27.37,0.46,1.89,20.8,40.0,32.4,0,no_anomaly,0.0,0,0,0,0,26.9124104,75.7872669,11.5,0.0
2024-05-06T06:03:09.500Z,MISSION_0008,95,0,transit,SITE_JAI_009,26.912414,75.7872621,12.0,109.29,0.672,0.058,4.49,0.576,-4.5548,109.2892,0.57802,0.03531,-0.0189,0.81504,0.2561,-0.0259,-9.8345,0.5257,0.0283,-0.0391,0.2158,3,18,0.82,0.88,0.34,24.662,19.87,91.3,37.5,20084.0,8368,8615,8312,8436,55.8,54.9,54.9,53.5,2.643,2.85,2.601,2.653,4.65,158.2,30.4,35.1,1010.44,-31.47,-0.14,1.52,23.2,41.0,31.6,0,no_anomaly,0.0,0,0,0,0,26.912414,75.7872621,12.0,0.0
2024-05-06T06:03:09.600Z,MISSION_0008,96,0,transit,SITE_JAI_009,26.9124186,75.7872627,12.5,112.05,1.027,0.097,4.64,-2.4335,-1.0583,112.0466,0.55887,-0.00421,-0.02277,0.82893,-0.0015,0.0376,-9.7823,-0.7213,0.9349,-0.3138,0.1315,3,10,0.58,0.64,0.27,24.605,21.3,91.2,39.2,20072.0,8344,8642,8405,8635,54.5,55.6,57.3,58.2,2.66,2.622,2.829,3.027,3.75,157.6,30.2,34.7,1010.61,-26.64,-0.78,1.95,24.7,35.7,32.0,0,no_anomaly,0.0,0,0,0,0,26.9124186,75.7872627,12.5,0.0
2024-05-06T06:03:09.700Z,MISSION_0008,97,0,transit,SITE_JAI_009,26.9124177,75.7872581,13.0,110.95,0.752,0.015,5.06,0.9319,-0.0653,110.9531,0.56672,0.00508,0.00638,0.82387,0.0261,0.1098,-9.8063,0.0126,0.6641,-0.1814,0.1601,3,14,0.66,0.6,0.21,24.544,15.8,91.2,38.7,20060.0,8496,8361,8427,8372,55.0,56.2,54.9,51.4,2.924,2.682,2.416,2.832,4.45,157.5,30.2,35.8,1010.57,-33.51,1.24,1.26,22.1,41.6,31.5,0,no_anomaly,0.0,0,0,0,0,26.9124177,75.7872581,13.0,0.0
2024-05-06T06:03:09.800Z,MISSION_0008,98,0,transit,SITE_JAI_009,26.9124153,75.7872533,13.2,111.53,1.063,0.202,5.47,1.8446,-3.1216,111.534,0.56192,0.03157,-0.00202,0.82659,0.1412,0.0233,-9.7549,0.3444,0.0177,-0.1104,0.1623,3,17,0.7,1.29,0.33,24.557,18.85,91.1,38.3,20048.0,8705,8139,8122,8604,57.5,57.6,56.3,57.3,2.7,2.486,2.802,2.974,3.39,163.1,30.1,35.7,1010.37,-29.48,-0.15,1.35,27.4,40.9,33.3,0,no_anomaly,0.0,0,0,0,0,26.9124153,75.7872533,13.2,0.0
2024-05-06T06:03:09.900Z,MISSION_0008,99,0,transit,SITE_JAI_009,26.9124144,75.7872553,13.2,112.44,0.935,0.101,5.23,3.3019,0.7023,112.4404,0.55591,0.01093,0.02735,0.83072,0.0081,-0.0548,-9.8312,0.2192,-0.8605,0.2869,0.2375,3,11,0.75,0.76,0.3,24.542,21.02,91.1,37.8,20036.0,8572,8715,8438,8556,55.4,58.0,58.5,54.5,3.019,2.56,2.889,2.899,3.91,152.6,30.2,35.9,1011.01,-34.32,-0.28,1.0,24.7,39.6,32.1,0,no_anomaly,0.0,0,0,0,0,26.9124144,75.7872553,13.2,0.0
2024-05-06T06:03:10.000Z,MISSION_0008,100,0,transit,SITE_JAI_009,26.9124183,75.7872551,13.2,114.19,0.863,0.119,5.4,1.0892,-1.9248,114.1868,0.54304,0.01926,-0.00115,0.83949,0.0299,0.0144,-9.8091,0.0519,0.1981,-0.3874,0.1872,3,14,0.74,0.8,0.26,24.522,16.35,91.0,38.3,20024.0,8331,8472,8300,8498,56.0,55.7,54.3,55.3,2.802,2.961,2.762,2.656,4.44,158.9,30.5,35.6,1010.11,-30.67,2.23,1.31,24.7,40.7,31.5,0,no_anomaly,0.0,0,0,0,0,26.9124183,75.7872551,13.2,0.0
2024-05-06T06:03:10.100Z,MISSION_0008,101,0,transit,SITE_JAI_009,26.9124202,75.7872548,13.2,116.69,0.545,0.072,5.52,1.5502,-0.5934,116.691,0.52468,0.01151,0.0088,0.85118,0.0928,-0.0876,-9.7582,-1.1245,-0.7123,-0.5551,0.1862,3,19,0.68,1.06,0.27,24.549,16.97,91.0,38.2,20012.0,8498,8231,8234,8309,58.6,54.6,56.8,53.4,2.702,3.094,2.813,2.898,3.67,158.8,30.2,35.6,1010.43,-21.82,0.35,1.54,21.8,41.0,34.1,0,no_anomaly,0.0,0,0,0,0,26.9124202,75.7872548,13.2,0.0
2024-05-06T06:03:10.200Z,MISSION_0008,102,0,transit,SITE_JAI_009,26.9124198,75.7872501,13.2,115.29,0.905,0.152,5.97,-4.8673,-3.2982,115.2938,0.53546,0.00158,-0.05124,0.843,0.1623,-0.0823,-9.7241,-0.5493,0.3221,0.0637,0.2144,3,20,0.85,0.64,0.36,24.59,24.57,90.9,38.5,20001.0,7998,8470,8502,8543,57.6,56.8,51.8,53.0,2.71,3.222,2.691,2.772,2.86,158.5,30.3,35.8,1010.57,-30.98,-0.34,1.89,25.9,38.4,32.4,0,no_anomaly,0.0,0,0,0,0,26.9124198,75.7872501,13.2,0.0
2024-05-06T06:03:10.300Z,MISSION_0008,103,0,transit,SITE_JAI_009,26.91242,75.7872499,13.2,115.79,1.34,0.106,6.0,3.0081,-1.1762,115.7853,0.53107,0.02264,0.01678,0.84686,-0.1436,0.045,-9.8553,0.2789,-0.049,-0.4146,0.0783,3,16,0.8,0.87,0.31,24.479,25.16,90.9,39.0,19989.0,8571,8447,8787,8438,57.2,55.4,56.2,54.0,2.718,2.809,3.18,2.634,3.55,164.0,29.8,35.5,1010.46,-28.54,-0.61,1.46,23.3,39.9,32.7,0,no_anomaly,0.0,0,0,0,0,26.91242,75.7872499,13.2,0.0
2024-05-06T06:03:10.400Z,MISSION_0008,104,0,transit,SITE_JAI_009,26.9124243,75.787249,13.2,116.57,1.112,0.113,6.28,-1.0636,-1.3126,116.57,0.52573,0.00486,-0.01392,0.85053,0.2028,-0.04,-9.8163,-0.0315,-0.8755,-0.2116,0.2125,3,12,0.62,0.72,0.2,24.676,20.3,90.8,38.3,19977.0,8393,8619,8387,8562,55.1,55.9,59.8,54.7,2.685,2.814,2.829,2.886,4.8,151.0,30.3,35.5,1010.68,-34.12,0.37,1.79,27.0,43.9,35.3,0,no_anomaly,0.0,0,0,0,0,26.9124243,75.787249,13.2,0.0
2024-05-06T06:03:10.500Z,MISSION_0008,105,0,transit,SITE_JAI_009,26.9124261,75.7872468,13.2,117.14,0.553,0.189,6.6,1.7291,-1.1023,117.1403,0.52125,0.01607,0.00786,0.85322,0.1338,0.0032,-9.7322,0.0164,0.1606,-0.0819,0.0898,3,19,0.72,1.05,0.27,24.558,20.44,90.7,38.6,19965.0,8757,8640,8472,8551,54.6,56.7,57.1,54.2,2.7,2.882,2.742,2.842,4.8,159.7,30.5,35.9,1010.66,-31.39,-0.22,1.5,27.4,42.5,35.0,0,no_anomaly,0.0,0,0,0,0,26.9124261,75.7872468,13.2,0.0
2024-05-06T06:03:10.600Z,MISSION_0008,106,0,transit,SITE_JAI_009,26.9124266,75.7872451,13.2,118.12,0.845,0.138,6.79,-1.836,-2.5922,118.1249,0.51422,0.01116,-0.02537,0.85721,0.0195,-0.0148,-9.9419,0.6021,1.1764,-0.2421,0.1491,3,16,0.69,0.81,0.33,24.607,16.73,90.7,38.7,19953.0,8454,8545,8655,8312,56.6,53.3,58.8,54.2,2.636,2.837,2.598,2.79,4.09,153.7,30.2,36.0,1010.5,-27.38,1.01,1.63,23.6,35.7,31.4,0,no_anomaly,0.0,0,0,0,0,26.9124266,75.7872451,13.2,0.0
2024-05-06T06:03:10.700Z,MISSION_0008,107,0,transit,SITE_JAI_009,26.912424,75.7872427,13.2,119.55,0.892,0.082,6.91,-0.2682,-0.8581,119.5488,0.50341,0.00529,-0.00579,0.86401,-0.1392,-0.0801,-9.7551,0.6015,-0.1427,0.3035,0.2145,3,17,0.7,0.6,0.34,24.597,20.51,90.6,37.8,19941.0,8786,8457,8522,8279,54.6,55.5,56.0,56.2,2.567,3.019,2.939,2.692,4.38,159.6,30.3,35.1,1010.51,-30.22,2.38,1.64,26.4,35.0,31.2,0,no_anomaly,0.0,0,0,0,0,26.912424,75.7872427,13.2,0.0
2024-05-06T06:03:10.800Z,MISSION_0008,108,0,transit,SITE_JAI_009,26.912428,75.7872403,13.2,121.05,0.826,0.117,7.34,1.2762,-2.5792,121.0495,0.49167,0.02507,-0.00138,0.87042,0.1403,-0.0134,-9.8805,-0.0323,-0.2633,-0.2572,0.2479,3,19,0.71,0.91,0.32,24.57,22.55,90.6,39.2,19929.0,8533,8503,8538,8524,54.3,54.4,54.2,55.4,2.857,2.749,2.507,2.833,4.39,160.2,30.2,35.3,1010.57,-31.79,-2.67,1.85,23.8,36.4,30.4,0,no_anomaly,0.0,0,0,0,0,26.912428,75.7872403,13.2,0.0
2024-05-06T06:03:10.900Z,MISSION_0008,109,0,transit,SITE_JAI_009,26.912425,75.7872442,13.2,120.07,0.317,0.168,6.8,-0.6949,-1.8643,120.0661,0.49951,0.01106,-0.01338,0.86613,0.0285,-0.0132,-9.8046,1.0043,-0.9377,0.137,0.261,3,10,0.84,1.13,0.35,24.59,20.0,90.5,37.8,19917.0,8506,8365,8378,8684,56.6,53.3,57.1,56.2,2.89,2.945,2.996,2.696,3.51,156.5,30.4,34.7,1010.81,-31.45,0.49,1.42,28.6,37.6,35.7,0,no_anomaly,0.0,0,0,0,0,26.912425,75.7872442,13.2,0.0
2024-05-06T06:03:11.000Z,MISSION_0008,110,0,transit,SITE_JAI_009,26.912428,75.7872466,13.2,122.82,0.091,0.082,6.72,2.3447,-1.8535,122.8248,0.47805,0.02399,0.01023,0.87795,-0.0648,0.0065,-9.7849,0.2101,0.2843,-0.5468,0.2361,3,17,0.52,0.7,0.2,24.552,17.66,90.5,38.5,19905.0,8513,8374,8414,8347,52.5,56.5,56.8,57.5,2.91,2.702,2.722,2.876,4.17,156.4,30.4,36.1,1010.87,-31.08,-0.79,1.0,23.5,34.3,32.1,0,no_anomaly,0.0,0,0,0,0,26.912428,75.7872466,13.2,0.0
2024-05-06T06:03:11.100Z,MISSION_0008,111,0,transit,SITE_JAI_009,26.9124302,75.787246,13.2,119.87,0.054,0.123,6.89,2.8499,-2.5653,119.8693,0.50023,0.03182,0.01031,0.86525,0.1272,0.025,-9.7974,0.66,0.9015,-0.2696,0.1933,3,18,0.69,0.88,0.29,24.523,16.07,90.4,38.5,19893.0,8508,8549,8486,8674,55.7,57.7,53.3,55.1,2.694,2.767,2.793,2.898,3.45,154.9,30.2,36.0,1010.27,-28.91,-1.64,1.42,26.6,42.4,33.0,0,no_anomaly,0.0,0,0,0,0,26.9124302,75.787246,13.2,0.0
2024-05-06T06:03:11.200Z,MISSION_0008,112,0,transit,SITE_JAI_009,26.9124325,75.7872451,13.2,119.89,0.224,0.143,7.1,-2.272,-2.1366,119.8931,0.50094,0.00621,-0.02649,0.86505,0.1341,0.0625,-9.808,0.2612,-0.3526,-0.1721,0.1949,3,17,0.63,0.84,0.22,24.533,21.43,90.4,38.5,19881.0,8703,8569,8607,8459,56.4,58.3,51.5,58.1,2.715,2.474,2.896,2.835,3.57,165.6,30.1,35.2,1010.49,-31.0,-0.37,1.67,26.3,37.9,34.8,0,no_anomaly,0.0,0,0,0,0,26.9124325,75.7872451,13.2,0.0
2024-05-06T06:03:11.300Z,MISSION_0008,113,0,transit,SITE_JAI_009,26.9124325,75.7872475,13.2,121.15,0.147,0.115,6.87,0.347,-4.4046,121.1544,0.49078,0.03496,-0.01624,0.87043,-0.0169,-0.0377,-9.7469,-1.3258,0.4051,-0.3584,0.2549,3,12,0.78,0.81,0.2,24.528,17.12,90.3,38.9,19869.0,8587,8395,8387,8446,54.6,55.0,56.5,55.9,2.653,2.918,2.931,2.829,4.61,161.9,30.2,35.4,1010.2,-30.6,0.83,1.74,25.5,36.8,30.7,0,no_anomaly,0.0,0,0,0,0,26.9124325,75.7872475,13.2,0.0
2024-05-06T06:03:11.400Z,MISSION_0008,114,0,transit,SITE_JAI_009,26.912429,75.7872456,13.2,122.28,0.181,0.102,6.87,-2.5495,-1.1369,122.2796,0.48272,-0.00205,-0.02427,0.87543,-0.0944,-0.015,-9.7345,-1.0547,0.7673,-0.3273,0.2278,3,20,0.65,0.92,0.39,24.561,16.0,90.3,39.0,19857.0,8397,8275,8399,8472,54.1,51.9,55.7,56.1,2.655,2.576,2.687,2.927,4.32,151.6,30.0,35.9,1010.6,-30.23,-0.38,1.49,26.5,40.7,32.6,0,no_anomaly,0.0,0,0,0,0,26.912429,75.7872456,13.2,0.0
2024-05-06T06:03:11.500Z,MISSION_0008,115,0,transit,SITE_JAI_009,26.9124336,75.7872438,13.2,120.53,0.342,0.078,7.29,2.5545,-2.407,120.5266,0.49538,0.02929,0.00894,0.86814,0.2472,0.0969,-9.84,-0.5406,0.3999,0.0067,0.2063,3,17,0.79,0.7,0.35,24.63,19.46,90.2,39.1,19845.0,8325,8442,8600,8255,57.5,53.0,56.5,56.5,2.777,2.862,2.925,2.808,4.46,161.6,30.0,36.0,1010.43,-30.14,0.28,2.22,27.1,38.3,34.9,0,no_anomaly,0.0,0,0,0,0,26.9124336,75.7872438,13.2,0.0
2024-05-06T06:03:11.600Z,MISSION_0008,116,0,transit,SITE_JAI_009,26.9124333,75.787243,13.2,119.09,0.449,0.169,7.35,-2.1061,-1.6629,119.09,0.50695,0.00319,-0.02319,0.86166,-0.0328,-0.011,-9.8735,0.0517,-0.4926,0.6766,0.2533,3,16,0.81,0.91,0.42,24.697,21.72,90.2,38.3,19833.0,8401,8625,8645,8267,56.1,54.7,52.9,54.6,2.611,2.733,2.833,2.917,4.33,154.3,30.3,36.2,1010.98,-32.7,-0.17,1.54,26.5,43.7,33.0,0,no_anomaly,0.0,0,0,0,0,26.9124333,75.787243,13.2,0.0
2024-05-06T06:03:11.700Z,MISSION_0008,117,0,transit,SITE_JAI_009,26.9124321,75.7872507,13.2,119.57,0.472,0.119,6.55,-4.5887,-4.0697,119.5688,0.50376,0.01052,-0.05243,0.86219,0.226,0.0581,-9.8391,0.2431,-0.4151,0.0186,0.2113,3,15,0.77,0.83,0.25,24.487,20.27,90.1,38.0,19821.0,8648,8842,8581,8484,53.9,55.5,56.1,55.8,2.943,2.974,2.708,2.954,3.55,159.7,30.0,35.5,1010.75,-27.7,-0.66,1.0,28.5,38.5,36.1,0,no_anomaly,0.0,0,0,0,0,26.9124321,75.7872507,13.2,0.0
2024-05-06T06:03:11.800Z,MISSION_0008,118,0,transit,SITE_JAI_009,26.9124282,75.7872485,13.2,118.05,0.823,0.144,6.53,-0.6632,-0.1014,118.0503,0.51466,-0.00222,-0.00542,0.85738,0.0358,-0.0229,-9.845,0.1134,-0.1276,-0.0202,0.1962,3,12,0.77,0.98,0.36,24.587,16.24,90.0,38.6,19809.0,8527,8392,8534,8449,53.5,55.3,54.1,56.5,2.74,2.822,2.795,2.859,2.81,155.9,30.1,35.5,1010.51,-30.38,-0.34,1.84,28.8,38.9,33.8,0,no_anomaly,0.0,0,0,0,0,26.9124282,75.7872485,13.2,0.0
2024-05-06T06:03:11.900Z,MISSION_0008,119,0,transit,SITE_JAI_009,26.9124219,75.7872517,13.2,118.05,1.006,0.09,5.9,-3.1444,-3.2879,118.0532,0.51491,0.01047,-0.03827,0.85633,-0.1611,-0.0313,-9.8086,-0.9434,0.4163,-0.2159,0.1271,3,17,0.71,0.83,0.27,24.545,19.84,90.0,38.8,19797.0,8449,8710,8526,8522,59.3,53.2,57.2,55.1,2.755,2.924,2.708,2.704,4.05,160.9,30.0,35.0,1010.35,-34.63,0.4,1.3,25.3,38.7,35.0,0,no_anomaly,0.0,0,0,0,0,26.9124219,75.7872517,13.2,0.0
2024-05-06T06:03:12.000Z,MISSION_0008,120,0,transit,SITE_JAI_009,26.9124231,75.7872499,13.2,116.68,0.629,0.051,6.14,4.0499,-2.034,116.6768,0.52396,0.03364,0.02076,0.85083,-0.0527,0.0364,-9.8528,0.6751,0.0996,0.2182,0.2147,3,13,0.59,0.7,0.2,24.477,21.43,89.9,38.8,19785.0,8224,8326,8291,8402,55.7,55.9,58.9,53.8,2.628,2.754,2.792,2.802,4.42,154.5,30.4,35.8,1010.58,-27.26,-0.03,1.03,24.1,37.3,33.1,0,no_anomaly,0.0,0,0,0,0,26.9124231,75.7872499,13.2,0.0
2024-05-06T06:03:12.100Z,MISSION_0008,121,0,transit,SITE_JAI_009,26.9124251,75.7872474,13.2,118.59,0.868,0.141,6.49,7.2272,-4.2245,118.5913,0.50725,0.06379,0.03537,0.85871,0.0301,0.0536,-9.8059,0.255,-0.3396,0.2879,0.1577,3,17,0.63,0.6,0.27,24.458,11.26,89.9,38.8,19773.0,8640,8381,8468,8450,55.3,51.6,55.0,57.4,2.982,2.925,2.754,2.841,3.65,163.4,30.4,35.5,1010.65,-36.56,-0.66,1.42,26.0,42.8,33.5,0,no_anomaly,0.0,0,0,0,0,26.9124251,75.7872474,13.2,0.0
2024-05-06T06:03:12.200Z,MISSION_0008,122,0,transit,SITE_JAI_009,26.9124255,75.7872447,13.2,119.74,0.725,0.154,6.78,3.9511,-3.6714,119.7397,0.50045,0.04498,0.01373,0.86448,0.0007,0.0475,-9.8181,-0.6191,-0.2003,-0.0883,0.1702,3,15,0.59,0.74,0.25,24.564,21.13,89.8,37.8,19761.0,8537,8548,8338,8363,52.7,53.2,59.9,55.9,2.818,2.973,3.051,2.572,3.44,151.0,30.1,34.4,1010.53,-33.01,0.62,1.61,25.3,39.1,32.6,0,no_anomaly,0.0,0,0,0,0,26.9124255,75.7872447,13.2,0.0
2024-05-06T06:03:12.300Z,MISSION_0008,123,0,transit,SITE_JAI_009,26.9124235,75.7872421,13.2,120.72,0.856,0.069,6.96,1.119,-2.8958,120.7206,0.49415,0.02679,-0.00401,0.86896,-0.2143,0.0222,-9.7761,0.4916,0.5442,0.7797,0.0155,3,17,0.7,0.83,0.2,24.499,17.92,89.8,38.3,19749.0,8671,8423,8903,8458,57.3,57.8,57.0,55.6,2.673,2.767,2.748,2.833,4.6,165.1,30.0,35.5,1010.25,-27.68,1.5,1.31,23.6,40.9,32.6,0,no_anomaly,0.0,0,0,0,0,26.9124235,75.7872421,13.2,0.0
2024-05-06T06:03:12.400Z,MISSION_0008,124,0,transit,SITE_JAI_009,26.9124242,75.7872415,13.2,120.38,1.353,-0.037,7.04,-0.7377,1.4098,120.3789,0.49702,-0.01387,0.00053,0.86763,-0.0626,0.0353,-9.7692,-0.1652,0.2494,0.0573,0.1609,3,13,0.75,0.94,0.41,24.616,16.14,89.7,37.8,19737.0,8437,8617,8544,8455,52.5,53.6,54.3,53.5,2.868,3.001,2.869,2.934,4.62,163.3,30.2,35.8,1010.43,-30.91,1.44,1.7,26.5,35.2,30.5,0,no_anomaly,0.0,0,0,0,0,26.9124242,75.7872415,13.2,0.0
2024-05-06T06:03:12.500Z,MISSION_0008,125,0,transit,SITE_JAI_009,26.9124192,75.7872418,13.2,119.76,1.568,0.116,6.82,2.1489,-0.2384,119.7645,0.50166,0.01121,0.01518,0.86486,-0.2217,0.0729,-9.8036,-0.086,0.6412,-0.4412,0.2161,3,14,0.8,1.24,0.27,24.647,22.37,89.7,38.1,19725.0,8432,8586,8543,8519,55.3,54.9,56.2,56.4,2.945,2.762,2.792,2.936,3.89,154.2,30.3,36.1,1010.7,-30.33,1.2,1.59,26.7,39.6,33.8,0,no_anomaly,0.0,0,0,0,0,26.9124192,75.7872418,13.2,0.0
2024-05-06T06:03:12.600Z,MISSION_0008,126,0,transit,SITE_JAI_009,26.9124169,75.7872445,13.2,119.82,1.572,0.105,6.45,-2.701,0.2158,119.8185,0.50119,-0.01345,-0.01945,0.86501,0.1922,0.0442,-9.831,-0.0313,-0.991,0.3087,0.1726,3,11,0.7,0.91,0.25,24.529,20.57,89.6,39.5,19713.0,8570,8383,8432,8660,55.3,56.5,55.1,52.7,2.832,3.006,2.965,2.87,3.5,155.3,30.2,36.0,1010.71,-32.74,-0.37,1.52,27.1,37.9,31.3,0,no_anomaly,0.0,0,0,0,0,26.9124169,75.7872445,13.2,0.0
2024-05-06T06:03:12.700Z,MISSION_0008,127,0,transit,SITE_JAI_009,26.9124187,75.787239,13.2,116.8,0.867,0.131,7.11,-3.4865,-4.4319,116.8029,0.52433,0.01699,-0.04614,0.85009,-0.0313,0.0101,-9.8306,-0.5639,0.7287,0.009,0.2538,3,19,0.7,0.98,0.26,24.513,17.09,89.6,38.3,19701.0,8265,8364,8505,8564,53.9,53.5,57.0,55.3,2.854,2.75,2.819,3.034,4.07,160.0,30.1,35.8,1010.7,-30.23,-1.19,1.86,26.7,44.2,30.3,0,no_anomaly,0.0,0,0,0,0,26.9124187,75.787239,13.2,0.0
2024-05-06T06:03:12.800Z,MISSION_0008,128,0,transit,SITE_JAI_009,26.9124147,75.7872406,13.2,117.27,0.513,0.081,6.82,-4.7678,-0.9091,117.274,0.52027,-0.01488,-0.03964,0.85295,0.0744,0.0142,-9.8004,-0.3288,0.198,-0.1156,0.1303,3,19,0.82,1.07,0.43,24.607,18.25,89.5,38.8,19689.0,8493,8429,8594,8574,56.0,54.0,53.8,57.4,3.123,2.989,2.749,2.896,3.01,153.5,30.2,35.6,1010.5,-25.53,1.08,1.38,27.2,36.2,34.8,0,no_anomaly,0.0,0,0,0,0,26.9124147,75.7872406,13.2,0.0
2024-05-06T06:03:12.900Z,MISSION_0008,129,0,transit,SITE_JAI_009,26.9124149,75.7872414,13.2,117.54,0.42,0.155,6.73,2.0825,-0.6268,117.5432,0.51827,0.0141,0.0127,0.855,-0.0959,-0.0053,-9.8502,0.106,0.5428,0.2172,0.2743,3,16,0.72,0.85,0.2,24.635,18.27,89.4,38.7,19677.0,8533,8683,8299,8509,56.8,53.7,55.4,53.3,2.828,2.808,2.545,2.557,4.23,159.8,30.6,35.3,1010.62,-28.73,0.58,1.39,24.1,43.2,31.9,0,no_anomaly,0.0,0,0,0,0,26.9124149,75.7872414,13.2,0.0
