timestamp_utc,mission_id,frame_id,waypoint_id,inspection_phase,site_id,latitude_deg,longitude_deg,altitude_m,heading_deg,ground_speed_ms,vertical_speed_ms,distance_to_tower_m,roll_deg,pitch_deg,yaw_deg,quat_w,quat_x,quat_y,quat_z,accel_x_ms2,accel_y_ms2,accel_z_ms2,gyro_x_rads,gyro_y_rads,gyro_z_rads,vibration_level,gps_fix_type,gps_satellite_count,gps_hdop,gps_vdop,position_error_m,battery_voltage_v,battery_current_a,battery_remaining_pct,battery_temp_c,battery_capacity_mah,motor_fl_rpm,motor_fr_rpm,motor_rl_rpm,motor_rr_rpm,motor_fl_temp_c,motor_fr_temp_c,motor_rl_temp_c,motor_rr_temp_c,motor_fl_thrust_n,motor_fr_thrust_n,motor_rl_thrust_n,motor_rr_thrust_n,wind_speed_ms,wind_dir_deg,air_temp_c,humidity_pct,pressure_hpa,gimbal_pitch_deg,gimbal_roll_deg,zoom_factor,ir_temp_min_c,ir_temp_max_c,ir_temp_avg_c,anomaly_detected,anomaly_class,anomaly_confidence,anomaly_bbox_x,anomaly_bbox_y,anomaly_bbox_w,anomaly_bbox_h,anomaly_gps_lat,anomaly_gps_lon,anomaly_gps_alt_m,ir_temp_delta_c
2024-01-03T14:34:00.000Z,MISSION_0049,0,0,takeoff,SITE_LKN_010,26.8467023,80.9461976,1.5,273.66,0.0,0.102,0.37,-1.5851,-2.043,273.6638,-0.729,0.02228,0.00354,0.68415,0.115,-0.0216,-9.7565,1.2112,-0.1981,0.1987,0.1693,3,14,0.78,0.8,0.43,24.737,17.7,99.2,45.9,21821.0,7612,7680,7748,7770,61.7,57.7,60.5,63.5,2.768,2.938,2.904,2.522,2.19,274.4,38.1,65.1,1009.97,-28.81,-0.44,1.74,31.1,46.4,40.3,0,no_anomaly,0.0,0,0,0,0,26.8467023,80.9461976,1.5,0.0
2024-01-03T14:34:00.100Z,MISSION_0049,1,0,takeoff,SITE_LKN_010,26.8467025,80.9461969,3.0,276.18,0.0,0.069,0.44,1.2972,-3.262,276.1818,-0.74407,0.01059,0.02874,0.6674,0.0178,-0.0759,-9.7772,-0.4247,-0.9202,-0.102,0.0854,3,14,0.75,0.71,0.35,24.654,21.37,99.1,45.5,21809.0,7666,7678,7722,7581,62.3,61.1,68.4,61.3,2.743,2.851,2.748,2.865,2.66,265.2,38.0,64.1,1010.6,-31.93,0.97,1.34,31.6,47.9,41.6,0,no_anomaly,0.0,0,0,0,0,26.8467025,80.9461969,3.0,0.0
2024-01-03T14:34:00.200Z,MISSION_0049,2,0,takeoff,SITE_LKN_010,26.8467008,80.9461968,4.5,276.02,0.0,0.154,0.36,-0.2376,-3.6405,276.0223,-0.74285,0.02279,0.02222,0.6687,-0.0236,-0.0373,-9.7555,-1.1866,0.0328,0.6448,0.0638,3,17,0.77,0.89,0.33,24.806,22.43,99.1,45.1,21796.0,7697,7749,7799,7847,63.4,60.2,67.0,63.5,2.774,2.666,2.648,2.498,2.0,274.5,38.0,63.5,1010.06,-27.47,-0.1,1.83,31.7,44.1,39.7,0,no_anomaly,0.0,0,0,0,0,26.8467008,80.9461968,4.5,0.0
2024-01-03T14:34:00.300Z,MISSION_0049,3,0,takeoff,SITE_LKN_010,26.8466986,80.9461963,5.0,276.3,0.38,0.06,0.44,-0.2026,-4.2202,276.2957,-0.74432,0.02588,0.02625,0.66681,0.0287,-0.0244,-9.9139,-0.107,0.4421,-0.1554,0.143,3,15,0.55,0.82,0.2,24.777,20.12,99.0,45.7,21784.0,8086,7529,7506,7823,62.6,65.3,59.6,65.5,2.843,2.707,2.579,2.894,2.46,262.9,38.1,64.2,1010.1,-33.51,1.51,1.41,33.7,44.0,40.9,0,no_anomaly,0.0,0,0,0,0,26.8466986,80.9461963,5.0,0.0
2024-01-03T14:34:00.400Z,MISSION_0049,4,0,takeoff,SITE_LKN_010,26.8467066,80.946198,5.0,278.17,0.574,0.086,0.77,0.2088,4.0342,278.1692,-0.75517,-0.02443,-0.02541,0.65459,0.0934,-0.0154,-9.7628,0.1811,0.4401,0.5175,0.1802,3,15,0.58,1.01,0.2,24.723,20.55,99.0,45.6,21772.0,7781,7493,7713,7748,63.3,62.5,60.9,63.1,2.753,2.67,2.875,2.898,1.98,264.8,37.6,64.5,1010.39,-34.62,0.07,1.42,33.8,47.4,41.7,0,no_anomaly,0.0,0,0,0,0,26.8467066,80.946198,5.0,0.0
2024-01-03T14:34:00.500Z,MISSION_0049,5,0,takeoff,SITE_LKN_010,26.8467095,80.9461996,5.0,277.49,0.669,0.132,1.06,-2.3609,-2.6133,277.4922,-0.75113,0.03052,0.00356,0.65944,0.0721,-0.0427,-9.8533,-1.1687,-0.1883,0.367,0.1413,3,16,0.83,0.87,0.35,24.773,16.23,98.9,45.6,21760.0,7692,7496,7758,7603,62.3,62.2,63.7,62.4,2.903,2.658,2.937,2.876,2.35,270.4,37.8,64.8,1010.23,-32.98,-1.65,1.62,32.4,52.7,40.7,0,no_anomaly,0.0,0,0,0,0,26.8467095,80.9461996,5.0,0.0
2024-01-03T14:34:00.600Z,MISSION_0049,6,0,takeoff,SITE_LKN_010,26.8467123,80.9461999,5.0,276.87,1.245,0.046,1.37,-0.4661,-4.6895,276.8696,-0.74746,0.03018,0.02791,0.66304,-0.0053,0.097,-9.8119,-0.101,0.3053,-0.454,0.0417,3,13,0.69,1.09,0.24,24.736,23.57,98.9,45.7,21747.0,7722,7731,7761,7869,62.1,65.4,60.4,63.8,2.616,2.476,2.597,2.893,2.27,263.2,37.9,64.6,1010.22,-27.35,-2.18,1.62,34.9,44.9,42.1,0,no_anomaly,0.0,0,0,0,0,26.8467123,80.9461999,5.0,0.0
2024-01-03T14:34:00.700Z,MISSION_0049,7,0,takeoff,SITE_LKN_010,26.8467087,80.9461998,5.0,274.89,0.45,0.097,0.96,-0.8107,1.2462,274.8881,-0.73661,-0.00214,-0.01279,0.6762,0.0064,-0.0308,-9.7797,0.3033,-0.3982,0.1196,0.1898,3,10,0.71,0.97,0.2,24.725,17.13,98.8,44.8,21735.0,7682,7965,7552,7794,64.6,64.1,67.0,65.8,2.842,2.895,2.916,2.616,1.89,278.9,37.6,64.7,1010.75,-28.94,-1.49,1.25,32.1,50.5,41.3,0,no_anomaly,0.0,0,0,0,0,26.8467087,80.9461998,5.0,0.0
2024-01-03T14:34:00.800Z,MISSION_0049,8,0,takeoff,SITE_LKN_010,26.8467026,80.9461967,5.0,274.09,0.09,0.177,0.47,0.5317,-0.3437,274.0905,-0.73189,-0.00135,0.00536,0.6814,-0.016,-0.0505,-9.756,0.3802,-0.3669,-0.1157,0.1118,3,19,0.72,0.9,0.44,24.842,15.19,98.7,44.6,21723.0,7648,7922,7591,7915,60.7,63.6,63.5,63.1,2.895,3.074,2.784,2.883,1.71,271.0,38.1,64.6,1010.44,-36.24,0.18,1.38,30.2,48.3,39.4,0,no_anomaly,0.0,0,0,0,0,26.8467026,80.9461967,5.0,0.0
2024-01-03T14:34:00.900Z,MISSION_0049,9,0,takeoff,SITE_LKN_010,26.8467038,80.9461993,5.0,273.88,0.0,0.107,0.43,2.6525,-3.1979,273.8761,-0.73058,0.00214,0.03618,0.68187,0.0517,0.0094,-9.801,0.3044,-0.6818,0.4317,0.1493,3,19,0.66,0.77,0.2,24.685,14.87,98.7,45.6,21710.0,7912,7673,7854,7484,64.4,63.6,61.5,62.3,2.872,2.66,2.679,2.891,1.78,266.7,37.5,64.1,1010.54,-23.62,-1.08,1.43,34.4,49.1,42.2,0,no_anomaly,0.0,0,0,0,0,26.8467038,80.9461993,5.0,0.0
2024-01-03T14:34:01.000Z,MISSION_0049,10,0,takeoff,SITE_LKN_010,26.8467026,80.9461993,5.0,272.73,0.0,0.124,0.3,1.0814,-2.3139,272.7275,-0.72369,0.0071,0.02112,0.68977,-0.1375,0.0146,-9.7804,0.8299,-0.1394,-0.1821,0.1736,3,11,0.71,0.97,0.25,24.793,16.0,98.6,47.0,21698.0,7442,7661,7645,7852,63.5,61.1,63.2,59.3,3.013,2.9,2.648,2.808,2.19,267.0,37.6,64.3,1010.36,-26.9,-0.15,1.84,32.8,48.1,39.8,0,no_anomaly,0.0,0,0,0,0,26.8467026,80.9461993,5.0,0.0
2024-01-03T14:34:01.100Z,MISSION_0049,11,0,takeoff,SITE_LKN_010,26.8467043,80.9462002,5.0,272.06,0.0,0.119,0.48,0.5789,-1.4414,272.0574,-0.71967,0.0051,0.01256,0.69419,0.0122,0.0441,-9.7787,-0.3693,0.0931,-0.0846,0.086,3,11,0.79,0.95,0.3,24.671,18.63,98.6,45.8,21686.0,7789,7779,7837,7939,63.0,65.5,61.5,61.6,2.736,2.796,2.743,2.739,1.81,266.4,37.7,63.7,1010.29,-30.11,0.43,1.6,30.0,43.7,41.9,0,no_anomaly,0.0,0,0,0,0,26.8467043,80.9462002,5.0,0.0
2024-01-03T14:34:01.200Z,MISSION_0049,12,0,takeoff,SITE_LKN_010,26.8467084,80.946204,5.0,270.72,0.0,0.109,1.04,-0.1801,1.4169,270.7235,-0.71152,-0.00757,-0.0099,0.70256,0.0689,0.0971,-9.7482,0.4929,0.6094,0.0475,0.1871,3,16,0.5,1.25,0.22,24.777,16.49,98.5,46.0,21673.0,7617,7719,7664,7533,65.5,64.0,61.6,61.8,2.886,2.758,2.68,2.841,2.47,281.8,38.0,63.5,1010.6,-35.29,-0.46,1.79,35.0,50.7,40.7,0,no_anomaly,0.0,0,0,0,0,26.8467084,80.946204,5.0,0.0
2024-01-03T14:34:01.300Z,MISSION_0049,13,0,takeoff,SITE_LKN_010,26.8467089,80.9462017,5.0,271.79,0.0,0.157,1.01,-4.3898,-0.1291,271.79,-0.71751,0.02828,-0.02585,0.6955,0.1111,0.0507,-9.8324,0.3779,-0.0401,-0.0104,0.134,3,10,0.73,0.77,0.35,24.744,17.31,98.5,46.6,21661.0,8074,7570,7585,7955,63.6,62.8,62.1,61.6,2.887,2.565,2.792,2.604,2.12,266.9,37.7,64.1,1010.6,-33.29,-2.06,1.13,30.9,52.5,39.1,0,no_anomaly,0.0,0,0,0,0,26.8467089,80.9462017,5.0,0.0
2024-01-03T14:34:01.400Z,MISSION_0049,14,0,takeoff,SITE_LKN_010,26.8467018,80.9462042,5.0,270.79,0.0,0.086,0.51,1.7355,-0.8271,270.7865,-0.71192,-0.00571,0.01577,0.70206,0.0183,-0.0624,-9.798,0.3153,-0.2045,0.0143,0.1058,3,17,0.63,0.75,0.2,24.786,17.87,98.4,45.4,21649.0,7693,7888,7565,7803,64.5,60.6,64.3,66.8,2.37,2.831,2.706,2.969,1.92,270.5,38.1,64.3,1010.3,-33.58,0.35,1.66,34.7,46.4,41.4,0,no_anomaly,0.0,0,0,0,0,26.8467018,80.9462042,5.0,0.0
2024-01-03T14:34:01.500Z,MISSION_0049,15,0,takeoff,SITE_LKN_010,26.8467013,80.9462073,5.0,268.72,0.249,0.102,0.83,1.1939,0.1173,268.7228,-0.69914,-0.00802,0.00673,0.71491,0.1559,-0.0611,-9.8647,-0.0845,0.352,0.3142,0.1466,3,17,0.7,1.05,0.27,24.746,18.47,98.3,47.3,21637.0,7661,7829,7663,7930,67.4,61.1,62.4,63.1,2.961,2.953,2.758,2.642,2.2,267.9,37.7,64.1,1010.38,-26.72,-1.55,1.12,31.8,41.9,38.7,0,no_anomaly,0.0,0,0,0,0,26.8467013,80.9462073,5.0,0.0
2024-01-03T14:34:01.600Z,MISSION_0049,16,0,takeoff,SITE_LKN_010,26.8466963,80.9462075,5.0,267.3,0.39,0.096,0.93,1.4678,-3.7772,267.297,-0.69011,0.01501,0.03201,0.72284,0.0141,0.0148,-9.774,-0.0934,-0.4529,-0.4534,0.1242,3,13,0.58,0.77,0.34,24.839,14.21,98.3,46.7,21624.0,7909,7779,7777,7807,65.5,60.8,66.0,64.2,2.828,2.845,2.875,2.778,2.85,267.0,37.7,63.5,1010.57,-24.56,0.08,1.55,30.7,48.2,39.2,0,no_anomaly,0.0,0,0,0,0,26.8466963,80.9462075,5.0,0.0
2024-01-03T14:34:01.700Z,MISSION_0049,17,0,takeoff,SITE_LKN_010,26.8467012,80.9462028,5.0,266.1,0.829,0.089,0.34,-1.6922,-4.561,266.1035,-0.68161,0.03915,0.01638,0.73048,-0.0456,0.0255,-9.8849,-0.2406,0.4539,-0.165,0.1681,3,14,0.75,0.79,0.37,24.655,24.15,98.2,45.5,21612.0,7558,7964,7436,7884,59.7,64.2,62.2,64.0,2.734,2.846,3.19,3.026,2.21,263.8,37.9,64.2,1010.29,-26.08,-0.13,1.0,31.2,47.5,43.6,0,no_anomaly,0.0,0,0,0,0,26.8467012,80.9462028,5.0,0.0
2024-01-03T14:34:01.800Z,MISSION_0049,18,0,takeoff,SITE_LKN_010,26.8466977,80.9462041,5.0,267.49,0.893,0.112,0.52,0.3244,-3.1155,267.4929,-0.69127,0.01768,0.02084,0.72208,0.0776,-0.0478,-9.8962,0.4621,-0.3521,-0.4172,0.1633,3,19,0.72,1.12,0.27,24.706,17.11,98.2,45.4,21600.0,7844,8026,7870,7612,61.8,61.4,61.3,65.2,2.621,2.601,2.895,2.996,1.8,258.8,37.7,64.4,1010.57,-25.58,-0.5,1.49,30.0,48.9,39.7,0,no_anomaly,0.0,0,0,0,0,26.8466977,80.9462041,5.0,0.0
2024-01-03T14:34:01.900Z,MISSION_0049,19,0,takeoff,SITE_LKN_010,26.8466983,80.9462025,5.0,267.17,0.947,0.074,0.34,3.1767,-1.2586,267.1727,-0.68936,-0.01116,0.02765,0.7238,-0.127,0.0201,-9.8824,-0.1271,-0.2324,0.0002,0.1005,3,17,0.6,1.08,0.2,24.71,16.44,98.1,46.2,21587.0,7616,7752,7595,7883,61.9,61.0,65.0,60.0,2.79,2.704,2.563,2.914,2.93,271.0,37.6,63.9,1010.01,-25.25,1.41,1.33,31.1,42.9,39.3,0,no_anomaly,0.0,0,0,0,0,26.8466983,80.9462025,5.0,0.0
2024-01-03T14:34:02.000Z,MISSION_0049,20,0,takeoff,SITE_LKN_010,26.8466971,80.946203,5.0,263.87,0.467,0.039,0.47,2.9209,-4.3562,263.8733,-0.66833,0.01124,0.04434,0.74246,-0.0397,0.0689,-9.8025,0.8598,-0.0064,-0.304,0.1998,3,12,0.88,1.09,0.42,24.767,17.96,98.1,46.3,21575.0,7874,7783,7842,7518,61.5,64.9,64.1,66.1,2.392,2.723,3.04,2.88,1.12,273.9,37.6,64.6,1010.43,-31.97,1.3,1.72,33.4,51.8,38.6,0,no_anomaly,0.0,0,0,0,0,26.8466971,80.946203,5.0,0.0
2024-01-03T14:34:02.100Z,MISSION_0049,21,0,takeoff,SITE_LKN_010,26.8466945,80.946205,5.0,263.21,0.518,0.105,0.83,-0.3139,-2.3566,263.2127,-0.66382,0.01719,0.01161,0.7476,0.15,0.0022,-9.8023,-0.6958,0.413,0.425,0.1465,3,12,0.6,0.99,0.22,24.775,17.9,98.0,45.1,21563.0,7783,7843,7797,7873,64.5,61.5,62.8,66.1,2.829,2.853,3.087,2.801,1.7,272.9,37.9,64.8,1010.26,-34.31,-0.02,1.43,32.8,47.4,38.7,0,no_anomaly,0.0,0,0,0,0,26.8466945,80.946205,5.0,0.0
2024-01-03T14:34:02.200Z,MISSION_0049,22,0,takeoff,SITE_LKN_010,26.8466911,80.9462089,5.0,265.04,0.673,0.064,1.4,2.0577,-0.3059,265.0402,-0.67577,-0.01017,0.01504,0.73689,0.1663,-0.0224,-9.8327,0.961,0.7376,-0.1207,0.1727,3,18,0.68,1.1,0.29,24.758,15.84,98.0,45.5,21551.0,7754,7612,7580,7986,63.3,62.9,64.1,62.2,2.902,2.582,2.768,2.892,1.81,262.1,38.1,64.2,1010.31,-30.23,0.66,1.72,32.9,43.4,40.2,0,no_anomaly,0.0,0,0,0,0,26.8466911,80.9462089,5.0,0.0
2024-01-03T14:34:02.300Z,MISSION_0049,23,0,takeoff,SITE_LKN_010,26.8466874,80.9462087,5.0,265.94,0.879,0.118,1.7,-1.1174,-3.0122,265.9367,-0.68114,0.02588,0.01078,0.73162,0.0745,-0.0258,-9.8746,-0.1711,-0.3129,-0.3332,0.0758,3,16,0.69,0.77,0.26,24.755,15.79,97.9,46.6,21538.0,7503,8102,7850,7752,58.8,61.5,62.7,61.3,2.63,3.006,2.855,2.766,3.34,260.7,37.8,64.1,1010.47,-25.98,0.53,1.0,35.7,46.7,40.7,0,no_anomaly,0.0,0,0,0,0,26.8466874,80.9462087,5.0,0.0
2024-01-03T14:34:02.400Z,MISSION_0049,24,0,takeoff,SITE_LKN_010,26.8466845,80.9462112,5.0,265.42,1.163,0.067,2.13,-0.8708,-0.8864,265.4222,-0.67822,0.01084,-0.00034,0.73478,-0.1717,0.0421,-9.8256,-0.3821,0.1158,0.4154,0.1303,3,15,0.75,0.6,0.25,24.741,18.32,97.8,46.0,21526.0,7668,7656,7612,7724,62.7,63.9,62.3,63.8,2.699,2.806,2.599,2.891,2.12,268.1,37.5,63.5,1010.5,-31.72,-0.62,1.19,35.2,46.4,40.2,0,no_anomaly,0.0,0,0,0,0,26.8466845,80.9462112,5.0,0.0
2024-01-03T14:34:02.500Z,MISSION_0049,25,0,takeoff,SITE_LKN_010,26.8466829,80.9462094,5.0,263.74,0.767,0.078,2.17,0.3709,-2.7002,263.7397,-0.66731,0.01539,0.01814,0.7444,-0.0397,0.0619,-9.6999,-0.0659,-0.6455,0.081,0.1343,3,20,0.63,0.8,0.2,24.828,18.56,97.8,45.8,21514.0,7655,7727,7769,7751,61.3,63.0,66.6,61.6,2.726,2.858,2.964,2.58,2.07,270.1,37.7,64.3,1010.63,-30.49,1.29,2.51,31.3,46.3,40.7,0,no_anomaly,0.0,0,0,0,0,26.8466829,80.9462094,5.0,0.0
2024-01-03T14:34:02.600Z,MISSION_0049,26,0,takeoff,SITE_LKN_010,26.8466825,80.9462057,5.0,263.35,0.651,0.12,2.04,-0.8343,-0.2243,263.3501,-0.66488,0.0063,-0.00414,0.74692,-0.1062,-0.0972,-9.8154,-1.1937,-0.2506,0.0747,0.1327,3,13,0.72,0.75,0.2,24.676,20.71,97.7,45.9,21501.0,7857,7754,7868,7704,64.2,61.4,64.2,62.4,2.406,2.795,2.757,2.92,1.93,268.0,37.7,64.2,1010.25,-30.43,1.84,2.48,32.9,45.1,36.9,0,no_anomaly,0.0,0,0,0,0,26.8466825,80.9462057,5.0,0.0
2024-01-03T14:34:02.700Z,MISSION_0049,27,0,takeoff,SITE_LKN_010,26.8466888,80.9462099,5.0,262.28,0.774,0.168,1.66,-0.038,-6.4354,262.2783,-0.65684,0.04249,0.03668,0.75194,0.2029,-0.0882,-9.8526,0.0419,0.0259,-0.1556,0.1199,3,13,0.62,1.12,0.22,24.729,18.78,97.7,45.4,21489.0,7915,7650,7827,7601,62.0,62.5,63.9,64.3,2.977,3.02,2.973,2.546,1.38,270.2,37.7,64.2,1010.39,-32.12,-0.9,1.74,35.2,42.6,39.9,0,no_anomaly,0.0,0,0,0,0,26.8466888,80.9462099,5.0,0.0
2024-01-03T14:34:02.800Z,MISSION_0049,28,0,takeoff,SITE_LKN_010,26.8466926,80.9462048,5.0,260.96,0.638,0.039,0.98,-1.0647,-2.171,260.9551,-0.64887,0.02044,0.00523,0.76061,-0.1574,-0.0615,-9.9009,0.2009,0.939,0.4953,0.206,3,13,0.56,0.6,0.21,24.707,16.09,97.6,46.0,21477.0,7745,7791,7613,7723,64.7,62.3,61.6,65.0,3.018,2.735,2.918,2.833,2.07,265.5,38.0,64.2,1010.15,-31.12,-1.27,1.16,33.2,47.9,42.0,0,no_anomaly,0.0,0,0,0,0,26.8466926,80.9462048,5.0,0.0
2024-01-03T14:34:02.900Z,MISSION_0049,29,0,takeoff,SITE_LKN_010,26.8466922,80.9462051,5.0,259.99,0.146,0.094,1.04,-3.4037,-0.8947,259.9912,-0.64225,0.02507,-0.01774,0.76588,-0.0948,-0.0407,-9.856,-0.0266,0.0827,-0.0045,0.1176,3,20,0.69,0.95,0.4,24.648,20.05,97.6,45.3,21464.0,7554,7807,7781,7617,66.2,59.9,62.2,63.9,2.643,2.745,2.812,2.998,2.66,270.3,37.8,64.6,1010.34,-31.2,1.43,1.39,30.4,43.8,40.1,0,no_anomaly,0.0,0,0,0,0,26.8466922,80.9462051,5.0,0.0
2024-01-03T14:34:03.000Z,MISSION_0049,30,0,takeoff,SITE_LKN_010,26.8466962,80.9462058,5.0,262.01,0.0,0.049,0.77,0.3163,-3.2288,262.0129,-0.65594,0.01945,0.02057,0.75428,0.0339,0.0577,-9.795,-0.2389,0.0161,0.2249,0.1494,3,17,0.78,0.87,0.31,24.766,19.41,97.5,45.5,21452.0,7769,7574,7928,7707,64.9,60.8,60.5,64.5,2.762,2.855,2.897,2.69,2.47,263.4,38.1,63.2,1010.56,-30.28,-0.32,1.64,32.0,52.8,41.7,0,no_anomaly,0.0,0,0,0,0,26.8466962,80.9462058,5.0,0.0
2024-01-03T14:34:03.100Z,MISSION_0049,31,0,takeoff,SITE_LKN_010,26.8466973,80.9462013,5.0,262.3,0.106,0.085,0.33,-2.5458,-0.0929,262.3022,-0.65787,0.01523,-0.01619,0.7528,-0.1651,0.0415,-9.8545,-0.1907,-0.32,0.1163,0.0544,3,18,0.57,1.01,0.2,24.713,16.54,97.5,46.2,21440.0,7667,7803,7926,7395,64.0,61.1,59.7,63.1,2.883,2.864,2.868,2.955,2.3,261.3,37.6,64.6,1010.56,-26.02,-0.68,1.44,33.8,50.9,36.6,0,no_anomaly,0.0,0,0,0,0,26.8466973,80.9462013,5.0,0.0
2024-01-03T14:34:03.200Z,MISSION_0049,32,0,takeoff,SITE_LKN_010,26.8467029,80.9462018,5.0,261.45,0.0,0.109,0.38,-3.3528,-0.9616,261.4498,-0.65194,0.02544,-0.0167,0.75766,-0.0349,0.0216,-9.7796,-0.1468,-0.9899,0.2872,0.1059,3,19,0.64,0.73,0.2,24.705,12.78,97.4,45.8,21428.0,7669,7835,7892,7918,60.7,58.4,66.6,65.6,2.816,2.653,2.887,2.563,1.44,267.8,37.9,63.9,1010.61,-33.69,0.44,1.26,35.0,50.1,41.3,0,no_anomaly,0.0,0,0,0,0,26.8467029,80.9462018,5.0,0.0
2024-01-03T14:34:03.300Z,MISSION_0049,33,0,takeoff,SITE_LKN_010,26.8467019,80.9462003,5.0,262.25,0.0,0.051,0.21,1.3912,-1.2138,262.254,-0.65774,-1e-05,0.01611,0.75307,-0.0286,0.0047,-9.7983,0.0574,-0.1407,0.1592,0.197,3,18,0.56,0.72,0.2,24.7,24.67,97.3,45.4,21415.0,7813,7793,7605,7822,62.4,65.1,64.7,66.5,2.849,2.907,2.605,2.721,2.62,266.7,37.8,64.5,1010.57,-25.82,1.47,1.51,33.1,52.9,41.6,0,no_anomaly,0.0,0,0,0,0,26.8467019,80.9462003,5.0,0.0
2024-01-03T14:34:03.400Z,MISSION_0049,34,0,takeoff,SITE_LKN_010,26.8467083,80.9462023,5.0,264.57,0.0,0.008,0.96,-0.9394,0.4849,264.5653,-0.67279,0.00238,-0.00891,0.73978,-0.0266,0.0672,-9.8926,-0.2381,0.2517,0.0334,0.0891,3,12,0.65,0.75,0.2,24.668,14.17,97.3,45.9,21403.0,7565,7728,7663,8109,63.2,65.1,59.8,63.6,2.987,2.961,2.655,2.905,2.62,265.4,37.7,65.0,1010.61,-28.74,-0.23,1.83,35.2,49.4,40.1,0,no_anomaly,0.0,0,0,0,0,26.8467083,80.9462023,5.0,0.0
2024-01-03T14:34:03.500Z,MISSION_0049,35,0,takeoff,SITE_LKN_010,26.8467071,80.9462038,5.0,263.01,0.0,0.169,0.89,3.0973,-2.4521,263.008,-0.66271,-0.00189,0.03441,0.74808,-0.0875,-0.0016,-9.8427,-0.5182,0.2476,0.1217,0.0746,3,18,0.75,0.94,0.27,24.676,19.45,97.2,45.7,21391.0,7632,7609,7746,7858,63.2,63.7,61.3,59.4,2.829,2.59,3.045,2.981,2.37,265.7,37.9,63.5,1010.63,-27.16,0.77,1.7,34.3,46.6,40.8,0,no_anomaly,0.0,0,0,0,0,26.8467071,80.9462038,5.0,0.0
2024-01-03T14:34:03.600Z,MISSION_0049,36,0,takeoff,SITE_LKN_010,26.8467087,80.946204,5.0,260.65,0.0,0.111,1.06,1.0387,-2.0593,260.6526,-0.64713,0.00783,0.01854,0.76211,-0.0793,0.0026,-9.8779,-0.4605,-0.4612,0.0002,0.2291,3,15,0.73,1.08,0.26,24.788,15.47,97.2,45.9,21378.0,7639,7598,7576,7759,67.6,62.6,67.1,64.5,2.807,2.811,3.159,2.915,2.32,260.8,37.6,64.1,1010.35,-23.98,0.68,1.62,33.7,47.4,36.8,0,no_anomaly,0.0,0,0,0,0,26.8467087,80.946204,5.0,0.0
2024-01-03T14:34:03.700Z,MISSION_0049,37,0,takeoff,SITE_LKN_010,26.8467116,80.9462056,5.0,260.55,0.0,0.134,1.44,1.9843,-3.0198,260.5529,-0.6465,0.00891,0.03024,0.76226,-0.034,-0.0372,-9.8721,0.1264,-0.6396,0.2593,0.0863,3,16,0.75,0.72,0.3,24.755,16.65,97.1,45.4,21366.0,7802,7853,7732,7794,65.1,63.8,63.7,62.1,2.733,2.942,2.827,2.783,2.14,261.0,37.7,64.1,1010.17,-30.49,0.39,1.42,30.9,49.5,42.1,0,no_anomaly,0.0,0,0,0,0,26.8467116,80.9462056,5.0,0.0
2024-01-03T14:34:03.800Z,MISSION_0049,38,0,takeoff,SITE_LKN_010,26.8467149,80.9462059,5.0,261.7,0.0,0.085,1.78,1.7356,-2.4151,261.6991,-0.6541,0.00604,0.02524,0.75597,0.042,0.025,-9.8864,-0.5009,0.7219,-0.5603,0.1897,3,16,0.73,1.03,0.25,24.688,18.82,97.1,46.5,21354.0,7687,7714,7669,7659,62.6,61.2,61.9,63.9,2.867,2.743,3.115,2.684,1.79,267.3,37.9,63.5,1010.54,-29.49,-0.92,1.38,34.3,49.1,42.1,0,no_anomaly,0.0,0,0,0,0,26.8467149,80.9462059,5.0,0.0
2024-01-03T14:34:03.900Z,MISSION_0049,39,0,takeoff,SITE_LKN_010,26.846713,80.9462052,5.0,261.26,0.0,0.049,1.56,2.266,-0.8119,261.2606,-0.65114,-0.0075,0.01962,0.75867,-0.0532,0.0236,-9.7683,0.5109,0.4968,0.6228,0.1003,3,18,0.56,1.15,0.21,24.617,19.06,97.0,45.7,21341.0,7650,7898,7692,7792,65.4,63.3,64.4,63.4,2.727,2.878,2.345,2.861,1.63,266.9,37.5,65.0,1010.15,-28.91,-0.88,1.34,34.3,50.7,42.1,0,no_anomaly,0.0,0,0,0,0,26.846713,80.9462052,5.0,0.0
2024-01-03T14:34:04.000Z,MISSION_0049,40,0,takeoff,SITE_LKN_010,26.8467077,80.9462096,5.0,261.56,0.0,0.093,1.37,1.8413,-0.9159,261.5609,-0.65315,-0.00444,0.01739,0.75701,-0.1123,-0.0055,-9.723,0.3618,0.0312,0.2296,0.2036,3,10,0.81,0.9,0.28,24.789,14.99,97.0,45.8,21329.0,7952,7567,7927,7809,63.2,62.0,62.1,64.2,2.728,2.578,2.819,2.569,2.58,272.6,37.8,64.2,1010.69,-26.78,-0.78,1.65,33.2,46.3,40.1,0,no_anomaly,0.0,0,0,0,0,26.8467077,80.9462096,5.0,0.0
2024-01-03T14:34:04.100Z,MISSION_0049,41,0,takeoff,SITE_LKN_010,26.8467122,80.946214,5.0,262.13,0.324,-0.015,2.07,1.2432,-1.2077,262.1308,-0.65693,0.00082,0.0151,0.7538,0.081,-0.0412,-9.8306,0.0173,-0.0107,0.1015,0.0725,3,10,0.71,1.0,0.3,24.744,17.67,96.9,45.6,21317.0,7776,7590,7779,7582,58.3,63.5,63.8,59.6,2.827,2.606,2.834,2.949,3.11,265.2,37.7,63.9,1010.26,-29.37,-0.23,1.66,35.8,45.5,42.2,0,no_anomaly,0.0,0,0,0,0,26.8467122,80.946214,5.0,0.0
2024-01-03T14:34:04.200Z,MISSION_0049,42,0,takeoff,SITE_LKN_010,26.8467129,80.9462172,5.0,261.55,0.676,0.116,2.39,-0.3831,-1.4025,261.5485,-0.653,0.01145,0.00546,0.75725,0.1655,0.0498,-9.75,-0.2107,0.4727,0.9173,0.1244,3,20,0.73,0.7,0.24,24.68,20.13,96.8,46.0,21305.0,7575,7712,7444,7954,62.7,66.6,62.8,64.7,2.738,2.594,2.704,2.714,1.98,278.4,38.0,63.3,1010.26,-33.38,-0.01,1.14,31.8,51.9,38.6,0,no_anomaly,0.0,0,0,0,0,26.8467129,80.9462172,5.0,0.0
2024-01-03T14:34:04.300Z,MISSION_0049,43,0,takeoff,SITE_LKN_010,26.8467209,80.9462147,5.0,258.28,0.48,0.116,2.84,-1.3336,-2.8451,258.2758,-0.63073,0.0266,0.00665,0.77552,0.0137,-0.0313,-9.8741,0.0528,-0.1227,-0.0992,0.1596,3,10,0.67,0.91,0.23,24.678,20.92,96.8,46.6,21292.0,7675,7700,7881,7643,64.1,63.0,59.8,61.2,2.867,2.589,2.693,2.861,2.39,267.9,37.6,65.2,1010.09,-30.19,0.38,1.54,31.7,49.2,39.4,0,no_anomaly,0.0,0,0,0,0,26.8467209,80.9462147,5.0,0.0
2024-01-03T14:34:04.400Z,MISSION_0049,44,0,takeoff,SITE_LKN_010,26.8467186,80.946215,5.0,257.46,0.391,0.03,2.66,-2.0413,-2.073,257.4569,-0.62518,0.02525,-0.00258,0.78007,-0.1941,0.0063,-9.7939,-0.5554,0.3821,0.2071,0.142,3,12,0.76,0.87,0.32,24.722,15.41,96.7,46.7,21280.0,7694,7726,7706,7930,65.4,62.9,61.4,60.2,2.844,2.746,2.776,2.877,2.11,270.9,38.1,63.9,1010.45,-26.95,-0.75,1.35,34.9,46.5,39.0,0,no_anomaly,0.0,0,0,0,0,26.8467186,80.946215,5.0,0.0
2024-01-03T14:34:04.500Z,MISSION_0049,45,0,takeoff,SITE_LKN_010,26.8467157,80.9462143,5.0,258.73,0.415,0.078,2.36,0.3859,-4.3368,258.7259,-0.63387,0.02712,0.0266,0.77251,0.1638,-0.0192,-9.8809,0.6311,-0.2598,0.1047,0.193,3,19,0.69,0.96,0.33,24.683,14.24,96.7,46.1,21268.0,7799,7883,7929,7662,63.8,63.4,61.8,65.3,2.538,2.932,2.916,2.859,1.49,274.5,37.8,65.0,1010.02,-24.9,1.19,1.11,35.2,45.5,39.7,0,no_anomaly,0.0,0,0,0,0,26.8467157,80.9462143,5.0,0.0
2024-01-03T14:34:04.600Z,MISSION_0049,46,0,takeoff,SITE_LKN_010,26.846717,80.9462141,5.0,260.16,0.496,0.002,2.46,-2.902,-1.223,260.1568,-0.64339,0.02447,-0.01251,0.76505,0.0468,-0.0641,-9.8284,-0.1551,-0.6509,0.0132,0.1105,3,16,0.57,0.75,0.2,24.69,13.17,96.6,46.3,21255.0,7627,7659,8241,7753,64.2,63.6,63.9,63.1,2.462,3.04,2.934,3.074,2.52,260.0,37.6,63.9,1010.5,-29.93,-0.04,1.72,28.7,41.2,38.7,0,no_anomaly,0.0,0,0,0,0,26.846717,80.9462141,5.0,0.0
2024-01-03T14:34:04.700Z,MISSION_0049,47,0,takeoff,SITE_LKN_010,26.8467155,80.9462092,5.0,260.49,0.984,0.128,2.01,-1.1171,-2.7672,260.4859,-0.64563,0.02473,0.00816,0.7632,0.207,-0.0233,-9.7869,0.3969,-0.411,-0.5723,0.1799,3,17,0.51,0.84,0.2,24.68,15.97,96.6,46.6,21243.0,7615,7892,7641,7596,63.5,62.4,63.5,62.7,3.111,2.932,2.657,2.666,3.06,268.9,37.5,64.1,1010.34,-26.77,-2.09,1.69,33.1,45.4,40.0,0,no_anomaly,0.0,0,0,0,0,26.8467155,80.9462092,5.0,0.0
2024-01-03T14:34:04.800Z,MISSION_0049,48,0,takeoff,SITE_LKN_010,26.8467153,80.9462074,5.0,259.59,1.299,0.137,1.89,-0.2089,-4.0316,259.5931,-0.63962,0.02819,0.02111,0.76789,-0.0262,-0.01,-9.8253,-0.1022,0.4948,0.0844,0.1608,3,15,0.62,0.9,0.2,24.681,24.27,96.5,46.2,21231.0,7458,7589,7747,7871,60.1,65.0,63.5,56.5,2.824,2.8,2.872,2.619,1.82,266.1,37.9,63.7,1010.3,-29.12,-0.91,1.72,32.4,49.5,42.3,0,no_anomaly,0.0,0,0,0,0,26.8467153,80.9462074,5.0,0.0
2024-01-03T14:34:04.900Z,MISSION_0049,49,0,transit,SITE_LKN_010,26.8467081,80.9462057,5.5,261.21,1.574,0.084,1.11,3.8352,-1.4853,261.2076,-0.65073,-0.01194,0.03383,0.75846,-0.0613,0.0481,-9.762,-0.2403,0.4007,0.3149,0.1597,3,10,0.56,0.71,0.33,24.661,19.15,96.4,45.3,21219.0,7630,8048,7679,7746,64.8,62.9,68.0,60.8,2.541,2.798,2.87,2.871,2.78,265.9,37.8,64.9,1010.64,-30.79,-0.5,1.31,31.7,51.6,38.1,0,no_anomaly,0.0,0,0,0,0,26.8467081,80.9462057,5.5,0.0
2024-01-03T14:34:05.000Z,MISSION_0049,50,0,transit,SITE_LKN_010,26.8467072,80.9462083,6.0,261.75,1.488,0.13,1.22,0.5934,0.3284,261.7532,-0.65441,-0.00556,0.00204,0.75612,0.1359,-0.1086,-9.802,0.0405,0.4276,-0.2365,0.0714,3,17,0.83,0.91,0.4,24.705,14.11,96.4,45.3,21206.0,7617,7852,7672,8028,60.0,62.1,64.4,63.4,2.775,2.676,2.775,2.842,1.41,261.5,38.0,64.9,1010.15,-32.89,0.47,1.49,31.8,52.4,39.3,0,no_anomaly,0.0,0,0,0,0,26.8467072,80.9462083,6.0,0.0
2024-01-03T14:34:05.100Z,MISSION_0049,51,0,transit,SITE_LKN_010,26.8467082,80.9462055,6.5,260.69,1.648,0.181,1.1,0.9951,-2.5117,260.6943,-0.64738,0.01108,0.02081,0.7618,-0.0897,-0.0192,-9.8548,0.2675,-0.7967,-0.2925,0.1929,3,14,0.62,0.9,0.2,24.701,25.17,96.3,46.9,21194.0,7583,7509,7550,7652,63.5,60.7,65.0,64.7,2.808,2.589,2.613,2.665,1.58,268.9,38.1,64.0,1010.67,-31.08,0.88,1.77,35.8,51.6,40.6,0,no_anomaly,0.0,0,0,0,0,26.8467082,80.9462055,6.5,0.0
2024-01-03T14:34:05.200Z,MISSION_0049,52,0,transit,SITE_LKN_010,26.8467052,80.9462082,7.0,260.38,1.905,0.052,1.08,-3.827,-1.263,260.3776,-0.64463,0.02996,-0.0184,0.76369,0.0471,0.0972,-9.7253,0.5647,-0.2346,0.1016,0.1969,3,10,0.86,1.09,0.28,24.677,21.32,96.3,45.5,21182.0,7707,7788,7741,7626,64.9,65.4,61.4,64.7,2.749,2.63,2.864,2.935,1.95,273.4,38.1,64.2,1010.07,-35.83,1.15,1.5,34.9,51.2,40.2,0,no_anomaly,0.0,0,0,0,0,26.8467052,80.9462082,7.0,0.0
2024-01-03T14:34:05.300Z,MISSION_0049,53,0,transit,SITE_LKN_010,26.8467063,80.9462055,7.5,259.53,2.081,0.133,0.93,-4.0939,0.1559,259.5257,-0.63924,0.0218,-0.02833,0.76818,0.0109,-0.0529,-9.7884,0.4024,0.0186,-0.324,0.1766,3,17,0.64,0.73,0.33,24.687,20.67,96.2,46.2,21169.0,7704,7769,7707,7818,63.8,60.7,59.9,63.8,2.615,2.897,2.784,2.758,2.87,270.3,38.1,63.3,1010.39,-27.77,-1.1,2.26,32.1,49.5,41.6,0,no_anomaly,0.0,0,0,0,0,26.8467063,80.9462055,7.5,0.0
2024-01-03T14:34:05.400Z,MISSION_0049,54,0,transit,SITE_LKN_010,26.8467057,80.9461996,8.0,260.35,2.138,0.163,0.64,1.2916,-0.5591,260.3451,-0.64509,-0.00354,0.01176,0.76401,0.0107,-0.0668,-9.7893,1.0461,0.2802,-0.0159,0.1833,3,16,0.57,0.9,0.2,24.701,19.93,96.2,46.0,21157.0,7816,7883,7930,7552,62.2,62.2,62.6,64.7,2.816,2.932,2.713,2.78,2.26,273.6,37.6,63.5,1010.25,-31.35,1.77,1.54,31.4,47.8,41.5,0,no_anomaly,0.0,0,0,0,0,26.8467057,80.9461996,8.0,0.0
2024-01-03T14:34:05.500Z,MISSION_0049,55,0,transit,SITE_LKN_010,26.8467073,80.9462002,8.5,261.01,2.009,0.078,0.81,0.4267,0.5639,261.0114,-0.6495,-0.00616,-0.00037,0.76034,-0.0753,0.1708,-9.8885,-0.5208,-0.0534,0.087,0.096,3,20,0.72,0.65,0.27,24.696,22.3,96.1,45.8,21145.0,7568,7892,7984,7862,61.4,63.4,63.9,62.7,2.874,3.046,2.705,2.934,2.07,261.9,37.7,63.1,1010.3,-29.8,0.6,1.04,31.3,49.9,43.3,0,no_anomaly,0.0,0,0,0,0,26.8467073,80.9462002,8.5,0.0
2024-01-03T14:34:05.600Z,MISSION_0049,56,0,transit,SITE_LKN_010,26.8467083,80.9461976,9.0,259.23,2.269,0.051,0.96,-0.0087,-1.4091,259.2253,-0.63755,0.00952,0.00778,0.77031,-0.0794,0.0201,-9.7656,1.3037,0.2353,-0.1489,0.1648,3,15,0.51,0.82,0.23,24.65,19.1,96.1,45.8,21132.0,8006,7581,7746,7495,58.9,58.7,62.4,59.8,2.819,2.976,2.899,2.918,2.35,268.9,38.0,64.4,1010.07,-25.91,-0.43,1.51,31.2,47.5,42.9,0,no_anomaly,0.0,0,0,0,0,26.8467083,80.9461976,9.0,0.0
2024-01-03T14:34:05.700Z,MISSION_0049,57,0,transit,SITE_LKN_010,26.8467054,80.9461982,9.5,259.57,1.589,0.172,0.64,-2.2511,-2.6321,259.5723,-0.63928,0.03021,-0.0004,0.76838,-0.0315,-0.0004,-9.8008,-0.5112,0.7129,-0.2385,0.2537,3,11,0.75,1.09,0.21,24.725,17.6,96.0,45.8,21120.0,7948,7794,7779,7936,61.2,63.4,63.6,61.5,2.716,2.859,3.266,2.587,2.63,268.7,37.5,64.1,1010.33,-29.87,-0.33,1.77,33.6,44.8,39.3,0,no_anomaly,0.0,0,0,0,0,26.8467054,80.9461982,9.5,0.0
2024-01-03T14:34:05.800Z,MISSION_0049,58,0,transit,SITE_LKN_010,26.8467086,80.9461968,10.0,259.28,1.929,0.101,1.02,-1.0502,-1.3733,259.2791,-0.6378,0.01507,0.00059,0.77006,-0.0657,0.0032,-9.7648,0.0201,-0.1036,0.0181,0.0983,3,15,0.84,0.89,0.21,24.678,20.19,95.9,45.1,21108.0,7830,8126,7797,7658,63.7,61.7,63.1,62.5,2.784,2.836,2.727,2.693,1.93,274.3,37.9,63.7,1010.32,-35.02,-1.37,1.67,34.2,49.9,41.4,0,no_anomaly,0.0,0,0,0,0,26.8467086,80.9461968,10.0,0.0
2024-01-03T14:34:05.900Z,MISSION_0049,59,0,transit,SITE_LKN_010,26.8467074,80.9461964,10.5,258.32,2.035,0.15,0.92,1.0693,-0.6481,258.3191,-0.63149,-0.00151,0.01081,0.77531,0.0207,-0.0111,-9.7753,0.4697,-0.446,-0.0365,0.1825,3,15,0.86,0.89,0.47,24.695,13.71,95.9,45.8,21096.0,7945,7705,7691,7570,58.8,67.1,61.5,64.9,2.717,2.79,2.914,2.852,1.67,274.9,37.7,64.8,1010.17,-32.1,0.36,1.58,33.1,50.8,38.6,0,no_anomaly,0.0,0,0,0,0,26.8467074,80.9461964,10.5,0.0
2024-01-03T14:34:06.000Z,MISSION_0049,60,0,transit,SITE_LKN_010,26.8467084,80.9461968,11.0,256.55,1.438,0.04,1.0,-3.9046,-2.4314,256.5505,-0.61837,0.03774,-0.0136,0.78486,-0.003,0.0107,-9.7821,0.356,-0.7022,0.327,0.1679,3,17,0.7,0.86,0.31,24.732,21.47,95.8,45.6,21083.0,7508,7713,7816,7743,61.0,64.2,62.1,65.0,2.766,2.586,2.885,2.881,2.46,267.0,37.8,63.4,1010.21,-29.58,-1.91,1.67,35.4,47.9,39.3,0,no_anomaly,0.0,0,0,0,0,26.8467084,80.9461968,11.0,0.0
2024-01-03T14:34:06.100Z,MISSION_0049,61,0,transit,SITE_LKN_010,26.8467101,80.9461918,11.5,258.17,1.215,0.106,1.45,-1.139,-3.0717,258.1669,-0.62999,0.02707,0.00918,0.77608,-0.0961,0.0221,-9.8481,0.4611,0.3862,0.0211,0.1653,3,19,0.66,0.9,0.36,24.688,20.05,95.8,46.2,21071.0,8023,7511,7609,7669,64.8,63.9,62.6,64.4,2.785,2.76,2.861,2.532,2.91,265.2,37.7,64.6,1010.8,-27.13,0.58,1.23,29.3,42.6,40.4,0,no_anomaly,0.0,0,0,0,0,26.8467101,80.9461918,11.5,0.0
2024-01-03T14:34:06.200Z,MISSION_0049,62,0,transit,SITE_LKN_010,26.8467128,80.9461876,12.0,256.55,1.91,0.042,1.99,-0.9479,-0.339,256.5531,-0.61941,0.00745,-0.00466,0.78502,0.1046,0.0111,-9.7647,-0.2717,0.2462,-0.0891,0.0151,3,18,0.68,0.77,0.26,24.737,18.4,95.7,45.9,21059.0,7745,7816,7913,7446,62.2,62.8,64.4,62.3,2.975,2.473,3.057,2.896,2.39,260.7,37.6,64.2,1010.58,-33.82,2.27,1.69,33.8,45.7,37.7,0,no_anomaly,0.0,0,0,0,0,26.8467128,80.9461876,12.0,0.0
2024-01-03T14:34:06.300Z,MISSION_0049,63,0,transit,SITE_LKN_010,26.8467157,80.946184,12.5,257.38,2.277,0.099,2.49,-0.4732,-3.6216,257.3753,-0.62466,0.02725,0.01653,0.78025,0.0,-0.0372,-9.8233,0.4267,0.2696,-0.1494,0.2323,3,11,0.69,1.03,0.32,24.719,15.04,95.7,46.6,21046.0,7620,7665,7778,7592,61.0,62.2,64.4,60.0,2.591,2.911,2.805,2.89,2.46,262.2,38.0,64.5,1010.53,-28.44,1.17,1.67,32.0,51.9,41.3,0,no_anomaly,0.0,0,0,0,0,26.8467157,80.946184,12.5,0.0
2024-01-03T14:34:06.400Z,MISSION_0049,64,0,transit,SITE_LKN_010,26.8467161,80.9461828,13.0,254.43,1.648,0.057,2.62,-1.2767,-2.1449,254.4338,-0.60452,0.02164,0.00245,0.79629,-0.061,0.0013,-9.8503,0.5235,-0.0763,-0.1378,0.2119,3,17,0.71,1.1,0.44,24.685,17.74,95.6,46.2,21034.0,7741,7668,7643,7493,64.4,65.8,61.4,65.7,2.785,2.764,2.709,2.807,1.73,276.4,37.5,64.7,1010.5,-28.88,0.65,1.71,28.5,48.6,38.9,0,no_anomaly,0.0,0,0,0,0,26.8467161,80.9461828,13.0,0.0
2024-01-03T14:34:06.500Z,MISSION_0049,65,0,transit,SITE_LKN_010,26.8467171,80.946182,13.5,254.28,2.325,0.057,2.76,3.0768,-3.6581,254.2824,-0.60394,0.00923,0.04065,0.79594,0.1612,-0.0503,-9.9024,-0.0662,-0.0357,0.1604,0.1013,3,11,0.62,0.66,0.35,24.729,10.11,95.6,45.7,21022.0,7777,7511,7909,7799,64.1,64.4,60.8,61.5,2.95,2.595,2.616,2.706,2.67,264.6,38.0,65.1,1010.69,-30.25,-0.82,1.42,34.2,47.6,40.5,0,no_anomaly,0.0,0,0,0,0,26.8467171,80.946182,13.5,0.0
2024-01-03T14:34:06.600Z,MISSION_0049,66,0,transit,SITE_LKN_010,26.8467175,80.9461782,14.0,254.06,2.144,0.129,3.11,-0.9,-2.91,254.0643,-0.60189,0.025,0.00902,0.79814,0.2306,-0.0911,-9.883,-0.7436,0.2026,0.62,0.1479,3,12,0.74,0.94,0.37,24.701,24.91,95.5,46.1,21009.0,7445,7589,7692,7872,63.9,61.3,63.8,62.8,2.784,2.997,2.796,3.045,2.43,272.2,37.3,64.1,1010.15,-31.47,-0.11,1.75,32.9,46.4,42.3,0,no_anomaly,0.0,0,0,0,0,26.8467175,80.9461782,14.0,0.0
2024-01-03T14:34:06.700Z,MISSION_0049,67,0,transit,SITE_LKN_010,26.8467157,80.946176,14.5,256.52,2.017,0.102,3.2,-0.4417,-1.7533,256.5242,-0.61914,0.0144,0.00645,0.78512,0.0527,-0.0252,-9.7598,0.5932,-0.0518,0.2402,0.1525,3,19,0.73,0.77,0.22,24.671,20.73,95.4,46.0,20997.0,7666,7639,7819,7892,61.7,63.3,60.9,63.4,2.972,3.089,2.64,2.904,2.03,274.7,38.0,64.5,1010.23,-29.93,0.88,1.58,30.3,44.5,37.6,0,no_anomaly,0.0,0,0,0,0,26.8467157,80.946176,14.5,0.0
2024-01-03T14:34:06.800Z,MISSION_0049,68,0,transit,SITE_LKN_010,26.846715,80.9461684,15.0,257.93,2.323,0.103,3.9,4.0726,-1.7795,257.9263,-0.62878,-0.01027,0.03738,0.77662,-0.0075,0.0015,-9.8238,-0.0218,-0.9439,0.169,0.2148,3,14,0.82,0.81,0.34,24.604,20.43,95.4,46.2,20985.0,8081,7531,7495,7823,63.0,62.6,64.3,65.1,3.06,2.7,2.851,2.535,1.49,267.3,38.1,64.2,1010.25,-26.35,-0.53,1.4,35.3,44.8,42.3,0,no_anomaly,0.0,0,0,0,0,26.846715,80.9461684,15.0,0.0
2024-01-03T14:34:06.900Z,MISSION_0049,69,0,transit,SITE_LKN_010,26.8467155,80.9461709,15.5,259.28,1.931,0.105,3.67,1.6399,-2.0353,259.2828,-0.63801,0.00455,0.02235,0.76969,-0.0225,-0.0241,-9.7471,0.4112,1.51,-0.2675,0.1699,3,13,0.74,0.81,0.36,24.738,20.73,95.3,45.9,20973.0,8021,7678,7622,7913,60.2,63.3,60.7,61.5,3.084,2.789,2.693,2.825,3.5,268.8,37.7,64.2,1010.35,-29.9,-0.69,1.34,31.4,47.0,39.8,0,no_anomaly,0.0,0,0,0,0,26.8467155,80.9461709,15.5,0.0
2024-01-03T14:34:07.000Z,MISSION_0049,70,0,transit,SITE_LKN_010,26.8467171,80.9461686,16.0,259.47,2.169,0.108,3.98,-0.4708,-3.0303,259.4689,-0.63892,0.02296,0.01374,0.76881,0.0963,-0.0032,-9.7478,-0.1909,-0.4116,-0.6334,0.1275,3,14,0.75,0.86,0.22,24.711,13.01,95.3,45.8,20960.0,7830,8178,8015,7944,62.1,64.0,62.2,64.0,2.805,2.838,2.648,2.711,1.76,259.3,37.6,64.7,1010.49,-30.21,-0.43,1.32,33.0,51.1,39.5,0,no_anomaly,0.0,0,0,0,0,26.8467171,80.9461686,16.0,0.0
2024-01-03T14:34:07.100Z,MISSION_0049,71,0,transit,SITE_LKN_010,26.846713,80.9461666,16.5,259.1,1.786,0.158,3.99,-0.8101,-1.7175,259.0997,-0.63658,0.01606,0.00409,0.77103,0.2217,0.0459,-9.8164,0.515,-0.1266,-0.1932,0.1078,3,17,0.66,0.98,0.3,24.652,15.01,95.2,45.7,20948.0,7871,7665,7840,7814,61.3,62.9,61.9,62.7,2.977,2.851,2.597,3.107,2.43,269.5,37.9,63.7,1010.48,-27.54,0.86,1.54,32.0,43.7,42.8,0,no_anomaly,0.0,0,0,0,0,26.846713,80.9461666,16.5,0.0
2024-01-03T14:34:07.200Z,MISSION_0049,72,0,transit,SITE_LKN_010,26.84671,80.9461662,17.0,256.96,1.61,0.091,3.93,-0.9576,-1.1693,256.9555,-0.62209,0.01319,-0.00019,0.78283,-0.1384,0.0163,-9.7312,-0.4543,-0.8386,-0.4764,0.0619,3,12,0.53,0.91,0.2,24.668,19.33,95.2,46.3,20936.0,7562,7615,7502,7868,63.0,62.9,61.3,63.5,2.839,2.784,2.805,3.011,2.41,264.5,37.9,63.4,1010.34,-31.49,1.32,1.24,32.2,45.6,40.9,0,no_anomaly,0.0,0,0,0,0,26.84671,80.9461662,17.0,0.0
2024-01-03T14:34:07.300Z,MISSION_0049,73,0,transit,SITE_LKN_010,26.8467055,80.9461635,17.5,257.52,1.524,0.124,4.1,-1.0061,-0.3511,257.5229,-0.62603,0.00789,-0.00493,0.77974,-0.0844,0.0132,-9.8434,0.1311,0.4444,0.1138,0.1353,3,16,1.02,1.06,0.46,24.65,16.57,95.1,46.1,20923.0,7933,7728,7626,7954,65.2,62.3,64.3,63.9,2.766,2.921,2.597,2.806,2.46,269.0,37.6,64.5,1010.62,-30.04,-1.22,1.74,33.1,50.4,40.6,0,no_anomaly,0.0,0,0,0,0,26.8467055,80.9461635,17.5,0.0
2024-01-03T14:34:07.400Z,MISSION_0049,74,0,transit,SITE_LKN_010,26.8467062,80.9461641,18.0,256.05,1.308,0.109,4.05,-0.1838,0.0269,256.0504,-0.61601,0.0008,-0.00141,0.78774,-0.1201,0.0414,-9.8641,-0.4957,1.025,-0.8754,0.0365,3,13,0.77,1.02,0.25,24.706,19.11,95.1,46.0,20911.0,7830,7638,7768,7715,62.0,61.9,62.9,59.0,2.993,2.877,2.777,2.792,2.34,262.9,37.6,64.8,1010.64,-35.97,-0.59,2.07,33.0,44.3,41.0,0,no_anomaly,0.0,0,0,0,0,26.8467062,80.9461641,18.0,0.0
2024-01-03T14:34:07.500Z,MISSION_0049,75,0,transit,SITE_LKN_010,26.8467039,80.9461653,18.5,254.38,0.742,0.038,3.89,1.0349,-2.3714,254.3764,-0.60443,0.01103,0.0197,0.79634,-0.0123,0.0961,-9.7723,-0.0732,-0.2412,-0.3344,0.2,3,13,0.64,0.68,0.38,24.599,19.19,95.0,46.0,20899.0,7754,7911,7582,7838,61.7,60.2,64.7,62.7,2.64,2.842,2.937,2.816,2.97,274.9,37.8,64.4,1010.43,-32.0,-1.44,2.1,32.2,46.6,38.7,0,no_anomaly,0.0,0,0,0,0,26.8467039,80.9461653,18.5,0.0
2024-01-03T14:34:07.600Z,MISSION_0049,76,0,transit,SITE_LKN_010,26.8467041,80.9461661,19.0,253.31,0.459,0.097,3.8,0.1461,-3.223,253.307,-0.59677,0.0218,0.01781,0.80192,0.1452,-0.0291,-9.8231,-0.7162,-0.8121,-0.0949,0.1811,3,19,0.9,0.83,0.2,24.725,16.8,94.9,45.5,20887.0,8066,7700,7808,7696,60.1,61.8,62.0,58.4,2.856,2.819,2.751,2.91,3.55,263.6,37.6,64.6,1010.29,-29.75,0.64,2.28,31.2,45.3,42.2,0,no_anomaly,0.0,0,0,0,0,26.8467041,80.9461661,19.0,0.0
2024-01-03T14:34:07.700Z,MISSION_0049,77,0,transit,SITE_LKN_010,26.8467015,80.9461645,19.5,250.75,0.568,0.092,3.95,0.0825,-2.0765,250.7465,-0.57882,0.01436,0.01108,0.81526,-0.1272,-0.0176,-9.7638,0.3662,-0.5321,-0.4676,0.1466,3,10,0.78,1.09,0.25,24.752,13.18,94.9,45.7,20874.0,7740,7888,8054,7780,63.8,66.1,57.9,61.6,2.988,2.907,2.537,3.005,2.06,261.9,38.1,64.5,1010.0,-28.04,-0.44,1.35,31.8,41.9,38.6,0,no_anomaly,0.0,0,0,0,0,26.8467015,80.9461645,19.5,0.0
2024-01-03T14:34:07.800Z,MISSION_0049,78,0,transit,SITE_LKN_010,26.8467005,80.9461618,20.0,250.1,1.045,0.059,4.26,3.146,-2.169,250.0971,-0.57438,-0.00027,0.03333,0.81791,-0.2005,-0.0352,-9.8543,-0.7102,-0.828,0.1283,0.185,3,11,0.55,0.69,0.2,24.612,16.39,94.8,46.4,20862.0,7896,8095,7656,7870,67.8,58.8,61.9,63.9,2.861,2.542,2.858,2.843,2.47,268.4,37.6,64.7,1010.48,-27.98,-0.76,1.53,30.3,52.1,39.4,0,no_anomaly,0.0,0,0,0,0,26.8467005,80.9461618,20.0,0.0
2024-01-03T14:34:07.900Z,MISSION_0049,79,0,transit,SITE_LKN_010,26.8467026,80.9461601,20.5,251.26,0.714,0.138,4.45,-1.0891,-2.0363,251.2611,-0.5823,0.01998,0.00263,0.81272,-0.0047,0.042,-9.8646,0.3229,0.4368,-0.334,0.1616,3,14,0.53,0.8,0.3,24.694,19.28,94.8,46.2,20850.0,7485,7807,8026,7700,59.0,60.8,62.6,62.4,2.611,2.786,2.778,2.789,2.89,270.9,38.1,64.0,1010.15,-25.84,-0.27,1.04,32.9,47.4,41.0,0,no_anomaly,0.0,0,0,0,0,26.8467026,80.9461601,20.5,0.0
2024-01-03T14:34:08.000Z,MISSION_0049,80,0,transit,SITE_LKN_010,26.8467038,80.9461608,20.8,251.56,0.489,0.149,4.39,2.3881,-2.8647,251.5608,-0.58479,0.00809,0.03151,0.81053,0.081,-0.1231,-9.7858,0.7429,0.1406,-0.0807,0.1632,3,14,0.63,0.88,0.27,24.662,12.68,94.7,46.2,20837.0,7722,7732,7632,7601,64.1,60.2,63.6,63.6,2.814,2.554,2.844,3.129,2.11,274.8,37.9,63.4,1010.49,-28.73,0.08,1.16,35.1,49.6,40.3,0,no_anomaly,0.0,0,0,0,0,26.8467038,80.9461608,20.8,0.0
2024-01-03T14:34:08.100Z,MISSION_0049,81,0,transit,SITE_LKN_010,26.8467046,80.9461566,20.8,249.36,0.276,0.115,4.86,-2.0029,-4.6434,249.3584,-0.56785,0.04325,0.00868,0.82195,0.0972,0.0094,-9.8449,0.0635,0.0802,-0.014,0.1631,3,18,0.75,0.87,0.38,24.679,18.67,94.7,46.1,20825.0,7913,7527,7912,7823,65.1,62.8,64.4,61.1,2.725,2.541,2.501,3.142,3.45,270.7,37.7,64.2,1010.22,-28.27,0.53,1.19,34.7,47.2,39.0,0,no_anomaly,0.0,0,0,0,0,26.8467046,80.9461566,20.8,0.0
2024-01-03T14:34:08.200Z,MISSION_0049,82,0,transit,SITE_LKN_010,26.846706,80.9461527,20.8,250.38,0.732,0.081,5.31,-0.3035,-1.2825,250.3779,-0.57621,0.01067,0.00428,0.81722,0.0167,-0.113,-9.7706,0.3488,-0.4336,-0.0102,0.2435,3,12,0.74,0.91,0.26,24.577,16.55,94.6,46.0,20813.0,7833,8041,7645,7790,57.7,64.5,60.3,64.3,2.689,2.766,2.863,2.722,1.66,267.5,37.4,64.3,1010.35,-33.29,1.59,1.45,32.6,54.3,39.6,0,no_anomaly,0.0,0,0,0,0,26.846706,80.9461527,20.8,0.0
2024-01-03T14:34:08.300Z,MISSION_0049,83,0,transit,SITE_LKN_010,26.8467051,80.9461507,20.8,251.25,0.755,0.145,5.51,-4.1325,-4.1681,251.2505,-0.58065,0.05053,-0.00812,0.81254,-0.0442,0.0454,-9.7107,-0.4757,0.7727,-0.2971,0.1895,3,17,0.81,0.93,0.38,24.714,24.02,94.5,46.1,20800.0,7756,7710,7915,7748,64.7,66.4,62.7,64.2,2.861,2.698,2.672,2.827,2.09,284.1,38.0,63.9,1010.07,-28.71,-0.96,1.46,29.0,43.1,39.8,0,no_anomaly,0.0,0,0,0,0,26.8467051,80.9461507,20.8,0.0
2024-01-03T14:34:08.400Z,MISSION_0049,84,0,transit,SITE_LKN_010,26.8467042,80.9461462,20.8,249.99,0.941,0.032,6.01,-0.3628,-2.1466,249.9927,-0.57337,0.01716,0.00815,0.81907,0.0857,-0.0062,-9.8177,0.0916,0.2209,0.6658,0.1345,3,16,0.78,0.91,0.44,24.672,24.22,94.5,46.0,20788.0,7619,8033,7789,7746,62.7,62.9,62.6,62.2,2.923,2.901,2.938,2.746,2.3,261.2,37.8,63.9,1010.11,-32.31,-0.26,1.48,32.4,45.2,39.4,0,no_anomaly,0.0,0,0,0,0,26.8467042,80.9461462,20.8,0.0
2024-01-03T14:34:08.500Z,MISSION_0049,85,0,transit,SITE_LKN_010,26.846702,80.9461481,20.8,250.25,0.603,0.07,5.78,1.6195,-0.3563,250.246,-0.57531,-0.00559,0.01335,0.81781,0.1218,-0.0341,-9.7632,-0.2919,-1.4655,-0.2806,0.1049,3,10,0.72,0.81,0.23,24.66,22.29,94.4,46.1,20776.0,7920,7870,7953,7916,65.1,63.4,65.6,60.8,3.058,2.55,2.896,3.173,2.63,269.9,37.7,64.4,1010.52,-31.57,-0.82,2.03,29.1,48.6,36.7,0,no_anomaly,0.0,0,0,0,0,26.846702,80.9461481,20.8,0.0
2024-01-03T14:34:08.600Z,MISSION_0049,86,0,transit,SITE_LKN_010,26.8466994,80.9461483,20.8,251.78,0.989,-0.003,5.76,-2.0667,-1.2377,251.7795,-0.58594,0.01932,-0.00828,0.81008,0.0686,0.0208,-9.8292,0.4708,0.0565,0.5654,0.1384,3,18,0.68,0.96,0.23,24.701,17.66,94.4,46.8,20764.0,7801,7694,7767,7911,62.1,64.3,63.9,64.3,2.716,2.972,2.727,2.862,3.39,267.9,37.6,64.8,1010.71,-29.58,0.67,1.5,37.0,48.1,41.3,0,no_anomaly,0.0,0,0,0,0,26.8466994,80.9461483,20.8,0.0
2024-01-03T14:34:08.700Z,MISSION_0049,87,0,transit,SITE_LKN_010,26.8466999,80.946145,20.8,253.7,1.209,0.129,6.13,4.2131,-0.2882,253.701,-0.5994,-0.02003,0.03092,0.7996,0.0174,0.04,-9.6631,0.3255,0.2499,-0.3822,0.1792,3,12,0.67,0.95,0.2,24.646,19.6,94.3,45.6,20751.0,7740,7885,7911,7806,66.3,62.6,63.6,61.8,2.763,3.155,2.896,2.977,2.34,261.9,38.0,64.6,1010.36,-31.55,0.84,1.31,31.9,51.1,39.4,0,no_anomaly,0.0,0,0,0,0,26.8466999,80.946145,20.8,0.0
2024-01-03T14:34:08.800Z,MISSION_0049,88,0,transit,SITE_LKN_010,26.8466999,80.9461486,20.8,254.87,1.112,0.249,5.72,-3.2489,-1.9294,254.8703,-0.60715,0.03059,-0.01228,0.7939,-0.0925,-0.0091,-9.8959,-0.0249,-0.2694,-0.2088,0.2277,3,15,0.68,0.86,0.27,24.587,11.39,94.3,46.7,20739.0,8034,7904,7819,7778,60.6,61.7,65.4,64.4,2.634,2.655,2.752,2.726,2.9,270.2,37.9,64.3,1010.39,-31.22,-0.64,1.61,34.4,47.4,38.3,0,no_anomaly,0.0,0,0,0,0,26.8466999,80.9461486,20.8,0.0
2024-01-03T14:34:08.900Z,MISSION_0049,89,0,transit,SITE_LKN_010,26.8467011,80.9461521,20.8,258.47,1.1,0.036,5.33,-3.4644,-1.8542,258.4684,-0.63174,0.03164,-0.01318,0.77442,-0.0356,0.0718,-9.7895,-0.4115,-0.4403,0.0455,0.1597,3,18,0.7,0.79,0.2,24.715,18.18,94.2,45.8,20727.0,7704,7684,7619,7936,65.7,64.1,62.0,65.2,2.761,2.831,2.734,2.802,1.69,260.3,37.8,64.7,1010.51,-29.76,-0.66,1.58,30.2,48.9,41.9,0,no_anomaly,0.0,0,0,0,0,26.8467011,80.9461521,20.8,0.0
2024-01-03T14:34:09.000Z,MISSION_0049,90,0,transit,SITE_LKN_010,26.8467109,80.9461509,20.8,260.62,0.981,0.097,5.6,-4.964,-1.197,260.6166,-0.64591,0.03597,-0.02627,0.76211,-0.0536,0.0372,-9.7337,-0.21,-0.0243,0.1121,0.153,3,18,0.76,0.86,0.28,24.641,25.14,94.2,46.1,20714.0,7913,7988,7959,7950,64.7,61.2,62.8,61.3,2.918,2.674,2.826,2.667,2.27,285.9,37.6,63.7,1010.13,-30.42,0.09,2.27,31.3,52.2,40.9,0,no_anomaly,0.0,0,0,0,0,26.8467109,80.9461509,20.8,0.0
2024-01-03T14:34:09.100Z,MISSION_0049,91,0,transit,SITE_LKN_010,26.8467127,80.946151,20.8,260.29,1.509,0.077,5.64,-0.2157,-0.8917,260.2899,-0.64469,0.00716,0.00358,0.7644,0.0269,0.0346,-9.8265,-0.41,-0.3062,0.0488,0.0903,3,20,0.69,0.66,0.26,24.671,20.47,94.1,45.3,20702.0,7925,7601,7992,7806,63.5,65.2,63.4,60.5,2.683,2.524,2.755,2.926,2.72,267.0,37.9,63.3,1010.23,-29.79,0.58,1.37,31.7,46.5,38.9,0,no_anomaly,0.0,0,0,0,0,26.8467127,80.946151,20.8,0.0
2024-01-03T14:34:09.200Z,MISSION_0049,92,0,transit,SITE_LKN_010,26.8467102,80.9461528,20.8,259.53,1.73,0.025,5.38,-2.5959,-3.2929,259.5281,-0.6387,0.03656,0.00097,0.76859,-0.0979,-0.0629,-9.809,-0.2422,0.034,0.5232,0.1432,3,19,0.81,0.86,0.27,24.633,18.05,94.0,46.1,20690.0,8080,7653,7675,7969,65.0,64.9,65.3,63.2,2.807,2.9,2.651,2.951,2.35,259.5,37.7,64.1,1009.87,-31.7,-0.04,1.61,34.7,44.1,39.6,0,no_anomaly,0.0,0,0,0,0,26.8467102,80.9461528,20.8,0.0
2024-01-03T14:34:09.300Z,MISSION_0049,93,0,transit,SITE_LKN_010,26.8467058,80.9461555,20.8,258.95,1.639,0.055,4.99,2.038,-2.3266,258.9483,-0.63578,0.00436,0.02663,0.7714,0.0026,-0.0014,-9.8838,0.2422,-0.3868,0.026,0.2215,3,20,0.69,0.79,0.24,24.769,16.75,94.0,46.4,20677.0,7760,7727,7811,7907,68.8,63.9,62.6,59.4,3.328,2.766,2.77,2.633,1.69,269.2,37.8,64.1,1010.07,-32.88,0.38,1.76,35.9,49.9,39.7,0,no_anomaly,0.0,0,0,0,0,26.8467058,80.9461555,20.8,0.0
2024-01-03T14:34:09.400Z,MISSION_0049,94,0,transit,SITE_LKN_010,26.8467049,80.9461497,20.8,259.99,2.081,0.086,5.63,2.2197,-2.3895,259.9922,-0.64278,0.00352,0.02823,0.76552,0.0233,0.0801,-9.6919,0.6819,0.9738,0.1363,0.1614,3,19,0.8,0.84,0.2,24.656,23.15,93.9,45.8,20665.0,7994,7783,7721,7721,61.0,63.4,64.7,62.6,2.573,3.036,2.793,2.819,1.84,271.2,37.6,63.4,1010.38,-25.6,-0.84,1.71,37.3,50.7,42.4,0,no_anomaly,0.0,0,0,0,0,26.8467049,80.9461497,20.8,0.0
2024-01-03T14:34:09.500Z,MISSION_0049,95,0,transit,SITE_LKN_010,26.8467051,80.9461497,20.8,260.62,2.248,0.036,5.62,-1.2509,-3.3371,260.6235,-0.64639,0.02926,0.01052,0.76237,-0.0528,-0.0532,-9.7093,-0.7968,-0.539,0.2262,0.0655,3,14,0.76,1.08,0.3,24.709,17.87,93.9,45.6,20653.0,7847,7603,7819,8113,61.5,62.8,59.5,62.5,2.968,3.006,2.714,2.864,2.44,270.8,37.6,64.2,1010.28,-36.21,-0.44,2.03,33.3,46.0,38.7,0,no_anomaly,0.0,0,0,0,0,26.8467051,80.9461497,20.8,0.0
2024-01-03T14:34:09.600Z,MISSION_0049,96,0,transit,SITE_LKN_010,26.8467028,80.9461499,20.8,260.61,2.272,0.124,5.59,-1.1016,-3.009,260.6088,-0.6464,0.02624,0.00965,0.76248,-0.0751,-0.0552,-9.8423,-0.0044,-0.2648,-0.4468,0.1244,3,16,0.71,0.84,0.2,24.636,20.56,93.8,45.5,20641.0,7632,7701,8050,7827,61.3,63.6,63.4,61.1,3.037,2.87,2.726,2.822,2.5,269.1,37.5,64.6,1010.91,-32.35,-2.12,1.42,32.5,44.2,38.7,0,no_anomaly,0.0,0,0,0,0,26.8467028,80.9461499,20.8,0.0
2024-01-03T14:34:09.700Z,MISSION_0049,97,0,transit,SITE_LKN_010,26.846701,80.9461525,20.8,262.01,2.108,0.032,5.29,2.8883,-2.7422,262.0057,-0.65616,0.00152,0.03471,0.75383,0.0839,0.0075,-9.8157,1.0509,0.7036,-0.048,0.0864,3,19,0.65,1.02,0.2,24.677,19.54,93.8,46.5,20628.0,7832,7997,7885,7453,64.2,60.6,66.4,64.0,2.696,2.88,2.356,2.833,1.52,271.5,37.4,64.3,1010.27,-29.53,-0.06,2.1,36.2,50.8,40.0,0,no_anomaly,0.0,0,0,0,0,26.846701,80.9461525,20.8,0.0
2024-01-03T14:34:09.800Z,MISSION_0049,98,1,transit,SITE_LKN_010,26.8467006,80.9461524,20.8,261.14,1.746,0.081,5.29,-1.6585,-3.7783,261.1434,-0.64962,0.03445,0.01045,0.75941,0.0335,0.0108,-9.8558,-0.5219,-0.1243,-0.2922,0.155,3,20,0.81,0.96,0.34,24.63,18.07,93.7,45.7,20616.0,7878,7813,7870,7673,66.1,63.3,64.6,67.8,2.661,2.865,2.869,2.482,2.11,268.1,37.9,64.0,1010.72,-36.72,-0.42,1.9,30.8,48.0,41.3,0,no_anomaly,0.0,0,0,0,0,26.8467006,80.9461524,20.8,0.0
2024-01-03T14:34:09.900Z,MISSION_0049,99,1,transit,SITE_LKN_010,26.8467012,80.9461492,20.8,261.26,1.805,0.165,5.65,0.5295,-2.8867,261.2573,-0.65103,0.01611,0.01991,0.75862,0.0002,0.0248,-9.788,0.8296,-0.1735,-0.2099,0.1991,3,16,0.66,0.79,0.36,24.587,15.16,93.7,46.4,20604.0,7853,7712,8009,7840,63.0,63.7,63.0,62.8,2.501,3.112,2.912,2.725,2.66,265.9,37.5,63.9,1010.54,-38.61,0.73,1.26,32.3,45.5,37.1,0,no_anomaly,0.0,0,0,0,0,26.8467012,80.9461492,20.8,0.0
2024-01-03T14:34:10.000Z,MISSION_0049,100,1,transit,SITE_LKN_010,26.8467046,80.9461474,20.8,262.95,1.904,0.091,5.88,2.1892,-4.6813,262.9499,-0.6622,0.01795,0.04134,0.74797,0.1581,0.0338,-9.8112,0.8025,-0.6676,0.5663,0.1941,3,19,0.75,0.74,0.39,24.652,18.0,93.6,46.0,20591.0,7991,7965,7863,7918,61.9,60.2,63.2,64.9,2.57,3.001,2.808,2.732,2.64,268.6,37.9,64.1,1010.5,-32.06,0.82,1.31,34.8,52.0,41.6,0,no_anomaly,0.0,0,0,0,0,26.8467046,80.9461474,20.8,0.0
2024-01-03T14:34:10.100Z,MISSION_0049,101,1,transit,SITE_LKN_010,26.8467005,80.9461502,20.8,259.5,2.241,0.085,5.55,4.0795,-3.1797,259.4953,-0.63952,-0.00143,0.04508,0.76745,-0.1129,-0.0504,-9.8231,-0.4667,0.2424,-0.5363,0.178,3,13,0.75,1.09,0.35,24.584,18.85,93.5,47.0,20579.0,7847,7898,7636,7918,63.3,58.2,64.2,62.5,2.744,2.742,2.86,2.737,2.82,265.9,38.0,64.3,1010.16,-30.28,-0.23,1.34,33.9,47.1,40.6,0,no_anomaly,0.0,0,0,0,0,26.8467005,80.9461502,20.8,0.0
2024-01-03T14:34:10.200Z,MISSION_0049,102,1,transit,SITE_LKN_010,26.8466957,80.9461536,20.8,259.79,2.283,0.175,5.18,-1.9471,0.4788,259.7865,-0.64132,0.00769,-0.01572,0.76708,0.0561,0.0158,-9.7532,0.3267,0.129,-0.0722,0.2013,3,19,0.61,0.93,0.26,24.67,17.62,93.5,46.1,20567.0,7784,7686,7748,7789,63.5,60.1,65.6,64.8,2.753,2.944,2.985,2.709,2.41,260.9,38.0,63.7,1010.23,-28.96,-0.33,1.75,30.9,47.6,42.0,0,no_anomaly,0.0,0,0,0,0,26.8466957,80.9461536,20.8,0.0
2024-01-03T14:34:10.300Z,MISSION_0049,103,1,transit,SITE_LKN_010,26.8466991,80.9461486,20.8,259.49,2.214,0.096,5.73,-0.7411,-3.3699,259.4925,-0.63895,0.02674,0.01383,0.76866,-0.0952,-0.0469,-9.7982,-0.9062,0.4233,0.1591,0.1176,3,15,0.61,0.75,0.22,24.614,22.05,93.4,46.3,20554.0,7971,7803,7731,7851,65.3,65.7,63.8,62.6,2.71,2.99,2.798,2.73,1.93,269.4,37.7,64.0,1010.59,-27.23,-0.63,1.05,33.4,47.3,42.3,0,no_anomaly,0.0,0,0,0,0,26.8466991,80.9461486,20.8,0.0
2024-01-03T14:34:10.400Z,MISSION_0049,104,1,transit,SITE_LKN_010,26.8467028,80.9461552,20.8,261.91,2.226,0.089,5.0,-0.9681,-4.8328,261.9103,-0.65459,0.03737,0.02126,0.75476,0.0108,0.0333,-9.8061,-0.4398,-0.4684,-0.1607,0.1485,3,11,0.5,0.76,0.22,24.558,15.59,93.4,45.7,20542.0,7799,7691,7897,7956,63.0,61.3,63.8,65.2,2.65,3.174,2.743,2.914,1.73,275.4,37.6,63.5,1010.5,-26.13,-1.96,1.8,33.4,48.2,41.4,0,no_anomaly,0.0,0,0,0,0,26.8467028,80.9461552,20.8,0.0
2024-01-03T14:34:10.500Z,MISSION_0049,105,1,transit,SITE_LKN_010,26.8467079,80.9461546,20.8,260.89,2.301,0.099,5.13,2.0421,-1.3732,260.8912,-0.64874,-0.00244,0.02133,0.76071,0.1695,-0.0543,-9.8723,0.2283,-0.4803,-0.0474,0.1517,3,11,0.8,0.83,0.2,24.556,20.92,93.3,46.3,20530.0,7812,7644,7510,7908,64.8,62.0,67.1,65.8,2.981,2.917,3.081,2.743,1.33,260.8,37.6,64.9,1010.15,-34.72,1.71,1.55,29.3,44.1,42.0,0,no_anomaly,0.0,0,0,0,0,26.8467079,80.9461546,20.8,0.0
2024-01-03T14:34:10.600Z,MISSION_0049,106,1,transit,SITE_LKN_010,26.8467061,80.9461502,20.8,263.53,2.126,0.085,5.59,-2.844,-1.9268,263.5289,-0.66546,0.02906,-0.00731,0.74583,0.1317,-0.0229,-9.8641,0.6477,0.1447,-0.0803,0.1666,3,16,0.95,0.63,0.35,24.628,21.39,93.3,46.6,20518.0,7913,7978,7690,7712,62.8,64.4,65.1,63.4,2.806,2.976,2.877,2.808,2.37,268.8,37.5,64.0,1010.24,-31.52,3.49,1.85,33.8,51.1,43.1,0,no_anomaly,0.0,0,0,0,0,26.8467061,80.9461502,20.8,0.0
2024-01-03T14:34:10.700Z,MISSION_0049,107,1,transit,SITE_LKN_010,26.84671,80.9461498,20.8,261.33,2.151,0.123,5.7,-0.6759,-2.377,261.3312,-0.6514,0.01958,0.00904,0.75843,-0.0647,-0.0238,-9.832,-0.692,-0.4005,0.1414,0.1511,3,10,0.7,0.71,0.34,24.566,18.65,93.2,46.2,20505.0,8209,7856,7698,7867,65.2,63.3,61.5,63.7,2.685,2.84,2.756,3.052,2.45,261.1,38.0,64.5,1010.53,-27.76,1.65,1.43,31.4,43.4,41.5,0,no_anomaly,0.0,0,0,0,0,26.84671,80.9461498,20.8,0.0
2024-01-03T14:34:10.800Z,MISSION_0049,108,1,transit,SITE_LKN_010,26.8467111,80.946151,20.8,261.75,2.273,0.069,5.59,-1.0646,-0.9821,261.7492,-0.65429,0.01256,-0.00142,0.75614,-0.0516,-0.0626,-9.7743,-0.7991,0.3889,0.2706,0.1448,3,10,0.69,0.86,0.35,24.682,18.68,93.2,46.6,20493.0,7718,7413,7825,7940,63.6,61.1,62.8,63.0,2.791,2.841,2.884,2.747,2.26,264.3,37.9,64.8,1010.25,-31.04,0.02,1.6,29.4,43.6,38.7,0,no_anomaly,0.0,0,0,0,0,26.8467111,80.946151,20.8,0.0
2024-01-03T14:34:10.900Z,MISSION_0049,109,1,transit,SITE_LKN_010,26.8467108,80.9461457,20.8,261.92,2.325,0.153,6.16,1.7134,-1.9446,261.92,-0.65556,0.00301,0.02241,0.75481,0.0553,0.0461,-9.8219,-0.1535,0.7217,0.0901,0.0992,3,16,0.72,0.98,0.35,24.6,17.18,93.1,46.1,20481.0,7735,7883,7865,7946,64.1,63.5,61.6,62.7,2.926,2.923,2.754,2.765,2.43,274.5,38.1,63.2,1010.57,-29.47,0.42,1.59,34.3,44.3,37.9,0,no_anomaly,0.0,0,0,0,0,26.8467108,80.9461457,20.8,0.0
2024-01-03T14:34:11.000Z,MISSION_0049,110,1,transit,SITE_LKN_010,26.8467075,80.9461519,20.8,261.73,2.395,0.099,5.42,-0.6898,-3.2612,261.7307,-0.65388,0.02546,0.01407,0.75604,-0.0595,-0.0102,-9.8218,0.0447,-0.0986,0.3223,0.1426,3,19,0.75,0.83,0.21,24.562,19.27,93.0,46.1,20468.0,8050,7946,7695,7850,60.5,64.4,64.1,66.8,2.848,2.922,2.611,2.726,2.51,262.7,37.8,65.0,1010.9,-28.4,-0.53,1.02,32.1,46.9,41.2,0,no_anomaly,0.0,0,0,0,0,26.8467075,80.9461519,20.8,0.0
2024-01-03T14:34:11.100Z,MISSION_0049,111,1,transit,SITE_LKN_010,26.8467107,80.9461501,20.8,261.13,2.446,0.092,5.68,-0.2304,-2.3067,261.1327,-0.65016,0.0166,0.01156,0.75952,0.0413,-0.0478,-9.8533,-0.7153,0.2891,-0.1025,0.2073,3,10,0.7,1.06,0.34,24.562,14.11,93.0,45.7,20456.0,7957,7853,7752,8007,62.7,63.7,65.9,63.4,2.766,2.804,2.964,3.035,2.22,261.6,37.5,63.4,1010.35,-30.04,-1.49,1.34,32.1,49.3,37.8,0,no_anomaly,0.0,0,0,0,0,26.8467107,80.9461501,20.8,0.0
2024-01-03T14:34:11.200Z,MISSION_0049,112,1,transit,SITE_LKN_010,26.8467065,80.9461471,20.8,259.15,2.028,0.099,5.94,-0.0536,-3.8186,259.1542,-0.63675,0.02598,0.02087,0.77035,-0.0022,0.0007,-9.8715,1.0624,0.9039,0.0599,0.1822,3,20,0.56,0.87,0.2,24.561,14.26,92.9,46.3,20444.0,7566,7720,7720,7925,67.8,64.5,59.0,63.9,2.775,2.846,2.788,2.86,2.36,274.9,37.7,64.0,1010.18,-29.41,0.12,1.37,32.4,47.1,42.5,0,no_anomaly,0.0,0,0,0,0,26.8467065,80.9461471,20.8,0.0
2024-01-03T14:34:11.300Z,MISSION_0049,113,1,transit,SITE_LKN_010,26.8467071,80.9461521,20.8,258.65,2.141,0.109,5.39,-5.2227,-0.0882,258.6473,-0.63301,0.02947,-0.03476,0.7728,-0.0695,-0.0416,-9.7564,0.3853,-1.0506,0.045,0.117,3,19,0.74,0.92,0.2,24.639,14.13,92.9,46.2,20432.0,7818,8002,7881,7996,67.3,63.0,63.9,62.0,2.939,2.853,2.896,2.675,2.34,270.9,37.3,64.1,1010.26,-32.42,-1.35,1.3,29.7,49.3,41.7,0,no_anomaly,0.0,0,0,0,0,26.8467071,80.9461521,20.8,0.0
2024-01-03T14:34:11.400Z,MISSION_0049,114,1,transit,SITE_LKN_010,26.8467005,80.946151,20.8,256.18,1.968,0.144,5.45,-0.7524,-4.4841,256.1826,-0.61623,0.03484,0.01897,0.78657,-0.0598,0.076,-9.8396,0.6974,-0.1905,0.0337,0.0711,3,11,0.58,1.15,0.32,24.567,19.52,92.8,46.1,20419.0,7798,7759,7517,7970,62.3,63.6,64.0,64.8,2.967,2.852,2.547,3.055,2.18,263.5,37.4,64.5,1010.49,-31.48,-0.2,1.39,35.6,51.5,39.4,0,no_anomaly,0.0,0,0,0,0,26.8467005,80.946151,20.8,0.0
2024-01-03T14:34:11.500Z,MISSION_0049,115,1,transit,SITE_LKN_010,26.8467025,80.9461546,20.8,256.98,1.697,0.062,5.07,-5.3023,-3.8778,256.9808,-0.62014,0.05523,-0.01515,0.7824,0.0405,-0.0069,-9.8542,0.2699,0.3749,-0.2746,0.189,3,20,0.53,0.71,0.24,24.548,14.41,92.8,46.0,20407.0,7965,7712,7633,7805,59.2,62.2,65.1,65.5,2.784,2.728,2.716,2.961,2.32,267.3,37.8,63.9,1009.95,-30.66,0.94,1.66,33.3,52.0,38.4,0,no_anomaly,0.0,0,0,0,0,26.8467025,80.9461546,20.8,0.0
2024-01-03T14:34:11.600Z,MISSION_0049,116,1,transit,SITE_LKN_010,26.8466991,80.9461544,20.8,257.65,2.248,0.135,5.08,-0.3954,-0.9128,257.6451,-0.62687,0.00837,0.00231,0.77908,-0.0971,0.0761,-9.7979,0.8929,1.4161,0.1101,0.1465,3,11,0.8,1.11,0.35,24.643,20.56,92.7,45.9,20395.0,7605,8008,7683,7761,62.7,66.0,64.9,66.0,2.718,2.675,2.613,3.019,1.6,270.6,37.6,64.4,1010.31,-30.9,-0.11,1.07,33.3,49.8,41.5,0,no_anomaly,0.0,0,0,0,0,26.8466991,80.9461544,20.8,0.0
2024-01-03T14:34:11.700Z,MISSION_0049,117,1,orbit_base,SITE_LKN_010,26.8466254,80.9461712,21.1,256.4,2.754,0.127,8.91,1.3391,-1.7618,256.4015,-0.61844,0.00485,0.01869,0.78559,0.083,0.0542,-9.6889,-0.0898,-0.8456,-0.5273,0.176,3,10,0.64,0.65,0.25,24.525,18.81,92.6,46.0,20382.0,7678,7899,7735,7958,61.1,64.3,62.7,61.1,2.944,2.837,2.734,2.901,2.33,270.1,37.8,64.9,1010.32,-34.6,0.44,1.22,30.6,43.9,40.2,0,no_anomaly,0.0,0,0,0,0,26.8466254,80.9461712,21.1,0.0
2024-01-03T14:34:11.800Z,MISSION_0049,118,1,orbit_base,SITE_LKN_010,26.8466263,80.946169,21.4,257.83,2.94,0.161,8.91,2.2346,0.8502,257.83,-0.62792,-0.01802,0.01051,0.778,0.0957,-0.0669,-9.8013,0.8306,-0.4252,0.2779,0.1287,3,18,0.7,0.86,0.2,24.609,22.32,92.6,45.9,20370.0,8026,8083,7701,7895,66.7,61.9,62.0,64.7,2.851,2.888,2.756,2.936,2.58,260.3,37.8,64.9,1010.24,-35.58,-0.49,1.54,34.1,52.2,42.1,0,no_anomaly,0.0,0,0,0,0,26.8466263,80.946169,21.4,0.0
2024-01-03T14:34:11.900Z,MISSION_0049,119,1,orbit_base,SITE_LKN_010,26.8466272,80.9461668,21.7,254.99,2.972,0.052,8.91,0.9116,-1.6477,254.9945,-0.60873,0.00657,0.01506,0.79321,-0.0044,-0.1129,-9.7134,-0.6274,0.2366,0.2723,0.1535,3,19,0.71,0.79,0.29,24.684,12.88,92.5,46.2,20358.0,7431,7612,7890,7726,62.5,64.5,63.2,67.3,2.782,2.782,2.826,2.771,2.26,273.9,37.7,64.1,1010.45,-30.89,-0.29,1.28,35.1,50.7,39.5,0,no_anomaly,0.0,0,0,0,0,26.8466272,80.9461668,21.7,0.0
2024-01-03T14:34:12.000Z,MISSION_0049,120,1,orbit_base,SITE_LKN_010,26.8466283,80.9461646,22.0,254.29,3.346,0.076,8.91,-2.2991,-0.9925,254.2874,-0.60353,0.01902,-0.01076,0.79704,0.0055,0.0318,-9.8333,1.3388,-0.0013,-0.047,0.1093,3,10,0.77,0.92,0.42,24.555,18.46,92.5,46.0,20345.0,7708,7535,7831,7626,59.7,61.3,62.6,66.2,2.775,2.973,2.846,2.976,2.78,270.0,37.8,64.0,1010.09,-33.15,-1.67,1.16,31.8,53.3,42.2,0,no_anomaly,0.0,0,0,0,0,26.8466283,80.9461646,22.0,0.0
2024-01-03T14:34:12.100Z,MISSION_0049,121,1,orbit_base,SITE_LKN_010,26.8466294,80.9461625,22.3,251.69,3.077,0.097,8.91,1.2976,-2.6789,251.6856,-0.58558,0.01232,0.02286,0.8102,-0.0242,-0.0383,-9.7102,-0.1328,-0.4978,-0.4998,0.0853,3,18,0.68,1.0,0.25,24.653,10.57,92.4,46.6,20333.0,7861,7823,7870,7954,63.5,64.3,70.1,65.3,2.766,2.935,2.666,2.647,1.79,275.2,37.6,64.9,1010.35,-31.46,-0.81,1.83,31.2,51.3,41.1,0,no_anomaly,0.0,0,0,0,0,26.8466294,80.9461625,22.3,0.0
2024-01-03T14:34:12.200Z,MISSION_0049,122,1,orbit_base,SITE_LKN_010,26.8466305,80.9461604,22.6,250.78,3.489,0.106,8.91,-2.2986,-0.0877,250.7804,-0.57901,0.01224,-0.01591,0.81507,0.09,-0.1173,-9.7807,0.3832,-0.2398,0.4229,0.1228,3,16,0.77,1.25,0.29,24.676,25.87,92.4,45.1,20321.0,7879,7706,7823,7873,61.6,61.5,62.4,63.3,2.503,2.998,2.849,2.772,1.78,263.5,37.5,64.2,1010.17,-28.02,-0.55,1.91,32.0,48.4,42.1,0,no_anomaly,0.0,0,0,0,0,26.8466305,80.9461604,22.6,0.0
2024-01-03T14:34:12.300Z,MISSION_0049,123,1,orbit_base,SITE_LKN_010,26.8466317,80.9461583,22.9,250.45,3.036,0.203,8.91,-2.7632,-2.9988,250.454,-0.57594,0.03527,-0.0046,0.81672,0.0738,-0.0433,-9.8519,-0.2586,-0.0716,0.0231,0.1393,3,15,0.8,0.8,0.33,24.625,18.74,92.3,45.5,20309.0,8186,7765,7991,7906,64.6,62.0,64.8,63.4,2.856,2.747,2.838,2.676,3.37,261.5,37.8,63.7,1010.47,-25.63,1.06,2.13,34.4,49.8,39.7,0,no_anomaly,0.0,0,0,0,0,26.8466317,80.9461583,22.9,0.0
2024-01-03T14:34:12.400Z,MISSION_0049,124,1,orbit_base,SITE_LKN_010,26.846633,80.9461563,23.2,252.48,2.732,0.085,8.91,-2.1349,1.7596,252.4766,-0.5912,-0.00137,-0.0241,0.80616,0.0242,-0.0005,-9.7272,-0.1178,0.4488,-0.3669,0.1171,3,16,0.68,1.01,0.3,24.649,15.84,92.3,46.2,20296.0,8026,7795,7522,8246,65.6,64.0,67.1,59.6,2.849,2.795,2.726,2.743,2.32,251.9,37.8,64.3,1010.74,-29.98,1.02,1.67,32.6,45.1,41.7,0,no_anomaly,0.0,0,0,0,0,26.846633,80.9461563,23.2,0.0
2024-01-03T14:34:12.500Z,MISSION_0049,125,1,orbit_base,SITE_LKN_010,26.8466344,80.9461543,23.5,251.79,2.907,0.139,8.91,-2.9197,-0.2325,251.7937,-0.58609,0.01658,-0.01945,0.80984,-0.0277,-0.0727,-9.8188,-1.2421,-1.0792,-0.4099,0.1291,3,10,0.82,0.99,0.23,24.587,20.74,92.2,45.8,20284.0,7736,7970,7842,7905,60.7,65.6,62.4,63.4,2.583,2.885,2.819,2.862,3.21,271.0,37.7,65.2,1010.32,-31.54,1.67,1.21,33.2,51.3,42.7,0,no_anomaly,0.0,0,0,0,0,26.8466344,80.9461543,23.5,0.0
2024-01-03T14:34:12.600Z,MISSION_0049,126,1,orbit_base,SITE_LKN_010,26.8466358,80.9461523,23.8,252.29,3.15,0.024,8.91,1.8489,-1.8609,252.2881,-0.58987,0.0036,0.0226,0.80717,-0.0071,-0.0435,-9.8584,0.4759,-0.1862,-0.0588,0.2071,3,18,0.58,0.92,0.24,24.649,21.7,92.1,45.9,20272.0,7710,7620,7801,7837,64.6,62.8,64.1,65.5,2.991,2.768,2.798,2.892,2.61,265.0,37.7,64.3,1010.12,-30.0,-1.02,1.6,30.9,43.9,42.1,0,no_anomaly,0.0,0,0,0,0,26.8466358,80.9461523,23.8,0.0
2024-01-03T14:34:12.700Z,MISSION_0049,127,1,orbit_base,SITE_LKN_010,26.8466372,80.9461504,24.1,252.52,3.198,0.113,8.91,-0.816,0.6227,252.5158,-0.59143,-0.00017,-0.00896,0.80631,0.0949,0.0015,-9.7978,0.4762,-0.6942,-0.597,0.1143,3,12,0.65,0.92,0.29,24.631,18.68,92.1,46.7,20259.0,7799,7942,7770,7677,61.5,62.9,63.1,66.4,2.724,2.749,2.566,2.849,2.67,273.2,37.3,64.7,1010.25,-23.68,1.53,1.67,31.4,51.1,42.4,0,no_anomaly,0.0,0,0,0,0,26.8466372,80.9461504,24.1,0.0
2024-01-03T14:34:12.800Z,MISSION_0049,128,1,orbit_base,SITE_LKN_010,26.8466387,80.9461486,24.4,250.37,3.874,0.117,8.91,1.7436,-1.634,250.3748,-0.5763,0.00289,0.02065,0.81697,-0.0833,0.0341,-9.817,0.0177,-1.0463,-0.0912,0.0716,3,14,0.79,1.12,0.25,24.683,18.92,92.0,46.9,20247.0,8171,7720,7905,7866,64.1,61.8,63.8,65.4,3.021,3.1,2.75,2.975,2.31,267.4,37.7,63.5,1010.21,-27.07,0.52,1.42,29.6,42.9,37.4,0,no_anomaly,0.0,0,0,0,0,26.8466387,80.9461486,24.4,0.0
2024-01-03T14:34:12.900Z,MISSION_0049,129,1,orbit_base,SITE_LKN_010,26.8466403,80.9461467,24.7,249.84,3.379,0.1,8.91,-1.3008,-3.7662,249.8402,-0.57178,0.03344,0.00951,0.81967,-0.1156,0.0447,-9.8357,0.3215,-0.4486,0.0827,0.1955,3,16,0.74,0.87,0.2,24.651,19.34,92.0,45.9,20235.0,7868,8099,7756,7423,60.6,60.7,64.9,60.4,2.587,2.865,3.007,2.75,2.8,267.1,37.5,64.0,1010.32,-29.63,-0.82,1.79,36.7,51.6,40.3,0,no_anomaly,0.0,0,0,0,0,26.8466403,80.9461467,24.7,0.0
