timestamp_utc,mission_id,frame_id,waypoint_id,inspection_phase,site_id,latitude_deg,longitude_deg,altitude_m,heading_deg,ground_speed_ms,vertical_speed_ms,distance_to_tower_m,roll_deg,pitch_deg,yaw_deg,quat_w,quat_x,quat_y,quat_z,accel_x_ms2,accel_y_ms2,accel_z_ms2,gyro_x_rads,gyro_y_rads,gyro_z_rads,vibration_level,gps_fix_type,gps_satellite_count,gps_hdop,gps_vdop,position_error_m,battery_voltage_v,battery_current_a,battery_remaining_pct,battery_temp_c,battery_capacity_mah,motor_fl_rpm,motor_fr_rpm,motor_rl_rpm,motor_rr_rpm,motor_fl_temp_c,motor_fr_temp_c,motor_rl_temp_c,motor_rr_temp_c,motor_fl_thrust_n,motor_fr_thrust_n,motor_rl_thrust_n,motor_rr_thrust_n,wind_speed_ms,wind_dir_deg,air_temp_c,humidity_pct,pressure_hpa,gimbal_pitch_deg,gimbal_roll_deg,zoom_factor,ir_temp_min_c,ir_temp_max_c,ir_temp_avg_c,anomaly_detected,anomaly_class,anomaly_confidence,anomaly_bbox_x,anomaly_bbox_y,anomaly_bbox_w,anomaly_bbox_h,anomaly_gps_lat,anomaly_gps_lon,anomaly_gps_alt_m,ir_temp_delta_c
2024-04-01T15:44:00.000Z,MISSION_0012,0,0,takeoff,SITE_BLR_003,12.9716054,77.5945994,1.5,67.31,0.086,0.023,0.6,9.392,1.3758,67.3132,0.83006,0.06151,0.05533,0.5515,-0.2838,0.0433,-9.7945,-0.4352,-0.0007,-0.1671,0.1951,3,11,0.67,0.84,0.28,24.683,22.49,95.8,47.1,21067.0,7315,7527,7298,7330,64.5,64.1,64.7,63.9,2.652,2.823,2.741,2.605,6.45,55.5,39.2,46.1,1005.86,-29.5,-0.71,1.62,35.1,45.3,41.5,0,no_anomaly,0.0,0,0,0,0,12.9716054,77.5945994,1.5,0.0
2024-04-01T15:44:00.100Z,MISSION_0012,1,0,takeoff,SITE_BLR_003,12.9716031,77.5945979,3.0,64.01,0.0,0.057,0.42,-3.9509,-1.9967,64.0115,0.84768,-0.02,-0.03303,0.5291,0.0593,-0.0417,-9.7517,-0.4811,0.5223,0.5342,0.2862,3,13,0.8,0.74,0.24,24.701,18.13,95.7,47.0,21046.0,7555,7494,7353,7245,64.2,64.3,65.2,65.0,2.907,2.728,3.047,2.703,6.17,60.9,39.1,47.0,1005.94,-30.13,-0.03,1.1,34.4,46.6,41.1,0,no_anomaly,0.0,0,0,0,0,12.9716031,77.5945979,3.0,0.0
2024-04-01T15:44:00.200Z,MISSION_0012,2,0,takeoff,SITE_BLR_003,12.9716018,77.5945949,4.5,60.85,0.403,0.111,0.6,2.8073,-0.0327,60.8506,0.86203,0.02127,0.01216,0.50627,-0.2718,0.0506,-9.8855,0.8178,0.3458,0.4832,0.2386,3,13,0.66,0.92,0.35,24.726,19.08,95.6,46.8,21025.0,7304,7393,7458,7569,61.7,65.9,64.1,62.6,2.735,2.717,2.713,2.731,5.91,64.8,39.0,46.6,1005.87,-28.24,-0.5,1.0,34.5,48.5,42.4,0,no_anomaly,0.0,0,0,0,0,12.9716018,77.5945949,4.5,0.0
2024-04-01T15:44:00.300Z,MISSION_0012,3,0,takeoff,SITE_BLR_003,12.9715984,77.5945943,5.0,61.38,0.933,0.142,0.66,-1.9577,-2.6791,61.3844,0.85977,-0.00276,-0.02882,0.50987,0.1701,0.0582,-9.8477,0.7598,0.5865,0.0309,0.3038,3,16,0.82,0.78,0.27,24.702,18.42,95.5,46.7,21004.0,7220,7331,7220,7182,63.6,63.8,63.2,66.5,3.113,2.997,3.013,2.928,5.61,56.4,39.5,47.4,1006.03,-36.05,0.21,1.0,35.5,44.6,42.5,0,no_anomaly,0.0,0,0,0,0,12.9715984,77.5945943,5.0,0.0
2024-04-01T15:44:00.400Z,MISSION_0012,4,0,takeoff,SITE_BLR_003,12.971596,77.5945972,5.0,60.76,1.083,0.139,0.55,5.1699,-4.356,60.7618,0.86032,0.05808,-0.00996,0.50635,0.0465,0.0673,-9.8589,-0.1144,0.8336,-0.1057,0.1946,3,14,0.78,0.87,0.36,24.68,16.52,95.4,46.9,20983.0,7567,7518,7253,7518,60.3,65.7,62.2,65.2,2.878,2.934,2.892,2.797,5.61,61.1,39.4,47.8,1006.27,-32.42,0.99,1.46,33.0,44.9,38.4,0,no_anomaly,0.0,0,0,0,0,12.971596,77.5945972,5.0,0.0
2024-04-01T15:44:00.500Z,MISSION_0012,5,0,takeoff,SITE_BLR_003,12.9716007,77.5945966,5.0,61.57,1.013,0.066,0.38,1.7241,-2.6134,61.5663,0.85861,0.02459,-0.01189,0.51189,0.2015,-0.0022,-9.8143,0.3921,0.4396,0.492,0.2527,3,14,0.58,0.87,0.26,24.671,14.39,95.3,46.8,20961.0,7199,7224,7257,7307,65.9,60.6,66.4,67.1,2.831,2.415,2.747,2.677,5.96,62.9,38.9,46.4,1005.66,-33.69,-0.87,1.56,31.3,47.1,43.6,0,no_anomaly,0.0,0,0,0,0,12.9716007,77.5945966,5.0,0.0
2024-04-01T15:44:00.600Z,MISSION_0012,6,0,takeoff,SITE_BLR_003,12.9715967,77.5945976,5.0,63.56,0.893,0.174,0.46,-1.6614,-1.9138,63.5613,0.84999,-0.00353,-0.02183,0.52633,-0.3867,0.0428,-9.8253,0.0284,0.4322,-0.0375,0.3048,3,17,0.74,0.97,0.3,24.817,24.82,95.2,47.1,20940.0,7296,7478,7145,7332,63.8,66.7,67.8,67.5,2.739,2.767,2.924,2.647,5.4,54.2,39.3,47.2,1005.65,-29.68,-0.05,1.55,36.9,53.9,41.7,0,no_anomaly,0.0,0,0,0,0,12.9715967,77.5945976,5.0,0.0
2024-04-01T15:44:00.700Z,MISSION_0012,7,0,takeoff,SITE_BLR_003,12.9715972,77.5946017,5.0,60.84,0.983,0.077,0.37,-8.1936,-1.2346,60.8408,0.86047,-0.05616,-0.04544,0.50435,-0.0429,0.0005,-9.7875,-0.3256,-0.3535,0.1022,0.1774,3,15,0.69,0.6,0.22,24.648,18.6,95.1,47.1,20919.0,7822,7076,7066,7369,61.8,61.9,64.1,71.0,2.955,3.101,2.739,2.957,6.94,54.9,39.2,47.1,1005.91,-29.26,-1.31,2.03,31.7,46.2,41.6,0,no_anomaly,0.0,0,0,0,0,12.9715972,77.5946017,5.0,0.0
2024-04-01T15:44:00.800Z,MISSION_0012,8,0,takeoff,SITE_BLR_003,12.9715967,77.5946019,5.0,57.48,1.27,0.041,0.42,-4.3544,-1.119,57.4832,0.8763,-0.02862,-0.02682,0.48017,0.0539,0.0206,-9.8568,-0.2735,0.1142,-0.2472,0.1843,3,20,0.68,1.15,0.23,24.636,14.8,95.0,47.2,20898.0,7148,7241,7121,7299,66.5,60.9,62.3,62.5,2.626,3.096,2.935,2.774,5.66,63.9,39.0,47.2,1006.22,-30.63,0.3,1.63,31.7,51.9,41.9,0,no_anomaly,0.0,0,0,0,0,12.9715967,77.5946019,5.0,0.0
2024-04-01T15:44:00.900Z,MISSION_0012,9,0,takeoff,SITE_BLR_003,12.9715983,77.5946039,5.0,56.53,1.681,0.095,0.48,-3.1988,2.2178,56.5276,0.88001,-0.03374,0.00382,0.47373,0.1454,-0.037,-9.8323,0.1115,-0.0704,-0.2738,0.2089,3,15,0.76,1.3,0.31,24.692,19.53,94.9,46.6,20877.0,7329,7372,7294,7307,63.5,62.4,64.5,64.2,2.709,2.887,2.937,2.786,5.11,59.8,39.3,47.9,1006.06,-29.26,1.57,2.25,31.4,47.2,38.7,0,no_anomaly,0.0,0,0,0,0,12.9715983,77.5946039,5.0,0.0
2024-04-01T15:44:01.000Z,MISSION_0012,10,0,takeoff,SITE_BLR_003,12.9715975,77.5946028,5.0,56.64,1.465,0.113,0.42,0.0403,-1.902,56.6368,0.8802,0.00818,-0.01444,0.47431,-0.1568,-0.0166,-9.8091,-0.029,0.3058,-0.2234,0.237,3,16,0.67,0.81,0.28,24.661,16.45,94.8,47.2,20856.0,7274,7283,7483,7413,64.5,64.5,60.3,64.9,2.977,2.706,2.661,2.623,5.39,57.6,39.2,47.5,1006.09,-25.74,1.36,1.34,31.6,49.5,42.5,0,no_anomaly,0.0,0,0,0,0,12.9715975,77.5946028,5.0,0.0
2024-04-01T15:44:01.100Z,MISSION_0012,11,0,takeoff,SITE_BLR_003,12.9715999,77.5946047,5.0,53.57,1.6,0.013,0.52,-2.0435,-3.1116,53.5718,0.89244,-0.00368,-0.03227,0.44999,-0.0547,0.0746,-9.805,0.5312,1.1305,0.5606,0.2659,3,10,0.7,1.08,0.28,24.662,16.85,94.7,47.5,20835.0,7519,7205,7400,7416,66.6,67.9,63.8,63.2,2.866,2.691,2.705,2.719,4.68,66.9,39.1,46.5,1006.32,-22.84,-2.34,1.62,35.5,49.8,40.6,0,no_anomaly,0.0,0,0,0,0,12.9715999,77.5946047,5.0,0.0
2024-04-01T15:44:01.200Z,MISSION_0012,12,0,takeoff,SITE_BLR_003,12.9716018,77.5946057,5.0,53.49,1.383,0.099,0.67,0.1412,0.0558,53.4882,0.89302,0.00088,0.00099,0.45001,-0.352,-0.0765,-9.7694,0.5446,0.0439,-0.4384,0.224,3,16,0.81,0.77,0.24,24.671,15.52,94.6,46.5,20813.0,7365,7483,7505,7063,63.4,68.1,63.6,64.1,2.891,2.82,2.758,2.495,5.71,56.7,39.0,46.9,1005.9,-35.83,1.49,1.05,35.8,44.7,43.1,0,no_anomaly,0.0,0,0,0,0,12.9716018,77.5946057,5.0,0.0
2024-04-01T15:44:01.300Z,MISSION_0012,13,0,takeoff,SITE_BLR_003,12.9716016,77.5946066,5.0,55.18,1.866,0.052,0.76,-0.7412,-2.5207,55.1824,0.88611,0.00446,-0.02249,0.46291,0.1811,0.0192,-9.8104,0.8561,0.4467,-0.1489,0.2079,3,18,0.73,0.94,0.27,24.591,25.53,94.5,47.6,20792.0,7257,7460,7443,7315,64.3,65.7,65.5,67.4,2.589,2.637,3.068,2.888,6.05,60.9,39.0,47.3,1006.16,-32.43,1.72,1.37,35.1,49.6,39.8,0,no_anomaly,0.0,0,0,0,0,12.9716016,77.5946066,5.0,0.0
2024-04-01T15:44:01.400Z,MISSION_0012,14,0,takeoff,SITE_BLR_003,12.9716013,77.5946071,5.0,52.79,1.591,0.149,0.8,2.569,-2.5456,52.7864,0.8951,0.02995,-0.00993,0.44475,-0.1893,-0.015,-9.7928,-0.0071,-0.7758,-0.5479,0.2233,3,19,0.53,0.7,0.26,24.663,21.97,94.4,47.5,20771.0,7396,7234,7137,7292,62.6,64.3,62.6,64.0,2.81,2.838,2.519,3.035,6.15,47.8,38.9,46.5,1005.84,-34.18,0.33,1.86,35.3,50.5,40.9,0,no_anomaly,0.0,0,0,0,0,12.9716013,77.5946071,5.0,0.0
2024-04-01T15:44:01.500Z,MISSION_0012,15,0,takeoff,SITE_BLR_003,12.9716023,77.594609,5.0,51.5,1.185,0.142,1.04,0.9579,-2.3321,51.5006,0.9004,0.01637,-0.0147,0.4345,0.097,0.0286,-9.8762,0.4888,0.1087,-0.5951,0.2348,3,18,0.89,0.85,0.42,24.597,20.76,94.3,46.9,20750.0,7247,7244,7150,7121,65.5,64.5,68.2,64.1,2.829,3.015,2.767,2.942,5.29,69.9,39.1,47.4,1005.77,-32.92,-1.07,1.86,33.7,52.2,44.5,0,no_anomaly,0.0,0,0,0,0,12.9716023,77.594609,5.0,0.0
2024-04-01T15:44:01.600Z,MISSION_0012,16,0,takeoff,SITE_BLR_003,12.9715976,77.5946098,5.0,53.06,0.772,0.053,1.12,2.0588,-0.9266,53.0614,0.89446,0.01968,0.00079,0.44672,0.0826,0.0253,-9.8182,0.075,0.3316,0.3528,0.0899,3,18,0.5,1.05,0.2,24.67,18.55,94.2,47.5,20729.0,7259,7476,7155,7346,63.7,65.7,64.7,66.0,2.663,2.887,2.847,2.849,4.95,58.8,39.1,47.4,1006.53,-34.27,0.87,1.8,32.5,43.1,38.1,0,no_anomaly,0.0,0,0,0,0,12.9715976,77.5946098,5.0,0.0
2024-04-01T15:44:01.700Z,MISSION_0012,17,0,takeoff,SITE_BLR_003,12.9715995,77.5946115,5.0,54.94,0.827,0.123,1.28,-2.2693,0.0983,54.9432,0.88706,-0.01796,-0.00837,0.46123,0.019,0.0411,-9.8009,-0.2987,-0.3284,0.1787,0.2847,3,20,0.7,0.95,0.26,24.639,15.91,94.1,47.0,20708.0,7284,7428,7107,7339,63.8,65.1,62.0,63.8,3.037,2.902,2.958,2.712,5.61,56.5,39.3,47.6,1005.85,-26.84,-1.11,2.13,31.8,52.3,42.3,0,no_anomaly,0.0,0,0,0,0,12.9715995,77.5946115,5.0,0.0
2024-04-01T15:44:01.800Z,MISSION_0012,18,0,takeoff,SITE_BLR_003,12.9715967,77.5946087,5.0,54.18,0.889,0.104,1.04,2.327,-0.6866,54.1753,0.89006,0.02081,0.00391,0.45536,-0.09,-0.0395,-9.7885,-0.0252,0.7827,-0.327,0.1977,3,12,0.56,1.16,0.22,24.664,16.43,94.0,47.3,20687.0,7336,7137,7281,7261,66.4,65.1,66.9,66.5,2.901,2.889,2.601,2.789,5.74,65.8,39.1,47.5,1005.92,-27.93,-0.8,1.77,35.4,48.5,42.2,0,no_anomaly,0.0,0,0,0,0,12.9715967,77.5946087,5.0,0.0
2024-04-01T15:44:01.900Z,MISSION_0012,19,0,takeoff,SITE_BLR_003,12.9715997,77.5946134,5.0,55.78,0.817,0.217,1.5,1.5301,-1.6151,55.7829,0.88358,0.01839,-0.00621,0.46788,0.0327,0.0017,-9.7697,0.7468,-0.548,-0.346,0.2798,3,13,0.74,0.62,0.3,24.592,11.47,93.9,47.1,20665.0,7372,7600,7213,7333,64.3,65.7,61.7,60.3,2.701,2.735,2.76,2.646,7.04,58.1,38.9,47.6,1006.07,-32.3,-0.73,1.0,37.2,46.1,40.4,0,no_anomaly,0.0,0,0,0,0,12.9715997,77.5946134,5.0,0.0
2024-04-01T15:44:02.000Z,MISSION_0012,20,0,takeoff,SITE_BLR_003,12.971604,77.5946209,5.0,57.74,1.198,0.132,2.37,-2.0772,-0.6412,57.7391,0.87561,-0.01317,-0.01365,0.48264,-0.1334,-0.0456,-9.8082,0.1493,-0.5808,-0.4384,0.2239,3,16,0.5,1.04,0.2,24.609,17.52,93.8,47.6,20644.0,7389,7525,7083,7379,66.6,62.9,66.8,66.0,2.67,2.877,2.729,2.636,5.35,56.1,39.3,47.0,1005.72,-29.34,-0.28,1.58,36.4,46.6,43.8,0,no_anomaly,0.0,0,0,0,0,12.971604,77.5946209,5.0,0.0
2024-04-01T15:44:02.100Z,MISSION_0012,21,0,takeoff,SITE_BLR_003,12.9716091,77.5946172,5.0,58.85,1.533,0.066,2.17,3.269,-1.0465,58.8523,0.87047,0.02933,0.00606,0.49131,-0.2222,0.0855,-9.8365,0.472,0.4963,-0.3264,0.1726,3,11,0.65,0.61,0.23,24.665,21.01,93.7,47.4,20623.0,7446,7602,7273,7198,67.0,61.2,61.8,60.9,2.764,2.868,2.909,2.744,6.09,56.3,39.2,46.8,1005.76,-23.99,-2.86,1.82,32.8,50.3,42.2,0,no_anomaly,0.0,0,0,0,0,12.9716091,77.5946172,5.0,0.0
2024-04-01T15:44:02.200Z,MISSION_0012,22,0,takeoff,SITE_BLR_003,12.9716103,77.5946176,5.0,60.95,1.58,0.073,2.27,-2.7647,-1.6211,60.9464,0.8617,-0.01362,-0.02442,0.50664,0.0874,0.0247,-9.8161,-0.5721,-0.3569,-0.4886,0.2668,3,20,0.57,0.99,0.29,24.724,17.4,93.6,46.6,20602.0,7304,7401,7477,7302,62.3,64.7,64.7,66.4,2.659,2.835,2.66,2.991,5.77,65.2,39.3,46.4,1005.83,-27.33,-0.73,1.73,35.9,50.2,41.4,0,no_anomaly,0.0,0,0,0,0,12.9716103,77.5946176,5.0,0.0
2024-04-01T15:44:02.300Z,MISSION_0012,23,0,takeoff,SITE_BLR_003,12.9716075,77.5946136,5.0,62.29,2.063,0.223,1.73,1.9873,-3.3182,62.2906,0.85511,0.02981,-0.01581,0.51734,0.0121,0.0096,-9.7802,0.723,0.5731,-0.3878,0.2267,3,14,0.59,1.13,0.29,24.59,24.04,93.5,46.0,20581.0,7270,7244,7384,7575,61.5,64.6,64.1,65.9,2.926,2.677,2.689,2.721,5.6,54.7,39.3,46.5,1005.87,-28.45,-0.48,1.42,34.4,54.5,40.8,0,no_anomaly,0.0,0,0,0,0,12.9716075,77.5946136,5.0,0.0
2024-04-01T15:44:02.400Z,MISSION_0012,24,0,takeoff,SITE_BLR_003,12.9716106,77.5946136,5.0,60.27,1.823,0.112,1.92,2.6698,-2.6482,60.2744,0.86409,0.03174,-0.00829,0.50227,-0.1438,0.0091,-9.8606,-0.4964,-0.0927,0.1704,0.1956,3,20,0.55,0.7,0.34,24.605,15.87,93.5,48.0,20560.0,7271,7507,7253,7451,59.5,62.6,65.0,64.6,2.722,2.755,2.677,2.771,5.65,65.9,38.7,46.4,1006.04,-32.03,-0.63,1.73,29.9,48.6,39.0,0,no_anomaly,0.0,0,0,0,0,12.9716106,77.5946136,5.0,0.0
2024-04-01T15:44:02.500Z,MISSION_0012,25,0,takeoff,SITE_BLR_003,12.9716073,77.594609,5.0,59.79,1.876,0.138,1.29,0.3722,-4.6165,59.7891,0.86617,0.02289,-0.0333,0.49811,0.1611,0.014,-9.7374,-0.1921,-0.0583,0.0011,0.178,3,12,0.75,0.9,0.43,24.523,14.61,93.4,47.0,20539.0,7375,7450,7384,7467,63.3,65.2,62.9,65.3,2.782,2.785,2.707,2.764,4.95,56.7,39.1,47.2,1005.57,-34.56,0.07,1.3,34.5,48.4,44.4,0,no_anomaly,0.0,0,0,0,0,12.9716073,77.594609,5.0,0.0
2024-04-01T15:44:02.600Z,MISSION_0012,26,0,takeoff,SITE_BLR_003,12.9716089,77.5946111,5.0,61.71,1.713,0.129,1.59,-4.4182,-1.7446,61.7131,0.85802,-0.02528,-0.03283,0.51195,-0.2812,-0.0306,-9.7201,-0.5599,-0.0192,-0.0292,0.2646,3,17,0.53,0.95,0.2,24.596,16.7,93.3,47.5,20517.0,7488,7282,7295,7385,62.9,65.7,67.7,62.7,3.073,3.107,2.746,2.896,5.65,65.8,39.4,46.2,1006.01,-30.25,-0.09,2.05,34.4,54.7,42.8,0,no_anomaly,0.0,0,0,0,0,12.9716089,77.5946111,5.0,0.0
2024-04-01T15:44:02.700Z,MISSION_0012,27,0,takeoff,SITE_BLR_003,12.9716142,77.5946115,5.0,63.32,1.626,0.157,2.03,-2.8008,-1.2619,63.3152,0.85104,-0.01502,-0.0222,0.52442,0.2519,0.066,-9.8207,-0.2814,-0.2214,0.1407,0.2037,3,17,0.51,1.01,0.22,24.553,17.13,93.2,46.8,20496.0,7385,7369,7294,7400,68.3,66.4,61.4,65.4,2.862,2.706,2.963,2.625,5.74,60.0,39.0,47.8,1006.14,-30.46,-1.07,1.16,33.0,48.4,42.0,0,no_anomaly,0.0,0,0,0,0,12.9716142,77.5946115,5.0,0.0
2024-04-01T15:44:02.800Z,MISSION_0012,28,0,takeoff,SITE_BLR_003,12.9716154,77.5946102,5.0,64.65,1.351,0.087,2.05,1.089,-2.9696,64.649,0.84458,0.02188,-0.01682,0.53472,-0.1522,-0.0707,-9.8246,-0.3094,-0.0131,-0.2745,0.3313,3,10,1.06,0.76,0.65,24.615,15.97,93.1,46.4,20475.0,7170,7394,7405,7405,64.3,64.4,61.3,65.0,2.713,2.981,2.923,2.79,5.04,63.1,39.2,46.3,1006.21,-36.19,-1.07,1.38,33.0,50.7,43.5,0,no_anomaly,0.0,0,0,0,0,12.9716154,77.5946102,5.0,0.0
2024-04-01T15:44:02.900Z,MISSION_0012,29,0,takeoff,SITE_BLR_003,12.9716143,77.5946125,5.0,63.12,0.897,0.115,2.11,4.5697,-3.2118,63.1231,0.85048,0.04861,-0.003,0.52374,0.3651,0.0545,-9.7638,0.5303,-0.5408,-0.2339,0.2098,3,15,0.67,0.66,0.28,24.626,14.23,93.0,47.9,20454.0,7510,7378,7233,7505,66.8,63.6,63.1,61.8,2.947,2.826,2.523,2.734,5.24,47.5,39.2,47.4,1006.26,-31.8,-0.91,1.11,30.9,42.7,39.3,0,no_anomaly,0.0,0,0,0,0,12.9716143,77.5946125,5.0,0.0
2024-04-01T15:44:03.000Z,MISSION_0012,30,0,takeoff,SITE_BLR_003,12.9716105,77.5946076,5.0,61.35,0.774,0.087,1.44,2.3291,-2.7624,61.3451,0.85942,0.02977,-0.01036,0.5103,-0.0197,-0.0133,-9.8193,1.1914,-0.3658,0.5133,0.1076,3,14,0.66,0.94,0.28,24.628,19.78,92.9,47.5,20433.0,7320,7075,7199,7272,64.2,63.8,63.0,60.2,3.047,2.776,2.658,3.044,5.31,57.0,39.4,47.4,1005.78,-32.56,-0.46,1.74,36.9,53.2,42.7,0,no_anomaly,0.0,0,0,0,0,12.9716105,77.5946076,5.0,0.0
2024-04-01T15:44:03.100Z,MISSION_0012,31,0,takeoff,SITE_BLR_003,12.9716102,77.5946102,5.0,62.0,0.688,0.012,1.6,3.693,0.5439,61.9981,0.8568,0.02518,0.02066,0.51462,-0.3635,0.0236,-9.8162,-0.0957,-0.4267,0.4185,0.14,3,17,0.5,1.0,0.23,24.522,19.14,92.8,47.1,20412.0,7022,7514,7381,7345,64.9,62.6,66.6,63.7,2.78,2.888,2.854,2.768,5.85,62.4,39.5,47.2,1005.95,-27.59,-0.65,1.47,34.7,51.1,41.3,0,no_anomaly,0.0,0,0,0,0,12.9716102,77.5946102,5.0,0.0
2024-04-01T15:44:03.200Z,MISSION_0012,32,0,takeoff,SITE_BLR_003,12.9716094,77.5946124,5.0,61.87,0.304,0.183,1.74,0.2993,-2.5032,61.8657,0.85753,0.01347,-0.01739,0.51396,-0.1069,-0.0781,-9.7487,0.177,-0.3341,0.4983,0.2948,3,14,0.62,0.7,0.27,24.612,20.05,92.7,46.7,20391.0,7287,7406,7705,7439,62.8,63.5,62.3,64.5,2.738,2.892,2.656,2.444,5.8,64.9,38.9,47.0,1006.13,-32.06,-1.13,1.67,34.9,45.9,39.9,0,no_anomaly,0.0,0,0,0,0,12.9716094,77.5946124,5.0,0.0
2024-04-01T15:44:03.300Z,MISSION_0012,33,0,takeoff,SITE_BLR_003,12.9716127,77.5946119,5.0,62.72,0.37,0.098,1.93,-0.0127,-3.4163,62.7188,0.85354,0.01542,-0.02551,0.52017,-0.0453,-0.0139,-9.7865,0.5861,0.0697,-0.0213,0.1091,3,18,0.76,0.89,0.39,24.616,17.31,92.6,47.6,20369.0,7399,7620,7190,7193,64.2,61.9,64.6,67.2,2.892,2.58,2.623,2.788,5.46,64.5,38.6,48.0,1005.96,-32.57,0.06,1.21,32.2,53.4,42.0,0,no_anomaly,0.0,0,0,0,0,12.9716127,77.5946119,5.0,0.0
2024-04-01T15:44:03.400Z,MISSION_0012,34,0,takeoff,SITE_BLR_003,12.9716093,77.5946117,5.0,63.42,0.0,0.096,1.66,-6.9839,0.1668,63.4179,0.8491,-0.05258,-0.03078,0.5247,0.055,-0.017,-9.833,-0.3813,0.016,-0.0036,0.2281,3,17,0.69,0.84,0.2,24.507,17.6,92.5,46.8,20348.0,7542,7542,7229,7374,66.9,60.1,65.9,63.4,2.902,2.564,2.597,2.695,6.07,59.1,39.2,46.7,1005.79,-31.98,0.05,1.56,33.6,53.1,44.7,0,no_anomaly,0.0,0,0,0,0,12.9716093,77.5946117,5.0,0.0
2024-04-01T15:44:03.500Z,MISSION_0012,35,0,takeoff,SITE_BLR_003,12.9716066,77.5946091,5.0,61.87,0.0,0.135,1.26,2.1913,-0.8885,61.8692,0.8575,0.02039,0.00318,0.51408,-0.0525,0.0769,-9.8056,-0.3226,-0.5024,-0.4426,0.2929,3,11,0.92,0.91,0.36,24.595,20.51,92.4,47.3,20327.0,7272,7462,7430,7456,65.5,64.6,63.5,65.1,2.975,2.643,2.904,3.117,5.25,69.8,39.0,46.8,1005.85,-26.18,-0.54,1.32,34.3,52.7,41.3,0,no_anomaly,0.0,0,0,0,0,12.9716066,77.5946091,5.0,0.0
2024-04-01T15:44:03.600Z,MISSION_0012,36,0,takeoff,SITE_BLR_003,12.9716065,77.5946087,5.0,62.09,0.0,0.141,1.2,-2.3264,-3.195,62.088,0.85655,-0.00301,-0.03435,0.5149,-0.0424,0.0081,-9.8437,-0.1116,0.0902,0.0863,0.1862,3,12,0.8,0.84,0.3,24.629,17.5,92.3,48.1,20306.0,7358,7504,7249,7553,67.9,67.5,62.0,65.1,2.952,2.653,2.741,3.022,5.53,52.5,39.1,46.7,1005.83,-30.16,-0.41,1.73,36.5,45.4,42.5,0,no_anomaly,0.0,0,0,0,0,12.9716065,77.5946087,5.0,0.0
2024-04-01T15:44:03.700Z,MISSION_0012,37,0,takeoff,SITE_BLR_003,12.9716077,77.5946076,5.0,62.81,0.0,0.059,1.21,2.7967,-2.014,62.8115,0.85289,0.02998,-0.00228,0.52123,0.026,0.0605,-9.8273,-0.3602,0.8568,0.3107,0.1373,3,17,0.83,0.96,0.34,24.551,16.1,92.2,46.5,20285.0,7338,7380,6929,7350,61.8,63.5,66.7,64.8,2.732,2.578,2.567,3.035,6.34,65.4,38.8,46.8,1006.18,-28.64,0.55,1.47,32.2,48.9,41.2,0,no_anomaly,0.0,0,0,0,0,12.9716077,77.5946076,5.0,0.0
2024-04-01T15:44:03.800Z,MISSION_0012,38,0,takeoff,SITE_BLR_003,12.9716026,77.5946062,5.0,65.22,0.0,0.219,0.74,-3.8184,-2.8697,65.2242,0.84206,-0.01457,-0.03903,0.53778,-0.0975,0.0601,-9.8489,-0.6645,0.2807,0.3232,0.1875,3,16,0.87,0.96,0.25,24.602,16.77,92.1,47.0,20264.0,7384,7341,7449,7290,64.9,69.2,63.0,63.9,2.802,2.856,2.581,2.602,5.08,56.7,39.3,47.2,1006.39,-29.05,-0.28,2.04,34.5,47.6,39.9,0,no_anomaly,0.0,0,0,0,0,12.9716026,77.5946062,5.0,0.0
2024-04-01T15:44:03.900Z,MISSION_0012,39,0,takeoff,SITE_BLR_003,12.9716033,77.5946073,5.0,65.43,0.109,0.059,0.9,0.9589,-0.5672,65.4259,0.84133,0.00972,0.00036,0.54044,-0.1914,0.045,-9.7431,-0.359,0.2045,0.0344,0.1023,3,17,0.76,1.12,0.24,24.568,17.75,92.0,46.8,20243.0,7228,7326,7386,7286,63.5,66.6,65.7,64.6,2.92,2.65,2.82,2.66,6.01,54.8,39.1,47.1,1006.06,-30.2,-0.92,1.83,32.4,51.4,40.7,0,no_anomaly,0.0,0,0,0,0,12.9716033,77.5946073,5.0,0.0
2024-04-01T15:44:04.000Z,MISSION_0012,40,0,takeoff,SITE_BLR_003,12.9716011,77.5946061,5.0,64.93,0.327,0.125,0.69,2.7827,-0.5917,64.9328,0.84338,0.02326,0.00868,0.53675,-0.1212,0.0957,-9.8437,-0.4727,-0.5624,-0.0104,0.234,3,19,0.72,0.61,0.25,24.532,21.99,91.9,47.0,20221.0,7440,7339,7113,7337,65.3,62.9,68.8,61.7,2.908,2.695,2.683,2.759,6.74,63.9,38.9,47.2,1006.03,-30.86,-1.42,1.38,35.6,56.0,43.3,0,no_anomaly,0.0,0,0,0,0,12.9716011,77.5946061,5.0,0.0
2024-04-01T15:44:04.100Z,MISSION_0012,41,0,takeoff,SITE_BLR_003,12.9716008,77.5946063,5.0,65.53,0.123,0.161,0.71,3.1186,-1.6147,65.5297,0.8403,0.0305,0.00288,0.54126,-0.1428,0.0168,-9.8577,0.6577,-1.2436,-0.2059,0.2236,3,20,0.66,1.22,0.21,24.483,17.05,91.8,47.7,20200.0,7514,7349,7290,7380,60.5,65.1,64.3,61.5,2.929,2.446,2.753,2.968,6.26,61.2,39.0,46.8,1006.21,-31.46,-0.93,1.05,33.3,47.0,43.4,0,no_anomaly,0.0,0,0,0,0,12.9716008,77.5946063,5.0,0.0
2024-04-01T15:44:04.200Z,MISSION_0012,42,0,takeoff,SITE_BLR_003,12.9715969,77.5946082,5.0,64.27,0.0,0.048,0.97,-1.1086,-2.6625,64.2688,0.84665,0.00417,-0.02482,0.53155,0.2256,0.0427,-9.8407,0.4059,-0.1784,-0.1232,0.2698,3,20,0.72,0.6,0.29,24.537,17.1,91.7,47.8,20179.0,7191,7477,7085,7563,64.4,63.2,63.7,64.3,3.009,2.909,2.617,2.851,5.22,55.1,39.4,46.5,1006.29,-30.08,-0.93,1.14,30.4,49.2,42.2,0,no_anomaly,0.0,0,0,0,0,12.9715969,77.5946082,5.0,0.0
2024-04-01T15:44:04.300Z,MISSION_0012,43,0,takeoff,SITE_BLR_003,12.9716024,77.5946085,5.0,65.67,0.46,0.137,0.98,1.5124,-1.8984,65.6691,0.83993,0.02007,-0.00676,0.54228,0.0262,-0.0756,-9.7956,-0.0451,0.2367,0.464,0.2378,3,18,0.96,0.84,0.46,24.543,21.23,91.6,47.2,20158.0,7346,7203,7549,7302,64.4,64.9,65.2,62.8,2.765,2.753,3.078,2.901,5.92,56.0,38.9,47.6,1006.33,-29.37,-0.53,1.46,32.9,46.4,41.4,0,no_anomaly,0.0,0,0,0,0,12.9716024,77.5946085,5.0,0.0
2024-04-01T15:44:04.400Z,MISSION_0012,44,0,takeoff,SITE_BLR_003,12.971602,77.5946097,5.0,64.88,0.489,0.049,1.1,0.1984,-3.715,64.8833,0.84346,0.01885,-0.02643,0.53621,-0.067,-0.0464,-9.8021,-0.1373,-0.4424,0.0134,0.2286,3,16,0.54,1.0,0.2,24.573,20.99,91.5,47.1,20137.0,7349,7181,7297,7071,62.2,68.7,62.0,63.5,2.8,2.933,2.555,3.028,6.3,61.4,39.4,47.4,1005.88,-26.73,0.67,1.63,33.4,51.7,39.7,0,no_anomaly,0.0,0,0,0,0,12.971602,77.5946097,5.0,0.0
2024-04-01T15:44:04.500Z,MISSION_0012,45,0,takeoff,SITE_BLR_003,12.9716042,77.5946091,5.0,63.83,0.123,0.117,1.12,-0.4537,-3.4928,63.8302,0.8485,0.01275,-0.02796,0.52831,-0.0941,0.0398,-9.8207,-0.4988,-0.0281,-0.2515,0.2424,3,16,0.6,0.78,0.2,24.546,16.58,91.4,46.1,20116.0,7557,7383,7237,7255,63.3,62.3,64.0,65.0,2.657,2.556,2.506,2.672,4.99,55.8,39.3,47.0,1006.01,-33.21,0.31,1.78,35.7,52.5,41.1,0,no_anomaly,0.0,0,0,0,0,12.9716042,77.5946091,5.0,0.0
2024-04-01T15:44:04.600Z,MISSION_0012,46,0,takeoff,SITE_BLR_003,12.9716052,77.5946071,5.0,65.09,0.0,0.08,0.98,-0.0455,-2.8382,65.0913,0.84271,0.01299,-0.02109,0.5378,-0.0818,-0.1201,-9.8492,0.4486,0.0825,0.1863,0.1793,3,16,0.64,0.96,0.2,24.555,24.71,91.3,46.3,20094.0,7511,7366,7309,7408,62.5,65.3,64.1,65.7,2.879,2.609,3.059,2.89,5.5,69.1,39.4,46.0,1006.17,-32.41,0.19,1.19,33.2,52.2,41.8,0,no_anomaly,0.0,0,0,0,0,12.9716052,77.5946071,5.0,0.0
2024-04-01T15:44:04.700Z,MISSION_0012,47,0,takeoff,SITE_BLR_003,12.9716067,77.5946105,5.0,64.8,0.189,0.072,1.39,1.5277,-4.3443,64.8043,0.84336,0.03156,-0.02486,0.53585,-0.1224,0.0049,-9.814,-0.1265,0.8159,-0.2938,0.3062,3,15,0.5,0.89,0.2,24.595,18.1,91.2,48.0,20073.0,7275,7275,7226,7121,64.0,64.1,62.9,62.5,2.784,2.695,2.684,3.051,6.61,64.5,38.6,46.3,1006.21,-30.34,1.22,1.74,31.9,46.0,41.1,0,no_anomaly,0.0,0,0,0,0,12.9716067,77.5946105,5.0,0.0
2024-04-01T15:44:04.800Z,MISSION_0012,48,0,takeoff,SITE_BLR_003,12.9716098,77.5946097,5.0,64.41,0.018,0.173,1.53,-1.0067,-1.6813,64.4081,0.8461,0.00039,-0.0171,0.53275,0.1882,0.0737,-9.7916,0.1786,-0.242,-0.0184,0.1846,3,16,0.55,0.87,0.2,24.459,16.1,91.1,46.8,20052.0,7216,7602,7275,7443,63.5,64.2,62.5,62.9,3.241,2.951,2.509,2.463,5.89,62.8,39.6,47.3,1006.09,-27.84,-1.37,1.42,35.9,48.7,43.0,0,no_anomaly,0.0,0,0,0,0,12.9716098,77.5946097,5.0,0.0
2024-04-01T15:44:04.900Z,MISSION_0012,49,0,takeoff,SITE_BLR_003,12.9716071,77.5946098,5.0,63.87,0.0,0.08,1.35,-1.4156,-3.3944,63.871,0.8484,0.00519,-0.03166,0.52838,0.112,-0.0852,-9.7021,-0.7945,0.0042,-0.1761,0.197,3,11,0.81,0.69,0.2,24.637,17.39,91.1,47.0,20031.0,7192,7221,7189,7314,66.6,68.5,67.3,62.1,2.85,2.633,2.915,3.031,5.87,60.5,39.0,47.3,1006.09,-23.86,-0.48,1.76,38.0,49.6,43.1,0,no_anomaly,0.0,0,0,0,0,12.9716071,77.5946098,5.0,0.0
2024-04-01T15:44:05.000Z,MISSION_0012,50,0,takeoff,SITE_BLR_003,12.9716115,77.5946101,5.0,62.61,0.417,0.168,1.7,4.5177,-1.4824,62.6081,0.85342,0.04039,0.00943,0.51957,0.0001,-0.0171,-9.7509,-0.029,0.8147,-0.1144,0.2925,3,19,0.77,1.17,0.33,24.533,13.86,91.0,47.5,20010.0,7141,7496,7290,7461,64.3,63.0,68.0,65.3,3.063,2.689,2.804,2.805,5.96,54.8,38.9,47.3,1006.01,-28.77,-1.25,1.5,32.5,54.2,40.0,0,no_anomaly,0.0,0,0,0,0,12.9716115,77.5946101,5.0,0.0
2024-04-01T15:44:05.100Z,MISSION_0012,51,0,takeoff,SITE_BLR_003,12.9716158,77.5946106,5.0,62.62,0.257,0.087,2.11,-1.0658,-4.264,62.6211,0.85391,0.01139,-0.03661,0.519,-0.2665,-0.0133,-9.8529,0.3461,-0.0004,-0.1011,0.1824,3,11,0.6,1.18,0.29,24.578,18.55,90.9,47.0,19989.0,7460,7287,7268,7401,65.2,64.9,63.6,64.4,2.817,2.601,2.83,2.764,5.38,56.7,39.1,47.0,1005.82,-28.08,-1.65,1.37,30.9,44.5,41.0,0,no_anomaly,0.0,0,0,0,0,12.9716158,77.5946106,5.0,0.0
2024-04-01T15:44:05.200Z,MISSION_0012,52,0,takeoff,SITE_BLR_003,12.9716166,77.5946132,5.0,61.55,0.391,0.07,2.36,2.4494,-0.6322,61.5496,0.85892,0.02119,0.0062,0.51164,-0.0461,0.0393,-9.8119,0.2998,0.7506,0.137,0.1454,3,14,0.75,0.79,0.33,24.57,17.71,90.8,47.4,19968.0,7342,7425,7525,7354,66.1,65.8,66.1,64.3,2.583,2.725,2.666,2.788,6.14,61.1,39.2,47.2,1006.39,-25.85,-0.71,1.6,35.1,46.7,42.1,0,no_anomaly,0.0,0,0,0,0,12.9716166,77.5946132,5.0,0.0
2024-04-01T15:44:05.300Z,MISSION_0012,53,0,takeoff,SITE_BLR_003,12.9716178,77.594612,5.0,61.72,0.121,0.111,2.39,-0.7733,-2.005,61.7225,0.85832,0.00318,-0.01848,0.51277,-0.228,-0.0048,-9.856,-0.7125,-0.5543,-0.0462,0.2642,3,13,0.58,0.91,0.29,24.535,19.43,90.7,46.9,19946.0,7658,7082,7508,7459,66.7,63.7,58.6,62.4,2.669,2.863,2.94,2.934,5.1,56.1,39.5,47.6,1005.87,-28.41,-1.95,1.38,35.9,51.9,40.4,0,no_anomaly,0.0,0,0,0,0,12.9716178,77.594612,5.0,0.0
2024-04-01T15:44:05.400Z,MISSION_0012,54,0,takeoff,SITE_BLR_003,12.9716163,77.5946125,5.0,61.79,0.0,0.093,2.28,3.8771,-2.5424,61.7852,0.85704,0.04041,-0.00166,0.51365,-0.1695,0.0798,-9.785,0.8432,-1.2071,-0.3201,0.2793,3,11,0.72,1.02,0.32,24.584,22.43,90.6,46.8,19925.0,7346,7339,7450,7439,65.5,63.4,65.2,66.7,2.949,2.854,2.732,2.764,6.42,48.4,39.3,47.3,1005.93,-32.4,-1.07,1.5,37.5,53.1,39.7,0,no_anomaly,0.0,0,0,0,0,12.9716163,77.5946125,5.0,0.0
2024-04-01T15:44:05.500Z,MISSION_0012,55,0,takeoff,SITE_BLR_003,12.9716189,77.5946099,5.0,63.97,0.407,0.122,2.37,-1.568,-1.6033,63.9732,0.84811,-0.00419,-0.01911,0.52946,-0.1296,-0.0656,-9.8537,0.7053,-0.0277,-0.2735,0.2793,3,20,0.59,0.91,0.2,24.52,16.0,90.5,47.4,19904.0,7278,7337,7214,7469,65.0,64.2,62.5,66.1,2.876,2.873,2.795,2.818,5.84,63.9,39.2,47.3,1006.24,-27.25,-0.93,1.72,32.0,53.9,42.2,0,no_anomaly,0.0,0,0,0,0,12.9716189,77.5946099,5.0,0.0
2024-04-01T15:44:05.600Z,MISSION_0012,56,0,takeoff,SITE_BLR_003,12.9716189,77.5946074,5.0,62.99,0.502,0.159,2.26,-4.9952,-1.543,62.9898,0.85211,-0.03013,-0.03423,0.52138,0.2122,0.0784,-9.8199,0.4837,0.167,0.1806,0.258,3,11,0.73,0.81,0.37,24.633,15.77,90.4,46.9,19883.0,7445,7420,7396,7389,66.2,62.2,66.0,66.3,2.748,2.307,2.799,2.777,5.43,55.7,39.0,47.1,1006.2,-28.88,0.82,1.36,33.4,50.9,44.0,0,no_anomaly,0.0,0,0,0,0,12.9716189,77.5946074,5.0,0.0
2024-04-01T15:44:05.700Z,MISSION_0012,57,0,takeoff,SITE_BLR_003,12.9716163,77.594609,5.0,61.31,0.221,0.106,2.07,-1.8676,-1.277,61.3089,0.86018,-0.00834,-0.01789,0.5096,-0.0459,0.0079,-9.7196,-0.2769,-0.3102,-0.3507,0.1919,3,14,0.54,0.79,0.2,24.558,17.86,90.3,48.4,19862.0,7181,7373,7197,7236,64.9,64.9,64.9,63.4,3.087,2.881,2.541,2.901,5.32,52.3,38.7,46.6,1005.82,-27.59,0.83,1.08,36.5,44.8,42.6,0,no_anomaly,0.0,0,0,0,0,12.9716163,77.594609,5.0,0.0
2024-04-01T15:44:05.800Z,MISSION_0012,58,0,takeoff,SITE_BLR_003,12.9716203,77.5946086,5.0,58.66,0.707,0.172,2.46,-0.8582,-2.2734,58.6557,0.87171,0.00319,-0.02096,0.48957,-0.0515,0.0097,-9.7047,0.3726,0.0395,0.4999,0.2275,3,10,0.88,0.67,0.2,24.556,22.82,90.2,46.2,19841.0,7442,7346,7322,7514,63.2,61.1,63.6,64.9,2.969,2.704,2.519,2.859,5.93,59.2,39.2,46.7,1006.05,-37.1,-0.88,1.61,30.4,48.8,41.3,0,no_anomaly,0.0,0,0,0,0,12.9716203,77.5946086,5.0,0.0
2024-04-01T15:44:05.900Z,MISSION_0012,59,0,takeoff,SITE_BLR_003,12.9716173,77.5946105,5.0,57.49,0.897,0.041,2.25,-1.7943,-1.6336,57.4906,0.87668,-0.00687,-0.02003,0.48061,-0.356,0.0153,-9.8689,0.218,-0.1312,-0.1352,0.2263,3,17,0.83,0.95,0.33,24.441,17.43,90.1,46.8,19820.0,7527,7350,7526,7324,67.3,67.0,64.0,64.8,2.796,2.869,2.518,2.584,6.11,51.9,39.3,47.4,1006.4,-27.3,-0.57,1.7,35.6,49.8,44.1,0,no_anomaly,0.0,0,0,0,0,12.9716173,77.5946105,5.0,0.0
2024-04-01T15:44:06.000Z,MISSION_0012,60,0,takeoff,SITE_BLR_003,12.9716177,77.5946126,5.0,55.0,0.856,0.113,2.42,0.0488,-2.2195,55.0032,0.88683,0.00932,-0.01698,0.46169,0.0309,-0.0628,-9.8219,-0.427,-0.0365,-0.0031,0.2834,3,20,0.56,0.77,0.2,24.552,19.73,90.0,46.9,19798.0,7107,7134,7129,7284,62.0,63.9,64.7,61.0,2.982,2.986,2.851,2.601,5.5,65.3,39.3,46.9,1006.36,-31.49,1.69,1.21,33.4,47.6,43.2,0,no_anomaly,0.0,0,0,0,0,12.9716177,77.5946126,5.0,0.0
2024-04-01T15:44:06.100Z,MISSION_0012,61,0,takeoff,SITE_BLR_003,12.9716212,77.5946097,5.0,54.14,0.244,0.112,2.59,0.1182,-2.588,54.1372,0.89022,0.01119,-0.01964,0.45496,0.0454,0.0332,-9.826,0.3408,-0.2034,0.1781,0.1513,3,14,0.62,1.06,0.29,24.518,21.67,89.9,46.9,19777.0,7396,7289,7252,7402,63.2,60.5,65.7,64.2,2.629,2.745,2.933,2.663,5.82,61.2,39.0,46.8,1006.08,-33.5,-0.43,1.13,32.2,46.4,42.0,0,no_anomaly,0.0,0,0,0,0,12.9716212,77.5946097,5.0,0.0
2024-04-01T15:44:06.200Z,MISSION_0012,62,0,takeoff,SITE_BLR_003,12.971622,77.5946059,5.0,56.76,0.541,0.032,2.54,-3.2975,-4.6719,56.762,0.87927,-0.00593,-0.04951,0.47371,-0.1048,-0.0236,-9.8713,0.7387,0.4397,-0.6135,0.1833,3,12,0.69,0.94,0.2,24.436,14.09,89.8,47.1,19756.0,7657,7461,7393,7272,65.6,60.0,62.9,62.1,2.944,2.66,2.745,2.67,6.2,56.5,39.0,46.3,1005.92,-28.39,-4.12,1.36,32.1,45.3,40.1,0,no_anomaly,0.0,0,0,0,0,12.971622,77.5946059,5.0,0.0
2024-04-01T15:44:06.300Z,MISSION_0012,63,0,takeoff,SITE_BLR_003,12.9716198,77.5946098,5.0,55.11,1.03,0.09,2.46,-2.9298,-2.9637,55.1127,0.88628,-0.0107,-0.03474,0.46173,0.0643,0.0004,-9.7788,-0.2309,-0.3011,0.206,0.3012,3,18,0.7,0.94,0.34,24.59,17.27,89.7,46.9,19735.0,7316,7191,7438,7499,64.9,61.9,60.9,63.6,2.951,3.129,2.43,2.844,5.7,62.4,38.9,46.2,1006.27,-30.93,0.17,1.5,37.0,53.5,42.3,0,no_anomaly,0.0,0,0,0,0,12.9716198,77.5946098,5.0,0.0
2024-04-01T15:44:06.400Z,MISSION_0012,64,0,takeoff,SITE_BLR_003,12.9716234,77.5946124,5.0,52.88,0.954,0.109,2.95,-3.9011,-2.8892,52.8829,0.89497,-0.01925,-0.03771,0.44412,-0.1121,-0.01,-9.8548,-0.4915,-0.5963,0.3991,0.2035,3,10,0.57,0.9,0.2,24.451,17.4,89.6,48.0,19714.0,7215,7130,7219,7066,67.4,63.5,65.1,69.1,2.904,2.712,2.738,2.771,6.32,50.8,39.8,46.1,1005.86,-32.74,-0.78,1.99,33.0,43.3,40.5,0,no_anomaly,0.0,0,0,0,0,12.9716234,77.5946124,5.0,0.0
2024-04-01T15:44:06.500Z,MISSION_0012,65,0,takeoff,SITE_BLR_003,12.971625,77.5946133,5.0,53.08,0.785,0.047,3.15,-2.2378,-2.7049,53.0811,0.8944,-0.00692,-0.02983,0.44621,0.2552,-0.0485,-9.8173,-0.3641,-0.3931,-0.1408,0.1321,3,19,0.65,0.95,0.43,24.404,16.18,89.5,47.8,19693.0,7379,7201,7414,7324,65.2,64.4,66.5,63.7,2.763,2.662,2.523,2.738,5.48,65.1,39.1,46.8,1005.82,-31.33,0.91,1.03,36.1,49.4,43.1,0,no_anomaly,0.0,0,0,0,0,12.971625,77.5946133,5.0,0.0
2024-04-01T15:44:06.600Z,MISSION_0012,66,0,takeoff,SITE_BLR_003,12.9716255,77.5946158,5.0,53.65,0.498,0.088,3.33,-1.3303,-2.3336,53.6517,0.89224,-0.00117,-0.02341,0.45095,0.1564,0.0125,-9.8093,-1.0798,0.0787,-0.0809,0.1921,3,17,0.77,0.88,0.3,24.501,20.72,89.4,47.1,19672.0,7192,7058,7071,7197,64.4,62.7,67.8,61.6,2.568,2.981,2.857,2.786,6.36,59.9,39.5,48.1,1006.08,-33.28,0.28,1.0,35.0,45.5,42.1,0,no_anomaly,0.0,0,0,0,0,12.9716255,77.5946158,5.0,0.0
2024-04-01T15:44:06.700Z,MISSION_0012,67,0,takeoff,SITE_BLR_003,12.9716285,77.594622,5.0,55.42,0.143,0.072,4.01,-2.5535,-1.3545,55.4214,0.88515,-0.01423,-0.02082,0.46463,0.0587,0.0095,-9.8978,0.5887,0.0551,0.2736,0.2172,3,12,0.88,0.66,0.26,24.578,15.07,89.3,47.9,19650.0,7250,7390,7452,7552,62.1,65.0,64.6,64.5,2.651,2.808,2.468,2.86,4.84,61.0,39.3,47.3,1005.74,-29.18,0.41,1.58,34.3,45.1,39.8,0,no_anomaly,0.0,0,0,0,0,12.9716285,77.594622,5.0,0.0
2024-04-01T15:44:06.800Z,MISSION_0012,68,0,takeoff,SITE_BLR_003,12.9716276,77.5946194,5.0,55.35,0.112,0.086,3.75,4.6542,-4.8855,55.3467,0.88327,0.05571,-0.01887,0.46516,-0.1619,-0.0199,-9.7584,-0.5259,0.8875,-0.1369,0.2321,3,17,0.79,0.6,0.29,24.587,19.24,89.2,47.2,19629.0,7334,7550,7319,7581,61.7,67.1,61.0,63.4,2.621,3.13,2.709,2.84,5.88,55.1,39.4,47.0,1006.3,-30.81,-0.09,1.17,37.8,46.9,43.3,0,no_anomaly,0.0,0,0,0,0,12.9716276,77.5946194,5.0,0.0
2024-04-01T15:44:06.900Z,MISSION_0012,69,0,takeoff,SITE_BLR_003,12.9716275,77.5946245,5.0,55.09,0.272,0.181,4.1,-1.4054,-2.3142,55.0926,0.8865,-0.00153,-0.02357,0.46212,-0.2512,-0.0026,-9.7781,-0.8551,1.1901,0.1686,0.2551,3,11,0.66,0.68,0.2,24.488,21.96,89.1,46.8,19608.0,7535,7449,7374,7381,65.1,63.1,63.8,64.2,3.124,2.849,2.863,2.789,4.48,60.3,39.3,46.2,1006.32,-31.21,1.97,1.39,34.3,53.3,43.3,0,no_anomaly,0.0,0,0,0,0,12.9716275,77.5946245,5.0,0.0
2024-04-01T15:44:07.000Z,MISSION_0012,70,0,takeoff,SITE_BLR_003,12.9716255,77.5946208,5.0,57.44,0.344,0.205,3.66,2.1353,-1.2007,57.4429,0.87667,0.02137,-0.00023,0.48061,0.1874,0.0139,-9.8743,-0.0775,-0.4972,-0.4088,0.2961,3,16,0.7,0.97,0.21,24.494,16.25,89.0,46.8,19587.0,7424,7232,7483,7470,64.4,67.3,62.5,66.6,2.924,2.694,2.447,2.687,5.83,67.8,39.3,47.3,1005.74,-30.93,-0.15,1.91,34.1,49.6,39.1,0,no_anomaly,0.0,0,0,0,0,12.9716255,77.5946208,5.0,0.0
2024-04-01T15:44:07.100Z,MISSION_0012,71,0,takeoff,SITE_BLR_003,12.9716283,77.5946202,5.0,58.26,0.896,0.13,3.87,1.1825,-0.544,58.2611,0.87343,0.01132,0.00088,0.48681,0.1044,-0.0367,-9.861,0.1165,0.092,-0.0293,0.1782,3,10,0.77,1.0,0.36,24.453,18.63,88.9,47.8,19566.0,7281,7229,7524,7313,65.3,64.3,65.4,63.6,2.846,2.757,2.773,2.537,5.9,56.3,38.8,46.9,1005.91,-30.68,0.61,1.59,34.1,51.0,41.9,0,no_anomaly,0.0,0,0,0,0,12.9716283,77.5946202,5.0,0.0
2024-04-01T15:44:07.200Z,MISSION_0012,72,0,takeoff,SITE_BLR_003,12.9716269,77.5946168,5.0,58.46,1.139,0.138,3.53,2.4893,-5.1317,58.4574,0.87112,0.04079,-0.02846,0.48854,-0.2017,-0.0678,-9.7571,0.8123,-0.4859,-0.1652,0.1822,3,12,0.75,0.87,0.2,24.476,17.74,88.8,47.9,19545.0,7081,7301,7448,7490,64.1,67.9,67.1,63.3,2.976,2.955,2.827,2.694,5.41,62.1,38.9,46.5,1005.91,-32.23,0.0,1.55,37.4,52.7,41.4,0,no_anomaly,0.0,0,0,0,0,12.9716269,77.5946168,5.0,0.0
2024-04-01T15:44:07.300Z,MISSION_0012,73,0,takeoff,SITE_BLR_003,12.9716282,77.5946144,5.0,58.1,1.254,0.129,3.53,0.5612,-3.351,58.105,0.87372,0.01848,-0.02318,0.48552,-0.0702,-0.05,-9.7959,-0.39,-0.0595,-0.4615,0.2967,3,11,0.63,1.06,0.28,24.493,17.15,88.7,48.2,19524.0,7382,7118,7071,7388,58.2,65.0,62.4,65.6,2.922,2.952,2.723,2.855,5.68,59.2,39.0,46.7,1006.27,-34.74,1.35,1.5,33.7,50.2,42.2,0,no_anomaly,0.0,0,0,0,0,12.9716282,77.5946144,5.0,0.0
2024-04-01T15:44:07.400Z,MISSION_0012,74,0,takeoff,SITE_BLR_003,12.9716237,77.5946144,5.0,58.57,1.333,0.098,3.08,3.0318,-2.6321,58.5677,0.87137,0.0343,-0.00709,0.48937,-0.3339,-0.0699,-9.7942,-0.287,-0.6722,0.1691,0.2544,3,10,0.84,0.98,0.27,24.503,15.96,88.6,47.8,19502.0,7619,7255,7115,7446,67.9,64.8,64.9,63.3,2.875,2.722,2.886,2.782,5.71,65.0,39.4,47.4,1005.95,-28.67,-1.58,1.22,35.2,49.3,43.7,0,no_anomaly,0.0,0,0,0,0,12.9716237,77.5946144,5.0,0.0
2024-04-01T15:44:07.500Z,MISSION_0012,75,0,takeoff,SITE_BLR_003,12.9716255,77.5946118,5.0,57.01,1.404,0.084,3.13,-0.3719,-3.2746,57.0058,0.87847,0.01078,-0.02666,0.47692,-0.1909,0.0325,-9.79,0.1501,-0.5831,-0.1546,0.21,3,13,0.92,0.98,0.42,24.532,13.92,88.6,47.5,19481.0,7495,7299,7560,7578,63.8,62.0,64.0,62.1,2.969,2.833,2.627,2.764,6.41,49.2,39.2,46.8,1006.18,-25.34,0.61,1.36,30.6,45.6,41.2,0,no_anomaly,0.0,0,0,0,0,12.9716255,77.5946118,5.0,0.0
2024-04-01T15:44:07.600Z,MISSION_0012,76,0,transit,SITE_BLR_003,12.9716238,77.5946179,5.5,57.14,1.297,0.12,3.32,1.7351,-2.7186,57.1398,0.87771,0.02464,-0.01359,0.47836,0.1468,-0.0042,-9.8032,0.0597,-0.5474,-0.0262,0.2791,3,15,0.87,1.03,0.28,24.448,18.16,88.5,46.9,19460.0,7333,7389,7232,7633,63.2,63.8,63.2,63.3,2.84,3.169,2.789,2.757,4.82,56.7,39.3,46.4,1005.81,-26.49,-1.54,1.71,35.9,48.7,41.1,0,no_anomaly,0.0,0,0,0,0,12.9716238,77.5946179,5.5,0.0
2024-04-01T15:44:07.700Z,MISSION_0012,77,0,transit,SITE_BLR_003,12.9716176,77.5946205,6.0,58.05,0.847,0.13,3.01,2.411,-1.729,58.0512,0.87396,0.02571,-0.00298,0.48532,0.1597,0.033,-9.8673,1.1731,0.035,0.0785,0.2123,3,10,0.66,1.01,0.31,24.371,19.57,88.4,47.3,19439.0,7548,7352,7382,7395,63.9,65.4,65.7,64.1,2.829,2.83,2.75,2.73,5.99,54.0,38.9,47.5,1005.98,-30.06,-1.18,1.63,34.7,50.7,43.3,0,no_anomaly,0.0,0,0,0,0,12.9716176,77.5946205,6.0,0.0
2024-04-01T15:44:07.800Z,MISSION_0012,78,0,transit,SITE_BLR_003,12.971619,77.5946218,6.5,61.16,0.0,0.096,3.22,-1.4104,-2.1031,61.1621,0.86082,-0.00126,-0.02206,0.50844,0.0135,0.0015,-9.8089,0.119,0.7004,-0.2981,0.2118,3,13,0.5,0.91,0.23,24.513,16.82,88.3,47.6,19418.0,7342,7361,7435,7433,62.3,63.7,61.3,67.8,3.013,3.017,3.143,3.133,5.57,58.8,39.1,46.8,1006.07,-29.03,-0.46,1.41,31.0,50.9,40.3,0,no_anomaly,0.0,0,0,0,0,12.971619,77.5946218,6.5,0.0
2024-04-01T15:44:07.900Z,MISSION_0012,79,0,transit,SITE_BLR_003,12.9716178,77.5946241,7.0,61.78,0.045,0.134,3.33,2.6775,-2.1372,61.7755,0.85757,0.02962,-0.00401,0.5135,0.3258,-0.0208,-9.914,-0.6814,-0.9176,0.0465,0.1756,3,19,0.79,0.76,0.33,24.54,18.54,88.2,47.0,19397.0,7118,7319,6952,7332,63.7,63.6,63.0,64.6,3.07,3.027,2.841,2.734,5.77,60.7,39.6,48.0,1005.81,-30.0,-0.57,1.86,35.1,54.6,42.9,0,no_anomaly,0.0,0,0,0,0,12.9716178,77.5946241,7.0,0.0
2024-04-01T15:44:08.000Z,MISSION_0012,80,0,transit,SITE_BLR_003,12.971618,77.5946235,7.5,64.47,0.0,0.084,3.29,2.9653,1.3747,64.4679,0.8457,0.01549,0.02394,0.5329,-0.0792,-0.0047,-9.8646,-0.4151,-0.0079,0.531,0.2213,3,14,0.76,0.9,0.34,24.566,14.85,88.1,47.8,19376.0,7630,7306,7535,7220,66.0,61.8,63.4,63.5,2.952,2.706,2.71,2.792,5.45,60.2,39.1,47.1,1005.59,-30.38,-1.54,1.48,36.3,52.5,40.6,0,no_anomaly,0.0,0,0,0,0,12.971618,77.5946235,7.5,0.0
2024-04-01T15:44:08.100Z,MISSION_0012,81,0,transit,SITE_BLR_003,12.971622,77.594622,8.0,66.97,0.003,0.133,3.46,0.4864,-2.3528,66.9744,0.83378,0.01487,-0.01478,0.5517,-0.2047,0.0015,-9.8203,-0.7217,-0.709,-0.3116,0.2252,3,13,0.86,0.75,0.23,24.563,20.09,88.0,47.2,19354.0,7352,7136,7343,7653,64.2,64.6,61.5,63.5,2.831,2.977,2.962,2.855,5.09,60.1,39.4,47.8,1005.72,-29.29,0.81,1.77,34.9,45.8,41.4,0,no_anomaly,0.0,0,0,0,0,12.971622,77.594622,8.0,0.0
2024-04-01T15:44:08.200Z,MISSION_0012,82,0,transit,SITE_BLR_003,12.9716237,77.5946143,8.5,67.09,0.0,0.107,3.08,2.2285,-5.8856,67.0901,0.83164,0.04455,-0.03205,0.55259,-0.278,0.0371,-9.8449,0.0934,-0.2518,0.2253,0.2299,3,14,0.62,0.77,0.27,24.465,15.42,87.9,47.7,19333.0,7390,7321,7508,7166,60.4,66.1,68.2,67.1,2.702,2.872,2.737,2.999,5.06,59.0,38.9,48.1,1005.8,-29.24,-1.61,1.1,32.9,46.6,42.1,0,no_anomaly,0.0,0,0,0,0,12.9716237,77.5946143,8.5,0.0
2024-04-01T15:44:08.300Z,MISSION_0012,83,0,transit,SITE_BLR_003,12.9716241,77.5946177,9.0,65.97,0.446,0.139,3.33,0.9406,-0.1478,65.9731,0.83876,0.00759,0.00339,0.54443,-0.1666,-0.0333,-9.7999,-0.5236,0.0936,0.2285,0.2257,3,20,0.54,0.69,0.21,24.533,15.07,87.8,47.7,19312.0,7259,7166,7273,7034,62.7,60.3,62.8,59.0,2.865,2.791,2.903,2.545,5.6,76.8,39.4,47.1,1006.12,-35.95,1.11,1.33,33.4,53.7,42.9,0,no_anomaly,0.0,0,0,0,0,12.9716241,77.5946177,9.0,0.0
2024-04-01T15:44:08.400Z,MISSION_0012,84,0,transit,SITE_BLR_003,12.9716227,77.5946171,9.5,66.86,0.382,-0.022,3.16,0.6334,0.9913,66.862,0.83453,-0.00015,0.01026,0.55086,0.0786,0.0156,-9.7993,-0.4583,-0.8974,0.0944,0.29,3,10,0.61,0.88,0.24,24.529,16.58,87.7,46.9,19291.0,7474,7185,7489,7414,67.4,64.3,60.9,65.0,2.759,2.609,2.626,2.797,6.36,60.8,39.3,47.4,1005.93,-31.0,-2.02,2.07,35.8,48.9,39.8,0,no_anomaly,0.0,0,0,0,0,12.9716227,77.5946171,9.5,0.0
2024-04-01T15:44:08.500Z,MISSION_0012,85,0,transit,SITE_BLR_003,12.9716239,77.5946144,10.0,67.24,0.556,0.163,3.1,-1.0733,-3.4366,67.2361,0.83249,0.0088,-0.03015,0.55315,-0.2102,-0.027,-9.8581,0.4996,0.1716,-0.1248,0.1544,3,13,0.63,0.6,0.3,24.505,21.83,87.6,47.5,19270.0,7303,7438,7210,7322,65.9,65.5,62.3,65.4,2.579,2.771,2.824,2.736,6.0,62.5,39.3,46.5,1005.92,-27.38,-0.38,2.22,32.0,50.7,40.2,0,no_anomaly,0.0,0,0,0,0,12.9716239,77.5946144,10.0,0.0
2024-04-01T15:44:08.600Z,MISSION_0012,86,0,transit,SITE_BLR_003,12.9716209,77.5946135,10.5,66.8,0.75,0.058,2.77,0.4111,-3.5451,66.7951,0.83441,0.02002,-0.02385,0.55027,0.397,-0.0579,-9.8188,-0.1654,0.2164,-0.2216,0.0632,3,20,0.66,0.65,0.32,24.53,20.28,87.5,47.7,19249.0,7267,7246,7244,7078,64.7,63.4,64.0,62.9,2.271,2.966,2.901,2.659,6.24,47.9,38.9,47.4,1006.1,-31.04,-1.45,1.48,36.0,50.7,38.2,0,no_anomaly,0.0,0,0,0,0,12.9716209,77.5946135,10.5,0.0
2024-04-01T15:44:08.700Z,MISSION_0012,87,0,transit,SITE_BLR_003,12.9716189,77.5946149,11.0,67.45,1.163,0.096,2.68,-4.8705,-1.0578,67.4504,0.83114,-0.03022,-0.03126,0.55436,0.0502,-0.0178,-9.7608,0.335,-0.4177,0.0638,0.2506,3,18,0.65,0.96,0.2,24.458,22.47,87.4,48.3,19227.0,7631,7360,7633,7578,63.8,64.0,62.3,66.4,2.802,2.826,2.692,2.749,5.59,56.8,39.3,46.6,1006.08,-28.55,-1.5,1.24,33.9,54.2,41.8,0,no_anomaly,0.0,0,0,0,0,12.9716189,77.5946149,11.0,0.0
2024-04-01T15:44:08.800Z,MISSION_0012,88,0,transit,SITE_BLR_003,12.9716206,77.5946163,11.5,65.29,1.15,0.119,2.92,0.711,-2.2132,65.2917,0.84178,0.01564,-0.01292,0.53943,-0.2093,0.0063,-9.7405,-0.6992,-0.2049,0.2156,0.2272,3,18,0.77,0.73,0.35,24.499,19.54,87.3,47.6,19206.0,7579,7087,7257,7269,63.6,66.8,63.8,65.8,2.792,2.703,2.601,2.606,5.6,64.0,39.3,46.5,1005.77,-29.12,-0.26,1.04,37.3,54.7,40.2,0,no_anomaly,0.0,0,0,0,0,12.9716206,77.5946163,11.5,0.0
2024-04-01T15:44:08.900Z,MISSION_0012,89,0,transit,SITE_BLR_003,12.9716187,77.5946079,12.0,67.02,1.281,0.071,2.26,3.532,-2.624,67.0239,0.83277,0.03832,-0.00207,0.55229,-0.0437,0.0959,-9.8493,0.7421,-0.1466,-0.0167,0.1813,3,20,0.69,0.88,0.3,24.406,12.2,87.2,48.1,19185.0,7303,7325,7368,7384,65.8,59.6,62.7,67.6,2.794,2.693,2.868,2.873,6.4,63.8,39.0,45.9,1006.19,-27.74,1.45,1.15,32.8,49.6,41.3,0,no_anomaly,0.0,0,0,0,0,12.9716187,77.5946079,12.0,0.0
2024-04-01T15:44:09.000Z,MISSION_0012,90,0,transit,SITE_BLR_003,12.9716167,77.5946045,12.5,65.51,1.332,0.042,1.93,8.7619,-4.6067,65.5063,0.83621,0.08587,0.00759,0.54159,0.2361,0.0376,-9.8269,0.572,0.2866,0.3485,0.1989,3,16,0.59,0.68,0.23,24.45,20.03,87.1,47.0,19164.0,7372,7579,7393,7473,68.5,64.6,68.6,63.1,2.82,2.652,2.904,2.811,6.19,56.7,39.2,47.1,1006.1,-27.26,1.46,1.19,33.3,51.5,41.9,0,no_anomaly,0.0,0,0,0,0,12.9716167,77.5946045,12.5,0.0
2024-04-01T15:44:09.100Z,MISSION_0012,91,0,transit,SITE_BLR_003,12.9716142,77.594609,13.0,65.57,1.981,0.069,1.87,0.2159,-4.0549,65.5718,0.84014,0.02074,-0.02872,0.54122,-0.2355,0.001,-9.7821,0.7149,-0.6308,0.2609,0.2268,3,20,0.9,1.11,0.3,24.512,19.17,87.0,48.4,19143.0,7248,7450,7223,7518,68.9,64.5,67.1,64.6,2.767,2.734,2.895,2.826,6.04,61.3,39.0,47.6,1006.5,-27.46,1.42,2.05,36.5,48.3,41.7,0,no_anomaly,0.0,0,0,0,0,12.9716142,77.594609,13.0,0.0
2024-04-01T15:44:09.200Z,MISSION_0012,92,0,transit,SITE_BLR_003,12.9716164,77.5946082,13.5,65.62,2.416,0.075,2.04,-0.411,-0.6546,65.6227,0.84045,8e-05,-0.00674,0.54185,0.0015,0.0604,-9.7869,-0.5354,-0.0185,0.0011,0.196,3,10,0.73,0.81,0.2,24.461,20.69,86.9,46.8,19122.0,7569,7499,7383,7237,65.1,65.5,64.0,67.8,2.626,2.719,2.651,2.731,5.05,55.0,38.8,46.2,1006.23,-30.22,-0.72,1.71,32.1,44.2,42.5,0,no_anomaly,0.0,0,0,0,0,12.9716164,77.5946082,13.5,0.0
2024-04-01T15:44:09.300Z,MISSION_0012,93,0,transit,SITE_BLR_003,12.9716239,77.5946084,14.0,67.69,2.31,0.083,2.82,9.4229,-3.5668,67.6934,0.8259,0.08546,0.01997,0.55694,0.2399,-0.0327,-9.7559,-0.7954,-0.2869,-0.5443,0.2039,3,11,0.62,0.76,0.33,24.46,17.53,86.8,47.9,19101.0,7249,7399,7490,7591,61.6,64.9,63.2,59.0,2.891,3.194,2.954,2.946,6.31,60.0,39.1,47.6,1006.1,-30.86,-1.32,1.63,35.7,48.9,40.4,0,no_anomaly,0.0,0,0,0,0,12.9716239,77.5946084,14.0,0.0
2024-04-01T15:44:09.400Z,MISSION_0012,94,0,transit,SITE_BLR_003,12.9716232,77.5946036,14.5,69.23,2.258,0.115,2.61,6.9997,0.4398,69.2273,0.82159,0.04806,0.03783,0.56678,-0.0725,-0.05,-9.8114,0.1418,-0.4162,-0.1273,0.2265,3,10,0.68,0.65,0.39,24.494,16.96,86.7,46.8,19079.0,7472,7441,7230,7418,61.2,67.0,65.0,66.8,2.616,2.847,2.938,2.941,5.22,50.0,39.2,47.1,1006.21,-27.73,-0.74,2.08,35.9,53.7,43.3,0,no_anomaly,0.0,0,0,0,0,12.9716232,77.5946036,14.5,0.0
2024-04-01T15:44:09.500Z,MISSION_0012,95,0,transit,SITE_BLR_003,12.9716176,77.5946024,15.0,72.02,2.117,0.037,1.97,0.1466,-3.7332,72.022,0.80845,0.02018,-0.0256,0.58766,0.1307,0.1229,-9.912,-0.2415,0.4139,0.2427,0.1654,3,13,0.72,0.73,0.26,24.485,15.26,86.6,47.7,19058.0,7736,7410,7457,7444,62.9,60.6,65.8,59.3,2.819,2.758,2.734,2.758,5.98,71.5,39.1,46.9,1005.98,-29.01,0.18,1.32,33.9,54.6,44.2,0,no_anomaly,0.0,0,0,0,0,12.9716176,77.5946024,15.0,0.0
2024-04-01T15:44:09.600Z,MISSION_0012,96,0,transit,SITE_BLR_003,12.9716128,77.5946073,15.5,70.97,2.161,0.062,1.64,-0.5239,-2.6623,70.9728,0.81409,0.00976,-0.02157,0.58026,0.1649,-0.0133,-9.728,-0.1202,0.7271,-0.1356,0.1991,3,12,0.69,0.95,0.21,24.5,16.3,86.5,47.3,19037.0,7309,7407,7663,7532,64.8,65.0,66.7,67.5,2.679,3.156,2.609,2.881,5.63,58.4,39.3,46.8,1005.99,-30.81,0.33,1.0,35.7,49.0,40.2,0,no_anomaly,0.0,0,0,0,0,12.9716128,77.5946073,15.5,0.0
2024-04-01T15:44:09.700Z,MISSION_0012,97,0,transit,SITE_BLR_003,12.9716129,77.594602,16.0,71.18,2.279,0.034,1.46,4.85,-3.4127,71.18,0.81138,0.05171,0.00042,0.58223,0.0057,-0.0394,-9.7797,-0.1475,0.1453,0.0975,0.266,3,14,0.67,1.01,0.29,24.465,20.29,86.4,46.5,19016.0,7528,7400,7193,7327,64.3,63.9,65.3,64.9,2.739,2.743,3.026,2.83,6.61,59.8,39.4,46.8,1006.16,-33.35,-1.79,1.82,35.8,44.3,42.5,0,no_anomaly,0.0,0,0,0,0,12.9716129,77.594602,16.0,0.0
2024-04-01T15:44:09.800Z,MISSION_0012,98,0,transit,SITE_BLR_003,12.9716147,77.5946013,16.5,72.41,2.181,0.159,1.64,-0.8181,-2.3565,72.4123,0.80679,0.00639,-0.02081,0.59043,-0.1029,-0.0245,-9.8631,-0.2192,0.8708,0.0087,0.1981,3,16,0.7,0.88,0.34,24.47,23.35,86.3,47.2,18995.0,7123,7489,7517,7487,64.2,66.5,64.7,65.0,2.731,2.94,2.623,2.817,5.79,61.6,39.4,47.2,1006.19,-26.71,0.17,1.62,33.2,50.5,43.1,0,no_anomaly,0.0,0,0,0,0,12.9716147,77.5946013,16.5,0.0
2024-04-01T15:44:09.900Z,MISSION_0012,99,0,transit,SITE_BLR_003,12.9716112,77.5946056,17.0,71.99,1.898,0.04,1.39,-3.6214,-1.5342,71.9874,0.80885,-0.0177,-0.02939,0.58701,-0.5036,0.0855,-9.788,-0.2636,-0.3014,0.2299,0.2696,3,20,0.76,1.05,0.32,24.505,17.21,86.2,48.3,18974.0,7240,7361,7486,7491,67.9,62.3,63.8,65.2,2.718,2.914,2.695,2.857,5.97,67.3,39.5,46.5,1006.11,-30.59,-0.8,1.35,31.8,45.3,40.5,0,no_anomaly,0.0,0,0,0,0,12.9716112,77.5946056,17.0,0.0
2024-04-01T15:44:10.000Z,MISSION_0012,100,0,transit,SITE_BLR_003,12.9716104,77.5946109,17.5,73.2,1.472,0.254,1.68,1.4851,-2.02,73.1979,0.8025,0.02091,-0.00642,0.59625,-0.0756,0.0703,-9.8167,0.0351,0.3283,-0.2259,0.183,3,20,0.5,0.88,0.21,24.386,17.51,86.1,47.8,18953.0,7501,7566,7430,7332,66.1,66.1,64.1,65.0,2.641,2.813,2.909,2.825,5.53,56.1,39.0,46.9,1005.88,-28.82,-0.76,1.15,34.0,49.9,42.9,0,no_anomaly,0.0,0,0,0,0,12.9716104,77.5946109,17.5,0.0
2024-04-01T15:44:10.100Z,MISSION_0012,101,0,transit,SITE_BLR_003,12.9716115,77.5946113,18.0,72.56,0.836,0.066,1.8,-1.2516,-2.711,72.5615,0.80601,0.0052,-0.02553,0.59133,-0.4114,0.0835,-9.8461,-0.4254,1.0632,-0.0638,0.3569,3,20,0.63,0.97,0.34,24.501,15.0,86.1,48.0,18931.0,7587,7375,7243,7589,64.3,64.7,62.0,65.5,2.676,2.722,2.778,2.736,5.23,59.5,39.2,46.6,1006.07,-30.03,1.95,1.27,37.0,51.8,40.9,0,no_anomaly,0.0,0,0,0,0,12.9716115,77.5946113,18.0,0.0
2024-04-01T15:44:10.200Z,MISSION_0012,102,0,transit,SITE_BLR_003,12.971617,77.5946164,18.5,71.49,0.377,0.077,2.63,1.8108,-0.4525,71.4918,0.81147,0.01513,0.00603,0.58416,0.0913,0.0323,-9.8757,0.2781,0.0035,-0.3405,0.2021,3,12,0.7,1.01,0.35,24.364,19.86,86.0,47.5,18910.0,7272,7167,7355,7447,63.5,67.0,67.2,64.8,2.693,2.854,2.53,2.728,5.68,55.4,39.1,47.3,1006.0,-29.3,0.78,1.33,34.1,51.4,41.3,0,no_anomaly,0.0,0,0,0,0,12.971617,77.5946164,18.5,0.0
2024-04-01T15:44:10.300Z,MISSION_0012,103,0,transit,SITE_BLR_003,12.9716194,77.594614,19.0,70.59,0.764,0.112,2.67,1.4359,-0.969,70.5893,0.81604,0.01511,0.00034,0.5778,-0.0768,0.0308,-9.8131,-0.0369,-0.2452,-0.171,0.2952,3,16,0.87,0.93,0.35,24.385,12.04,85.9,47.3,18889.0,7494,7324,7353,7337,61.7,65.5,65.9,65.4,2.796,2.921,2.891,2.87,5.56,60.9,39.0,47.3,1005.94,-32.04,-0.86,1.31,36.4,49.9,41.3,0,no_anomaly,0.0,0,0,0,0,12.9716194,77.594614,19.0,0.0
2024-04-01T15:44:10.400Z,MISSION_0012,104,0,transit,SITE_BLR_003,12.971619,77.5946155,19.5,69.65,0.433,0.043,2.73,-4.9033,-0.9963,69.6518,0.82032,-0.03015,-0.03156,0.57024,0.0626,-0.027,-9.7359,-0.4124,-0.0045,-0.4074,0.2076,3,10,0.73,0.87,0.37,24.392,16.57,85.8,47.5,18868.0,7499,7452,7281,7533,63.3,62.8,65.8,62.9,2.892,2.851,2.678,2.673,5.66,47.8,39.0,47.6,1006.3,-27.36,0.95,1.71,34.1,45.1,41.7,0,no_anomaly,0.0,0,0,0,0,12.971619,77.5946155,19.5,0.0
2024-04-01T15:44:10.500Z,MISSION_0012,105,0,transit,SITE_BLR_003,12.9716222,77.5946143,20.0,70.72,0.108,0.111,2.95,-2.0717,-0.0567,70.7225,0.81539,-0.01446,-0.01087,0.57863,0.0667,0.0783,-9.8648,0.1342,0.3672,-0.165,0.2754,3,13,0.73,0.73,0.23,24.419,18.53,85.7,48.2,18847.0,7316,7628,7138,7387,59.3,66.3,66.5,62.1,2.691,2.702,3.043,2.904,5.26,55.7,39.2,47.2,1005.93,-32.5,0.08,1.76,35.2,52.3,38.7,0,no_anomaly,0.0,0,0,0,0,12.9716222,77.5946143,20.0,0.0
2024-04-01T15:44:10.600Z,MISSION_0012,106,0,transit,SITE_BLR_003,12.9716166,77.5946104,20.5,70.05,0.0,0.161,2.18,-6.4922,-0.5177,70.0478,0.81774,-0.04378,-0.03619,0.57278,0.1359,0.0098,-9.7992,-0.9088,-0.8181,-0.0527,0.2447,3,20,0.72,0.86,0.31,24.36,18.58,85.6,47.3,18826.0,7458,7482,7302,7506,67.0,65.5,62.6,60.6,2.676,2.792,2.764,2.969,5.58,48.9,39.3,46.9,1006.34,-37.28,-1.11,1.0,36.3,54.1,43.2,0,no_anomaly,0.0,0,0,0,0,12.9716166,77.5946104,20.5,0.0
2024-04-01T15:44:10.700Z,MISSION_0012,107,0,transit,SITE_BLR_003,12.9716198,77.5946136,21.0,71.47,0.0,0.134,2.67,-0.294,-1.2905,71.4677,0.8117,0.00449,-0.01064,0.58396,0.4678,-0.0249,-9.7839,-0.3913,0.1364,-0.2815,0.1698,3,20,0.68,0.81,0.3,24.403,13.76,85.5,47.4,18805.0,7300,7273,7466,7338,63.9,62.7,64.2,63.2,2.621,2.548,2.771,2.769,5.54,67.6,39.0,47.0,1006.14,-29.04,0.57,1.0,34.3,47.2,42.7,0,no_anomaly,0.0,0,0,0,0,12.9716198,77.5946136,21.0,0.0
2024-04-01T15:44:10.800Z,MISSION_0012,108,0,transit,SITE_BLR_003,12.9716226,77.5946152,21.5,70.35,0.026,0.059,3.03,0.6458,-2.053,70.3531,0.81718,0.01493,-0.0114,0.57608,-0.3678,-0.0579,-9.8021,-0.4075,-0.1208,0.6126,0.2417,3,20,0.68,0.89,0.32,24.386,12.93,85.4,47.4,18783.0,7767,7491,7256,7649,65.8,63.0,60.5,67.1,3.223,2.712,2.747,3.007,5.87,61.2,38.7,46.8,1005.75,-28.64,0.75,1.62,34.5,46.7,40.9,0,no_anomaly,0.0,0,0,0,0,12.9716226,77.5946152,21.5,0.0
2024-04-01T15:44:10.900Z,MISSION_0012,109,0,transit,SITE_BLR_003,12.9716269,77.594619,22.0,71.85,0.121,0.145,3.66,-3.9641,-2.2549,71.8491,0.80955,-0.01646,-0.03621,0.5857,0.0918,0.004,-9.8768,0.6934,-0.005,0.0445,0.1524,3,12,0.84,1.03,0.38,24.406,18.34,85.3,47.4,18762.0,7257,7381,7338,7224,67.4,63.2,66.7,65.3,2.781,2.738,2.832,2.817,5.38,60.3,39.0,47.4,1005.96,-27.59,0.91,1.47,35.1,52.1,44.3,0,no_anomaly,0.0,0,0,0,0,12.9716269,77.594619,22.0,0.0
2024-04-01T15:44:11.000Z,MISSION_0012,110,0,transit,SITE_BLR_003,12.9716258,77.5946233,22.0,72.81,0.342,0.138,3.86,-3.3577,-2.9337,72.8116,0.80467,-0.00839,-0.03798,0.59245,0.0833,-0.0329,-9.8018,0.0683,-0.2444,0.0376,0.2477,3,18,0.76,0.83,0.26,24.391,20.5,85.2,47.1,18741.0,7202,7285,7373,7328,68.6,65.4,66.5,62.9,2.517,2.728,3.081,2.833,5.74,52.5,39.0,47.4,1006.1,-27.24,-0.86,2.03,30.5,52.2,41.2,0,no_anomaly,0.0,0,0,0,0,12.9716258,77.5946233,22.0,0.0
2024-04-01T15:44:11.100Z,MISSION_0012,111,0,transit,SITE_BLR_003,12.9716226,77.5946202,22.0,74.02,0.325,0.074,3.37,1.9232,-2.1646,74.0192,0.79809,0.02477,-0.00498,0.60201,-0.3071,0.057,-9.7896,-0.2208,0.8307,-0.2454,0.1814,3,17,0.91,0.83,0.34,24.341,16.34,85.1,48.2,18720.0,7547,7474,7248,7627,63.0,61.2,64.9,64.2,2.896,2.619,2.984,2.97,5.22,64.4,39.0,47.2,1006.37,-32.78,-0.82,1.63,33.8,53.4,41.5,0,no_anomaly,0.0,0,0,0,0,12.9716226,77.5946202,22.0,0.0
2024-04-01T15:44:11.200Z,MISSION_0012,112,0,transit,SITE_BLR_003,12.9716259,77.5946186,22.0,72.92,0.44,0.099,3.55,1.0674,-3.2349,72.9169,0.80378,0.02426,-0.01717,0.59419,-0.0257,0.0149,-9.826,0.1913,-0.7311,0.3528,0.309,3,12,0.73,0.99,0.3,24.373,22.18,85.0,47.0,18699.0,7572,7086,7587,7363,62.8,63.6,66.6,64.1,2.889,2.998,2.815,3.012,5.77,63.6,39.0,46.7,1006.05,-28.52,-0.78,1.6,33.8,50.9,44.1,0,no_anomaly,0.0,0,0,0,0,12.9716259,77.5946186,22.0,0.0
2024-04-01T15:44:11.300Z,MISSION_0012,113,0,transit,SITE_BLR_003,12.971623,77.5946154,22.0,74.37,0.686,0.156,3.08,2.5772,-0.4303,74.3745,0.79641,0.02018,0.0106,0.60433,0.2037,-0.0177,-9.8571,0.2948,-0.1581,0.3721,0.2417,3,13,0.71,1.01,0.23,24.377,20.81,84.9,47.8,18678.0,7657,7395,7264,7346,66.5,64.6,64.8,63.9,2.751,2.919,2.792,2.821,5.85,52.4,39.6,46.9,1005.87,-27.46,-0.57,1.21,36.1,48.2,40.9,0,no_anomaly,0.0,0,0,0,0,12.971623,77.5946154,22.0,0.0
2024-04-01T15:44:11.400Z,MISSION_0012,114,0,transit,SITE_BLR_003,12.9716259,77.594617,22.0,73.93,0.638,0.037,3.44,-4.7201,-1.3315,73.933,0.79854,-0.02592,-0.03404,0.60042,0.0885,-0.0365,-9.8001,-0.3457,-0.3768,-0.2587,0.2728,3,15,0.77,1.04,0.32,24.32,18.2,84.8,48.0,18657.0,7462,7470,7616,7416,62.4,62.5,65.5,63.4,2.459,2.614,2.544,2.691,5.09,51.9,38.9,45.8,1005.98,-30.16,0.91,1.35,34.8,50.9,44.6,0,no_anomaly,0.0,0,0,0,0,12.9716259,77.594617,22.0,0.0
2024-04-01T15:44:11.500Z,MISSION_0012,115,0,transit,SITE_BLR_003,12.9716225,77.5946164,22.0,76.43,0.625,0.172,3.1,0.3552,-0.8929,76.4288,0.78566,0.00726,-0.0042,0.6186,-0.3461,0.0132,-9.7835,-0.2076,-0.4786,-0.2012,0.201,3,17,0.78,1.04,0.22,24.461,16.0,84.7,47.6,18635.0,7483,7656,7618,7247,61.7,63.1,62.6,60.1,2.793,3.014,2.8,2.561,5.73,58.7,39.0,47.5,1006.08,-22.04,0.75,1.57,31.7,52.2,39.5,0,no_anomaly,0.0,0,0,0,0,12.9716225,77.5946164,22.0,0.0
2024-04-01T15:44:11.600Z,MISSION_0012,116,0,transit,SITE_BLR_003,12.9716275,77.5946137,22.0,73.32,0.477,0.182,3.42,2.8045,-1.1459,73.3247,0.80174,0.0256,0.00659,0.59709,0.1543,0.0239,-9.79,0.3594,0.4803,-0.5148,0.1827,3,10,0.61,0.86,0.26,24.381,21.94,84.6,46.8,18614.0,7160,7514,7342,7706,62.4,65.2,65.4,66.5,2.612,2.907,2.852,2.727,5.29,60.7,38.8,47.5,1005.97,-24.55,0.89,1.66,34.3,54.7,45.7,0,no_anomaly,0.0,0,0,0,0,12.9716275,77.5946137,22.0,0.0
2024-04-01T15:44:11.700Z,MISSION_0012,117,0,transit,SITE_BLR_003,12.9716299,77.5946155,22.0,71.74,0.356,0.039,3.75,2.6657,0.6777,71.7381,0.81021,0.01538,0.01842,0.58565,-0.0169,0.0579,-9.8354,-1.1916,-0.1822,0.133,0.2108,3,16,0.71,0.9,0.2,24.368,21.46,84.5,47.8,18593.0,6972,7546,7681,7413,64.7,64.9,65.6,67.4,2.782,2.903,2.904,2.838,5.2,62.6,39.1,47.7,1006.03,-28.29,0.32,1.21,33.9,53.2,43.8,0,no_anomaly,0.0,0,0,0,0,12.9716299,77.5946155,22.0,0.0
2024-04-01T15:44:11.800Z,MISSION_0012,118,0,transit,SITE_BLR_003,12.9716322,77.594617,22.0,71.4,0.401,0.04,4.06,-0.2833,-1.4056,71.4017,0.81203,0.00515,-0.0114,0.58348,-0.0993,-0.0429,-9.8151,-0.0401,-0.2721,-0.1252,0.1238,3,13,0.7,1.13,0.34,24.364,16.38,84.4,48.0,18572.0,7604,7287,7546,7332,61.6,68.6,66.6,64.9,2.89,2.684,2.85,2.469,6.12,57.2,39.1,46.4,1006.0,-30.27,-0.94,1.26,39.2,55.7,43.6,0,no_anomaly,0.0,0,0,0,0,12.9716322,77.594617,22.0,0.0
2024-04-01T15:44:11.900Z,MISSION_0012,119,0,transit,SITE_BLR_003,12.9716328,77.5946146,22.0,70.57,0.651,0.051,4.0,4.2683,-2.4411,70.5689,0.81508,0.04269,0.00413,0.57775,-0.0461,0.0201,-9.8086,0.2926,-0.763,-0.5777,0.1825,3,16,0.5,1.2,0.25,24.393,21.48,84.3,48.5,18551.0,7351,7346,7472,7281,62.8,67.6,67.4,60.3,2.854,2.743,2.786,2.701,5.62,65.3,39.2,46.9,1005.92,-28.62,-1.43,1.98,34.1,49.4,44.3,0,no_anomaly,0.0,0,0,0,0,12.9716328,77.5946146,22.0,0.0
2024-04-01T15:44:12.000Z,MISSION_0012,120,0,transit,SITE_BLR_003,12.9716308,77.5946139,22.0,70.85,0.854,0.119,3.76,2.4906,-1.4057,70.8546,0.81444,0.02482,0.0026,0.57971,0.1876,-0.0239,-9.805,0.0726,0.5767,-0.3097,0.263,3,18,0.59,0.95,0.23,24.35,15.79,84.2,47.1,18530.0,7335,7556,7290,7506,63.1,67.2,68.2,67.3,2.788,2.758,2.717,2.85,5.68,62.9,39.0,47.9,1005.85,-27.59,0.57,1.43,36.4,50.7,45.0,0,no_anomaly,0.0,0,0,0,0,12.9716308,77.5946139,22.0,0.0
2024-04-01T15:44:12.100Z,MISSION_0012,121,0,transit,SITE_BLR_003,12.9716322,77.5946132,22.0,73.17,0.777,-0.011,3.88,-0.6273,-4.1825,73.1697,0.80255,0.01736,-0.03256,0.59545,0.1421,-0.0213,-9.781,0.0673,0.1475,-0.6013,0.2192,3,11,0.66,0.7,0.27,24.349,17.64,84.1,48.1,18509.0,7412,7447,7549,7214,64.9,64.4,63.6,64.7,3.168,2.739,2.913,2.569,5.66,44.7,39.2,46.9,1006.1,-29.61,0.8,1.32,33.5,54.0,41.5,0,no_anomaly,0.0,0,0,0,0,12.9716322,77.5946132,22.0,0.0
2024-04-01T15:44:12.200Z,MISSION_0012,122,0,transit,SITE_BLR_003,12.9716314,77.5946114,22.0,74.03,1.415,0.118,3.72,-1.086,-2.1616,74.0308,0.7984,0.00379,-0.02076,0.60175,-0.0666,-0.049,-9.8298,0.2621,-0.2144,-0.505,0.3017,3,13,0.62,1.06,0.28,24.316,15.13,84.0,47.4,18487.0,7601,7544,7775,7343,59.5,63.7,62.8,60.2,2.792,2.647,2.614,2.799,5.09,61.1,39.5,47.3,1006.08,-30.22,-0.12,1.85,34.5,46.2,39.0,0,no_anomaly,0.0,0,0,0,0,12.9716314,77.5946114,22.0,0.0
2024-04-01T15:44:12.300Z,MISSION_0012,123,0,transit,SITE_BLR_003,12.971634,77.5946149,22.0,74.49,1.304,0.05,4.13,3.4904,-1.7774,74.487,0.79532,0.03362,0.00609,0.60523,-0.1545,-0.0035,-9.8021,0.2558,-0.1187,0.2313,0.2573,3,13,0.79,0.91,0.34,24.392,15.0,83.9,47.9,18466.0,7376,7428,7644,7297,63.9,61.9,64.7,63.4,2.81,2.749,2.891,2.695,5.1,64.3,39.5,46.7,1005.92,-27.84,-0.32,1.3,34.6,54.3,44.4,0,no_anomaly,0.0,0,0,0,0,12.971634,77.5946149,22.0,0.0
2024-04-01T15:44:12.400Z,MISSION_0012,124,0,transit,SITE_BLR_003,12.97164,77.5946116,22.0,73.75,1.484,0.152,4.63,-2.9369,-0.155,73.7505,0.7997,-0.01969,-0.01646,0.59985,0.2486,-0.0164,-9.8497,-0.0447,0.2724,-0.1135,0.1797,3,12,0.63,0.78,0.2,24.343,17.87,83.8,48.6,18445.0,7473,7523,7312,7468,66.1,61.5,65.1,61.6,2.713,2.69,2.8,2.602,6.27,58.7,39.0,46.5,1006.02,-28.97,0.63,1.0,33.7,49.4,42.2,0,no_anomaly,0.0,0,0,0,0,12.97164,77.5946116,22.0,0.0
2024-04-01T15:44:12.500Z,MISSION_0012,125,0,transit,SITE_BLR_003,12.9716374,77.5946144,22.0,74.61,1.417,0.072,4.46,1.8294,0.6716,74.6071,0.79538,0.00915,0.01434,0.60588,-0.1244,-0.0119,-9.7331,-0.4207,0.3356,0.7259,0.1535,3,19,0.69,1.15,0.34,24.296,21.6,83.7,48.1,18424.0,7417,7179,7453,7584,66.7,67.3,64.4,61.7,3.023,2.769,2.626,2.817,5.82,53.3,39.0,47.0,1005.79,-29.2,0.13,1.0,29.1,44.5,40.0,0,no_anomaly,0.0,0,0,0,0,12.9716374,77.5946144,22.0,0.0
2024-04-01T15:44:12.600Z,MISSION_0012,126,0,transit,SITE_BLR_003,12.971644,77.5946134,22.0,75.16,1.58,-0.045,5.12,4.2245,0.2678,75.1592,0.79202,0.02779,0.02433,0.60938,-0.0303,-0.016,-9.7412,-0.4781,-0.1111,-0.3941,0.2526,3,15,0.89,0.79,0.41,24.344,13.04,83.6,46.8,18403.0,7317,7726,7498,7244,63.6,67.5,64.2,59.9,2.652,2.746,2.908,2.773,5.3,61.9,39.1,47.2,1006.01,-28.47,2.32,1.55,33.6,50.5,41.6,0,no_anomaly,0.0,0,0,0,0,12.971644,77.5946134,22.0,0.0
2024-04-01T15:44:12.700Z,MISSION_0012,127,0,transit,SITE_BLR_003,12.9716438,77.594617,22.0,77.36,1.081,0.09,5.22,-3.7412,-4.4483,77.3602,0.78044,-0.00122,-0.05067,0.62318,-0.1532,0.1037,-9.8406,0.2698,0.173,0.081,0.27,3,17,0.64,1.08,0.29,24.363,16.77,83.6,47.3,18382.0,7547,7551,7691,7218,65.9,62.3,62.0,63.7,2.943,2.641,2.516,2.819,5.57,52.9,39.3,47.2,1006.14,-32.4,0.98,1.75,33.2,43.5,40.5,0,no_anomaly,0.0,0,0,0,0,12.9716438,77.594617,22.0,0.0
2024-04-01T15:44:12.800Z,MISSION_0012,128,0,transit,SITE_BLR_003,12.9716427,77.5946175,22.0,78.34,0.464,0.065,5.13,-2.8493,-2.1997,78.343,0.77518,-0.00715,-0.03058,0.63096,-0.3794,0.0121,-9.726,-0.2729,-0.2255,-0.166,0.1457,3,17,0.57,0.77,0.2,24.432,11.26,83.5,46.4,18360.0,7432,7320,7383,7591,66.5,68.7,61.2,61.4,2.946,2.905,2.766,2.752,5.87,61.7,39.4,47.3,1005.72,-31.74,-0.47,1.39,30.0,51.5,38.2,0,no_anomaly,0.0,0,0,0,0,12.9716427,77.5946175,22.0,0.0
2024-04-01T15:44:12.900Z,MISSION_0012,129,0,transit,SITE_BLR_003,12.9716426,77.5946218,22.0,78.18,0.074,0.159,5.32,4.5348,-0.479,78.1841,0.77542,0.03334,0.02171,0.6302,0.0953,-0.0779,-9.832,-0.0849,0.3764,-0.1551,0.2188,3,20,0.59,1.03,0.2,24.395,13.1,83.4,47.8,18339.0,7437,7267,7141,7200,66.0,64.7,59.5,64.6,2.356,2.678,2.603,2.714,4.13,64.4,39.3,46.9,1005.83,-30.16,-0.72,1.83,31.9,49.0,42.5,0,no_anomaly,0.0,0,0,0,0,12.9716426,77.5946218,22.0,0.0
2024-04-01T15:44:13.000Z,MISSION_0012,130,0,transit,SITE_BLR_003,12.9716452,77.5946214,22.0,79.6,0.0,0.117,5.56,-2.4208,-1.7911,79.597,0.76825,-0.00623,-0.02553,0.63962,-0.1757,-0.0965,-9.8006,1.244,0.0504,-0.1441,0.1235,3,12,0.64,0.71,0.23,24.383,16.0,83.3,47.9,18318.0,7426,7411,7277,7427,64.2,64.2,63.3,65.4,2.742,2.795,2.746,2.819,5.42,54.9,39.3,46.3,1006.03,-30.06,-0.05,1.31,34.5,43.5,41.0,0,no_anomaly,0.0,0,0,0,0,12.9716452,77.5946214,22.0,0.0
