timestamp_utc,mission_id,frame_id,waypoint_id,inspection_phase,site_id,latitude_deg,longitude_deg,altitude_m,heading_deg,ground_speed_ms,vertical_speed_ms,distance_to_tower_m,roll_deg,pitch_deg,yaw_deg,quat_w,quat_x,quat_y,quat_z,accel_x_ms2,accel_y_ms2,accel_z_ms2,gyro_x_rads,gyro_y_rads,gyro_z_rads,vibration_level,gps_fix_type,gps_satellite_count,gps_hdop,gps_vdop,position_error_m,battery_voltage_v,battery_current_a,battery_remaining_pct,battery_temp_c,battery_capacity_mah,motor_fl_rpm,motor_fr_rpm,motor_rl_rpm,motor_rr_rpm,motor_fl_temp_c,motor_fr_temp_c,motor_rl_temp_c,motor_rr_temp_c,motor_fl_thrust_n,motor_fr_thrust_n,motor_rl_thrust_n,motor_rr_thrust_n,wind_speed_ms,wind_dir_deg,air_temp_c,humidity_pct,pressure_hpa,gimbal_pitch_deg,gimbal_roll_deg,zoom_factor,ir_temp_min_c,ir_temp_max_c,ir_temp_avg_c,anomaly_detected,anomaly_class,anomaly_confidence,anomaly_bbox_x,anomaly_bbox_y,anomaly_bbox_w,anomaly_bbox_h,anomaly_gps_lat,anomaly_gps_lon,anomaly_gps_alt_m,ir_temp_delta_c
2024-04-03T09:58:00.000Z,MISSION_0023,0,0,takeoff,SITE_CHE_004,13.0827017,80.270704,1.5,115.52,0.008,0.106,0.48,0.8288,-0.8124,115.5216,0.53338,0.00985,0.00234,0.84581,0.0014,-0.0845,-9.8065,-0.2841,-0.3718,0.0155,0.1697,3,11,0.64,0.65,0.27,24.755,17.8,96.2,34.5,21156.0,7374,7218,7336,7220,52.7,53.8,54.8,52.7,2.761,2.84,2.893,2.722,2.86,267.2,25.8,51.1,1013.48,-31.91,0.52,1.17,23.9,39.1,30.5,0,no_anomaly,0.0,0,0,0,0,13.0827017,80.270704,1.5,0.0
2024-04-03T09:58:00.100Z,MISSION_0023,1,0,takeoff,SITE_CHE_004,13.0827029,80.2707025,3.0,116.9,0.0,0.136,0.42,-2.762,-2.4683,116.9003,0.52341,0.00574,-0.0318,0.85147,0.1664,0.035,-9.7682,-0.7242,-0.2555,-0.4038,0.1554,3,12,0.73,0.89,0.35,24.755,17.35,96.1,33.6,21145.0,7067,7382,7359,7352,50.3,53.4,50.0,49.5,3.06,2.933,3.071,2.843,3.91,258.6,26.3,51.0,1014.07,-26.19,-0.49,1.27,19.4,37.7,29.5,0,no_anomaly,0.0,0,0,0,0,13.0827029,80.2707025,3.0,0.0
2024-04-03T09:58:00.200Z,MISSION_0023,2,0,takeoff,SITE_CHE_004,13.0827012,80.2707038,4.5,117.16,0.199,0.095,0.45,-4.2001,-4.1128,117.1591,0.52175,0.01151,-0.04994,0.85156,0.0541,0.0627,-9.7319,-0.3345,-0.0723,0.0151,0.1675,3,20,0.59,0.99,0.2,24.656,19.01,96.1,34.1,21134.0,7452,7447,7465,7210,51.7,48.8,50.4,51.0,2.825,2.743,2.907,2.639,2.79,262.3,26.1,50.6,1013.44,-28.78,-1.14,1.93,23.8,33.6,28.2,0,no_anomaly,0.0,0,0,0,0,13.0827012,80.2707038,4.5,0.0
2024-04-03T09:58:00.300Z,MISSION_0023,3,0,takeoff,SITE_CHE_004,13.0827043,80.2707026,5.0,117.36,0.685,0.09,0.56,2.321,0.2332,117.3561,0.51977,0.00879,0.01836,0.85406,-0.1508,0.0096,-9.8728,0.5606,-0.0296,-0.0563,0.176,3,10,0.63,0.6,0.29,24.684,18.98,96.0,34.6,21123.0,7502,7641,7475,7495,48.9,51.9,51.7,52.2,2.807,3.058,2.872,2.706,3.27,274.7,26.3,52.2,1014.11,-29.46,1.08,1.33,23.8,38.3,32.2,0,no_anomaly,0.0,0,0,0,0,13.0827043,80.2707026,5.0,0.0
2024-04-03T09:58:00.400Z,MISSION_0023,4,0,takeoff,SITE_CHE_004,13.0827046,80.2707061,5.0,117.47,0.549,0.134,0.86,1.4969,-3.3673,117.4695,0.5184,0.03189,-0.00409,0.85453,-0.0933,0.0878,-9.7921,-0.176,-0.1154,0.0182,0.0801,3,16,0.58,0.83,0.2,24.6,14.01,96.0,34.9,21112.0,7572,7385,7355,7309,52.9,50.5,54.0,51.6,2.899,2.825,2.896,2.731,3.21,259.2,26.0,50.9,1013.76,-30.45,-0.5,1.75,23.6,32.9,30.1,0,no_anomaly,0.0,0,0,0,0,13.0827046,80.2707061,5.0,0.0
2024-04-03T09:58:00.500Z,MISSION_0023,5,0,takeoff,SITE_CHE_004,13.0827051,80.2707078,5.0,119.16,0.255,0.144,1.04,1.7373,-1.4891,119.1562,0.50609,0.01888,0.00649,0.86225,-0.1476,0.0092,-9.844,-0.5013,0.8737,0.1789,0.2042,3,18,0.61,1.01,0.33,24.747,17.16,95.9,33.6,21101.0,7551,7379,7603,7445,50.3,51.4,46.8,53.5,2.848,2.608,2.922,2.653,4.03,258.3,26.5,50.9,1013.7,-28.36,1.61,1.87,22.2,31.9,30.7,0,no_anomaly,0.0,0,0,0,0,13.0827051,80.2707078,5.0,0.0
2024-04-03T09:58:00.600Z,MISSION_0023,6,0,takeoff,SITE_CHE_004,13.0827072,80.2707087,5.0,117.82,0.096,0.161,1.26,-2.7968,1.6689,117.8191,0.51588,-0.02507,-0.01338,0.85619,-0.0393,0.0267,-9.7946,-0.4104,-0.2581,-0.0408,0.2381,3,14,0.62,0.6,0.22,24.721,17.76,95.9,34.5,21090.0,7575,7561,7718,7538,55.0,54.5,50.0,49.3,3.05,2.643,2.864,2.553,3.56,258.0,26.7,50.7,1013.82,-30.42,-0.54,1.7,21.0,41.2,30.5,0,no_anomaly,0.0,0,0,0,0,13.0827072,80.2707087,5.0,0.0
2024-04-03T09:58:00.700Z,MISSION_0023,7,0,takeoff,SITE_CHE_004,13.0827088,80.2707063,5.0,118.8,0.0,0.11,1.2,-0.5775,-2.7445,118.8003,0.50899,0.01805,-0.01653,0.86042,0.1025,-0.0083,-9.8023,0.558,-0.3132,-0.2106,0.2726,3,10,0.71,0.95,0.2,24.631,16.9,95.8,35.1,21079.0,7581,7387,7355,7458,50.8,52.5,49.7,49.8,2.727,2.811,2.979,2.715,4.46,257.8,26.2,51.3,1014.0,-37.77,-0.09,1.49,22.1,35.4,29.7,0,no_anomaly,0.0,0,0,0,0,13.0827088,80.2707063,5.0,0.0
2024-04-03T09:58:00.800Z,MISSION_0023,8,0,takeoff,SITE_CHE_004,13.0827125,80.2707096,5.0,117.78,0.151,0.089,1.76,1.7509,-2.3199,117.776,0.51628,0.02522,0.00262,0.85604,-0.0375,0.0103,-9.7463,-0.1936,0.2782,0.477,0.0989,3,13,0.61,0.94,0.25,24.687,23.25,95.8,33.7,21068.0,7300,7375,7365,7204,53.7,52.8,57.4,50.5,2.72,2.795,3.032,2.731,3.94,266.6,26.3,51.6,1013.4,-28.6,0.3,1.46,24.1,41.2,29.2,0,no_anomaly,0.0,0,0,0,0,13.0827125,80.2707096,5.0,0.0
2024-04-03T09:58:00.900Z,MISSION_0023,9,0,takeoff,SITE_CHE_004,13.0827098,80.2707105,5.0,117.39,0.288,0.145,1.6,-2.9503,-3.981,117.3864,0.5199,0.0163,-0.04002,0.85313,-0.0051,-0.1012,-9.7901,-0.009,0.5767,-0.0026,0.1452,3,10,0.61,1.21,0.2,24.741,18.41,95.7,34.6,21057.0,7414,7579,7280,7526,47.8,53.9,51.7,49.4,2.635,2.701,2.861,2.976,3.84,262.2,26.3,50.8,1013.62,-31.37,-0.13,1.7,21.7,33.4,28.0,0,no_anomaly,0.0,0,0,0,0,13.0827098,80.2707105,5.0,0.0
2024-04-03T09:58:01.000Z,MISSION_0023,10,0,takeoff,SITE_CHE_004,13.0827096,80.2707143,5.0,117.35,0.136,0.089,1.92,0.8874,-1.5558,117.3509,0.51973,0.01562,-0.00044,0.85419,0.0563,-0.0107,-9.7781,0.034,-0.7068,0.1471,0.1396,3,20,0.73,0.97,0.29,24.666,18.31,95.7,34.1,21046.0,7544,7519,7362,7534,51.9,53.3,50.3,51.8,2.882,2.548,2.942,2.819,4.1,262.2,26.5,51.9,1014.07,-30.77,0.79,1.33,24.4,41.8,27.1,0,no_anomaly,0.0,0,0,0,0,13.0827096,80.2707143,5.0,0.0
2024-04-03T09:58:01.100Z,MISSION_0023,11,0,takeoff,SITE_CHE_004,13.0827105,80.2707145,5.0,114.49,0.593,0.04,1.99,2.3261,-3.9782,114.4915,0.54001,0.04016,-0.00171,0.8407,0.0272,-0.0022,-9.8799,0.1759,-0.2097,0.2645,0.1885,3,11,0.8,0.89,0.2,24.619,12.13,95.6,34.0,21035.0,7353,7479,7479,7250,48.8,51.0,50.7,49.3,2.748,2.823,2.874,2.791,2.81,262.4,25.9,50.6,1013.63,-32.67,0.68,1.68,22.3,39.5,28.6,0,no_anomaly,0.0,0,0,0,0,13.0827105,80.2707145,5.0,0.0
2024-04-03T09:58:01.200Z,MISSION_0023,12,0,takeoff,SITE_CHE_004,13.0827075,80.270712,5.0,113.04,0.359,0.058,1.58,5.2948,0.0469,113.0375,0.55109,0.02514,0.03875,0.83317,0.1267,-0.0441,-9.7944,-0.0358,0.8427,0.5456,0.2124,3,13,0.91,0.65,0.56,24.704,17.07,95.6,34.5,21024.0,7530,7333,7617,7772,52.7,50.3,50.5,50.4,2.791,2.597,2.78,3.122,4.01,257.6,25.9,50.7,1013.97,-28.19,0.62,1.6,20.9,39.1,29.1,0,no_anomaly,0.0,0,0,0,0,13.0827075,80.270712,5.0,0.0
2024-04-03T09:58:01.300Z,MISSION_0023,13,0,takeoff,SITE_CHE_004,13.0827092,80.2707119,5.0,111.89,0.0,0.078,1.67,-2.295,-0.0253,111.8881,0.55989,-0.01103,-0.01672,0.82832,-0.0626,-0.0066,-9.8371,0.4089,0.0156,-0.2621,0.1046,3,12,0.97,0.91,0.34,24.635,20.11,95.5,34.0,21013.0,7779,7609,7296,7449,51.8,52.2,47.8,53.1,2.761,2.783,2.669,2.877,3.89,258.1,26.4,50.5,1013.87,-28.17,0.78,1.74,20.9,32.7,27.7,0,no_anomaly,0.0,0,0,0,0,13.0827092,80.2707119,5.0,0.0
2024-04-03T09:58:01.400Z,MISSION_0023,14,0,takeoff,SITE_CHE_004,13.0827151,80.2707064,5.0,111.4,0.0,0.17,1.83,-2.5179,-2.0054,111.3985,0.56363,0.00207,-0.02801,0.82555,-0.0676,-0.0182,-9.8313,0.3915,-0.1955,0.1404,0.2225,3,11,0.52,0.63,0.27,24.728,14.07,95.5,34.2,21002.0,7738,7498,7447,7293,49.7,55.1,49.8,48.6,2.688,2.854,2.726,2.759,3.02,266.7,26.0,50.6,1013.99,-30.74,0.6,1.99,21.0,36.2,29.1,0,no_anomaly,0.0,0,0,0,0,13.0827151,80.2707064,5.0,0.0
2024-04-03T09:58:01.500Z,MISSION_0023,15,0,takeoff,SITE_CHE_004,13.0827168,80.2707057,5.0,109.22,0.187,-0.004,1.98,-3.1013,-1.7584,109.2195,0.5792,-0.00317,-0.03094,0.81459,0.0545,-0.0302,-9.8504,1.5463,0.338,-0.0537,0.1822,3,16,0.67,0.83,0.26,24.716,19.89,95.4,34.9,20991.0,7514,7432,7528,7415,49.1,50.0,49.7,51.7,2.82,2.671,3.028,2.493,3.39,256.2,26.2,51.1,1013.76,-30.39,-1.03,1.2,22.6,33.5,29.0,0,no_anomaly,0.0,0,0,0,0,13.0827168,80.2707057,5.0,0.0
2024-04-03T09:58:01.600Z,MISSION_0023,16,0,takeoff,SITE_CHE_004,13.0827196,80.270709,5.0,109.93,0.263,0.116,2.4,-0.5777,-2.685,109.9274,0.57403,0.01629,-0.01758,0.81849,-0.0565,0.1053,-9.8139,-0.1631,0.2578,-0.1263,0.2632,3,13,0.67,0.75,0.34,24.708,20.99,95.4,35.0,20980.0,7494,6999,7330,7418,52.8,51.5,47.8,50.2,2.976,2.686,2.977,2.834,2.93,266.2,26.1,51.0,1013.78,-26.85,-1.27,1.57,18.9,39.0,30.7,0,no_anomaly,0.0,0,0,0,0,13.0827196,80.270709,5.0,0.0
2024-04-03T09:58:01.700Z,MISSION_0023,17,0,takeoff,SITE_CHE_004,13.0827144,80.2707019,5.0,111.32,0.128,0.185,1.62,1.1645,-1.4824,111.32,0.56392,0.01641,0.00109,0.82567,0.2395,0.0537,-9.768,0.0165,-0.255,0.5259,0.2184,3,16,0.67,1.12,0.34,24.699,19.32,95.3,34.4,20969.0,7428,7551,7633,7325,52.6,53.9,51.3,45.6,2.733,3.033,2.799,2.998,3.38,269.8,26.0,51.4,1014.02,-37.36,-0.23,1.56,16.9,31.2,24.8,0,no_anomaly,0.0,0,0,0,0,13.0827144,80.2707019,5.0,0.0
2024-04-03T09:58:01.800Z,MISSION_0023,18,0,takeoff,SITE_CHE_004,13.0827123,80.2707005,5.0,110.98,0.013,0.116,1.37,-6.1948,-1.4572,110.9841,0.56621,-0.02015,-0.05172,0.82239,0.0128,0.0151,-9.7596,-0.3166,-0.1429,0.0983,0.2127,3,12,0.66,1.12,0.24,24.712,22.15,95.3,34.3,20958.0,7735,7517,7311,7383,50.0,49.5,50.9,53.7,3.018,2.874,2.827,3.149,3.56,263.0,26.3,50.9,1013.79,-36.36,0.1,1.44,24.3,35.3,30.7,0,no_anomaly,0.0,0,0,0,0,13.0827123,80.2707005,5.0,0.0
2024-04-03T09:58:01.900Z,MISSION_0023,19,0,takeoff,SITE_CHE_004,13.0827128,80.2707004,5.0,109.52,0.0,0.084,1.43,-3.8066,0.0986,109.5177,0.57668,-0.01987,-0.02663,0.8163,-0.0689,-0.0174,-9.788,-0.2612,-0.4116,-0.2647,0.1648,3,11,0.69,0.86,0.23,24.699,15.59,95.2,34.8,20947.0,7347,7391,7454,7350,48.7,49.1,50.5,50.5,2.879,2.564,2.693,3.079,2.44,250.0,26.3,51.2,1013.79,-32.94,-0.43,1.34,22.0,40.6,27.7,0,no_anomaly,0.0,0,0,0,0,13.0827128,80.2707004,5.0,0.0
2024-04-03T09:58:02.000Z,MISSION_0023,20,0,takeoff,SITE_CHE_004,13.0827125,80.2707026,5.0,107.65,0.356,0.13,1.42,-0.6804,-1.544,107.6457,0.59028,0.00737,-0.01275,0.80706,0.1545,0.0138,-9.7992,-0.5353,-0.4982,0.1717,0.2557,3,12,0.81,0.67,0.41,24.676,20.8,95.2,34.2,20936.0,7555,7532,7255,7348,50.7,50.8,49.6,49.7,2.797,2.79,2.528,2.852,3.75,263.5,26.5,51.2,1013.92,-30.34,-0.04,1.69,16.6,30.5,24.3,0,no_anomaly,0.0,0,0,0,0,13.0827125,80.2707026,5.0,0.0
2024-04-03T09:58:02.100Z,MISSION_0023,21,0,takeoff,SITE_CHE_004,13.0827086,80.2707048,5.0,107.18,0.24,0.038,1.1,2.1834,-3.0994,107.1796,0.59282,0.03307,-0.00072,0.80465,-0.1886,-0.0693,-9.8341,0.0681,0.1636,0.0564,0.1637,3,14,0.74,0.77,0.35,24.691,17.02,95.1,35.0,20925.0,7546,7312,7498,7488,52.3,51.0,49.1,51.2,2.678,2.78,2.895,2.562,4.19,265.8,25.9,51.6,1013.62,-29.87,-0.24,1.4,22.1,38.8,27.5,0,no_anomaly,0.0,0,0,0,0,13.0827086,80.2707048,5.0,0.0
2024-04-03T09:58:02.200Z,MISSION_0023,22,0,takeoff,SITE_CHE_004,13.0827036,80.2707111,5.0,108.36,0.202,0.176,1.3,-0.7668,-1.5988,108.3559,0.58528,0.0074,-0.01359,0.81069,-0.0412,0.0607,-9.8051,0.7473,-0.2709,0.35,0.1643,3,16,0.56,1.2,0.21,24.652,15.74,95.1,34.3,20914.0,7613,7654,7466,7512,53.4,48.8,51.2,53.0,2.607,3.029,2.754,2.834,3.83,256.5,26.1,50.6,1013.93,-28.83,1.28,1.93,23.9,33.2,30.1,0,no_anomaly,0.0,0,0,0,0,13.0827036,80.2707111,5.0,0.0
2024-04-03T09:58:02.300Z,MISSION_0023,23,0,takeoff,SITE_CHE_004,13.082705,80.2707065,5.0,107.07,0.047,0.063,0.92,2.6659,-1.1424,107.0687,0.59396,0.02184,0.01278,0.80409,-0.0302,-0.0148,-9.8207,-0.2765,0.5842,-0.5391,0.0704,3,10,0.71,0.82,0.31,24.638,13.42,95.0,34.3,20903.0,7710,7386,7608,7447,52.9,51.6,52.3,51.5,2.829,2.992,2.703,2.672,4.0,263.0,26.2,51.5,1014.01,-29.07,1.03,1.24,20.0,40.2,27.8,0,no_anomaly,0.0,0,0,0,0,13.082705,80.2707065,5.0,0.0
2024-04-03T09:58:02.400Z,MISSION_0023,24,0,takeoff,SITE_CHE_004,13.0827014,80.2707108,5.0,108.88,0.0,0.074,1.21,5.3965,-1.9328,108.8819,0.58017,0.04108,0.02849,0.81296,0.0754,0.0316,-9.8882,0.429,-0.4079,-0.2405,0.1584,3,14,0.5,0.76,0.2,24.696,20.93,95.0,34.1,20892.0,7451,7444,7382,7547,51.7,49.0,53.5,51.1,2.817,2.798,2.896,2.703,4.22,253.7,25.9,51.3,1013.65,-30.57,1.25,1.8,20.2,40.4,28.6,0,no_anomaly,0.0,0,0,0,0,13.0827014,80.2707108,5.0,0.0
2024-04-03T09:58:02.500Z,MISSION_0023,25,0,takeoff,SITE_CHE_004,13.082697,80.2707158,5.0,109.02,0.248,0.195,1.79,0.747,-2.9818,109.022,0.5802,0.02497,-0.0098,0.81403,0.0527,0.0575,-9.7744,0.2979,0.2702,-0.2946,0.1127,3,12,0.55,1.04,0.33,24.525,17.06,94.9,34.7,20881.0,7674,7777,7571,7361,49.4,50.6,52.0,49.7,2.635,2.811,2.987,2.684,3.96,266.1,26.1,51.4,1013.79,-33.09,0.88,1.77,20.8,32.3,26.5,0,no_anomaly,0.0,0,0,0,0,13.082697,80.2707158,5.0,0.0
2024-04-03T09:58:02.600Z,MISSION_0023,26,0,takeoff,SITE_CHE_004,13.0826918,80.270715,5.0,110.17,0.569,0.055,1.9,-2.1044,-1.4461,110.1749,0.57237,-0.00016,-0.02228,0.81969,0.1025,0.0024,-9.8333,-0.8759,-0.2367,-0.3438,0.2218,3,18,0.57,0.92,0.2,24.724,15.72,94.9,34.5,20870.0,7084,7474,7650,7467,49.8,50.4,50.9,53.9,2.686,2.676,2.956,2.818,4.21,251.8,26.4,51.1,1013.59,-23.12,-0.58,1.78,21.2,39.3,30.1,0,no_anomaly,0.0,0,0,0,0,13.0826918,80.270715,5.0,0.0
2024-04-03T09:58:02.700Z,MISSION_0023,27,0,takeoff,SITE_CHE_004,13.0826895,80.2707132,5.0,110.98,0.128,0.065,1.87,-5.4644,-1.8241,110.976,0.56649,-0.0139,-0.04828,0.82254,0.0236,-0.0711,-9.8387,-0.7056,-0.3859,0.1555,0.2072,3,18,0.67,1.0,0.3,24.671,16.46,94.8,34.7,20859.0,7781,7183,7371,7340,47.5,49.3,54.4,48.7,2.935,2.998,3.047,3.219,2.92,259.4,26.1,51.6,1013.92,-26.69,-0.64,1.6,20.7,36.7,29.0,0,no_anomaly,0.0,0,0,0,0,13.0826895,80.2707132,5.0,0.0
2024-04-03T09:58:02.800Z,MISSION_0023,28,0,takeoff,SITE_CHE_004,13.0826875,80.2707178,5.0,111.24,0.203,0.089,2.42,1.9465,-0.6958,111.2361,0.56453,0.0146,0.01059,0.82522,0.1056,0.0276,-9.7908,-0.3071,0.4624,0.4745,0.1722,3,19,0.77,0.95,0.24,24.712,13.86,94.8,33.8,20848.0,7385,7332,7611,7223,56.3,50.9,52.7,52.8,2.796,2.809,2.826,2.891,3.4,258.4,26.1,51.0,1013.69,-32.01,0.31,1.69,19.3,33.0,30.3,0,no_anomaly,0.0,0,0,0,0,13.0826875,80.2707178,5.0,0.0
2024-04-03T09:58:02.900Z,MISSION_0023,29,0,takeoff,SITE_CHE_004,13.0826863,80.2707155,5.0,109.48,0.379,0.074,2.31,-0.4927,-2.4126,109.4771,0.57725,0.01471,-0.01566,0.81629,0.0114,0.0216,-9.8186,-0.6406,0.6833,0.224,0.2724,3,19,0.71,0.94,0.35,24.762,14.45,94.7,34.5,20837.0,7478,7666,7482,7499,50.1,53.7,52.0,52.3,2.754,2.557,2.794,2.823,2.94,265.7,26.2,50.7,1014.22,-26.52,-0.09,1.05,24.7,35.1,30.3,0,no_anomaly,0.0,0,0,0,0,13.0826863,80.2707155,5.0,0.0
2024-04-03T09:58:03.000Z,MISSION_0023,30,0,takeoff,SITE_CHE_004,13.0826843,80.2707155,5.0,111.76,0.028,0.1,2.46,1.0938,-2.1334,111.759,0.56067,0.02076,-0.00254,0.82778,0.0915,0.0535,-9.8498,-0.7075,0.4749,-0.2451,0.1749,3,12,0.5,1.27,0.27,24.697,17.83,94.7,33.7,20826.0,7442,7561,7598,7621,51.4,52.8,49.4,51.1,3.013,2.735,2.769,2.9,2.92,261.5,26.1,51.4,1013.84,-30.51,0.2,1.76,21.0,35.5,28.7,0,no_anomaly,0.0,0,0,0,0,13.0826843,80.2707155,5.0,0.0
2024-04-03T09:58:03.100Z,MISSION_0023,31,0,takeoff,SITE_CHE_004,13.0826844,80.2707171,5.0,110.33,0.005,0.288,2.58,3.6607,-2.8996,110.3303,0.57008,0.039,0.01176,0.82058,-0.0642,-0.0668,-9.8237,0.0577,0.1857,0.0398,0.1221,3,19,0.83,0.73,0.33,24.648,20.67,94.6,34.6,20815.0,7417,7169,7356,7603,56.1,56.1,54.1,52.1,2.692,2.688,2.822,2.727,2.99,267.4,26.3,50.6,1013.94,-27.87,-0.57,1.49,24.1,33.7,28.5,0,no_anomaly,0.0,0,0,0,0,13.0826844,80.2707171,5.0,0.0
2024-04-03T09:58:03.200Z,MISSION_0023,32,0,takeoff,SITE_CHE_004,13.0826865,80.270718,5.0,112.96,0.0,0.155,2.5,-3.7423,-0.9803,112.9553,0.55218,-0.0109,-0.03194,0.83304,-0.1238,-0.0691,-9.801,0.0011,-0.9864,0.461,0.2208,3,16,0.76,0.94,0.3,24.587,17.48,94.6,35.0,20804.0,7363,7496,7472,7302,50.4,52.1,52.4,52.1,2.676,2.59,2.61,2.872,3.21,261.3,26.1,51.2,1014.05,-30.61,1.95,1.59,20.1,33.3,26.2,0,no_anomaly,0.0,0,0,0,0,13.0826865,80.270718,5.0,0.0
2024-04-03T09:58:03.300Z,MISSION_0023,33,0,takeoff,SITE_CHE_004,13.0826886,80.2707159,5.0,115.82,0.0,0.072,2.18,-0.1008,-1.5769,115.8248,0.53117,0.01119,-0.00805,0.84715,-0.0465,-0.0101,-9.7986,-0.3454,-0.2842,-0.1911,0.1778,3,17,0.75,1.04,0.26,24.71,16.28,94.5,34.8,20793.0,7530,7400,7173,7285,49.6,48.3,49.0,52.7,2.796,2.59,2.778,2.746,4.27,256.0,26.0,50.3,1013.62,-33.49,-1.3,1.5,23.7,36.0,29.2,0,no_anomaly,0.0,0,0,0,0,13.0826886,80.2707159,5.0,0.0
2024-04-03T09:58:03.400Z,MISSION_0023,34,0,takeoff,SITE_CHE_004,13.0826826,80.2707192,5.0,117.39,0.607,0.003,2.89,-0.598,-3.1366,117.3947,0.51948,0.02067,-0.01868,0.85403,-0.0834,0.0483,-9.7665,0.0798,0.0158,0.5553,0.2069,3,19,0.88,1.0,0.45,24.601,19.82,94.5,34.2,20782.0,7706,7535,7553,7378,46.7,50.3,52.4,51.0,2.622,2.846,2.806,2.747,2.54,259.8,26.1,50.3,1013.66,-26.26,-0.87,1.49,24.0,33.9,27.1,0,no_anomaly,0.0,0,0,0,0,13.0826826,80.2707192,5.0,0.0
2024-04-03T09:58:03.500Z,MISSION_0023,35,0,takeoff,SITE_CHE_004,13.0826805,80.2707178,5.0,119.07,0.651,0.118,2.93,-4.6057,-1.9225,119.0718,0.5071,-0.00592,-0.04313,0.86079,0.1125,0.0063,-9.9245,-0.0434,0.7979,0.1081,0.1528,3,10,0.77,0.84,0.25,24.715,21.98,94.4,34.5,20771.0,7435,7634,7504,7671,50.3,53.5,50.8,51.5,2.67,2.643,2.69,2.696,4.0,258.7,25.9,51.2,1013.72,-30.75,-1.86,1.75,20.6,39.0,29.2,0,no_anomaly,0.0,0,0,0,0,13.0826805,80.2707178,5.0,0.0
2024-04-03T09:58:03.600Z,MISSION_0023,36,0,takeoff,SITE_CHE_004,13.0826781,80.2707187,5.0,119.44,0.055,0.15,3.21,0.6598,-2.9604,119.4353,0.50396,0.02521,-0.00805,0.86332,0.2006,-0.0575,-9.7937,-0.2248,0.593,0.0015,0.1593,3,14,0.66,0.89,0.27,24.627,17.0,94.4,34.3,20760.0,7436,7473,7528,7635,55.1,51.9,51.6,50.6,2.532,2.838,2.988,2.654,3.29,270.1,26.3,51.8,1013.95,-38.0,-0.0,1.59,21.6,32.6,30.2,0,no_anomaly,0.0,0,0,0,0,13.0826781,80.2707187,5.0,0.0
2024-04-03T09:58:03.700Z,MISSION_0023,37,0,takeoff,SITE_CHE_004,13.0826769,80.2707209,5.0,117.02,0.0,0.1,3.47,-9.1768,-0.4856,117.0151,0.521,-0.03819,-0.07042,0.84979,0.0506,-0.0047,-9.7712,0.9894,0.1136,-0.3227,0.1908,3,10,0.73,0.9,0.28,24.666,13.51,94.3,33.8,20749.0,7190,7579,7737,7483,52.3,47.7,47.7,51.5,2.568,2.608,2.864,2.812,4.0,259.6,26.3,51.3,1014.1,-29.14,-0.26,1.45,21.6,30.4,28.2,0,no_anomaly,0.0,0,0,0,0,13.0826769,80.2707209,5.0,0.0
2024-04-03T09:58:03.800Z,MISSION_0023,38,0,takeoff,SITE_CHE_004,13.0826746,80.2707268,5.0,116.71,0.0,0.026,4.11,-1.6919,0.2435,116.7092,0.52458,-0.00955,-0.01145,0.85123,-0.1455,-0.0603,-9.8641,0.1095,-0.674,0.4021,0.2028,3,18,0.79,0.93,0.39,24.668,15.73,94.3,34.3,20738.0,7558,7515,7275,7438,52.0,51.4,47.7,51.8,2.763,2.492,3.001,3.119,2.93,260.9,25.7,51.5,1013.85,-28.1,-0.85,1.0,19.7,33.1,32.0,0,no_anomaly,0.0,0,0,0,0,13.0826746,80.2707268,5.0,0.0
2024-04-03T09:58:03.900Z,MISSION_0023,39,0,takeoff,SITE_CHE_004,13.0826775,80.2707267,5.0,118.53,0.0,0.085,3.89,1.0727,-3.2289,118.5313,0.51061,0.029,-0.00635,0.8593,0.1825,0.0708,-9.8091,0.4024,0.8891,-0.2459,0.2053,3,15,0.83,0.87,0.32,24.638,12.52,94.2,33.6,20727.0,7569,7619,7625,7274,53.7,52.5,51.5,53.1,2.969,2.861,2.947,2.851,3.47,258.1,26.0,51.0,1013.98,-31.03,-0.74,1.6,20.0,39.5,31.1,0,no_anomaly,0.0,0,0,0,0,13.0826775,80.2707267,5.0,0.0
2024-04-03T09:58:04.000Z,MISSION_0023,40,0,takeoff,SITE_CHE_004,13.0826766,80.2707264,5.0,117.37,0.0,0.08,3.93,-1.6962,-1.2225,117.3673,0.51981,0.00142,-0.01819,0.85409,-0.1448,-0.024,-9.7623,-0.1642,0.5377,-0.2819,0.178,3,16,0.76,1.18,0.33,24.692,14.96,94.2,34.4,20716.0,7420,7340,7403,7685,53.7,52.8,50.5,54.1,2.716,2.836,2.942,2.66,3.24,263.8,26.3,50.7,1013.58,-32.04,0.01,1.59,20.3,37.2,25.1,0,no_anomaly,0.0,0,0,0,0,13.0826766,80.2707264,5.0,0.0
2024-04-03T09:58:04.100Z,MISSION_0023,41,0,takeoff,SITE_CHE_004,13.0826764,80.270726,5.0,116.2,0.0,0.143,3.91,-0.1071,-2.1669,116.2021,0.52834,0.01556,-0.01079,0.84882,-0.2268,-0.0036,-9.7768,-0.0764,0.3283,-0.2648,0.2591,3,15,0.5,0.98,0.2,24.733,19.15,94.1,34.4,20705.0,7547,7718,7577,7595,56.8,50.1,48.3,51.4,2.796,2.764,2.5,2.828,4.33,252.7,26.1,51.5,1013.91,-30.87,-0.41,1.4,19.0,34.0,29.8,0,no_anomaly,0.0,0,0,0,0,13.0826764,80.270726,5.0,0.0
2024-04-03T09:58:04.200Z,MISSION_0023,42,0,takeoff,SITE_CHE_004,13.0826726,80.2707308,5.0,115.21,0.0,0.071,4.59,-0.9193,-3.4896,115.2069,0.53572,0.02141,-0.02308,0.84381,0.1615,0.0255,-9.7638,-0.3479,0.0474,0.005,0.1951,3,20,0.57,1.34,0.27,24.658,16.71,94.1,34.9,20694.0,7601,7529,7311,7534,52.4,51.6,52.4,52.0,2.938,2.78,2.854,2.854,3.87,269.9,26.1,51.6,1014.08,-28.36,1.29,1.18,20.0,31.6,27.9,0,no_anomaly,0.0,0,0,0,0,13.0826726,80.2707308,5.0,0.0
2024-04-03T09:58:04.300Z,MISSION_0023,43,0,takeoff,SITE_CHE_004,13.0826745,80.2707295,5.0,117.18,0.0,0.104,4.34,4.2112,-5.3352,117.1776,0.5188,0.05882,0.00708,0.85284,0.1034,-0.0813,-9.8378,0.2173,-1.4083,0.2571,0.1138,3,13,0.7,0.99,0.29,24.593,13.71,94.0,34.5,20683.0,7402,7548,7814,7193,55.7,51.5,52.3,49.6,3.139,2.709,3.1,2.81,4.34,265.0,26.0,51.5,1013.58,-31.78,-2.62,1.27,17.8,36.3,25.9,0,no_anomaly,0.0,0,0,0,0,13.0826745,80.2707295,5.0,0.0
2024-04-03T09:58:04.400Z,MISSION_0023,44,0,takeoff,SITE_CHE_004,13.0826797,80.2707262,5.0,115.87,0.208,-0.025,3.69,1.8023,-0.2447,115.8737,0.53076,0.01016,0.0122,0.84737,0.1195,0.0823,-9.7093,0.4195,0.1355,-0.1937,0.1566,3,11,0.7,1.0,0.35,24.591,23.9,94.0,33.3,20672.0,7605,7638,7238,7349,46.8,52.4,48.0,49.4,2.938,2.506,2.854,2.791,4.22,258.3,26.0,51.3,1014.06,-34.22,0.78,1.38,25.7,42.3,31.1,0,no_anomaly,0.0,0,0,0,0,13.0826797,80.2707262,5.0,0.0
2024-04-03T09:58:04.500Z,MISSION_0023,45,0,takeoff,SITE_CHE_004,13.0826768,80.2707292,5.0,117.23,0.0,0.057,4.16,-1.7283,-3.2289,117.2333,0.52086,0.0162,-0.02754,0.85304,0.1822,0.0456,-9.8221,-0.0284,0.1136,-0.4335,0.1213,3,11,0.55,0.88,0.2,24.692,18.0,93.9,34.3,20661.0,7587,7719,7292,7458,52.9,52.7,49.8,52.7,2.565,2.908,2.634,2.757,1.75,272.4,26.2,50.7,1013.71,-33.15,-1.33,1.7,21.4,40.3,32.0,0,no_anomaly,0.0,0,0,0,0,13.0826768,80.2707292,5.0,0.0
2024-04-03T09:58:04.600Z,MISSION_0023,46,0,takeoff,SITE_CHE_004,13.0826751,80.270735,5.0,117.42,0.177,0.095,4.78,-1.1085,-2.2127,117.4243,0.51938,0.01148,-0.01829,0.85427,-0.0367,0.0854,-9.8647,0.4009,-0.6729,0.0563,0.1779,3,13,0.68,0.86,0.2,24.58,17.62,93.9,34.6,20650.0,7650,7156,7322,7643,55.4,51.5,53.0,51.6,3.068,2.609,2.643,2.923,3.37,266.3,26.1,50.8,1013.84,-26.33,-1.25,1.01,21.9,40.8,30.7,0,no_anomaly,0.0,0,0,0,0,13.0826751,80.270735,5.0,0.0
2024-04-03T09:58:04.700Z,MISSION_0023,47,0,takeoff,SITE_CHE_004,13.0826696,80.2707294,5.0,117.55,0.331,0.124,4.71,0.1266,-3.0457,117.5503,0.51819,0.0233,-0.01283,0.85485,0.0309,-0.0878,-9.77,-0.0668,-0.2143,0.8601,0.2379,3,11,0.75,0.99,0.35,24.619,21.24,93.8,34.0,20639.0,7518,7699,7592,7645,49.1,48.5,51.6,53.5,2.79,2.906,2.544,2.752,2.53,265.1,26.0,51.8,1013.75,-28.17,1.31,1.47,23.4,39.1,30.5,0,no_anomaly,0.0,0,0,0,0,13.0826696,80.2707294,5.0,0.0
2024-04-03T09:58:04.800Z,MISSION_0023,48,0,takeoff,SITE_CHE_004,13.0826771,80.2707294,5.0,115.37,0.859,0.105,4.14,-1.7721,-3.5436,115.3721,0.53464,0.01786,-0.02959,0.84437,0.0566,0.0529,-9.8616,0.1703,0.7145,-0.2174,0.142,3,10,0.82,0.66,0.42,24.634,14.27,93.8,34.1,20628.0,7557,7405,7637,7041,57.1,51.0,52.8,47.2,2.833,2.757,2.755,2.97,3.43,251.7,25.8,51.2,1013.94,-29.12,-0.22,1.82,20.6,37.0,28.4,0,no_anomaly,0.0,0,0,0,0,13.0826771,80.2707294,5.0,0.0
2024-04-03T09:58:04.900Z,MISSION_0023,49,0,takeoff,SITE_CHE_004,13.0826784,80.2707257,5.0,112.26,0.7,0.075,3.74,-1.0105,-0.1052,112.2618,0.55728,-0.00415,-0.00783,0.83028,-0.0569,-0.0017,-9.8067,0.6419,0.9987,-0.1674,0.2231,3,15,0.59,0.77,0.26,24.645,21.63,93.7,35.0,20617.0,7435,7442,7635,7496,49.5,50.0,52.7,52.2,2.76,3.052,2.931,2.72,3.7,265.7,26.2,51.7,1014.08,-29.81,0.26,1.64,21.7,36.7,25.6,0,no_anomaly,0.0,0,0,0,0,13.0826784,80.2707257,5.0,0.0
2024-04-03T09:58:05.000Z,MISSION_0023,50,0,takeoff,SITE_CHE_004,13.0826726,80.2707256,5.0,109.37,0.844,0.202,4.17,-0.4061,-5.2728,109.3701,0.57759,0.03549,-0.02948,0.81502,-0.1474,0.0006,-9.8773,-0.8556,-0.5532,0.0908,0.2219,3,11,0.67,0.98,0.24,24.62,13.47,93.7,33.8,20606.0,7659,7315,7507,7488,49.0,47.3,51.4,50.3,2.959,2.901,2.627,2.552,4.5,256.6,26.0,51.9,1013.82,-23.91,1.33,1.41,21.4,32.2,30.1,0,no_anomaly,0.0,0,0,0,0,13.0826726,80.2707256,5.0,0.0
2024-04-03T09:58:05.100Z,MISSION_0023,51,0,takeoff,SITE_CHE_004,13.082671,80.2707321,5.0,108.77,0.572,0.168,4.81,-1.2878,-3.0265,108.7743,0.58231,0.01493,-0.02451,0.81246,-0.0696,-0.0265,-9.7636,-0.4987,0.4571,0.1046,0.2048,3,17,0.6,0.79,0.38,24.633,20.39,93.6,34.2,20595.0,7344,7349,7553,7393,51.2,52.0,47.4,48.7,2.886,2.889,2.896,2.796,4.34,257.0,26.3,51.1,1013.94,-26.74,-0.33,1.44,19.8,34.5,28.0,0,no_anomaly,0.0,0,0,0,0,13.082671,80.2707321,5.0,0.0
2024-04-03T09:58:05.200Z,MISSION_0023,52,0,takeoff,SITE_CHE_004,13.0826716,80.2707304,5.0,109.32,1.199,0.105,4.63,3.6661,-0.1359,109.3161,0.57813,0.01947,0.02541,0.81532,-0.1023,-0.0228,-9.826,0.4833,0.8342,-0.8237,0.2428,3,20,0.56,0.73,0.25,24.604,19.9,93.6,34.6,20584.0,7525,7072,7586,7363,52.2,52.6,52.0,51.8,2.766,2.75,2.88,2.891,3.13,262.4,26.2,51.5,1013.47,-31.02,1.16,1.53,19.8,29.7,29.4,0,no_anomaly,0.0,0,0,0,0,13.0826716,80.2707304,5.0,0.0
2024-04-03T09:58:05.300Z,MISSION_0023,53,0,takeoff,SITE_CHE_004,13.0826785,80.2707291,5.0,108.65,1.185,0.077,4.02,1.8247,-0.7691,108.6497,0.58302,0.01474,0.00902,0.81228,0.0372,-0.0302,-9.8807,0.2561,-0.2712,0.9258,0.1644,3,18,0.62,0.93,0.2,24.551,19.02,93.5,34.7,20573.0,7610,7325,7400,7243,52.4,50.9,49.7,49.5,2.658,2.837,2.605,2.81,2.6,267.0,26.3,51.4,1013.96,-36.43,0.15,1.94,20.3,40.8,29.0,0,no_anomaly,0.0,0,0,0,0,13.0826785,80.2707291,5.0,0.0
2024-04-03T09:58:05.400Z,MISSION_0023,54,0,takeoff,SITE_CHE_004,13.082678,80.2707276,5.0,109.14,0.74,0.125,3.93,-4.0723,-1.4296,109.1404,0.57966,-0.01044,-0.03618,0.81399,0.1233,-0.0187,-9.6985,-0.5446,0.437,-0.5496,0.0849,3,12,0.66,0.75,0.23,24.628,15.81,93.5,34.8,20562.0,7423,7398,7802,7317,52.9,54.9,50.9,53.9,2.909,2.832,2.608,2.759,2.78,254.7,26.0,50.9,1013.84,-29.08,-0.57,1.81,22.8,39.7,29.8,0,no_anomaly,0.0,0,0,0,0,13.082678,80.2707276,5.0,0.0
2024-04-03T09:58:05.500Z,MISSION_0023,55,0,takeoff,SITE_CHE_004,13.0826842,80.270735,5.0,108.04,0.577,0.098,4.27,-2.1154,-2.9602,108.0379,0.58761,0.01006,-0.03011,0.80852,0.086,-0.0068,-9.7092,0.0917,-0.216,-0.2557,0.1517,3,10,0.8,1.02,0.37,24.641,22.07,93.4,33.5,20551.0,7505,7279,7313,7576,50.5,52.3,53.4,52.8,2.87,2.676,2.65,2.798,3.16,259.6,25.9,51.5,1013.82,-30.51,-1.15,1.31,20.6,35.6,28.7,0,no_anomaly,0.0,0,0,0,0,13.0826842,80.270735,5.0,0.0
2024-04-03T09:58:05.600Z,MISSION_0023,56,0,takeoff,SITE_CHE_004,13.0826825,80.2707377,5.0,108.24,0.892,0.091,4.63,-3.4032,-2.8875,108.24,0.58625,0.00301,-0.03881,0.80919,-0.0765,0.0254,-9.8923,-0.3235,-0.2191,-0.4844,0.192,3,20,0.5,0.75,0.23,24.671,19.31,93.4,33.7,20540.0,7502,7600,7412,7436,50.3,52.8,51.4,52.3,2.795,2.943,2.928,2.71,2.98,253.8,26.2,51.1,1013.64,-29.95,-0.86,1.15,19.8,34.0,30.4,0,no_anomaly,0.0,0,0,0,0,13.0826825,80.2707377,5.0,0.0
2024-04-03T09:58:05.700Z,MISSION_0023,57,0,takeoff,SITE_CHE_004,13.0826878,80.2707412,5.0,108.97,0.55,0.026,4.78,-3.3712,-2.2681,108.9695,0.58103,-0.00098,-0.03543,0.81311,-0.1225,0.0252,-9.7853,-0.3504,-1.0919,-0.358,0.1729,3,20,0.57,0.85,0.25,24.625,20.86,93.3,34.1,20529.0,7195,7591,7464,7347,49.0,48.8,53.2,48.3,2.766,2.988,2.604,2.88,3.62,252.6,25.9,51.1,1013.99,-31.6,0.46,1.65,23.7,33.3,28.1,0,no_anomaly,0.0,0,0,0,0,13.0826878,80.2707412,5.0,0.0
2024-04-03T09:58:05.800Z,MISSION_0023,58,0,takeoff,SITE_CHE_004,13.0826884,80.2707473,5.0,105.48,0.529,0.107,5.42,1.0075,-2.2894,105.4841,0.60512,0.02122,-0.0051,0.79583,0.0591,0.0129,-9.8201,0.432,1.2669,-0.1887,0.2092,3,17,0.7,1.0,0.36,24.634,14.51,93.3,33.7,20518.0,7537,7488,7532,7433,49.6,48.8,51.1,50.8,2.879,2.678,3.03,2.852,4.0,262.5,26.0,51.1,1014.02,-26.47,-1.23,1.51,20.5,40.1,29.4,0,no_anomaly,0.0,0,0,0,0,13.0826884,80.2707473,5.0,0.0
2024-04-03T09:58:05.900Z,MISSION_0023,59,0,takeoff,SITE_CHE_004,13.0826904,80.2707481,5.0,104.13,0.908,0.027,5.46,-0.2463,-0.178,104.1314,0.61476,-0.0001,-0.00265,0.78871,-0.1239,-0.0657,-9.78,-0.6437,-0.7536,0.2313,0.2588,3,13,0.71,1.14,0.32,24.561,22.09,93.2,34.4,20507.0,7449,7176,7524,7556,52.3,52.8,50.3,50.5,2.855,2.729,2.611,2.907,2.99,260.4,25.7,51.4,1013.91,-32.45,0.73,1.34,23.4,33.1,29.8,0,no_anomaly,0.0,0,0,0,0,13.0826904,80.2707481,5.0,0.0
2024-04-03T09:58:06.000Z,MISSION_0023,60,0,takeoff,SITE_CHE_004,13.0826896,80.2707505,5.0,104.89,0.64,0.02,5.74,3.1628,-3.6408,104.8873,0.60831,0.04199,0.00251,0.79259,-0.0991,0.0181,-9.7692,-0.6142,-0.1413,0.1466,0.1184,3,13,0.82,0.89,0.3,24.719,17.68,93.2,33.8,20496.0,7524,7554,7349,7660,53.2,50.9,50.3,51.9,2.534,2.717,2.79,2.673,2.94,264.3,26.3,51.4,1014.0,-24.14,0.36,1.62,20.8,40.8,28.1,0,no_anomaly,0.0,0,0,0,0,13.0826896,80.2707505,5.0,0.0
2024-04-03T09:58:06.100Z,MISSION_0023,61,0,takeoff,SITE_CHE_004,13.0826918,80.2707529,5.0,106.56,0.543,0.195,5.96,-4.9077,0.2892,106.5586,0.59728,-0.02762,-0.03281,0.80089,-0.1393,0.0496,-9.7496,0.7852,0.1863,-0.2241,0.1842,3,11,0.71,0.96,0.28,24.551,18.68,93.1,34.8,20485.0,7473,7395,7250,7442,51.6,54.6,48.4,52.5,2.775,2.838,2.952,2.663,4.05,260.8,26.2,50.4,1013.67,-25.19,1.91,1.43,24.6,37.2,29.9,0,no_anomaly,0.0,0,0,0,0,13.0826918,80.2707529,5.0,0.0
2024-04-03T09:58:06.200Z,MISSION_0023,62,0,takeoff,SITE_CHE_004,13.0826952,80.270753,5.0,107.39,0.414,0.035,5.92,-0.5978,-0.0562,107.392,0.59206,-0.00269,-0.00449,0.80587,-0.0272,-0.0292,-9.725,0.723,-0.0106,0.1802,0.1795,3,11,0.69,1.04,0.21,24.583,14.93,93.1,33.7,20474.0,7483,7382,7588,7579,49.5,50.8,52.5,51.1,2.794,2.411,2.621,2.857,3.3,259.9,26.7,51.1,1014.43,-28.8,-0.56,1.56,23.5,40.7,29.1,0,no_anomaly,0.0,0,0,0,0,13.0826952,80.270753,5.0,0.0
2024-04-03T09:58:06.300Z,MISSION_0023,63,0,takeoff,SITE_CHE_004,13.0826945,80.2707493,5.0,106.41,0.348,0.149,5.52,0.5158,-2.2535,106.4061,0.59879,0.01844,-0.00817,0.80065,0.1416,0.0376,-9.7755,0.0455,0.4037,-0.0133,0.1214,3,12,0.64,0.64,0.41,24.647,18.44,93.0,33.7,20463.0,7664,7621,7017,7489,50.0,52.5,53.9,54.1,2.871,2.779,3.103,2.734,3.97,259.6,26.1,52.0,1013.87,-33.0,1.53,1.98,18.9,41.6,29.9,0,no_anomaly,0.0,0,0,0,0,13.0826945,80.2707493,5.0,0.0
2024-04-03T09:58:06.400Z,MISSION_0023,64,0,takeoff,SITE_CHE_004,13.082697,80.2707527,5.0,105.48,0.442,0.137,5.88,-0.1406,-2.3655,105.4794,0.60533,0.01569,-0.01347,0.79571,-0.089,-0.0402,-9.7962,0.1121,-1.3203,-0.0557,0.1613,3,18,0.82,0.93,0.2,24.659,17.5,93.0,34.4,20452.0,7475,7672,7679,7574,54.0,52.0,51.3,51.0,2.526,2.755,2.665,3.031,4.38,255.8,25.8,52.0,1013.58,-26.74,-0.38,1.0,22.9,41.4,32.1,0,no_anomaly,0.0,0,0,0,0,13.082697,80.2707527,5.0,0.0
2024-04-03T09:58:06.500Z,MISSION_0023,65,0,takeoff,SITE_CHE_004,13.0827024,80.270751,5.0,103.78,0.696,0.071,5.68,-2.0262,-3.4757,103.7755,0.61725,0.01295,-0.03262,0.78599,-0.0895,-0.08,-9.8363,0.4249,-0.4364,0.0613,0.0719,3,10,0.51,0.92,0.2,24.599,19.34,92.9,35.9,20441.0,7472,7565,7420,7413,50.2,53.4,54.1,51.6,2.995,2.926,2.708,2.636,4.09,258.2,26.2,51.8,1013.8,-33.5,-1.94,1.76,21.0,39.4,29.9,0,no_anomaly,0.0,0,0,0,0,13.0827024,80.270751,5.0,0.0
2024-04-03T09:58:06.600Z,MISSION_0023,66,0,takeoff,SITE_CHE_004,13.0827058,80.2707494,5.0,104.95,1.267,0.1,5.53,-0.2227,-4.1082,104.9459,0.6088,0.02724,-0.02337,0.79251,0.0557,0.0111,-9.8495,-0.2913,0.9882,0.2592,0.1519,3,12,0.6,0.84,0.2,24.628,19.6,92.9,34.3,20430.0,7349,7534,7717,7233,49.7,53.8,49.8,53.7,2.882,2.992,3.024,2.816,4.22,257.5,26.2,51.3,1013.79,-33.42,1.12,1.71,20.0,31.1,27.5,0,no_anomaly,0.0,0,0,0,0,13.0827058,80.2707494,5.0,0.0
2024-04-03T09:58:06.700Z,MISSION_0023,67,0,takeoff,SITE_CHE_004,13.082707,80.2707496,5.0,107.88,1.44,0.117,5.57,1.4563,-2.2408,107.8839,0.58824,0.02328,-0.00124,0.80835,-0.1323,0.0489,-9.7216,-0.5318,-0.466,0.2091,0.2185,3,17,0.67,0.94,0.34,24.651,12.82,92.8,35.1,20419.0,7282,7440,7647,7598,50.6,50.8,53.4,50.0,2.865,2.818,2.864,2.772,3.22,253.3,26.4,51.4,1013.45,-29.34,-0.36,1.32,21.7,32.7,25.3,0,no_anomaly,0.0,0,0,0,0,13.082707,80.2707496,5.0,0.0
2024-04-03T09:58:06.800Z,MISSION_0023,68,0,takeoff,SITE_CHE_004,13.0827086,80.2707502,5.0,105.66,1.228,0.053,5.67,-3.361,-2.61,105.6574,0.60432,0.00043,-0.03712,0.79588,-0.0364,-0.029,-9.7837,0.0927,0.5347,-0.2783,0.1919,3,17,0.62,1.08,0.2,24.612,19.5,92.8,33.9,20408.0,7578,7433,7350,7600,50.9,49.5,50.5,50.6,2.675,2.9,2.554,2.947,2.91,260.1,25.8,51.3,1013.75,-32.46,0.23,1.11,23.3,32.1,29.6,0,no_anomaly,0.0,0,0,0,0,13.0827086,80.2707502,5.0,0.0
2024-04-03T09:58:06.900Z,MISSION_0023,69,0,takeoff,SITE_CHE_004,13.0827068,80.2707482,5.0,106.03,1.799,0.094,5.42,-1.699,-2.4819,106.0349,0.60162,0.00838,-0.02487,0.79835,0.0412,-0.0934,-9.8722,-0.4186,-0.5632,0.1835,0.0962,3,12,0.67,1.19,0.33,24.685,22.65,92.7,34.6,20397.0,7452,7656,7560,7668,50.0,47.5,47.6,52.8,2.962,2.751,2.766,2.84,3.28,265.5,26.0,51.0,1014.12,-29.96,-1.24,1.7,20.5,34.3,29.2,0,no_anomaly,0.0,0,0,0,0,13.0827068,80.2707482,5.0,0.0
2024-04-03T09:58:07.000Z,MISSION_0023,70,0,takeoff,SITE_CHE_004,13.0827095,80.2707466,5.0,105.38,1.391,0.156,5.3,2.0199,-4.335,105.3789,0.60508,0.04075,-0.00891,0.79507,0.034,-0.0473,-9.7632,0.6851,0.8243,0.2773,0.1746,3,17,0.73,0.7,0.33,24.659,21.38,92.7,33.7,20386.0,7662,7303,7233,7375,54.4,50.7,51.2,55.2,2.533,2.665,2.866,2.745,3.18,263.1,26.1,51.7,1013.98,-28.87,1.03,1.89,18.9,38.2,27.4,0,no_anomaly,0.0,0,0,0,0,13.0827095,80.2707466,5.0,0.0
2024-04-03T09:58:07.100Z,MISSION_0023,71,0,takeoff,SITE_CHE_004,13.0827041,80.2707439,5.0,105.74,1.444,0.117,4.91,4.4673,-4.5813,105.7414,0.60143,0.05535,0.00694,0.79697,0.0027,-0.0076,-9.8501,1.0615,-0.2566,-0.0345,0.1589,3,18,0.62,0.67,0.36,24.612,14.84,92.6,34.3,20375.0,7404,7864,7432,7613,48.2,49.0,50.7,53.6,2.708,2.854,2.992,2.71,3.59,249.3,26.4,50.7,1013.34,-25.99,0.06,1.48,21.4,34.0,25.8,0,no_anomaly,0.0,0,0,0,0,13.0827041,80.2707439,5.0,0.0
2024-04-03T09:58:07.200Z,MISSION_0023,72,0,takeoff,SITE_CHE_004,13.0827013,80.2707442,5.0,105.98,1.627,0.076,4.92,0.202,-1.8209,105.9818,0.60184,0.01375,-0.00816,0.79845,0.015,-0.0183,-9.8129,0.3796,-0.2193,-0.2021,0.3346,3,17,0.53,1.03,0.2,24.688,15.4,92.6,34.5,20364.0,7504,7624,7454,7497,49.6,53.9,50.3,51.7,2.802,2.582,2.704,2.669,3.49,266.8,26.2,51.5,1013.91,-31.53,1.47,1.25,20.7,35.9,29.2,0,no_anomaly,0.0,0,0,0,0,13.0827013,80.2707442,5.0,0.0
2024-04-03T09:58:07.300Z,MISSION_0023,73,0,takeoff,SITE_CHE_004,13.0827048,80.2707491,5.0,107.02,1.371,0.076,5.5,-1.363,-2.1815,107.0164,0.59474,0.00823,-0.02088,0.8036,0.0606,-0.0517,-9.8174,-1.302,-0.7133,-0.4724,0.1725,3,11,0.56,1.04,0.23,24.672,17.3,92.5,34.7,20353.0,7440,7417,7342,7572,53.4,46.5,51.5,56.1,2.902,2.801,2.51,2.756,3.58,261.2,26.2,50.9,1013.67,-26.17,0.74,1.48,19.1,38.9,30.4,0,no_anomaly,0.0,0,0,0,0,13.0827048,80.2707491,5.0,0.0
2024-04-03T09:58:07.400Z,MISSION_0023,74,0,transit,SITE_CHE_004,13.0827014,80.2707472,5.5,108.92,1.079,0.128,5.25,1.6013,-1.6674,108.9246,0.58095,0.01996,0.00291,0.81369,0.1017,0.0232,-9.8919,0.1699,-0.1265,-0.164,0.1747,3,18,0.57,0.96,0.2,24.641,18.23,92.5,35.0,20342.0,7368,7610,7510,7579,56.9,52.2,53.0,54.3,2.776,2.865,2.876,2.958,3.3,259.0,25.9,51.3,1014.03,-33.03,0.71,1.2,21.7,31.2,27.0,0,no_anomaly,0.0,0,0,0,0,13.0827014,80.2707472,5.5,0.0
2024-04-03T09:58:07.500Z,MISSION_0023,75,0,transit,SITE_CHE_004,13.0827039,80.2707464,6.0,109.4,0.856,0.145,5.19,-5.3033,-1.9272,109.3976,0.57781,-0.01302,-0.04746,0.81469,-0.0496,0.0451,-9.8925,0.4973,-0.8074,-0.0114,0.1514,3,18,0.7,0.81,0.27,24.609,15.35,92.4,33.7,20331.0,7483,7267,7489,7377,48.4,51.0,49.7,53.6,2.794,2.969,2.63,3.024,3.3,262.6,26.3,51.8,1013.72,-32.15,1.01,1.27,19.8,35.1,26.1,0,no_anomaly,0.0,0,0,0,0,13.0827039,80.2707464,6.0,0.0
2024-04-03T09:58:07.600Z,MISSION_0023,76,0,transit,SITE_CHE_004,13.0827056,80.2707476,6.5,108.88,1.069,0.049,5.33,1.4262,-1.3911,108.8832,0.58132,0.01711,0.00306,0.81349,-0.0972,-0.0412,-9.8955,0.9837,0.2282,-0.3131,0.0581,3,18,0.65,0.82,0.2,24.675,20.96,92.4,35.1,20320.0,7316,7438,7736,7628,51.3,52.1,50.7,53.0,3.009,2.636,2.946,2.777,3.2,262.1,26.1,51.5,1013.9,-29.33,1.11,2.0,21.6,33.6,30.2,0,no_anomaly,0.0,0,0,0,0,13.0827056,80.2707476,6.5,0.0
2024-04-03T09:58:07.700Z,MISSION_0023,77,0,transit,SITE_CHE_004,13.0827001,80.2707481,7.0,109.07,0.748,0.122,5.35,-0.9342,-6.1927,109.0691,0.5797,0.03927,-0.03797,0.81299,0.1562,0.039,-9.8796,-0.6477,0.7824,-0.0094,0.1214,3,15,0.68,0.83,0.26,24.584,25.04,92.3,34.2,20309.0,7370,7244,7527,7301,52.6,52.5,52.4,53.1,2.584,2.541,2.618,2.697,3.61,266.4,26.3,52.4,1013.55,-26.03,-1.37,1.36,23.9,36.5,26.7,0,no_anomaly,0.0,0,0,0,0,13.0827001,80.2707481,7.0,0.0
2024-04-03T09:58:07.800Z,MISSION_0023,78,0,transit,SITE_CHE_004,13.0826978,80.2707474,7.5,110.53,0.909,0.081,5.29,2.7622,-2.5196,110.5297,0.56905,0.03179,0.00728,0.82166,0.059,0.0554,-9.8613,0.3967,0.2546,-0.3166,0.101,3,20,0.73,0.73,0.2,24.543,23.21,92.3,33.6,20298.0,7462,7552,7482,7359,53.0,50.9,49.2,48.4,2.818,2.908,2.928,2.775,3.26,255.3,26.3,51.7,1013.9,-33.15,0.99,1.88,23.5,32.4,28.0,0,no_anomaly,0.0,0,0,0,0,13.0826978,80.2707474,7.5,0.0
2024-04-03T09:58:07.900Z,MISSION_0023,79,0,transit,SITE_CHE_004,13.0826978,80.2707463,8.0,109.23,1.205,0.092,5.16,1.4144,-0.0968,109.2299,0.57902,0.00784,0.00957,0.81522,0.1635,0.0425,-9.801,0.4131,-0.7206,0.3181,0.1915,3,18,0.54,1.05,0.2,24.531,16.5,92.2,33.9,20287.0,7632,7420,7166,7650,49.6,54.1,53.2,48.6,3.004,2.613,2.526,2.705,3.33,264.8,26.0,50.5,1013.49,-33.42,0.73,1.07,22.2,31.1,28.9,0,no_anomaly,0.0,0,0,0,0,13.0826978,80.2707463,8.0,0.0
2024-04-03T09:58:08.000Z,MISSION_0023,80,0,transit,SITE_CHE_004,13.0827029,80.2707484,8.5,110.72,1.112,0.104,5.4,0.4986,-1.0244,110.7207,0.56835,0.00983,-0.0015,0.82272,-0.0039,0.0506,-9.759,-0.0714,-0.0716,0.0627,0.2199,3,20,0.79,0.84,0.25,24.569,19.23,92.2,35.0,20276.0,7629,7234,7476,7619,52.3,56.7,51.7,54.0,2.883,3.006,2.808,2.781,3.18,265.1,26.1,51.1,1013.76,-34.79,-1.82,1.37,23.0,35.2,25.8,0,no_anomaly,0.0,0,0,0,0,13.0827029,80.2707484,8.5,0.0
2024-04-03T09:58:08.100Z,MISSION_0023,81,0,transit,SITE_CHE_004,13.0827053,80.2707441,9.0,109.63,1.502,0.098,4.94,-4.1113,-0.6198,109.6265,0.57602,-0.01625,-0.03243,0.81663,0.1153,0.0829,-9.8306,-0.0517,-0.1804,0.2641,0.1483,3,13,0.73,0.77,0.32,24.559,22.56,92.1,35.2,20265.0,7672,7590,7422,7370,54.2,50.7,49.0,48.7,2.664,2.508,2.896,2.871,3.97,258.8,26.4,50.8,1013.87,-22.82,0.33,1.75,23.3,33.7,27.3,0,no_anomaly,0.0,0,0,0,0,13.0827053,80.2707441,9.0,0.0
2024-04-03T09:58:08.200Z,MISSION_0023,82,0,transit,SITE_CHE_004,13.0827112,80.2707426,9.5,106.97,1.522,0.142,4.9,3.156,-1.4003,106.9677,0.59451,0.0262,0.01486,0.80352,-0.0861,-0.0211,-9.8187,-0.5737,-0.1176,0.2553,0.257,3,15,0.94,0.89,0.35,24.602,21.38,92.1,34.1,20254.0,7458,7731,7491,7308,52.9,50.8,50.5,50.2,3.187,2.902,2.73,2.945,3.67,257.2,25.9,51.1,1013.97,-25.8,0.34,1.67,21.8,39.0,26.2,0,no_anomaly,0.0,0,0,0,0,13.0827112,80.2707426,9.5,0.0
2024-04-03T09:58:08.300Z,MISSION_0023,83,0,transit,SITE_CHE_004,13.0827143,80.2707411,10.0,108.04,1.714,-0.034,4.85,5.8985,-1.8521,108.0407,0.58597,0.04328,0.03215,0.80854,-0.0033,-0.0281,-9.8634,-0.2834,-0.4937,-0.4369,0.1524,3,20,0.57,0.78,0.25,24.63,18.57,92.0,34.1,20243.0,7424,7614,7564,7485,56.5,51.5,45.9,54.3,2.825,2.874,2.676,3.343,4.22,254.7,26.2,50.7,1013.79,-33.69,-0.74,1.0,19.5,34.2,29.5,0,no_anomaly,0.0,0,0,0,0,13.0827143,80.2707411,10.0,0.0
2024-04-03T09:58:08.400Z,MISSION_0023,84,0,transit,SITE_CHE_004,13.082717,80.2707386,10.5,109.14,2.24,0.102,4.7,0.8934,-2.5774,109.1414,0.57939,0.02284,-0.00669,0.8147,-0.0059,-0.0184,-9.7702,0.242,0.2446,-0.1295,0.1194,3,17,0.6,0.74,0.3,24.581,21.85,92.0,34.1,20232.0,7810,7447,7181,7649,50.0,49.7,52.5,51.4,2.804,2.776,2.791,2.84,3.78,257.6,26.4,50.8,1013.47,-32.74,-0.5,1.34,21.8,37.4,25.7,0,no_anomaly,0.0,0,0,0,0,13.082717,80.2707386,10.5,0.0
2024-04-03T09:58:08.500Z,MISSION_0023,85,0,transit,SITE_CHE_004,13.0827192,80.2707408,11.0,108.58,2.358,0.053,5.02,-2.296,0.2041,108.5786,0.58355,-0.01314,-0.01523,0.81183,-0.0366,0.0144,-9.7934,-0.2901,0.094,-0.2377,0.1505,3,11,0.7,1.1,0.31,24.562,20.34,91.9,34.9,20221.0,7622,7600,7769,7451,52.6,50.4,52.1,49.7,2.595,3.173,2.757,2.756,4.38,268.6,25.9,51.7,1013.76,-26.52,0.13,1.8,19.3,36.7,29.5,0,no_anomaly,0.0,0,0,0,0,13.0827192,80.2707408,11.0,0.0
2024-04-03T09:58:08.600Z,MISSION_0023,86,0,transit,SITE_CHE_004,13.0827179,80.2707426,11.5,109.0,2.364,0.153,5.15,3.4171,-4.0736,108.9977,0.57923,0.04623,0.00363,0.81384,0.2027,0.0397,-9.9074,-0.7409,-0.3008,0.0784,0.1334,3,12,0.7,1.03,0.26,24.661,20.63,91.9,34.9,20210.0,7739,7302,7681,7521,52.1,47.9,48.4,50.3,2.902,2.834,2.78,2.71,2.96,261.4,26.1,51.1,1013.69,-26.38,-0.66,1.37,17.5,33.2,29.2,0,no_anomaly,0.0,0,0,0,0,13.0827179,80.2707426,11.5,0.0
2024-04-03T09:58:08.700Z,MISSION_0023,87,0,transit,SITE_CHE_004,13.0827132,80.2707462,12.0,109.27,2.541,0.153,5.35,-0.0942,-2.4298,109.2663,0.57869,0.01681,-0.01294,0.81527,0.2322,-0.0387,-9.7645,0.6833,0.1601,0.0346,0.1401,3,20,0.57,1.05,0.22,24.496,17.35,91.8,33.8,20199.0,7119,7456,7612,7456,55.9,51.6,48.8,47.9,2.656,2.772,2.63,2.622,3.9,257.5,26.0,50.9,1013.98,-34.75,-2.77,1.62,22.5,34.0,29.9,0,no_anomaly,0.0,0,0,0,0,13.0827132,80.2707462,12.0,0.0
2024-04-03T09:58:08.800Z,MISSION_0023,88,0,transit,SITE_CHE_004,13.0827099,80.270744,12.5,108.82,2.241,0.162,5.02,-1.5365,-5.0644,108.8162,0.58187,0.02813,-0.0366,0.81197,0.1237,0.071,-9.8326,-0.3223,0.0653,-0.1006,0.1897,3,20,0.64,0.78,0.26,24.587,18.13,91.8,34.5,20188.0,7387,7686,7365,7637,50.5,53.7,51.2,55.8,2.692,2.719,2.542,2.724,3.73,261.9,26.1,51.9,1014.09,-27.42,-3.02,1.53,24.1,38.1,27.5,0,no_anomaly,0.0,0,0,0,0,13.0827099,80.270744,12.5,0.0
2024-04-03T09:58:08.900Z,MISSION_0023,89,0,transit,SITE_CHE_004,13.0827081,80.2707455,13.0,107.98,2.135,0.148,5.15,-0.8723,-3.3017,107.9785,0.58785,0.01883,-0.02309,0.80842,0.0512,0.0781,-9.8807,-1.1177,0.6249,0.252,0.148,3,13,0.63,1.06,0.28,24.535,18.67,91.7,34.0,20177.0,7698,7611,7635,7382,51.0,51.5,48.3,51.0,2.918,2.788,2.735,2.547,3.9,256.7,26.3,52.5,1013.99,-30.63,-0.5,2.16,19.0,34.0,29.1,0,no_anomaly,0.0,0,0,0,0,13.0827081,80.2707455,13.0,0.0
2024-04-03T09:58:09.000Z,MISSION_0023,90,0,transit,SITE_CHE_004,13.0827078,80.2707432,13.5,109.71,1.989,0.07,4.89,3.0625,-1.6675,109.709,0.57507,0.02728,0.01347,0.81754,-0.1385,0.0207,-9.8079,0.4366,0.8971,0.1177,0.0327,3,12,0.67,1.09,0.21,24.625,23.53,91.7,33.8,20166.0,7577,7131,7601,7740,51.5,51.7,52.6,50.7,3.045,2.563,2.747,2.752,3.5,255.6,26.3,51.8,1013.93,-33.23,1.89,1.46,24.8,32.9,28.8,0,no_anomaly,0.0,0,0,0,0,13.0827078,80.2707432,13.5,0.0
2024-04-03T09:58:09.100Z,MISSION_0023,91,0,transit,SITE_CHE_004,13.0827127,80.2707484,14.0,108.93,1.561,0.114,5.58,3.5928,-5.1101,108.9307,0.57919,0.05446,-0.00041,0.81337,0.0087,0.0369,-9.8439,-1.2046,1.3388,-0.1552,0.1685,3,10,0.65,0.81,0.23,24.572,15.41,91.6,35.1,20155.0,7650,7609,7590,7518,49.5,51.4,53.9,53.8,2.745,2.896,2.984,3.049,2.68,260.5,25.9,50.1,1014.02,-33.02,0.34,1.68,20.2,39.1,28.5,0,no_anomaly,0.0,0,0,0,0,13.0827127,80.2707484,14.0,0.0
2024-04-03T09:58:09.200Z,MISSION_0023,92,0,transit,SITE_CHE_004,13.0827128,80.2707476,14.5,109.27,1.676,0.015,5.49,1.4881,0.1153,109.2699,0.57875,0.0067,0.01117,0.8154,-0.1527,-0.0347,-9.8075,-0.172,0.2805,-0.141,0.1554,3,20,0.69,0.9,0.25,24.575,16.77,91.6,33.9,20144.0,7385,7556,7684,7618,53.8,50.1,55.1,52.3,2.903,2.749,2.618,2.739,3.19,257.0,26.0,50.8,1013.75,-29.73,-1.0,1.39,18.3,32.6,27.7,0,no_anomaly,0.0,0,0,0,0,13.0827128,80.2707476,14.5,0.0
2024-04-03T09:58:09.300Z,MISSION_0023,93,0,transit,SITE_CHE_004,13.0827118,80.2707424,15.0,109.14,1.897,0.122,4.9,-1.2765,-0.2819,109.1361,0.57972,-0.00445,-0.0105,0.81474,0.0934,0.0652,-9.831,0.7217,0.267,-0.2674,0.1746,3,20,0.79,1.11,0.22,24.531,19.29,91.5,33.4,20133.0,7583,7388,7479,7404,51.4,47.7,49.6,52.3,2.789,2.756,2.813,2.474,3.8,266.5,26.2,51.6,1013.72,-31.01,-0.23,1.67,19.4,36.8,30.0,0,no_anomaly,0.0,0,0,0,0,13.0827118,80.2707424,15.0,0.0
2024-04-03T09:58:09.400Z,MISSION_0023,94,0,transit,SITE_CHE_004,13.0827162,80.270746,15.2,108.29,1.76,0.096,5.43,1.3766,-2.7842,108.2926,0.58527,0.02672,-0.00449,0.81039,0.1797,-0.0949,-9.7209,0.7615,-1.1175,-0.0401,0.245,3,19,0.73,1.19,0.33,24.6,20.4,91.5,34.4,20122.0,7712,7619,7421,7629,53.5,50.8,51.3,49.4,2.83,2.911,2.85,2.701,3.67,257.4,26.3,51.6,1013.53,-23.81,2.02,1.75,22.4,35.7,26.4,0,no_anomaly,0.0,0,0,0,0,13.0827162,80.270746,15.2,0.0
2024-04-03T09:58:09.500Z,MISSION_0023,95,0,transit,SITE_CHE_004,13.0827117,80.2707484,15.2,109.62,1.825,0.039,5.54,5.9203,-1.8289,109.622,0.57476,0.04278,0.03301,0.81654,-0.0888,0.0524,-9.8194,-0.4286,0.2392,-0.2423,0.2891,3,11,0.57,0.99,0.3,24.54,16.3,91.4,34.4,20111.0,7505,7311,7388,7538,52.9,53.8,48.5,47.9,2.931,2.702,2.83,2.822,3.17,261.5,26.4,51.1,1013.69,-28.71,-0.34,1.26,19.4,35.9,30.0,0,no_anomaly,0.0,0,0,0,0,13.0827117,80.2707484,15.2,0.0
2024-04-03T09:58:09.600Z,MISSION_0023,96,0,transit,SITE_CHE_004,13.0827141,80.2707439,15.2,107.94,2.212,0.105,5.13,3.9189,-1.8201,107.9417,0.58734,0.03295,0.01831,0.80846,-0.1237,-0.0077,-9.8147,0.6126,0.3444,-0.4517,0.1869,3,12,0.82,0.86,0.42,24.548,15.19,91.4,35.2,20100.0,7685,7704,7995,7632,52.3,54.6,49.5,51.7,2.981,2.917,2.921,2.915,3.78,252.1,26.2,51.2,1013.68,-32.55,-0.27,1.2,23.2,40.4,30.7,0,no_anomaly,0.0,0,0,0,0,13.0827141,80.2707439,15.2,0.0
2024-04-03T09:58:09.700Z,MISSION_0023,97,0,transit,SITE_CHE_004,13.0827197,80.2707466,15.2,106.82,2.409,0.092,5.63,-0.9495,-2.2219,106.8211,0.59607,0.01063,-0.01821,0.80265,-0.1528,0.0068,-9.7647,0.1451,0.3555,-0.2389,0.2708,3,14,0.72,0.69,0.2,24.575,23.7,91.3,34.7,20089.0,7261,7331,7317,7497,53.6,51.2,51.8,53.3,2.737,2.952,2.622,2.837,2.89,257.9,25.7,50.8,1013.76,-32.29,0.48,1.25,21.9,37.4,28.0,0,no_anomaly,0.0,0,0,0,0,13.0827197,80.2707466,15.2,0.0
2024-04-03T09:58:09.800Z,MISSION_0023,98,0,transit,SITE_CHE_004,13.0827175,80.2707471,15.2,106.02,2.051,0.088,5.59,-1.0926,-3.1152,106.0191,0.60164,0.01598,-0.02397,0.79825,-0.1121,-0.0156,-9.7784,0.0572,-0.6064,-0.4205,0.156,3,16,0.93,1.17,0.33,24.483,23.38,91.3,34.1,20078.0,7689,7707,7466,7356,52.3,49.0,49.9,52.5,3.131,2.803,3.132,2.934,2.98,261.1,26.1,51.2,1013.7,-32.76,1.21,1.41,20.3,32.2,27.5,0,no_anomaly,0.0,0,0,0,0,13.0827175,80.2707471,15.2,0.0
2024-04-03T09:58:09.900Z,MISSION_0023,99,0,transit,SITE_CHE_004,13.0827206,80.270746,15.2,106.45,1.77,0.166,5.61,5.358,-3.0954,106.4546,0.59676,0.04958,0.02127,0.8006,-0.07,-0.049,-9.8025,-0.5622,0.0799,0.0791,0.2651,3,17,0.71,1.01,0.2,24.552,20.85,91.2,35.0,20067.0,7466,7340,7551,7516,49.4,54.4,48.5,52.6,2.652,2.635,2.914,2.791,3.66,259.7,26.1,50.7,1013.54,-30.03,0.14,1.61,21.9,35.4,30.7,0,no_anomaly,0.0,0,0,0,0,13.0827206,80.270746,15.2,0.0
2024-04-03T09:58:10.000Z,MISSION_0023,100,0,transit,SITE_CHE_004,13.0827197,80.2707441,15.2,108.9,1.694,0.145,5.38,3.2507,-0.7182,108.9009,0.58102,0.02159,0.01943,0.81337,-0.1177,0.0271,-9.8337,0.0219,-0.4049,0.1031,0.1514,3,14,0.62,0.94,0.25,24.645,19.71,91.2,33.9,20056.0,7381,7333,7470,7531,51.7,52.3,48.9,53.4,2.988,2.733,2.702,2.469,3.58,259.3,26.3,52.2,1013.68,-33.2,0.85,1.62,21.6,32.2,28.1,0,no_anomaly,0.0,0,0,0,0,13.0827197,80.2707441,15.2,0.0
2024-04-03T09:58:10.100Z,MISSION_0023,101,0,transit,SITE_CHE_004,13.082718,80.2707454,15.2,105.34,2.092,0.17,5.44,2.4106,-0.3721,105.3406,0.60621,0.01534,0.01476,0.79502,0.1057,-0.015,-9.7465,-0.7056,-0.5532,0.4013,0.1838,3,12,0.75,1.0,0.34,24.556,22.25,91.1,34.3,20045.0,7620,7676,7563,7529,51.3,55.5,50.1,48.5,3.012,2.79,2.675,2.788,3.47,258.8,25.9,50.5,1013.98,-29.53,0.88,1.54,20.1,29.4,25.3,0,no_anomaly,0.0,0,0,0,0,13.082718,80.2707454,15.2,0.0
2024-04-03T09:58:10.200Z,MISSION_0023,102,0,transit,SITE_CHE_004,13.082719,80.2707462,15.2,102.43,2.36,0.13,5.56,-2.9947,-2.3195,102.4305,0.62647,-0.00059,-0.03304,0.77875,0.0874,-0.0031,-9.8043,0.3758,-0.7965,-0.4694,0.1519,3,20,0.69,0.94,0.27,24.602,19.02,91.1,34.6,20034.0,7423,7614,7346,7667,53.5,51.5,49.5,54.1,3.038,2.85,3.085,2.645,3.96,258.7,26.1,51.6,1014.02,-31.29,1.31,1.07,20.0,32.2,26.7,0,no_anomaly,0.0,0,0,0,0,13.082719,80.2707462,15.2,0.0
2024-04-03T09:58:10.300Z,MISSION_0023,103,0,transit,SITE_CHE_004,13.0827168,80.2707467,15.2,103.2,2.77,0.01,5.53,-1.615,1.2683,103.1956,0.62096,-0.01743,-0.00417,0.78364,0.1949,-0.0088,-9.8858,-0.5661,-1.0316,-0.2592,0.103,3,18,0.55,0.97,0.25,24.619,21.33,91.0,34.6,20023.0,7301,7296,7499,7540,51.6,51.7,48.1,50.8,2.642,2.901,2.968,2.922,2.81,267.7,25.9,51.0,1014.01,-35.69,0.04,1.55,20.8,38.2,28.5,0,no_anomaly,0.0,0,0,0,0,13.0827168,80.2707467,15.2,0.0
2024-04-03T09:58:10.400Z,MISSION_0023,104,0,transit,SITE_CHE_004,13.0827187,80.2707488,15.2,102.74,2.315,0.115,5.82,1.9043,-0.334,102.7402,0.62416,0.01265,0.01116,0.78111,-0.0117,-0.0298,-9.7983,-0.1603,-0.0763,-0.1544,0.258,3,14,0.76,0.97,0.32,24.536,18.71,91.0,34.7,20012.0,7563,7355,7359,7477,55.0,52.2,52.2,49.5,2.845,3.019,2.761,2.731,2.61,255.7,26.5,51.7,1013.88,-31.66,1.29,1.43,25.0,35.4,30.7,0,no_anomaly,0.0,0,0,0,0,13.0827187,80.2707488,15.2,0.0
2024-04-03T09:58:10.500Z,MISSION_0023,105,0,transit,SITE_CHE_004,13.0827191,80.270745,15.2,104.74,2.884,0.085,5.44,0.49,-3.5847,104.7414,0.61014,0.02738,-0.01571,0.79166,-0.1107,0.0327,-9.8487,-0.4757,0.1896,0.338,0.2127,3,16,0.73,1.0,0.3,24.531,16.43,90.9,34.4,20001.0,7382,7119,7426,7288,51.0,50.9,50.9,54.4,2.798,2.985,2.926,2.928,3.28,258.7,26.2,50.9,1013.69,-28.0,-0.13,2.16,24.4,38.4,30.7,0,no_anomaly,0.0,0,0,0,0,13.0827191,80.270745,15.2,0.0
2024-04-03T09:58:10.600Z,MISSION_0023,106,0,transit,SITE_CHE_004,13.0827299,80.2707471,15.2,103.91,3.089,0.088,6.21,-0.8634,0.2121,103.9141,0.61622,-0.0061,-0.00479,0.78753,-0.1276,0.028,-9.7884,0.4176,-0.3536,0.0624,0.1833,3,10,0.78,0.7,0.22,24.527,20.9,90.9,35.0,19990.0,7417,7500,7541,7660,51.9,49.6,50.1,52.0,2.68,2.714,3.051,2.776,3.74,259.0,25.9,51.9,1013.86,-30.18,1.33,1.3,19.9,36.9,25.2,0,no_anomaly,0.0,0,0,0,0,13.0827299,80.2707471,15.2,0.0
2024-04-03T09:58:10.700Z,MISSION_0023,107,0,transit,SITE_CHE_004,13.0827251,80.2707468,15.2,101.31,3.285,0.057,5.91,-1.9449,-2.8504,101.3135,0.634,0.00848,-0.02889,0.77274,0.2,0.0005,-9.7829,0.257,-0.702,0.297,0.1857,3,20,0.72,0.95,0.44,24.503,18.81,90.8,35.2,19979.0,7559,7373,7516,7223,49.7,50.5,50.4,53.7,2.78,2.934,2.675,2.839,4.64,266.6,26.4,51.1,1013.72,-29.78,0.19,1.99,18.6,33.5,30.4,0,no_anomaly,0.0,0,0,0,0,13.0827251,80.2707468,15.2,0.0
2024-04-03T09:58:10.800Z,MISSION_0023,108,0,transit,SITE_CHE_004,13.0827271,80.2707462,15.2,101.89,2.88,0.059,5.96,-4.7411,-2.6229,101.891,0.63009,-0.0083,-0.04652,0.77508,0.1091,0.0241,-9.7502,0.8839,-0.3551,-0.2384,0.1436,3,10,0.54,0.65,0.28,24.477,24.13,90.8,34.6,19968.0,7451,7647,7668,7489,52.7,49.4,49.7,53.1,2.969,2.812,2.899,2.761,3.32,254.3,26.2,52.0,1013.95,-27.64,0.07,1.86,22.2,36.4,31.3,0,no_anomaly,0.0,0,0,0,0,13.0827271,80.2707462,15.2,0.0
2024-04-03T09:58:10.900Z,MISSION_0023,109,0,transit,SITE_CHE_004,13.0827236,80.2707455,15.2,101.47,2.923,0.086,5.71,0.9048,-2.4156,101.4745,0.63259,0.02131,-0.00723,0.77416,0.0838,0.0261,-9.7418,1.0228,0.1168,-0.0907,0.106,3,13,0.7,0.91,0.32,24.608,22.99,90.7,35.3,19957.0,7357,7613,7497,7358,52.2,53.3,48.4,51.1,2.829,2.894,2.583,3.078,4.21,255.7,26.2,50.9,1014.06,-25.96,1.18,1.04,23.2,40.4,29.6,0,no_anomaly,0.0,0,0,0,0,13.0827236,80.2707455,15.2,0.0
2024-04-03T09:58:11.000Z,MISSION_0023,110,0,transit,SITE_CHE_004,13.082723,80.2707468,15.2,101.56,2.58,0.064,5.81,-1.8133,-3.114,101.5631,0.6323,0.01105,-0.02943,0.77409,0.0371,-0.0388,-9.8111,-0.4151,0.7807,0.0397,0.1924,3,14,0.65,0.88,0.2,24.467,12.21,90.7,34.3,19946.0,7703,7642,7451,7506,48.0,51.5,51.3,52.2,3.086,2.928,3.016,2.92,4.32,253.1,26.1,51.7,1013.86,-31.2,0.7,1.43,18.9,39.8,26.1,0,no_anomaly,0.0,0,0,0,0,13.082723,80.2707468,15.2,0.0
2024-04-03T09:58:11.100Z,MISSION_0023,111,0,transit,SITE_CHE_004,13.0827219,80.27075,15.2,101.48,3.262,0.04,6.08,1.9221,-0.1521,101.4843,0.6327,0.01164,0.01215,0.77421,0.1058,0.0202,-9.7802,-0.5066,0.2463,-0.0973,0.0953,3,13,0.72,0.92,0.32,24.537,21.63,90.6,34.4,19935.0,7640,7714,7389,7393,50.3,50.6,51.1,51.0,2.963,2.849,2.719,2.912,3.78,268.6,25.9,51.8,1013.59,-32.57,1.23,1.31,22.4,36.4,28.3,0,no_anomaly,0.0,0,0,0,0,13.0827219,80.27075,15.2,0.0
2024-04-03T09:58:11.200Z,MISSION_0023,112,0,transit,SITE_CHE_004,13.0827181,80.2707512,15.2,102.24,2.99,0.11,6.04,-3.0145,-2.685,102.2386,0.62779,0.00173,-0.03517,0.77758,0.0132,0.0233,-9.8505,0.2996,0.2024,0.1128,0.1745,3,12,0.61,0.91,0.24,24.649,18.58,90.6,34.3,19924.0,7411,7518,7391,7572,49.4,51.7,50.8,52.2,2.879,2.694,2.877,2.861,3.89,258.4,26.2,51.1,1013.74,-29.15,-0.72,2.17,23.0,37.6,29.8,0,no_anomaly,0.0,0,0,0,0,13.0827181,80.2707512,15.2,0.0
2024-04-03T09:58:11.300Z,MISSION_0023,113,0,transit,SITE_CHE_004,13.082712,80.2707548,15.2,105.62,3.553,0.073,6.24,-1.0685,-0.7111,105.6164,0.60449,-0.00069,-0.01118,0.79653,-0.0027,-0.0421,-9.8074,0.2681,0.4739,0.3082,0.1724,3,20,0.65,0.91,0.34,24.502,17.4,90.5,34.2,19913.0,7370,7517,7592,7745,48.2,52.2,52.5,50.6,2.931,2.8,2.795,2.949,3.61,262.4,26.2,51.7,1013.66,-31.27,-0.48,2.23,19.4,36.8,27.9,0,no_anomaly,0.0,0,0,0,0,13.082712,80.2707548,15.2,0.0
2024-04-03T09:58:11.400Z,MISSION_0023,114,0,transit,SITE_CHE_004,13.0827086,80.270756,15.2,104.98,4.297,0.177,6.3,-0.6937,-0.1511,104.9778,0.60891,-0.00264,-0.0056,0.79322,0.1769,-0.0323,-9.7821,0.3105,0.0954,-0.0067,0.1493,3,18,0.93,1.12,0.32,24.544,20.04,90.5,34.5,19902.0,7676,7581,7338,7390,48.2,47.7,54.4,53.5,2.509,2.64,2.666,2.779,3.85,252.4,26.0,50.6,1013.53,-29.66,2.01,1.05,19.0,39.5,27.7,0,no_anomaly,0.0,0,0,0,0,13.0827086,80.270756,15.2,0.0
2024-04-03T09:58:11.500Z,MISSION_0023,115,0,transit,SITE_CHE_004,13.0827088,80.2707511,15.2,105.6,4.446,0.05,5.77,-1.444,-0.1072,105.5966,0.60458,-0.00687,-0.0106,0.79644,0.241,0.0299,-9.8914,0.0186,-0.3491,0.687,0.1584,3,17,0.66,0.92,0.24,24.523,22.82,90.4,35.0,19891.0,7454,7422,7447,7622,56.0,49.5,50.9,56.6,2.88,2.834,2.843,2.91,3.24,266.8,26.1,51.0,1013.8,-28.9,-1.31,1.76,21.6,33.3,30.6,0,no_anomaly,0.0,0,0,0,0,13.0827088,80.2707511,15.2,0.0
2024-04-03T09:58:11.600Z,MISSION_0023,116,0,transit,SITE_CHE_004,13.082708,80.270751,15.2,105.46,4.294,0.133,5.74,-0.1225,-3.7567,105.4567,0.6053,0.02544,-0.0207,0.79532,0.0563,0.0121,-9.838,0.3489,0.3929,0.0336,0.1325,3,11,0.67,0.77,0.35,24.561,17.94,90.4,34.3,19880.0,7484,7671,7588,7649,48.8,53.4,51.5,52.3,2.874,2.7,2.744,2.808,3.35,259.6,26.8,51.4,1013.7,-32.99,0.23,1.0,18.0,36.9,24.6,0,no_anomaly,0.0,0,0,0,0,13.082708,80.270751,15.2,0.0
2024-04-03T09:58:11.700Z,MISSION_0023,117,0,transit,SITE_CHE_004,13.0827042,80.2707534,15.2,104.03,4.455,-0.045,5.97,-3.2,0.1332,104.0337,0.61516,-0.0181,-0.02129,0.7879,-0.2477,-0.0335,-9.7583,-0.6834,0.104,-0.2198,0.1576,3,14,0.7,0.97,0.45,24.557,20.59,90.3,33.7,19869.0,7445,7280,7367,7640,50.2,51.1,53.5,51.3,2.815,2.879,2.766,2.805,3.57,264.3,26.1,51.9,1013.69,-31.94,-1.16,1.65,23.2,32.5,30.1,0,no_anomaly,0.0,0,0,0,0,13.0827042,80.2707534,15.2,0.0
2024-04-03T09:58:11.800Z,MISSION_0023,118,0,transit,SITE_CHE_004,13.0827049,80.2707527,15.2,101.75,4.475,0.055,5.89,-1.6399,-0.0814,101.752,0.63094,-0.00848,-0.01155,0.7757,-0.1532,-0.0065,-9.6644,-1.0184,-0.2142,0.3841,0.1821,3,20,0.81,0.93,0.4,24.519,18.26,90.3,34.6,19858.0,7258,7584,7532,7330,49.5,51.6,53.5,49.5,2.723,2.656,2.869,2.55,3.07,255.9,26.3,52.3,1013.5,-30.48,2.13,1.13,22.1,32.7,28.0,0,no_anomaly,0.0,0,0,0,0,13.0827049,80.2707527,15.2,0.0
2024-04-03T09:58:11.900Z,MISSION_0023,119,0,transit,SITE_CHE_004,13.0827047,80.2707511,15.2,102.21,4.15,0.165,5.71,-5.7132,-2.0964,102.2093,0.62772,-0.01707,-0.05025,0.77662,-0.0571,-0.0526,-9.8658,-0.0837,-0.4485,-0.2329,0.2051,3,12,0.5,1.03,0.28,24.511,17.0,90.2,34.5,19847.0,7682,7429,7522,7634,51.5,50.5,50.4,51.8,2.845,2.661,2.796,2.883,3.95,257.3,26.1,51.1,1013.71,-27.21,0.65,1.7,17.2,35.7,28.0,0,no_anomaly,0.0,0,0,0,0,13.0827047,80.2707511,15.2,0.0
2024-04-03T09:58:12.000Z,MISSION_0023,120,0,transit,SITE_CHE_004,13.0827039,80.2707531,15.2,102.51,4.253,0.102,5.93,-0.7124,-1.7701,102.5076,0.62586,0.00816,-0.01452,0.77976,-0.052,-0.0172,-9.8892,0.2667,-0.2458,-0.0094,0.2149,3,14,0.7,0.85,0.21,24.566,21.37,90.2,34.4,19836.0,7542,7507,7479,7488,52.5,52.9,54.2,53.1,2.606,2.872,2.825,2.876,3.66,261.3,25.9,51.2,1013.94,-30.81,-0.57,1.57,22.4,36.6,28.4,0,no_anomaly,0.0,0,0,0,0,13.0827039,80.2707531,15.2,0.0
2024-04-03T09:58:12.100Z,MISSION_0023,121,0,transit,SITE_CHE_004,13.0827053,80.2707547,15.2,101.35,4.458,0.152,6.12,-0.8001,-0.3641,101.3514,0.63371,-0.00197,-0.00741,0.77353,0.0095,0.0318,-9.7788,-0.2601,-0.4926,-0.3936,0.2634,3,15,0.71,0.96,0.28,24.515,19.24,90.1,34.0,19825.0,7567,7363,7435,7539,54.0,53.3,55.0,49.3,2.636,2.974,2.794,2.765,3.8,263.0,26.1,50.7,1013.44,-29.47,-1.12,1.56,21.8,41.7,32.6,0,no_anomaly,0.0,0,0,0,0,13.0827053,80.2707547,15.2,0.0
2024-04-03T09:58:12.200Z,MISSION_0023,122,0,transit,SITE_CHE_004,13.082706,80.2707564,15.2,101.15,4.453,0.029,6.31,0.7513,-1.0498,101.1509,0.63497,0.01124,-0.00075,0.77245,-0.0135,0.0307,-9.7307,0.9051,-0.6425,-0.263,0.0611,3,18,0.57,1.27,0.33,24.578,23.8,90.1,34.7,19814.0,7670,7326,7516,7568,51.5,52.6,51.6,52.3,2.672,2.859,2.689,2.792,4.03,263.9,26.3,50.8,1013.67,-28.35,-0.01,1.11,23.9,41.5,28.7,0,no_anomaly,0.0,0,0,0,0,13.082706,80.2707564,15.2,0.0
2024-04-03T09:58:12.300Z,MISSION_0023,123,0,transit,SITE_CHE_004,13.0827092,80.2707559,15.2,101.0,4.656,0.156,6.3,-4.4328,-3.2262,100.9989,0.6362,-0.00289,-0.04772,0.77004,-0.0624,0.0859,-9.811,0.8956,-0.796,-0.0943,0.1561,3,12,0.77,0.88,0.31,24.644,21.84,90.0,34.2,19803.0,7438,7435,7392,7411,50.3,50.7,45.6,52.5,2.756,2.498,2.772,2.678,3.28,262.9,26.2,51.5,1013.53,-37.43,-0.33,1.69,21.7,38.6,29.4,0,no_anomaly,0.0,0,0,0,0,13.0827092,80.2707559,15.2,0.0
2024-04-03T09:58:12.400Z,MISSION_0023,124,0,transit,SITE_CHE_004,13.0827077,80.2707544,15.2,102.26,4.954,0.09,6.12,2.7663,-0.24,102.2585,0.62734,0.01678,0.01748,0.77837,0.0171,0.0739,-9.7621,-0.0793,0.5326,0.257,0.23,3,11,0.71,0.98,0.42,24.568,22.68,90.0,35.1,19792.0,7444,7593,7316,7402,48.2,53.9,51.4,50.4,2.682,2.962,2.637,2.715,3.69,261.4,26.5,51.7,1013.83,-28.41,1.63,1.71,19.6,32.4,28.3,0,no_anomaly,0.0,0,0,0,0,13.0827077,80.2707544,15.2,0.0
2024-04-03T09:58:12.500Z,MISSION_0023,125,0,transit,SITE_CHE_004,13.0827106,80.2707504,15.2,101.52,4.735,0.087,5.74,4.3311,-0.9237,101.5174,0.63188,0.03014,0.02417,0.7741,-0.104,-0.0502,-9.8181,-0.0831,0.0199,-0.6098,0.1469,3,18,0.57,1.08,0.25,24.526,18.45,89.9,35.5,19781.0,7359,7595,7632,7606,52.8,52.9,52.9,51.8,2.541,2.968,2.834,2.731,4.19,259.8,26.2,51.1,1013.7,-28.04,0.09,1.74,18.5,31.6,29.7,0,no_anomaly,0.0,0,0,0,0,13.0827106,80.2707504,15.2,0.0
2024-04-03T09:58:12.600Z,MISSION_0023,126,0,transit,SITE_CHE_004,13.0827153,80.2707497,15.2,99.48,4.793,0.172,5.79,-3.2701,-5.51,99.4814,0.64628,0.01825,-0.0528,0.76105,-0.0184,0.0006,-9.7461,0.4402,-1.0575,0.4807,0.1216,3,12,0.94,0.88,0.48,24.467,22.08,89.9,35.2,19770.0,7482,7411,7443,7366,51.8,49.9,54.8,49.3,2.775,2.807,2.675,2.871,3.34,253.2,26.2,51.9,1014.03,-32.34,1.52,1.09,23.3,37.6,28.5,0,no_anomaly,0.0,0,0,0,0,13.0827153,80.2707497,15.2,0.0
2024-04-03T09:58:12.700Z,MISSION_0023,127,0,transit,SITE_CHE_004,13.0827227,80.2707479,15.2,98.91,4.599,0.11,5.9,3.8877,-0.7348,98.905,0.64953,0.02692,0.02161,0.75956,0.036,-0.0117,-9.7694,-0.2884,-1.8385,-0.5169,0.1669,3,19,0.64,0.96,0.21,24.548,17.18,89.8,34.3,19759.0,7508,7517,7624,7378,50.4,50.6,52.0,50.7,2.826,2.743,2.963,2.924,4.43,260.3,26.1,51.0,1014.31,-30.95,1.03,1.9,22.3,34.8,30.2,0,no_anomaly,0.0,0,0,0,0,13.0827227,80.2707479,15.2,0.0
2024-04-03T09:58:12.800Z,MISSION_0023,128,0,transit,SITE_CHE_004,13.0827274,80.2707474,15.2,99.21,4.582,0.059,6.09,-2.9854,0.6847,99.2118,0.64769,-0.02143,-0.01597,0.76143,-0.0555,0.1122,-9.8626,0.7723,-0.6808,-0.2949,0.1766,3,18,0.5,1.14,0.23,24.475,19.45,89.8,34.3,19748.0,7562,7615,7438,7514,57.0,57.1,49.8,55.0,2.466,2.719,2.821,2.824,3.08,253.3,26.1,51.3,1013.62,-32.24,-0.68,1.71,19.7,41.3,26.9,0,no_anomaly,0.0,0,0,0,0,13.0827274,80.2707474,15.2,0.0
2024-04-03T09:58:12.900Z,MISSION_0023,129,0,transit,SITE_CHE_004,13.0827252,80.2707441,15.2,100.35,4.659,0.068,5.66,1.1312,-3.4927,100.3528,0.63987,0.02972,-0.01194,0.76782,0.0485,-0.0642,-9.8342,-0.2168,-0.8274,0.6204,0.1373,3,16,0.56,1.07,0.31,24.503,20.37,89.7,34.5,19737.0,7272,7714,7412,7732,47.8,51.7,50.8,48.6,2.899,2.576,2.651,3.046,3.93,257.9,26.2,51.3,1013.89,-29.88,-0.27,1.68,21.5,35.3,29.7,0,no_anomaly,0.0,0,0,0,0,13.0827252,80.2707441,15.2,0.0
