timestamp_utc,mission_id,frame_id,waypoint_id,inspection_phase,site_id,latitude_deg,longitude_deg,altitude_m,heading_deg,ground_speed_ms,vertical_speed_ms,distance_to_tower_m,roll_deg,pitch_deg,yaw_deg,quat_w,quat_x,quat_y,quat_z,accel_x_ms2,accel_y_ms2,accel_z_ms2,gyro_x_rads,gyro_y_rads,gyro_z_rads,vibration_level,gps_fix_type,gps_satellite_count,gps_hdop,gps_vdop,position_error_m,battery_voltage_v,battery_current_a,battery_remaining_pct,battery_temp_c,battery_capacity_mah,motor_fl_rpm,motor_fr_rpm,motor_rl_rpm,motor_rr_rpm,motor_fl_temp_c,motor_fr_temp_c,motor_rl_temp_c,motor_rr_temp_c,motor_fl_thrust_n,motor_fr_thrust_n,motor_rl_thrust_n,motor_rr_thrust_n,wind_speed_ms,wind_dir_deg,air_temp_c,humidity_pct,pressure_hpa,gimbal_pitch_deg,gimbal_roll_deg,zoom_factor,ir_temp_min_c,ir_temp_max_c,ir_temp_avg_c,anomaly_detected,anomaly_class,anomaly_confidence,anomaly_bbox_x,anomaly_bbox_y,anomaly_bbox_w,anomaly_bbox_h,anomaly_gps_lat,anomaly_gps_lon,anomaly_gps_alt_m,ir_temp_delta_c
2024-08-14T16:13:00.000Z,MISSION_0048,0,0,takeoff,SITE_JAI_009,26.9123991,75.7872966,1.5,84.28,0.0,0.08,0.39,3.3972,-0.2906,84.2838,0.74111,0.02368,0.01801,0.67073,-0.0093,-0.0283,-9.8512,0.7895,-0.6145,0.4771,0.0955,3,18,0.71,0.79,0.22,24.657,18.64,95.9,31.8,21104.0,8156,8474,8574,8552,47.3,49.0,46.6,50.9,2.944,2.771,2.794,2.718,0.61,110.1,23.4,41.0,1017.3,-31.15,-0.75,1.19,15.7,35.6,25.0,0,no_anomaly,0.0,0,0,0,0,26.9123991,75.7872966,1.5,0.0
2024-08-14T16:13:00.100Z,MISSION_0048,1,0,takeoff,SITE_JAI_009,26.912399,75.7873003,3.0,85.62,0.218,0.228,0.12,-0.8609,-2.1294,85.622,0.73355,0.00712,-0.01874,0.67934,0.0576,0.0341,-9.7385,-0.2661,-0.2816,-0.0991,0.1404,3,15,0.81,0.95,0.4,24.692,26.86,95.9,31.5,21092.0,8494,8442,8150,8371,47.8,48.0,47.8,47.3,2.827,2.728,2.699,2.66,0.0,120.8,23.6,41.0,1017.58,-31.48,0.47,1.42,15.8,34.5,23.5,0,no_anomaly,0.0,0,0,0,0,26.912399,75.7873003,3.0,0.0
2024-08-14T16:13:00.200Z,MISSION_0048,2,0,takeoff,SITE_JAI_009,26.9124019,75.7873001,4.5,84.58,0.244,0.177,0.22,-2.0041,-3.0121,84.5849,0.73966,0.00475,-0.0312,0.67224,-0.0042,0.0107,-9.8434,0.6279,0.5881,-0.3101,0.1082,3,10,0.65,1.12,0.24,24.709,17.41,95.8,30.9,21081.0,8459,8138,8869,8371,45.1,48.0,48.5,47.6,2.668,2.743,2.721,2.693,0.0,106.3,24.0,42.4,1016.87,-28.19,0.92,1.07,16.5,28.1,24.1,0,no_anomaly,0.0,0,0,0,0,26.9124019,75.7873001,4.5,0.0
2024-08-14T16:13:00.300Z,MISSION_0048,3,0,takeoff,SITE_JAI_009,26.9123959,75.7873031,5.0,84.34,0.683,0.108,0.57,-0.6415,-2.2395,84.3415,0.74107,0.00897,-0.01824,0.67112,0.0253,0.0145,-9.831,-0.3503,-0.101,-0.2061,0.1028,3,20,0.69,1.0,0.2,24.539,17.33,95.8,31.7,21069.0,8467,8513,8355,8381,51.9,49.2,46.7,46.3,2.763,2.862,2.843,2.776,0.41,114.0,23.5,41.1,1017.4,-27.08,0.29,1.49,19.8,28.2,26.8,0,no_anomaly,0.0,0,0,0,0,26.9123959,75.7873031,5.0,0.0
2024-08-14T16:13:00.400Z,MISSION_0048,4,0,takeoff,SITE_JAI_009,26.9123977,75.7873051,5.0,84.92,1.216,0.123,0.63,-1.183,-1.3293,84.915,0.73777,0.00021,-0.01553,0.67487,-0.0187,-0.0429,-9.7974,-0.5658,-0.055,0.033,0.0091,3,10,0.83,0.6,0.33,24.619,13.95,95.7,32.5,21057.0,8628,8255,8413,8422,46.7,48.4,44.8,49.5,2.783,2.758,2.724,2.747,0.47,121.2,23.3,40.6,1017.36,-32.22,-1.56,1.31,15.9,34.0,24.0,0,no_anomaly,0.0,0,0,0,0,26.9123977,75.7873051,5.0,0.0
2024-08-14T16:13:00.500Z,MISSION_0048,5,0,takeoff,SITE_JAI_009,26.9123979,75.7873018,5.0,83.77,1.853,0.062,0.3,-0.5876,-3.3087,83.7702,0.74426,0.01546,-0.02492,0.66724,0.0311,0.0713,-9.8096,-0.015,-0.0043,-0.195,0.0888,3,18,0.57,0.6,0.21,24.723,18.16,95.7,31.4,21045.0,8406,8421,8675,8637,48.2,48.7,51.5,49.6,2.635,2.851,2.875,3.065,0.31,115.1,23.7,41.2,1017.39,-29.92,-0.8,1.42,19.2,32.0,27.7,0,no_anomaly,0.0,0,0,0,0,26.9123979,75.7873018,5.0,0.0
2024-08-14T16:13:00.600Z,MISSION_0048,6,0,takeoff,SITE_JAI_009,26.9123962,75.7872996,5.0,83.67,2.032,0.16,0.43,1.0109,-2.9395,83.6698,0.74465,0.02368,-0.01323,0.66691,-0.012,-0.0338,-9.8796,0.1927,0.0861,-0.0059,0.1697,3,11,0.61,1.06,0.27,24.744,20.66,95.6,31.3,21034.0,8252,8465,8377,8178,50.1,48.0,46.3,52.0,2.698,2.865,3.022,2.725,0.0,113.0,23.5,41.0,1017.3,-31.43,1.35,1.7,20.8,34.6,26.8,0,no_anomaly,0.0,0,0,0,0,26.9123962,75.7872996,5.0,0.0
2024-08-14T16:13:00.700Z,MISSION_0048,7,0,takeoff,SITE_JAI_009,26.9123946,75.7872979,5.0,83.16,2.428,0.179,0.64,0.9457,-2.1648,83.1559,0.74779,0.01871,-0.00866,0.66361,-0.0605,0.0016,-9.8392,0.553,0.3066,0.1933,0.0555,3,11,0.52,0.9,0.2,24.683,14.8,95.6,31.1,21022.0,8350,8408,8400,8579,47.4,49.3,50.3,48.3,2.658,2.676,2.582,2.752,0.0,114.7,23.5,40.4,1017.13,-29.78,0.34,1.73,19.0,31.9,23.8,0,no_anomaly,0.0,0,0,0,0,26.9123946,75.7872979,5.0,0.0
2024-08-14T16:13:00.800Z,MISSION_0048,8,0,takeoff,SITE_JAI_009,26.9123966,75.7872949,5.0,85.82,2.147,0.137,0.68,-2.2065,-0.8714,85.8219,0.73236,-0.00893,-0.01868,0.68061,-0.0549,-0.0362,-9.844,-0.0346,0.4701,-0.5243,0.1385,3,16,0.83,0.78,0.38,24.538,21.68,95.5,31.4,21010.0,8358,8136,8396,8561,45.1,46.9,46.1,50.0,2.705,2.95,2.615,3.117,0.8,114.3,23.6,41.2,1017.15,-30.28,0.62,1.0,23.4,38.6,28.7,0,no_anomaly,0.0,0,0,0,0,26.9123966,75.7872949,5.0,0.0
2024-08-14T16:13:00.900Z,MISSION_0048,9,0,takeoff,SITE_JAI_009,26.9123962,75.7872941,5.0,89.05,1.576,0.101,0.79,1.1222,0.5617,89.0512,0.71293,0.00354,0.01036,0.70115,0.039,-0.0551,-9.8563,0.4189,-0.5161,-0.1617,0.0992,3,11,0.69,0.79,0.32,24.75,24.0,95.4,31.2,20999.0,8616,8405,8474,8436,46.5,44.7,45.7,51.1,2.747,2.756,2.995,2.78,0.0,117.6,23.3,41.3,1017.48,-32.73,-0.73,1.16,15.5,34.9,25.6,0,no_anomaly,0.0,0,0,0,0,26.9123962,75.7872941,5.0,0.0
2024-08-14T16:13:01.000Z,MISSION_0048,10,0,takeoff,SITE_JAI_009,26.9123976,75.7872973,5.0,86.04,1.787,-0.021,0.41,0.4985,-3.3867,86.0365,0.73072,0.02334,-0.01864,0.68202,-0.0691,-0.0337,-9.8045,-0.319,0.1746,0.4374,0.1254,3,17,0.72,1.01,0.2,24.644,29.69,95.4,31.1,20987.0,8329,8696,8371,8348,45.4,48.4,47.7,47.6,2.792,2.618,2.865,2.849,0.47,114.4,23.6,42.0,1017.58,-29.97,0.02,1.31,16.8,31.7,22.8,0,no_anomaly,0.0,0,0,0,0,26.9123976,75.7872973,5.0,0.0
2024-08-14T16:13:01.100Z,MISSION_0048,11,0,takeoff,SITE_JAI_009,26.9123964,75.7873021,5.0,87.13,1.4,0.077,0.47,-1.358,-1.4007,87.1275,0.7246,-0.00016,-0.01702,0.68896,0.0338,0.0726,-9.8247,0.4732,0.4113,-0.3908,0.0952,3,14,0.71,0.67,0.25,24.66,18.31,95.3,31.9,20975.0,8130,8156,8466,8355,50.2,48.0,47.2,50.9,3.011,2.715,2.543,2.85,0.0,107.8,23.3,41.8,1017.11,-28.1,-0.04,1.23,19.6,39.3,29.2,0,no_anomaly,0.0,0,0,0,0,26.9123964,75.7873021,5.0,0.0
2024-08-14T16:13:01.200Z,MISSION_0048,12,0,takeoff,SITE_JAI_009,26.9123905,75.7872946,5.0,87.0,1.064,0.063,1.22,-1.17,-1.2562,86.9969,0.72539,0.00014,-0.01498,0.68818,0.0404,-0.0743,-9.8146,0.1473,-0.503,0.0098,0.0976,3,14,0.67,0.93,0.25,24.642,18.59,95.3,31.7,20963.0,8519,8406,8373,8164,54.1,43.9,53.4,45.2,2.872,2.8,2.798,2.853,0.0,121.8,23.4,41.6,1017.08,-30.67,-1.09,2.09,19.0,37.3,26.5,0,no_anomaly,0.0,0,0,0,0,26.9123905,75.7872946,5.0,0.0
2024-08-14T16:13:01.300Z,MISSION_0048,13,0,takeoff,SITE_JAI_009,26.9123877,75.7873015,5.0,87.16,0.95,0.117,1.38,0.7156,-2.3796,87.1562,0.72418,0.01884,-0.01074,0.68927,-0.0749,-0.0697,-9.8013,0.2847,-0.1351,0.197,0.0672,3,13,0.6,1.04,0.2,24.72,18.42,95.2,32.1,20952.0,8310,8466,8120,8494,50.3,48.6,53.2,50.3,2.881,2.832,2.997,2.996,0.0,119.3,23.3,41.0,1017.19,-33.13,-1.55,2.16,22.0,33.1,27.6,0,no_anomaly,0.0,0,0,0,0,26.9123877,75.7873015,5.0,0.0
2024-08-14T16:13:01.400Z,MISSION_0048,14,0,takeoff,SITE_JAI_009,26.9123862,75.787297,5.0,85.53,1.433,0.1,1.57,-0.7606,-2.0542,85.5336,0.73407,0.0073,-0.01767,0.6788,0.0087,-0.0131,-9.8269,-0.6537,-0.4967,-0.4978,0.1223,3,17,0.6,0.64,0.2,24.703,23.87,95.2,31.5,20940.0,8230,8227,8406,8690,50.5,48.4,50.2,47.1,2.891,2.794,2.863,2.643,0.0,104.6,23.6,41.7,1017.15,-28.62,-0.81,1.18,20.9,33.2,28.8,0,no_anomaly,0.0,0,0,0,0,26.9123862,75.787297,5.0,0.0
2024-08-14T16:13:01.500Z,MISSION_0048,15,0,takeoff,SITE_JAI_009,26.912388,75.7872971,5.0,84.79,1.69,0.122,1.37,-0.4121,0.4794,84.7857,0.73852,-0.00548,0.00067,0.67421,0.0199,0.0236,-9.8481,-0.1285,-1.0099,-0.2654,0.04,3,16,0.76,0.6,0.21,24.566,24.65,95.1,31.5,20928.0,8375,8477,8369,8274,52.6,49.1,47.5,48.7,2.726,2.96,2.864,2.953,0.59,122.8,23.8,40.6,1017.46,-24.68,-0.31,1.69,20.6,36.4,24.9,0,no_anomaly,0.0,0,0,0,0,26.912388,75.7872971,5.0,0.0
2024-08-14T16:13:01.600Z,MISSION_0048,16,0,takeoff,SITE_JAI_009,26.9123883,75.7872973,5.0,84.17,1.616,0.118,1.34,-2.1731,-0.1284,84.1688,0.74204,-0.01332,-0.01354,0.67009,0.0317,0.0543,-9.8645,-0.0982,0.0469,0.1345,0.0304,3,16,0.63,0.77,0.34,24.652,22.51,95.1,32.0,20917.0,8453,8569,8312,8378,48.3,48.7,48.3,48.3,2.788,2.755,2.772,2.714,0.0,120.4,23.7,40.4,1016.94,-30.59,1.06,1.18,16.2,36.4,24.6,0,no_anomaly,0.0,0,0,0,0,26.9123883,75.7872973,5.0,0.0
2024-08-14T16:13:01.700Z,MISSION_0048,17,0,takeoff,SITE_JAI_009,26.912391,75.7872927,5.0,81.76,1.426,0.095,1.28,-0.6935,-0.591,81.7584,0.75609,-0.0012,-0.00786,0.65442,0.0085,-0.0086,-9.8145,0.8563,-0.6197,0.5863,0.0859,3,11,0.8,1.09,0.33,24.719,15.81,95.0,31.4,20905.0,8627,8228,8459,8718,50.7,46.3,44.2,48.3,2.882,2.789,2.855,2.854,0.56,118.0,23.5,41.5,1017.32,-31.6,-0.14,1.88,17.1,30.2,26.9,0,no_anomaly,0.0,0,0,0,0,26.912391,75.7872927,5.0,0.0
2024-08-14T16:13:01.800Z,MISSION_0048,18,0,takeoff,SITE_JAI_009,26.9123911,75.7872913,5.0,79.52,1.393,0.115,1.38,-0.5753,-2.1624,79.5155,0.76867,0.00821,-0.01772,0.63935,0.0806,-0.0182,-9.8712,-0.2443,0.1472,0.0509,0.0,3,13,0.59,1.18,0.23,24.616,19.63,95.0,31.4,20893.0,8340,8434,8394,8357,50.1,46.3,48.1,49.1,2.784,2.684,2.747,2.901,0.0,119.8,23.6,40.5,1017.02,-25.69,-0.31,1.84,16.0,31.4,24.0,0,no_anomaly,0.0,0,0,0,0,26.9123911,75.7872913,5.0,0.0
2024-08-14T16:13:01.900Z,MISSION_0048,19,0,takeoff,SITE_JAI_009,26.9123847,75.7872952,5.0,80.78,1.327,0.108,1.79,1.8448,-1.5047,80.7762,0.76137,0.02077,0.00043,0.64798,0.0427,0.0027,-9.8815,0.6125,0.0772,0.1317,0.1475,3,17,0.55,0.77,0.29,24.698,20.11,94.9,31.3,20881.0,8232,8529,8644,8198,46.4,47.7,50.6,46.5,2.718,2.992,2.802,2.794,0.34,108.9,23.7,42.2,1017.33,-24.47,-2.48,2.06,20.8,37.9,29.0,0,no_anomaly,0.0,0,0,0,0,26.9123847,75.7872952,5.0,0.0
2024-08-14T16:13:02.000Z,MISSION_0048,20,0,takeoff,SITE_JAI_009,26.9123861,75.787296,5.0,81.92,1.254,0.186,1.61,1.4341,-2.1934,81.924,0.75479,0.02199,-0.00625,0.65557,-0.095,-0.0072,-9.8198,0.1648,-1.1991,0.2759,0.0743,3,20,0.54,0.93,0.27,24.608,19.57,94.9,31.3,20870.0,8253,8249,8346,8508,44.7,47.7,48.7,48.0,3.006,2.813,2.615,2.757,0.0,117.1,23.2,41.1,1017.23,-29.02,-0.29,1.45,20.2,37.2,28.7,0,no_anomaly,0.0,0,0,0,0,26.9123861,75.787296,5.0,0.0
2024-08-14T16:13:02.100Z,MISSION_0048,21,0,takeoff,SITE_JAI_009,26.9123802,75.7872913,5.0,81.86,1.277,0.072,2.4,0.2654,-3.1879,81.8644,0.75515,0.01997,-0.0195,0.65496,0.0261,0.0289,-9.8561,0.2469,-0.9357,-0.2183,0.1108,3,13,0.82,1.2,0.42,24.646,18.54,94.8,30.8,20858.0,8561,8513,8133,8311,49.3,47.6,45.6,49.5,2.775,2.746,2.786,2.734,0.0,122.7,23.6,41.7,1017.12,-29.36,-0.04,1.42,17.6,34.1,26.2,0,no_anomaly,0.0,0,0,0,0,26.9123802,75.7872913,5.0,0.0
2024-08-14T16:13:02.200Z,MISSION_0048,22,0,takeoff,SITE_JAI_009,26.9123784,75.7872849,5.0,82.4,1.225,0.102,2.93,0.2009,-0.5842,82.3958,0.75242,0.00468,-0.00268,0.65866,-0.0207,-0.0278,-9.8082,-0.1702,0.4336,-0.2773,0.0504,3,13,0.69,0.93,0.23,24.64,17.99,94.8,31.5,20846.0,8423,8609,8328,8489,48.2,51.1,50.4,51.8,2.809,2.956,2.871,2.858,0.53,113.1,23.7,41.8,1017.63,-30.25,-0.57,1.0,18.9,31.9,27.2,0,no_anomaly,0.0,0,0,0,0,26.9123784,75.7872849,5.0,0.0
2024-08-14T16:13:02.300Z,MISSION_0048,23,0,takeoff,SITE_JAI_009,26.9123833,75.7872867,5.0,81.26,1.232,0.07,2.37,-0.4397,-3.0045,81.2597,0.75873,0.01416,-0.02239,0.65086,-0.0873,-0.0289,-9.7996,0.34,-0.1242,-0.204,0.0923,3,16,0.73,1.13,0.32,24.758,13.49,94.7,31.5,20834.0,8252,8330,8435,8240,50.0,45.5,43.5,48.6,2.804,2.598,2.573,3.136,0.0,113.5,23.5,40.9,1017.21,-32.29,-2.25,1.82,21.2,32.3,28.2,0,no_anomaly,0.0,0,0,0,0,26.9123833,75.7872867,5.0,0.0
2024-08-14T16:13:02.400Z,MISSION_0048,24,0,takeoff,SITE_JAI_009,26.9123822,75.7872903,5.0,81.49,0.68,0.106,2.25,2.2372,-3.1989,81.4893,0.75683,0.033,-0.00841,0.65272,-0.0306,-0.0179,-9.8383,-1.0179,0.4363,0.4052,0.0703,3,13,0.66,0.67,0.29,24.669,19.13,94.6,31.7,20823.0,8346,8276,8687,8289,48.4,45.9,48.8,50.7,2.627,2.701,2.673,2.838,0.73,114.3,23.6,41.4,1017.03,-25.04,-0.38,1.4,21.1,36.1,24.4,0,no_anomaly,0.0,0,0,0,0,26.9123822,75.7872903,5.0,0.0
2024-08-14T16:13:02.500Z,MISSION_0048,25,0,takeoff,SITE_JAI_009,26.9123787,75.7872932,5.0,80.4,0.169,0.135,2.48,0.6291,-0.8909,80.396,0.76376,0.00921,-0.0024,0.64543,-0.0863,0.0685,-9.8842,0.1298,0.5172,0.0725,0.0507,3,19,0.61,1.02,0.2,24.658,14.29,94.6,31.9,20811.0,8385,8323,8372,8326,49.5,45.1,48.7,50.9,2.9,3.02,3.231,2.883,0.42,113.5,23.6,40.6,1017.06,-30.93,1.95,1.78,18.9,34.9,27.2,0,no_anomaly,0.0,0,0,0,0,26.9123787,75.7872932,5.0,0.0
2024-08-14T16:13:02.600Z,MISSION_0048,26,0,takeoff,SITE_JAI_009,26.9123772,75.7872939,5.0,78.94,0.056,0.21,2.63,-0.0802,-5.3837,78.9354,0.77115,0.02931,-0.0367,0.63492,0.0322,0.0296,-9.8538,0.5543,0.5414,0.0155,0.0714,3,16,0.78,1.21,0.28,24.643,19.24,94.5,31.1,20799.0,8354,8321,8347,8421,48.4,46.8,50.9,48.3,2.774,2.789,3.023,2.803,0.19,123.3,23.5,41.0,1017.38,-31.55,1.19,1.71,19.5,37.7,26.8,0,no_anomaly,0.0,0,0,0,0,26.9123772,75.7872939,5.0,0.0
2024-08-14T16:13:02.700Z,MISSION_0048,27,0,takeoff,SITE_JAI_009,26.9123771,75.7872907,5.0,78.54,0.367,0.074,2.75,-0.5865,0.0003,78.5428,0.77415,-0.00396,-0.00324,0.63299,0.0168,0.0806,-9.787,-0.5166,0.8956,0.6637,0.0449,3,20,0.65,1.01,0.2,24.735,19.05,94.5,30.9,20788.0,8559,8541,8408,8556,49.9,43.9,47.4,49.8,3.04,2.725,2.785,2.684,1.02,118.7,23.7,40.8,1017.11,-24.78,-0.76,2.0,15.1,33.7,23.7,0,no_anomaly,0.0,0,0,0,0,26.9123771,75.7872907,5.0,0.0
2024-08-14T16:13:02.800Z,MISSION_0048,28,0,takeoff,SITE_JAI_009,26.9123723,75.7872921,5.0,79.15,0.155,0.055,3.21,0.9926,-2.7683,79.1456,0.77043,0.02206,-0.0131,0.63701,-0.0683,-0.043,-9.8418,-0.2991,-1.0335,0.0071,0.0576,3,14,0.5,0.81,0.27,24.7,18.9,94.4,31.7,20776.0,8493,8375,8303,8195,48.0,50.2,46.3,50.8,2.788,2.706,2.648,2.875,0.0,112.9,23.4,40.9,1016.66,-26.97,0.34,2.03,18.8,30.8,28.0,0,no_anomaly,0.0,0,0,0,0,26.9123723,75.7872921,5.0,0.0
2024-08-14T16:13:02.900Z,MISSION_0048,29,0,takeoff,SITE_JAI_009,26.9123693,75.787295,5.0,79.23,0.229,0.103,3.46,0.4165,-0.6937,79.2305,0.77031,0.00666,-0.00235,0.63763,-0.069,0.0763,-9.7384,-0.8885,-0.1562,-0.3046,0.0289,3,11,0.61,1.01,0.25,24.576,18.63,94.4,31.2,20764.0,8338,8201,8347,8515,47.8,49.5,50.7,47.1,2.907,3.053,2.606,2.735,0.67,121.2,23.6,41.5,1017.24,-27.43,-0.33,1.16,21.7,39.7,27.7,0,no_anomaly,0.0,0,0,0,0,26.9123693,75.787295,5.0,0.0
2024-08-14T16:13:03.000Z,MISSION_0048,30,0,takeoff,SITE_JAI_009,26.9123661,75.7872912,5.0,80.37,0.512,0.062,3.9,-0.9729,-0.9284,80.3691,0.76396,-0.00126,-0.01167,0.64515,-0.0081,0.0095,-9.7613,0.1925,0.0207,-0.2152,0.1003,3,19,0.69,0.86,0.38,24.63,21.9,94.3,31.6,20752.0,8269,8307,8340,8212,50.3,48.0,49.6,51.2,2.661,2.86,2.755,2.62,0.0,118.2,23.6,41.2,1017.32,-31.85,-0.63,1.31,16.5,35.1,24.7,0,no_anomaly,0.0,0,0,0,0,26.9123661,75.7872912,5.0,0.0
2024-08-14T16:13:03.100Z,MISSION_0048,31,0,takeoff,SITE_JAI_009,26.912365,75.7872922,5.0,80.71,0.624,0.16,3.99,-2.2348,-2.4082,80.7093,0.762,-0.00125,-0.02864,0.64694,-0.0209,0.0387,-9.7786,-0.274,-0.3091,-0.125,0.0102,3,20,0.82,0.93,0.35,24.714,13.52,94.3,32.2,20741.0,8561,8487,8524,8360,45.6,49.5,48.2,50.7,2.469,2.806,2.626,2.664,0.29,109.5,23.8,40.8,1017.29,-28.08,-2.46,1.73,15.1,28.1,25.5,0,no_anomaly,0.0,0,0,0,0,26.912365,75.7872922,5.0,0.0
2024-08-14T16:13:03.200Z,MISSION_0048,32,0,takeoff,SITE_JAI_009,26.9123649,75.7872929,5.0,80.78,0.566,0.089,3.98,-0.0385,-5.8129,80.7776,0.7607,0.0326,-0.03884,0.64712,0.1205,0.1056,-9.8724,0.5527,0.2536,-0.0435,0.1206,3,20,0.81,0.99,0.33,24.749,23.44,94.2,32.4,20729.0,8458,8427,8450,8407,48.0,48.7,48.6,51.8,3.117,3.198,2.847,2.705,0.11,114.4,23.7,40.8,1017.28,-32.3,0.79,1.8,19.9,34.9,25.9,0,no_anomaly,0.0,0,0,0,0,26.9123649,75.7872929,5.0,0.0
2024-08-14T16:13:03.300Z,MISSION_0048,33,0,takeoff,SITE_JAI_009,26.9123621,75.7872931,5.0,83.37,0.251,0.007,4.29,1.4611,-4.9296,83.3746,0.74567,0.03811,-0.02364,0.6648,0.0774,-0.0437,-9.7458,-0.3202,-0.1836,-0.0155,0.1503,3,18,0.64,0.94,0.2,24.625,17.83,94.2,31.2,20717.0,8409,8625,8342,8450,49.3,47.1,47.2,48.8,2.472,2.818,2.66,2.728,0.0,103.4,23.3,40.8,1017.24,-22.88,-0.01,1.77,20.0,33.3,24.7,0,no_anomaly,0.0,0,0,0,0,26.9123621,75.7872931,5.0,0.0
2024-08-14T16:13:03.400Z,MISSION_0048,34,0,takeoff,SITE_JAI_009,26.912364,75.7872949,5.0,85.0,0.319,0.018,4.05,-0.0722,-3.9159,85.0044,0.73684,0.02262,-0.02561,0.67521,-0.0076,0.0025,-9.8327,0.4634,0.2933,-0.0411,0.1756,3,15,0.58,0.8,0.28,24.699,14.78,94.1,31.5,20706.0,8501,8706,8379,8429,46.8,47.8,51.3,46.9,2.973,2.442,2.655,2.945,0.0,111.8,23.3,41.4,1017.09,-26.83,1.88,1.37,18.7,33.1,26.1,0,no_anomaly,0.0,0,0,0,0,26.912364,75.7872949,5.0,0.0
2024-08-14T16:13:03.500Z,MISSION_0048,35,0,takeoff,SITE_JAI_009,26.9123645,75.7873005,5.0,86.61,0.215,0.127,3.95,2.5472,-0.4564,86.6143,0.72744,0.01891,0.01235,0.6858,0.0455,0.0245,-9.7624,-0.0568,-0.857,-0.4381,0.1199,3,19,0.72,0.75,0.2,24.68,18.8,94.1,30.2,20694.0,8531,8384,8127,8452,48.5,48.7,50.1,45.2,2.861,2.804,2.522,2.572,0.57,120.3,23.7,41.1,1017.18,-34.21,0.46,1.63,15.0,32.8,22.7,0,no_anomaly,0.0,0,0,0,0,26.9123645,75.7873005,5.0,0.0
2024-08-14T16:13:03.600Z,MISSION_0048,36,0,takeoff,SITE_JAI_009,26.9123657,75.7873039,5.0,88.27,0.584,0.084,3.84,-0.6137,-3.2827,88.2722,0.71749,0.0161,-0.02428,0.69596,-0.0813,0.0671,-9.7757,0.4326,-0.9274,0.4631,0.0941,3,13,0.66,0.89,0.2,24.567,14.46,94.0,31.7,20682.0,8350,8329,8767,8276,48.0,46.6,48.0,46.6,2.529,2.78,2.488,2.975,0.0,122.3,23.3,41.2,1017.42,-28.36,1.92,1.29,14.3,33.3,25.3,0,no_anomaly,0.0,0,0,0,0,26.9123657,75.7873039,5.0,0.0
2024-08-14T16:13:03.700Z,MISSION_0048,37,0,takeoff,SITE_JAI_009,26.9123599,75.7873052,5.0,89.95,1.013,0.138,4.5,1.1663,-2.4626,89.9522,0.70705,0.02239,-0.00801,0.70677,-0.0963,0.031,-9.8609,0.1123,-0.506,-0.3955,0.1161,3,15,0.84,0.77,0.52,24.649,17.51,94.0,32.8,20670.0,8455,8406,8368,8397,47.0,47.8,48.0,48.9,2.951,2.93,2.587,2.835,0.13,120.0,23.4,41.2,1017.38,-32.77,0.07,1.37,18.9,31.0,29.4,0,no_anomaly,0.0,0,0,0,0,26.9123599,75.7873052,5.0,0.0
2024-08-14T16:13:03.800Z,MISSION_0048,38,0,takeoff,SITE_JAI_009,26.9123596,75.7873058,5.0,89.17,0.597,-0.039,4.55,-0.4308,-3.2407,89.1706,0.71199,0.01717,-0.02278,0.70161,0.0299,-0.0229,-9.7622,0.6047,0.3291,0.399,0.1718,3,14,0.61,0.9,0.22,24.645,24.24,93.9,32.5,20659.0,8707,8355,8339,8465,47.4,50.6,45.9,48.2,2.621,2.723,2.825,2.882,0.39,113.4,23.6,40.2,1017.62,-33.74,1.15,2.22,20.0,33.7,25.7,0,no_anomaly,0.0,0,0,0,0,26.9123596,75.7873058,5.0,0.0
2024-08-14T16:13:03.900Z,MISSION_0048,39,0,takeoff,SITE_JAI_009,26.9123597,75.7873065,5.0,89.96,0.21,0.002,4.55,-0.9798,-0.8398,89.9603,0.70735,-0.00087,-0.01123,0.70677,-0.1095,-0.0496,-9.8326,0.0102,1.0457,0.3237,0.1354,3,14,0.81,0.98,0.29,24.693,17.58,93.8,31.8,20647.0,8107,8318,8267,8297,48.7,50.3,49.8,49.9,2.795,2.964,2.665,2.606,0.0,114.1,23.5,40.6,1017.38,-30.61,0.09,1.83,20.6,32.3,28.7,0,no_anomaly,0.0,0,0,0,0,26.9123597,75.7873065,5.0,0.0
2024-08-14T16:13:04.000Z,MISSION_0048,40,0,takeoff,SITE_JAI_009,26.9123607,75.7873045,5.0,90.67,0.223,0.132,4.41,1.1178,-3.4233,90.6656,0.70243,0.0281,-0.01406,0.71106,-0.0852,-0.0641,-9.8878,-0.3164,-0.72,-0.0801,0.2083,3,11,0.53,0.97,0.2,24.624,9.57,93.8,32.2,20635.0,8481,8285,8519,8315,48.3,46.9,49.1,48.9,2.886,3.02,2.796,2.713,0.0,106.1,23.8,41.0,1016.76,-25.77,-0.61,1.12,21.2,35.0,28.9,0,no_anomaly,0.0,0,0,0,0,26.9123607,75.7873045,5.0,0.0
2024-08-14T16:13:04.100Z,MISSION_0048,41,0,takeoff,SITE_JAI_009,26.9123564,75.7873023,5.0,92.75,0.0,0.18,4.86,0.736,-1.4363,92.7505,0.68981,0.0135,-0.004,0.72386,0.0333,0.0463,-9.7745,-0.5468,-0.1509,-0.0602,0.0504,3,12,0.58,1.18,0.24,24.638,21.44,93.7,32.7,20623.0,8707,8671,8624,8630,50.5,51.3,50.5,48.9,2.924,2.861,2.646,2.953,0.0,104.4,23.7,40.7,1016.86,-34.82,-1.58,1.49,16.2,37.3,25.1,0,no_anomaly,0.0,0,0,0,0,26.9123564,75.7873023,5.0,0.0
2024-08-14T16:13:04.200Z,MISSION_0048,42,0,takeoff,SITE_JAI_009,26.9123527,75.7873026,5.0,93.22,0.0,0.062,5.28,0.0852,-0.7336,93.221,0.68694,0.00516,-0.00386,0.72669,0.133,-0.0001,-9.8604,0.3722,0.3728,-0.0679,0.1721,3,20,0.76,0.77,0.25,24.628,12.05,93.7,30.9,20612.0,8473,8448,8267,8480,46.8,50.7,49.9,48.5,2.711,2.699,2.656,2.595,0.0,111.8,23.2,41.0,1016.93,-31.22,-0.13,1.34,16.9,37.1,24.7,0,no_anomaly,0.0,0,0,0,0,26.9123527,75.7873026,5.0,0.0
2024-08-14T16:13:04.300Z,MISSION_0048,43,0,takeoff,SITE_JAI_009,26.9123496,75.7873017,5.0,92.37,0.0,0.154,5.62,-0.9794,-2.334,92.3667,0.69231,0.00878,-0.02027,0.72126,-0.0163,0.0293,-9.7941,-0.3645,0.0183,0.2538,0.0848,3,10,0.72,1.09,0.32,24.662,16.29,93.6,32.1,20600.0,8610,8269,8650,8273,44.7,50.7,50.1,48.7,3.205,2.762,2.697,2.791,0.0,115.7,23.4,40.7,1017.47,-32.34,-0.75,1.71,18.9,31.6,25.0,0,no_anomaly,0.0,0,0,0,0,26.9123496,75.7873017,5.0,0.0
2024-08-14T16:13:04.400Z,MISSION_0048,44,0,takeoff,SITE_JAI_009,26.9123464,75.7872985,5.0,92.79,0.0,0.098,5.97,-0.8879,-2.8109,92.7948,0.68956,0.01242,-0.02252,0.72377,-0.0247,0.0385,-9.828,-0.2135,-0.4742,-0.0349,0.0544,3,20,0.6,0.7,0.2,24.56,19.44,93.6,31.9,20588.0,8078,8622,8321,8133,47.3,49.6,49.5,48.6,2.978,2.526,2.784,2.694,0.14,115.9,23.6,41.3,1017.06,-29.03,2.29,1.09,21.0,29.4,24.9,0,no_anomaly,0.0,0,0,0,0,26.9123464,75.7872985,5.0,0.0
2024-08-14T16:13:04.500Z,MISSION_0048,45,0,takeoff,SITE_JAI_009,26.9123491,75.7873022,5.0,96.24,0.006,0.12,5.68,-0.3554,-2.4149,96.2435,0.66745,0.01362,-0.01638,0.74435,0.0137,0.028,-9.8143,0.0694,0.1344,0.1493,0.085,3,15,0.62,0.81,0.22,24.632,14.33,93.5,32.0,20577.0,8152,8121,8211,8322,49.6,50.0,49.6,50.4,2.802,2.656,2.958,2.812,0.11,123.7,23.6,41.0,1017.0,-28.01,0.88,1.9,15.4,28.3,25.6,0,no_anomaly,0.0,0,0,0,0,26.9123491,75.7873022,5.0,0.0
2024-08-14T16:13:04.600Z,MISSION_0048,46,0,takeoff,SITE_JAI_009,26.9123519,75.7873003,5.0,96.76,0.254,0.234,5.36,-0.0429,-1.1371,96.7588,0.66416,0.00717,-0.00687,0.74752,0.0961,-0.0866,-9.8072,0.0276,-1.0364,-0.0513,0.1098,3,18,0.66,0.78,0.37,24.599,19.45,93.5,31.4,20565.0,8384,8683,8383,8855,50.6,47.2,50.5,47.7,2.848,3.053,2.697,2.632,0.08,110.6,23.9,41.5,1017.12,-31.72,0.17,1.49,16.8,31.8,26.2,0,no_anomaly,0.0,0,0,0,0,26.9123519,75.7873003,5.0,0.0
2024-08-14T16:13:04.700Z,MISSION_0048,47,0,takeoff,SITE_JAI_009,26.9123586,75.7872995,5.0,96.28,0.058,0.089,4.6,1.8932,-2.8978,96.2821,0.66668,0.02985,-0.00457,0.74473,-0.0082,0.0391,-9.8934,0.0018,0.2536,-0.1772,0.1146,3,12,0.71,1.07,0.2,24.671,17.83,93.4,31.9,20553.0,8314,8559,8391,8056,51.5,46.0,49.5,49.8,2.792,2.875,2.771,2.948,0.0,123.2,23.7,41.0,1017.16,-34.12,-0.69,1.55,17.8,31.9,25.8,0,no_anomaly,0.0,0,0,0,0,26.9123586,75.7872995,5.0,0.0
2024-08-14T16:13:04.800Z,MISSION_0048,48,0,takeoff,SITE_JAI_009,26.9123571,75.7872953,5.0,95.77,0.087,0.218,4.8,-1.0974,-3.1257,95.772,0.67052,0.01381,-0.02539,0.74133,-0.025,0.0585,-9.7878,0.7247,-0.2448,-0.2312,0.059,3,12,0.66,0.6,0.32,24.625,18.97,93.4,32.0,20541.0,8262,8607,8497,8227,48.9,50.1,47.6,49.9,2.831,2.655,3.003,2.736,0.0,116.7,23.4,41.3,1016.93,-29.59,0.08,1.77,17.7,31.6,26.0,0,no_anomaly,0.0,0,0,0,0,26.9123571,75.7872953,5.0,0.0
2024-08-14T16:13:04.900Z,MISSION_0048,49,0,takeoff,SITE_JAI_009,26.9123577,75.7872948,5.0,93.42,0.0,0.029,4.74,-2.1677,-2.0774,93.4205,0.6857,0.00022,-0.02619,0.72741,0.0565,-0.0144,-9.7649,-0.1858,-0.6124,0.544,0.1272,3,18,0.54,1.08,0.26,24.576,19.67,93.3,31.9,20530.0,8064,8369,8624,8349,46.8,48.3,47.5,49.3,2.926,2.505,3.049,2.882,1.82,114.0,23.4,41.1,1017.02,-26.8,-0.36,1.86,21.5,33.3,28.8,0,no_anomaly,0.0,0,0,0,0,26.9123577,75.7872948,5.0,0.0
2024-08-14T16:13:05.000Z,MISSION_0048,50,0,takeoff,SITE_JAI_009,26.9123597,75.7872959,5.0,95.74,0.251,0.043,4.51,0.0766,-1.4115,95.7364,0.67078,0.00958,-0.00777,0.74155,-0.0084,0.0341,-9.7038,0.1893,-0.6172,-0.4194,0.1447,3,18,0.7,0.75,0.29,24.656,19.78,93.3,31.9,20518.0,8451,8537,8547,8507,46.2,46.6,50.6,46.9,2.759,3.17,2.901,2.95,0.0,118.2,23.2,41.6,1017.18,-32.29,1.13,1.14,17.1,36.2,28.0,0,no_anomaly,0.0,0,0,0,0,26.9123597,75.7872959,5.0,0.0
2024-08-14T16:13:05.100Z,MISSION_0048,51,0,takeoff,SITE_JAI_009,26.9123555,75.7872935,5.0,96.43,0.0,0.098,5.0,-2.6499,-0.2233,96.4256,0.66622,-0.01396,-0.01854,0.74539,-0.0265,0.0673,-9.8138,-0.1584,0.4647,-0.0352,0.1761,3,20,0.58,0.6,0.25,24.588,23.98,93.2,31.0,20506.0,8487,8192,8268,8475,47.3,49.0,47.1,50.3,2.963,2.712,3.014,2.695,0.87,114.5,23.5,41.2,1017.02,-27.04,0.35,1.49,16.6,36.1,24.4,0,no_anomaly,0.0,0,0,0,0,26.9123555,75.7872935,5.0,0.0
2024-08-14T16:13:05.200Z,MISSION_0048,52,0,takeoff,SITE_JAI_009,26.9123581,75.7872902,5.0,98.38,0.0,0.113,4.79,0.6898,-4.402,98.3837,0.65286,0.033,-0.02055,0.75648,0.0053,0.0182,-9.7051,-0.1602,-0.3811,0.2169,0.0622,3,15,0.74,1.09,0.36,24.653,18.96,93.2,31.3,20495.0,8443,8393,8245,7869,50.0,51.0,43.9,49.5,2.67,3.005,2.605,2.939,0.0,116.7,23.3,41.6,1017.11,-29.21,1.25,1.41,21.6,30.1,27.2,0,no_anomaly,0.0,0,0,0,0,26.9123581,75.7872902,5.0,0.0
2024-08-14T16:13:05.300Z,MISSION_0048,53,0,takeoff,SITE_JAI_009,26.9123602,75.7872912,5.0,98.47,0.266,0.001,4.54,-2.057,1.1586,98.469,0.65269,-0.01938,-0.00699,0.75735,0.0219,-0.0557,-9.8411,0.119,-0.7475,-0.0962,0.0883,3,10,0.67,0.8,0.31,24.702,12.91,93.1,31.0,20483.0,8276,8302,8294,8382,50.0,49.1,51.0,47.7,2.837,2.741,2.869,2.616,0.0,116.6,23.4,41.4,1017.16,-31.34,-1.4,1.55,20.9,37.5,27.1,0,no_anomaly,0.0,0,0,0,0,26.9123602,75.7872912,5.0,0.0
2024-08-14T16:13:05.400Z,MISSION_0048,54,0,takeoff,SITE_JAI_009,26.9123624,75.787287,5.0,96.35,0.082,0.166,4.43,-1.4376,-1.4756,96.346,0.6669,0.00123,-0.01793,0.74493,0.0288,0.0218,-9.8255,-0.4464,-0.3719,-0.0465,0.1458,3,13,0.69,0.79,0.23,24.602,11.0,93.1,31.4,20471.0,8597,8496,8280,8501,47.5,49.9,48.4,48.5,2.847,2.818,2.994,2.665,0.15,111.0,23.5,40.0,1017.42,-33.29,-0.24,1.38,17.1,34.7,27.6,0,no_anomaly,0.0,0,0,0,0,26.9123624,75.787287,5.0,0.0
2024-08-14T16:13:05.500Z,MISSION_0048,55,0,takeoff,SITE_JAI_009,26.9123607,75.7872884,5.0,98.39,0.0,0.068,4.56,0.1568,-1.5491,98.3915,0.6534,0.01113,-0.0078,0.75689,-0.0882,0.0116,-9.7783,-0.7003,0.7149,-0.2259,0.1344,3,15,0.67,0.9,0.34,24.657,16.38,93.0,32.3,20459.0,8377,8712,8438,8198,45.4,50.2,50.9,48.5,2.64,2.72,2.951,2.833,0.0,119.6,23.8,41.4,1017.1,-32.5,0.76,1.53,20.1,34.1,23.9,0,no_anomaly,0.0,0,0,0,0,26.9123607,75.7872884,5.0,0.0
2024-08-14T16:13:05.600Z,MISSION_0048,56,0,takeoff,SITE_JAI_009,26.9123601,75.7872842,5.0,98.94,0.384,0.167,4.78,5.4793,-2.5251,98.9447,0.64811,0.04778,0.02202,0.75972,-0.0332,0.0538,-9.8256,0.09,0.0758,-0.4448,0.1405,3,18,0.73,0.81,0.28,24.571,18.68,92.9,31.5,20448.0,8469,8272,8681,8296,52.1,45.6,45.7,48.7,2.687,2.821,2.918,2.52,0.0,112.4,23.2,41.2,1016.88,-30.77,-1.71,1.59,19.0,36.4,25.8,0,no_anomaly,0.0,0,0,0,0,26.9123601,75.7872842,5.0,0.0
2024-08-14T16:13:05.700Z,MISSION_0048,57,0,takeoff,SITE_JAI_009,26.9123604,75.7872826,5.0,95.49,0.496,0.222,4.81,0.9534,-0.6333,95.486,0.67239,0.00969,0.00244,0.74013,0.0356,-0.0003,-9.7819,-0.5048,-0.1536,0.1178,0.1708,3,15,0.85,0.85,0.37,24.719,20.98,92.9,30.6,20436.0,8615,8284,8398,8585,50.0,46.8,49.2,44.5,2.68,2.742,2.924,2.822,0.0,119.1,23.7,40.8,1017.07,-33.4,-0.56,1.4,18.0,34.8,24.1,0,no_anomaly,0.0,0,0,0,0,26.9123604,75.7872826,5.0,0.0
2024-08-14T16:13:05.800Z,MISSION_0048,58,0,takeoff,SITE_JAI_009,26.9123638,75.7872788,5.0,95.65,0.664,0.169,4.67,0.5176,-4.5485,95.6487,0.67074,0.03244,-0.0233,0.74062,-0.033,0.0144,-9.8538,-1.2755,-0.9539,0.0437,0.091,3,15,0.5,0.81,0.2,24.589,19.12,92.8,31.9,20424.0,8132,8343,8592,8397,56.1,49.2,46.7,53.5,2.975,2.905,2.854,2.779,0.0,110.0,23.3,40.8,1017.35,-32.77,0.84,1.67,21.0,30.9,24.9,0,no_anomaly,0.0,0,0,0,0,26.9123638,75.7872788,5.0,0.0
2024-08-14T16:13:05.900Z,MISSION_0048,59,0,takeoff,SITE_JAI_009,26.912358,75.7872799,5.0,96.54,0.725,0.175,5.18,2.8317,-0.2215,96.5421,0.66537,0.01789,0.01715,0.7461,-0.081,0.009,-9.878,-0.158,0.4778,0.2996,0.1467,3,19,0.78,0.9,0.45,24.576,19.61,92.8,31.8,20412.0,8680,8451,8385,8666,48.5,50.2,49.4,46.7,2.872,2.858,2.912,2.78,0.0,101.9,23.5,40.9,1016.9,-31.59,0.29,1.47,19.0,33.4,26.0,0,no_anomaly,0.0,0,0,0,0,26.912358,75.7872799,5.0,0.0
2024-08-14T16:13:06.000Z,MISSION_0048,60,0,takeoff,SITE_JAI_009,26.9123554,75.7872783,5.0,96.6,0.701,0.055,5.52,-0.9195,-1.5517,96.6041,0.6652,0.00477,-0.015,0.7465,0.0548,-0.0208,-9.864,-0.4464,-0.207,0.0139,0.0537,3,15,0.81,0.97,0.22,24.635,19.73,92.7,32.7,20401.0,8253,8398,8269,8198,47.8,48.8,47.0,51.4,2.912,2.789,2.644,2.994,0.0,125.6,23.5,41.3,1017.12,-34.27,-0.99,1.06,16.5,37.3,26.3,0,no_anomaly,0.0,0,0,0,0,26.9123554,75.7872783,5.0,0.0
2024-08-14T16:13:06.100Z,MISSION_0048,61,0,takeoff,SITE_JAI_009,26.9123537,75.7872775,5.0,96.05,0.383,0.072,5.73,-1.0531,-0.8698,96.0467,0.66883,-0.0005,-0.01191,0.74332,-0.1272,0.0308,-9.79,0.6217,-0.821,-0.1855,0.1257,3,11,0.87,1.01,0.27,24.58,15.09,92.7,31.8,20389.0,8507,8324,8333,8337,47.7,47.5,49.1,48.7,2.995,2.612,2.786,2.94,0.0,118.6,23.5,41.3,1017.63,-26.01,-0.66,1.61,16.5,33.0,26.1,0,no_anomaly,0.0,0,0,0,0,26.9123537,75.7872775,5.0,0.0
2024-08-14T16:13:06.200Z,MISSION_0048,62,0,takeoff,SITE_JAI_009,26.9123496,75.787283,5.0,94.61,0.938,0.109,5.92,0.6788,-4.3684,94.6122,0.67741,0.03203,-0.02149,0.73459,0.0041,0.0466,-9.7798,0.571,-0.1274,-0.2137,0.1576,3,10,0.59,0.82,0.2,24.601,16.95,92.6,31.4,20377.0,8575,8325,8244,8318,47.8,48.1,45.2,47.7,3.05,2.745,2.788,2.888,0.0,107.0,23.6,41.3,1017.03,-32.17,0.42,1.57,19.5,31.4,24.8,0,no_anomaly,0.0,0,0,0,0,26.9123496,75.787283,5.0,0.0
2024-08-14T16:13:06.300Z,MISSION_0048,63,0,transit,SITE_JAI_009,26.9123516,75.7872799,5.5,94.47,0.444,0.065,5.84,0.4078,-2.7021,94.4671,0.67876,0.01972,-0.0134,0.73398,-0.0257,0.144,-9.8735,-0.1697,-0.1425,0.0443,0.1146,3,16,0.65,1.04,0.38,24.638,17.25,92.6,32.0,20366.0,8382,8226,8374,8657,46.2,52.6,49.8,44.8,2.626,2.812,2.602,2.841,0.69,118.1,23.4,40.3,1016.97,-26.64,0.32,1.83,19.5,30.5,24.3,0,no_anomaly,0.0,0,0,0,0,26.9123516,75.7872799,5.5,0.0
2024-08-14T16:13:06.400Z,MISSION_0048,64,0,transit,SITE_JAI_009,26.9123463,75.7872797,6.0,95.89,0.527,0.092,6.39,-1.8146,-2.7225,95.8899,0.66985,0.00703,-0.02766,0.74195,-0.0284,-0.0135,-9.834,0.0301,0.6308,0.3777,0.0553,3,10,0.73,0.96,0.21,24.622,15.96,92.5,30.7,20354.0,8408,8103,8435,8419,48.2,48.5,50.2,46.5,2.793,2.923,2.911,2.515,0.0,120.6,23.0,40.6,1017.22,-37.72,-0.48,1.44,21.3,33.8,23.6,0,no_anomaly,0.0,0,0,0,0,26.9123463,75.7872797,6.0,0.0
2024-08-14T16:13:06.500Z,MISSION_0048,65,0,transit,SITE_JAI_009,26.912352,75.7872809,6.5,95.06,0.027,0.095,5.75,-0.457,-5.2566,95.0577,0.67464,0.03113,-0.0339,0.73671,0.0634,-0.064,-9.7885,-0.7002,-0.023,-0.3323,0.0877,3,17,0.68,0.86,0.2,24.657,17.37,92.5,32.9,20342.0,8576,8250,8514,8461,49.1,50.4,45.7,47.9,2.666,2.788,2.512,2.996,0.0,111.5,23.7,41.0,1017.69,-28.53,1.35,1.57,15.2,32.4,22.7,0,no_anomaly,0.0,0,0,0,0,26.912352,75.7872809,6.5,0.0
2024-08-14T16:13:06.600Z,MISSION_0048,66,0,transit,SITE_JAI_009,26.9123533,75.7872861,7.0,93.9,0.0,0.1,5.43,-1.1523,-2.8669,93.8964,0.68259,0.01142,-0.02442,0.7303,-0.0462,-0.0965,-9.8262,-1.1765,0.2074,0.3463,0.179,3,10,0.54,0.92,0.22,24.579,18.48,92.4,31.4,20330.0,8465,8285,8572,8274,46.9,47.4,48.5,49.0,2.658,2.745,2.934,2.765,0.0,115.6,23.1,41.3,1017.51,-30.13,-0.33,1.69,19.1,30.5,26.4,0,no_anomaly,0.0,0,0,0,0,26.9123533,75.7872861,7.0,0.0
2024-08-14T16:13:06.700Z,MISSION_0048,67,0,transit,SITE_JAI_009,26.9123488,75.7872869,7.5,94.54,0.0,0.191,5.89,0.2574,-0.6227,94.5408,0.67852,0.00552,-0.00204,0.73456,-0.0001,0.0134,-9.8777,0.257,0.7886,-0.3386,0.0224,3,15,0.69,0.84,0.33,24.591,16.66,92.4,32.2,20319.0,8393,8578,8403,8490,49.5,47.1,49.0,47.0,2.589,2.652,2.727,2.749,0.0,120.5,23.4,41.4,1017.31,-31.37,-0.41,1.68,20.9,37.9,29.9,0,no_anomaly,0.0,0,0,0,0,26.9123488,75.7872869,7.5,0.0
2024-08-14T16:13:06.800Z,MISSION_0048,68,0,transit,SITE_JAI_009,26.9123479,75.7872858,8.0,94.96,0.0,0.092,6.02,1.0911,-2.8408,94.9608,0.67543,0.0247,-0.00974,0.73695,0.0127,0.0816,-9.7812,-0.0298,-0.1409,-0.0982,0.0726,3,14,0.96,0.92,0.41,24.549,17.7,92.3,31.6,20307.0,8596,8279,8171,8284,50.0,51.5,50.1,48.7,2.603,2.882,2.696,3.099,0.0,114.0,23.6,41.1,1017.6,-30.93,-0.18,1.86,17.4,33.0,24.3,0,no_anomaly,0.0,0,0,0,0,26.9123479,75.7872858,8.0,0.0
2024-08-14T16:13:06.900Z,MISSION_0048,69,0,transit,SITE_JAI_009,26.9123475,75.7872835,8.5,94.06,0.0,0.104,6.13,1.9441,-3.6525,94.0558,0.6808,0.03487,-0.00931,0.73158,-0.0486,0.0385,-9.7923,0.561,0.3378,-0.1962,0.166,3,18,0.69,0.87,0.21,24.625,16.8,92.3,31.7,20295.0,8448,8395,8288,8262,48.1,51.8,47.2,47.2,2.694,2.879,2.771,2.624,0.0,115.0,23.4,40.8,1017.57,-25.8,-0.88,1.23,18.4,37.2,27.3,0,no_anomaly,0.0,0,0,0,0,26.9123475,75.7872835,8.5,0.0
2024-08-14T16:13:07.000Z,MISSION_0048,70,0,transit,SITE_JAI_009,26.9123504,75.787289,9.0,90.73,0.441,0.088,5.65,-0.1386,-2.2501,90.7316,0.70246,0.01312,-0.01466,0.71145,-0.0514,-0.0211,-9.8667,0.0824,0.3389,0.1494,0.1591,3,19,0.6,0.99,0.25,24.764,16.63,92.2,31.9,20284.0,8451,8561,8434,8592,49.8,48.2,48.8,48.4,2.686,2.943,2.721,2.428,0.0,115.8,23.6,41.3,1017.2,-34.03,-0.3,1.3,20.7,33.3,25.0,0,no_anomaly,0.0,0,0,0,0,26.9123504,75.787289,9.0,0.0
2024-08-14T16:13:07.100Z,MISSION_0048,71,0,transit,SITE_JAI_009,26.9123543,75.7872865,9.5,90.24,0.493,0.082,5.3,2.0849,-0.2482,90.2446,0.70545,0.01437,0.01136,0.70852,0.0213,-0.0509,-9.8691,0.6495,-0.0021,-0.1231,0.1035,3,14,0.75,1.06,0.3,24.588,17.95,92.1,31.5,20272.0,8503,8345,8564,8168,46.1,46.6,48.4,51.3,2.862,2.824,2.688,2.984,0.35,107.6,23.3,41.6,1017.39,-26.58,0.82,1.28,20.2,30.3,24.8,0,no_anomaly,0.0,0,0,0,0,26.9123543,75.7872865,9.5,0.0
2024-08-14T16:13:07.200Z,MISSION_0048,72,0,transit,SITE_JAI_009,26.9123534,75.7872855,10.0,92.03,0.156,0.004,5.44,-0.435,-1.0446,92.026,0.69449,0.00392,-0.00906,0.71944,-0.0335,0.0602,-9.7862,0.6047,0.1964,0.1559,0.0838,3,14,0.75,0.94,0.26,24.491,17.55,92.1,32.0,20260.0,8296,8304,8440,8265,47.2,47.5,49.5,48.1,2.668,2.667,2.923,2.906,0.26,116.9,23.4,41.4,1017.15,-28.03,0.39,1.27,22.6,35.4,27.6,0,no_anomaly,0.0,0,0,0,0,26.9123534,75.7872855,10.0,0.0
2024-08-14T16:13:07.300Z,MISSION_0048,73,0,transit,SITE_JAI_009,26.9123534,75.7872839,10.5,92.86,0.889,0.079,5.49,0.7885,-3.2468,92.8556,0.68883,0.02527,-0.01454,0.72433,-0.0188,0.0555,-9.9142,0.193,0.2619,-0.152,0.119,3,12,0.86,0.87,0.46,24.602,19.64,92.0,31.4,20248.0,8131,8345,8417,8394,48.4,46.2,50.1,49.9,2.709,2.585,2.917,2.785,0.0,110.7,23.5,41.8,1017.54,-22.23,-0.43,1.5,18.0,36.5,24.0,0,no_anomaly,0.0,0,0,0,0,26.9123534,75.7872839,10.5,0.0
2024-08-14T16:13:07.400Z,MISSION_0048,74,0,transit,SITE_JAI_009,26.9123528,75.7872863,11.0,92.16,1.106,0.054,5.47,-1.9498,-2.3023,92.1576,0.69367,0.00267,-0.02619,0.71981,0.0323,0.0659,-9.8134,0.3492,0.5792,-0.1174,0.0469,3,11,0.71,0.78,0.2,24.578,14.69,92.0,31.3,20237.0,8323,8325,8341,8360,47.8,49.7,48.4,46.7,2.617,2.865,3.007,3.088,0.0,113.4,23.4,40.3,1017.24,-31.15,-0.24,1.74,20.4,32.6,24.5,0,no_anomaly,0.0,0,0,0,0,26.9123528,75.7872863,11.0,0.0
2024-08-14T16:13:07.500Z,MISSION_0048,75,0,transit,SITE_JAI_009,26.9123545,75.7872902,11.5,92.68,0.966,0.125,5.18,3.8043,-2.7782,92.6798,0.68921,0.04044,0.00728,0.72339,0.0286,0.0221,-9.7829,-0.2658,-0.4263,-0.2064,0.1702,3,12,0.71,0.96,0.2,24.528,19.68,91.9,32.1,20225.0,8474,8452,8534,8181,49.6,49.2,50.7,49.9,2.677,2.981,2.81,2.849,0.0,115.3,23.4,41.6,1017.06,-31.48,1.21,1.32,16.8,36.8,24.0,0,no_anomaly,0.0,0,0,0,0,26.9123545,75.7872902,11.5,0.0
2024-08-14T16:13:07.600Z,MISSION_0048,76,0,transit,SITE_JAI_009,26.912347,75.7872906,12.0,90.56,0.662,0.124,5.99,-0.5498,-2.1194,90.561,0.70357,0.00977,-0.01642,0.71037,0.0684,-0.0916,-9.8102,0.3134,-0.2442,-0.3341,0.0912,3,13,0.99,1.05,0.39,24.619,18.45,91.9,31.8,20213.0,8378,8431,8453,8338,48.7,48.3,48.6,48.4,2.728,2.852,2.868,3.098,0.0,111.9,23.5,41.3,1017.33,-30.85,0.79,1.02,18.9,30.8,26.0,0,no_anomaly,0.0,0,0,0,0,26.912347,75.7872906,12.0,0.0
2024-08-14T16:13:07.700Z,MISSION_0048,77,0,transit,SITE_JAI_009,26.9123432,75.7872886,12.5,89.69,0.435,0.103,6.45,-2.0249,-3.2318,89.6946,0.70895,0.00736,-0.03245,0.70448,0.022,-0.0142,-9.8194,0.1236,0.3479,-0.0695,0.063,3,20,0.83,0.88,0.25,24.634,18.07,91.8,32.5,20201.0,8410,8541,8370,8393,47.6,48.8,48.2,49.1,3.03,2.748,2.71,2.758,0.23,116.0,23.4,40.9,1017.43,-31.37,-0.73,1.58,19.7,37.3,27.2,0,no_anomaly,0.0,0,0,0,0,26.9123432,75.7872886,12.5,0.0
2024-08-14T16:13:07.800Z,MISSION_0048,78,0,transit,SITE_JAI_009,26.9123437,75.7872853,13.0,91.13,0.091,0.152,6.47,-1.2018,-0.558,91.1308,0.70008,-0.00387,-0.0109,0.71397,0.0821,0.0292,-9.7619,0.6222,0.1823,0.1669,0.0662,3,10,0.78,0.9,0.35,24.548,13.75,91.8,31.0,20190.0,8518,8316,8436,8459,50.8,46.1,47.5,49.0,2.695,2.865,2.793,2.579,0.25,120.7,23.7,41.2,1017.02,-25.75,0.78,1.49,15.4,33.1,24.5,0,no_anomaly,0.0,0,0,0,0,26.9123437,75.7872853,13.0,0.0
2024-08-14T16:13:07.900Z,MISSION_0048,79,0,transit,SITE_JAI_009,26.912337,75.7872815,13.2,91.64,0.131,0.116,7.31,0.4376,0.2919,91.6409,0.69691,0.00083,0.00451,0.71714,0.0252,-0.0301,-9.842,-0.1636,0.7239,-0.0282,0.0738,3,11,0.89,0.98,0.48,24.503,18.95,91.7,32.2,20178.0,8597,8266,8544,8401,48.6,50.7,48.5,49.7,2.793,2.735,2.764,2.853,0.0,110.4,23.4,41.7,1017.24,-31.08,-1.29,1.29,16.8,34.3,29.2,0,no_anomaly,0.0,0,0,0,0,26.912337,75.7872815,13.2,0.0
2024-08-14T16:13:08.000Z,MISSION_0048,80,0,transit,SITE_JAI_009,26.9123354,75.7872844,13.2,91.57,0.039,0.061,7.4,0.7415,0.2822,91.5723,0.69733,0.00275,0.00636,0.71671,-0.0108,0.0953,-9.7228,0.1141,0.4591,0.4355,0.0726,3,19,0.67,1.05,0.4,24.588,18.53,91.7,31.6,20166.0,8585,8622,8335,8258,51.2,49.6,48.9,48.7,2.636,2.589,3.042,2.76,0.42,120.2,23.7,41.6,1017.29,-24.72,-1.23,1.56,21.4,29.7,27.9,0,no_anomaly,0.0,0,0,0,0,26.9123354,75.7872844,13.2,0.0
2024-08-14T16:13:08.100Z,MISSION_0048,81,0,transit,SITE_JAI_009,26.912337,75.7872852,13.2,90.04,0.581,0.119,7.2,-0.4817,0.0019,90.0371,0.70687,-0.00298,-0.00296,0.70733,-0.0834,0.0201,-9.697,0.4439,0.5002,-0.3928,0.0617,3,16,0.55,1.14,0.2,24.628,13.67,91.6,31.7,20155.0,8502,8587,8469,8429,50.7,48.4,48.9,49.4,2.798,2.83,2.542,2.6,0.0,115.3,23.8,40.1,1016.92,-36.32,-1.23,1.5,19.9,37.7,27.4,0,no_anomaly,0.0,0,0,0,0,26.912337,75.7872852,13.2,0.0
2024-08-14T16:13:08.200Z,MISSION_0048,82,0,transit,SITE_JAI_009,26.9123366,75.7872839,13.2,87.04,0.553,0.129,7.28,-1.3984,-4.0083,87.0442,0.72491,0.01524,-0.03375,0.68785,-0.0491,0.0614,-9.8082,0.3285,-0.8008,-0.1972,0.0966,3,18,0.72,1.01,0.31,24.567,16.32,91.6,32.3,20143.0,8466,8246,8283,8434,47.8,46.9,47.6,47.5,2.991,2.794,2.989,2.862,0.0,118.3,23.6,40.8,1017.39,-34.08,-0.91,1.62,20.4,38.0,25.3,0,no_anomaly,0.0,0,0,0,0,26.9123366,75.7872839,13.2,0.0
2024-08-14T16:13:08.300Z,MISSION_0048,83,0,transit,SITE_JAI_009,26.9123338,75.78728,13.2,86.72,0.459,0.076,7.7,-1.9615,-1.2414,86.715,0.72706,-0.00501,-0.01963,0.68627,-0.025,-0.0047,-9.8387,1.1056,0.9744,-0.52,0.0954,3,20,0.83,0.88,0.4,24.544,19.53,91.5,32.3,20131.0,8500,8373,8340,8329,49.1,54.7,53.5,47.3,2.891,2.756,2.839,2.819,0.0,112.5,23.4,42.3,1016.95,-28.79,0.62,1.86,18.7,29.0,23.0,0,no_anomaly,0.0,0,0,0,0,26.9123338,75.78728,13.2,0.0
2024-08-14T16:13:08.400Z,MISSION_0048,84,0,transit,SITE_JAI_009,26.9123311,75.787281,13.2,84.8,0.0,0.059,7.95,-1.5986,-2.181,84.7985,0.73844,0.00253,-0.02346,0.67391,-0.0967,-0.0616,-9.7419,0.6194,0.0069,0.3491,0.1167,3,10,0.72,0.99,0.2,24.528,18.72,91.5,32.5,20119.0,8482,8461,8428,8274,50.8,46.8,47.7,48.2,2.696,3.023,2.936,2.752,0.0,114.4,23.7,40.7,1016.94,-30.64,-0.26,1.5,17.2,37.0,23.7,0,no_anomaly,0.0,0,0,0,0,26.9123311,75.787281,13.2,0.0
2024-08-14T16:13:08.500Z,MISSION_0048,85,0,transit,SITE_JAI_009,26.9123249,75.7872818,13.2,86.09,0.225,0.211,8.6,1.5856,-3.3241,86.0902,0.73017,0.0299,-0.01175,0.68251,0.057,0.0179,-9.8177,-0.6224,-1.1635,-0.1767,0.103,3,20,0.67,0.93,0.31,24.567,15.51,91.4,31.9,20108.0,8593,8638,8426,8325,46.1,49.5,51.4,47.3,2.813,2.806,2.912,2.673,0.19,121.2,23.7,41.3,1017.49,-27.18,0.16,1.63,18.4,37.7,23.5,0,no_anomaly,0.0,0,0,0,0,26.9123249,75.7872818,13.2,0.0
2024-08-14T16:13:08.600Z,MISSION_0048,86,0,transit,SITE_JAI_009,26.9123219,75.7872861,13.2,87.95,0.421,0.01,8.83,0.0638,-2.6122,87.946,0.71947,0.01623,-0.01602,0.69415,0.0196,-0.0455,-9.8729,0.342,0.5013,-0.2363,0.1021,3,17,0.68,1.08,0.34,24.498,18.95,91.3,31.2,20096.0,8590,8330,8499,8365,48.8,49.1,47.8,48.7,2.547,2.692,2.59,2.642,0.64,112.5,23.3,39.7,1017.09,-31.36,1.76,1.46,21.1,37.3,28.5,0,no_anomaly,0.0,0,0,0,0,26.9123219,75.7872861,13.2,0.0
2024-08-14T16:13:08.700Z,MISSION_0048,87,0,transit,SITE_JAI_009,26.9123219,75.7872867,13.2,87.35,0.473,0.203,8.82,2.1145,-2.3537,87.3528,0.72271,0.02752,-0.00211,0.6906,0.0224,0.0607,-9.8277,-1.2187,-0.7646,-0.4625,0.0146,3,12,0.69,1.06,0.32,24.58,14.15,91.3,31.5,20084.0,8303,8357,8255,8541,48.7,51.0,50.0,45.2,2.771,2.509,2.892,2.744,0.06,112.7,23.7,40.9,1017.23,-31.65,-0.08,1.45,16.8,30.5,24.2,0,no_anomaly,0.0,0,0,0,0,26.9123219,75.7872867,13.2,0.0
2024-08-14T16:13:08.800Z,MISSION_0048,88,0,transit,SITE_JAI_009,26.9123227,75.7872817,13.2,86.35,0.469,0.109,8.84,0.1311,0.5547,86.353,0.72924,-0.00248,0.00431,0.68424,-0.0018,0.0353,-9.7965,-0.7191,0.1765,-0.0103,0.1281,3,15,0.64,0.82,0.29,24.606,15.22,91.2,32.3,20073.0,8379,8646,8388,8317,43.7,48.4,51.2,46.2,2.892,2.975,2.853,2.598,0.14,116.8,23.4,40.4,1017.48,-30.91,1.18,1.51,18.7,33.0,23.0,0,no_anomaly,0.0,0,0,0,0,26.9123227,75.7872817,13.2,0.0
2024-08-14T16:13:08.900Z,MISSION_0048,89,0,transit,SITE_JAI_009,26.9123207,75.7872842,13.2,86.64,0.219,0.101,9.0,0.5024,0.3299,86.64,0.72753,0.00121,0.0051,0.68605,-0.0144,0.0033,-9.9036,0.2493,-0.3472,-0.1939,0.1864,3,14,0.61,1.06,0.25,24.651,20.88,91.2,31.2,20061.0,8281,8371,8446,8619,49.3,48.8,47.5,47.3,2.619,2.9,2.592,2.786,0.0,115.0,23.8,41.4,1017.15,-29.33,0.05,1.0,17.6,31.5,27.1,0,no_anomaly,0.0,0,0,0,0,26.9123207,75.7872842,13.2,0.0
2024-08-14T16:13:09.000Z,MISSION_0048,90,0,transit,SITE_JAI_009,26.9123201,75.7872815,13.2,84.59,0.0,0.056,9.13,-0.7517,-3.5449,84.5938,0.73943,0.01596,-0.02729,0.67249,-0.002,0.0322,-9.873,0.0752,-0.0767,0.1285,0.0752,3,16,0.73,0.95,0.2,24.549,13.45,91.1,32.1,20049.0,8572,8479,8509,8253,49.4,51.1,54.6,50.9,3.062,2.819,2.825,2.893,0.15,121.6,23.9,41.0,1017.44,-32.45,-0.67,1.62,16.3,30.5,24.1,0,no_anomaly,0.0,0,0,0,0,26.9123201,75.7872815,13.2,0.0
2024-08-14T16:13:09.100Z,MISSION_0048,91,0,transit,SITE_JAI_009,26.9123194,75.7872845,13.2,82.25,0.0,0.104,9.14,-0.8865,-1.3457,82.2461,0.75328,0.0019,-0.01393,0.65754,-0.0254,0.0808,-9.765,0.1716,-0.8322,-0.2648,0.1531,3,15,0.54,1.11,0.2,24.654,24.06,91.1,32.0,20037.0,8364,8325,8327,8638,51.4,48.0,48.7,47.9,2.848,3.01,2.735,2.854,0.0,120.6,23.5,41.1,1017.2,-27.98,-0.14,1.31,20.7,36.0,24.6,0,no_anomaly,0.0,0,0,0,0,26.9123194,75.7872845,13.2,0.0
2024-08-14T16:13:09.200Z,MISSION_0048,92,0,transit,SITE_JAI_009,26.9123194,75.787285,13.2,81.47,0.0,-0.022,9.13,0.7636,-1.8224,81.47,0.75755,0.01543,-0.0077,0.65254,-0.0523,0.0748,-9.7584,0.01,0.6675,-0.0807,0.1069,3,10,0.61,0.92,0.2,24.657,15.96,91.0,32.9,20026.0,8469,8135,8576,8478,46.8,46.5,48.1,48.5,2.808,2.848,2.609,2.571,0.01,115.2,23.4,40.5,1017.52,-26.99,-0.84,1.38,18.3,31.7,26.2,0,no_anomaly,0.0,0,0,0,0,26.9123194,75.787285,13.2,0.0
2024-08-14T16:13:09.300Z,MISSION_0048,93,0,transit,SITE_JAI_009,26.9123209,75.7872808,13.2,81.72,0.0,0.075,9.06,-1.5232,-2.0827,81.7228,0.75626,0.00184,-0.02244,0.65388,0.0338,-0.0443,-9.7739,-0.1395,-0.1965,0.1323,0.0623,3,18,0.59,0.82,0.2,24.569,20.96,91.0,31.7,20014.0,8310,8289,8530,8249,44.2,45.7,50.5,47.0,2.741,3.117,2.911,2.952,0.38,114.3,23.9,41.0,1017.3,-27.53,1.11,1.31,18.8,29.0,27.0,0,no_anomaly,0.0,0,0,0,0,26.9123209,75.7872808,13.2,0.0
2024-08-14T16:13:09.400Z,MISSION_0048,94,0,transit,SITE_JAI_009,26.9123209,75.7872793,13.2,82.34,0.118,0.073,9.1,-3.8452,-1.5434,82.3413,0.75256,-0.01639,-0.03222,0.65753,-0.0434,-0.0043,-9.8615,-0.0847,-0.1863,0.2692,0.151,3,14,0.59,1.03,0.2,24.572,15.18,90.9,30.8,20002.0,8443,8374,8252,8398,50.9,48.9,48.2,51.0,2.803,2.891,2.631,2.947,0.0,117.5,23.5,41.8,1017.51,-29.11,1.55,1.8,23.4,36.1,30.3,0,no_anomaly,0.0,0,0,0,0,26.9123209,75.7872793,13.2,0.0
2024-08-14T16:13:09.500Z,MISSION_0048,95,0,transit,SITE_JAI_009,26.912321,75.7872848,13.2,83.93,0.0,0.104,8.96,0.2194,-4.1998,83.9325,0.74299,0.02593,-0.02597,0.66829,0.005,-0.0216,-9.7763,-0.1189,-0.5567,-0.014,0.1459,3,15,0.74,0.6,0.2,24.559,18.04,90.9,31.4,19990.0,8371,8145,8118,8334,45.9,50.9,47.0,49.8,2.564,2.866,2.883,2.987,0.2,112.1,23.4,41.0,1017.19,-30.54,-0.44,1.56,21.6,38.8,26.2,0,no_anomaly,0.0,0,0,0,0,26.912321,75.7872848,13.2,0.0
2024-08-14T16:13:09.600Z,MISSION_0048,96,0,transit,SITE_JAI_009,26.9123161,75.7872867,13.2,85.11,0.543,0.174,9.45,-0.1596,-2.1642,85.1077,0.73653,0.01175,-0.01485,0.67614,-0.039,0.1337,-9.8306,0.5567,-0.6226,-0.1045,0.1162,3,18,0.69,0.64,0.2,24.482,21.05,90.8,31.1,19979.0,8277,8182,8415,8136,50.9,48.4,44.9,51.3,2.634,2.747,2.738,2.6,0.0,112.9,23.7,41.5,1016.93,-32.05,0.0,1.61,20.8,32.7,27.0,0,no_anomaly,0.0,0,0,0,0,26.9123161,75.7872867,13.2,0.0
2024-08-14T16:13:09.700Z,MISSION_0048,97,0,transit,SITE_JAI_009,26.9123156,75.7872864,13.2,85.91,0.781,0.093,9.51,1.1147,0.2671,85.9054,0.7319,0.00553,0.00833,0.68134,-0.0044,-0.0441,-9.8926,-0.5756,-0.3604,0.0761,0.0862,3,15,0.79,0.8,0.41,24.632,19.6,90.8,32.0,19967.0,8312,8171,8534,8578,47.1,50.7,49.2,50.1,2.74,2.596,2.756,3.066,0.0,114.6,23.4,41.9,1017.56,-26.75,-1.06,1.54,19.1,32.0,23.5,0,no_anomaly,0.0,0,0,0,0,26.9123156,75.7872864,13.2,0.0
2024-08-14T16:13:09.800Z,MISSION_0048,98,0,transit,SITE_JAI_009,26.9123185,75.7872919,13.2,83.3,0.799,0.148,9.12,0.2063,-0.3159,83.3045,0.74718,0.00318,-0.00086,0.66461,-0.0025,-0.046,-9.761,-0.1929,-0.8255,0.0589,0.0847,3,19,0.73,0.89,0.42,24.568,16.34,90.7,31.1,19955.0,8282,8214,8780,8278,47.5,50.3,49.5,45.0,2.817,2.886,3.023,2.719,0.16,122.0,23.7,41.1,1017.83,-28.59,0.15,1.72,17.8,30.6,23.5,0,no_anomaly,0.0,0,0,0,0,26.9123185,75.7872919,13.2,0.0
2024-08-14T16:13:09.900Z,MISSION_0048,99,0,transit,SITE_JAI_009,26.9123128,75.7872941,13.2,81.08,1.438,0.058,9.73,-2.689,0.3558,81.0793,0.7597,-0.01985,-0.01289,0.64985,-0.0801,-0.0519,-9.8224,0.312,0.8779,0.0535,0.1214,3,19,0.67,0.87,0.32,24.641,20.5,90.7,31.5,19944.0,8665,8455,8449,8275,48.9,48.4,50.0,50.1,2.709,3.308,2.858,2.803,0.19,102.4,23.4,40.7,1017.01,-31.94,0.56,1.25,19.4,32.5,24.5,0,no_anomaly,0.0,0,0,0,0,26.9123128,75.7872941,13.2,0.0
2024-08-14T16:13:10.000Z,MISSION_0048,100,0,transit,SITE_JAI_009,26.9123141,75.7872923,13.2,80.33,0.791,0.139,9.6,4.0724,-0.8943,80.3276,0.76352,0.03218,0.01696,0.64476,0.0155,-0.1171,-9.8355,-0.0426,0.1496,0.8169,0.0719,3,20,0.62,1.27,0.31,24.588,12.7,90.6,31.9,19932.0,8529,8532,8427,8216,46.4,51.5,46.9,47.4,2.848,2.721,2.744,2.796,0.46,111.7,23.8,40.9,1017.02,-27.17,1.3,1.47,17.2,31.2,26.5,0,no_anomaly,0.0,0,0,0,0,26.9123141,75.7872923,13.2,0.0
2024-08-14T16:13:10.100Z,MISSION_0048,101,0,transit,SITE_JAI_009,26.9123165,75.7872936,13.2,77.68,0.775,0.003,9.32,1.6682,-0.2666,77.6778,0.77881,0.0128,0.00732,0.62709,-0.089,0.0833,-9.8261,0.0593,-0.092,-0.3128,0.0153,3,17,0.66,1.13,0.2,24.61,20.48,90.5,32.0,19920.0,8544,8406,8598,8359,49.4,48.0,48.8,50.2,2.844,2.805,3.049,2.738,0.27,111.5,23.7,40.9,1017.38,-32.55,-0.63,1.0,20.1,35.8,24.7,0,no_anomaly,0.0,0,0,0,0,26.9123165,75.7872936,13.2,0.0
2024-08-14T16:13:10.200Z,MISSION_0048,102,0,transit,SITE_JAI_009,26.9123214,75.7872948,13.2,79.47,1.128,0.173,8.77,1.3868,-1.1703,79.4734,0.76881,0.01583,-0.00012,0.63928,-0.0713,0.0211,-9.8242,0.0843,0.6978,0.19,0.0173,3,20,0.76,1.17,0.34,24.63,15.56,90.5,32.1,19908.0,8654,8338,8625,8512,50.9,50.3,50.2,51.3,2.506,2.871,2.848,2.769,0.0,107.5,23.7,41.0,1017.46,-33.25,1.1,1.38,17.3,31.0,27.5,0,no_anomaly,0.0,0,0,0,0,26.9123214,75.7872948,13.2,0.0
2024-08-14T16:13:10.300Z,MISSION_0048,103,0,transit,SITE_JAI_009,26.9123181,75.7872895,13.2,77.86,1.139,0.043,9.19,2.4312,-1.5611,77.8572,0.7775,0.02506,0.00273,0.62838,0.0465,-0.1013,-9.7462,-1.1303,0.4211,0.15,0.158,3,20,0.71,0.85,0.32,24.551,22.8,90.4,32.1,19897.0,8601,8139,8649,8600,48.3,47.4,48.3,44.9,2.962,2.79,2.708,2.932,0.01,121.0,23.8,40.4,1017.29,-31.4,0.36,1.84,18.4,31.1,26.2,0,no_anomaly,0.0,0,0,0,0,26.9123181,75.7872895,13.2,0.0
2024-08-14T16:13:10.400Z,MISSION_0048,104,0,transit,SITE_JAI_009,26.9123167,75.7872882,13.2,79.67,1.132,0.038,9.36,-0.963,0.328,79.6673,0.76786,-0.00829,-0.00319,0.64055,0.006,0.0266,-9.785,-0.1603,0.5377,-0.126,0.1259,3,14,0.67,0.94,0.22,24.536,16.83,90.4,31.5,19885.0,8502,8332,8711,8241,48.3,50.5,48.5,47.9,2.729,2.886,2.85,3.15,0.0,105.8,23.4,41.3,1017.1,-29.94,1.03,1.87,19.3,35.1,25.6,0,no_anomaly,0.0,0,0,0,0,26.9123167,75.7872882,13.2,0.0
2024-08-14T16:13:10.500Z,MISSION_0048,105,0,transit,SITE_JAI_009,26.9123167,75.7872923,13.2,82.01,0.911,0.14,9.32,-0.4518,-0.2176,82.0131,0.75463,-0.00173,-0.00402,0.65613,0.04,-0.0294,-9.8288,-0.7481,0.0822,0.3277,0.0909,3,19,0.74,0.66,0.2,24.598,24.42,90.3,31.3,19873.0,8578,8483,8409,8447,48.1,48.4,49.9,50.2,2.934,2.78,2.669,2.639,0.0,106.8,23.3,41.9,1016.93,-28.04,-0.24,1.59,16.7,38.0,28.1,0,no_anomaly,0.0,0,0,0,0,26.9123167,75.7872923,13.2,0.0
2024-08-14T16:13:10.600Z,MISSION_0048,106,0,transit,SITE_JAI_009,26.9123197,75.7872946,13.2,82.13,0.968,0.036,8.96,3.1417,-3.4057,82.1339,0.75279,0.04017,-0.00439,0.65702,-0.0093,-0.0203,-9.7944,-0.3083,-0.623,0.7196,0.1386,3,12,0.78,0.83,0.24,24.569,17.23,90.3,31.3,19861.0,8410,8339,8348,8516,49.2,49.5,48.7,49.2,2.533,2.769,3.016,3.059,0.0,123.5,23.5,40.3,1017.32,-36.81,-0.53,1.35,21.8,35.5,28.7,0,no_anomaly,0.0,0,0,0,0,26.9123197,75.7872946,13.2,0.0
2024-08-14T16:13:10.700Z,MISSION_0048,107,0,transit,SITE_JAI_009,26.9123206,75.7872918,13.2,80.78,1.171,0.164,8.89,1.5522,-3.8154,80.7815,0.76086,0.03188,-0.01658,0.64792,-0.0177,-0.0202,-9.8441,0.6314,-0.3194,-0.4239,0.1272,3,15,0.77,0.82,0.28,24.591,20.6,90.2,31.6,19850.0,8568,8719,8560,8595,49.8,47.8,48.6,47.9,2.438,2.721,2.806,2.734,0.0,119.3,24.0,41.1,1017.63,-30.84,0.94,1.6,18.9,34.9,26.4,0,no_anomaly,0.0,0,0,0,0,26.9123206,75.7872918,13.2,0.0
2024-08-14T16:13:10.800Z,MISSION_0048,108,0,transit,SITE_JAI_009,26.9123226,75.7872924,13.2,83.11,1.106,0.115,8.66,-0.1027,-3.3733,83.1086,0.74802,0.01885,-0.02262,0.66302,0.1035,-0.0383,-9.868,0.1884,-0.5314,0.1708,0.1463,3,15,0.56,1.1,0.23,24.526,18.44,90.2,31.6,19838.0,8388,8441,8699,8320,49.1,50.1,47.6,46.0,2.874,2.607,2.973,2.832,0.0,121.7,23.1,41.2,1017.33,-25.7,-0.6,1.65,20.3,30.4,26.1,0,no_anomaly,0.0,0,0,0,0,26.9123226,75.7872924,13.2,0.0
2024-08-14T16:13:10.900Z,MISSION_0048,109,0,transit,SITE_JAI_009,26.9123179,75.7872957,13.2,83.23,0.964,0.089,9.15,-0.9089,-1.9321,83.227,0.7476,0.00527,-0.01787,0.66389,-0.0389,-0.0095,-9.7663,-0.3261,-0.5506,0.104,0.0232,3,17,0.61,0.77,0.32,24.608,12.97,90.1,32.5,19826.0,8438,8544,8556,8517,44.3,51.7,49.6,51.7,2.853,2.706,2.79,2.921,0.0,121.0,23.8,40.9,1017.37,-28.45,-0.27,1.74,18.5,32.2,28.0,0,no_anomaly,0.0,0,0,0,0,26.9123179,75.7872957,13.2,0.0
2024-08-14T16:13:11.000Z,MISSION_0048,110,0,transit,SITE_JAI_009,26.9123129,75.787298,13.2,83.05,1.396,0.151,9.7,-0.4096,0.3612,83.0524,0.74864,-0.00477,-1e-05,0.66296,0.0179,-0.0687,-9.9038,-0.3097,-0.43,0.5287,0.0864,3,15,0.77,0.6,0.22,24.549,11.11,90.1,32.0,19815.0,8507,8333,8425,8280,50.9,49.1,44.1,51.6,2.634,3.025,2.981,2.835,0.44,111.1,23.4,41.5,1016.99,-32.45,1.67,1.21,19.0,30.8,23.8,0,no_anomaly,0.0,0,0,0,0,26.9123129,75.787298,13.2,0.0
2024-08-14T16:13:11.100Z,MISSION_0048,111,0,transit,SITE_JAI_009,26.9123123,75.7872971,13.2,84.97,1.504,0.16,9.76,-0.6807,1.2383,84.9655,0.73738,-0.01168,0.00396,0.67536,-0.0307,-0.1149,-9.8412,-0.6236,-0.5458,-0.0055,0.1279,3,17,0.64,1.05,0.25,24.485,19.1,90.0,32.3,19803.0,8591,8608,8408,8172,49.9,50.9,50.9,46.5,2.979,2.845,2.962,2.885,0.45,125.7,23.6,41.4,1017.5,-29.27,-0.84,1.39,19.3,33.2,27.1,0,no_anomaly,0.0,0,0,0,0,26.9123123,75.7872971,13.2,0.0
2024-08-14T16:13:11.200Z,MISSION_0048,112,0,transit,SITE_JAI_009,26.912314,75.7872977,13.2,84.24,1.48,0.101,9.58,0.0371,-0.2569,84.2364,0.74176,0.00174,-0.00145,0.67066,-0.0738,-0.0041,-9.896,-0.0175,0.6003,0.2326,0.0627,3,18,0.62,0.73,0.26,24.582,20.12,90.0,32.2,19791.0,8574,8483,8222,8229,51.0,52.6,49.2,46.7,2.717,2.869,2.653,2.948,0.0,115.8,23.5,41.3,1016.96,-28.63,-0.57,1.55,20.2,31.0,26.5,0,no_anomaly,0.0,0,0,0,0,26.912314,75.7872977,13.2,0.0
2024-08-14T16:13:11.300Z,MISSION_0048,113,0,transit,SITE_JAI_009,26.9123149,75.7872995,13.2,86.43,1.528,0.177,9.47,-0.8194,0.2597,86.4252,0.72879,-0.00676,-0.00324,0.6847,0.0261,0.0672,-9.8781,-0.499,-0.65,0.2075,0.0938,3,17,0.73,0.91,0.32,24.556,16.96,89.9,31.8,19779.0,8229,8290,8472,8709,46.7,53.5,47.3,50.1,2.896,2.618,2.638,2.611,0.0,120.2,23.8,41.5,1017.34,-32.82,0.42,1.14,19.3,34.1,27.6,0,no_anomaly,0.0,0,0,0,0,26.9123149,75.7872995,13.2,0.0
2024-08-14T16:13:11.400Z,MISSION_0048,114,0,transit,SITE_JAI_009,26.9123135,75.7872989,13.2,87.45,1.606,0.036,9.63,-0.3365,-1.4947,87.45,0.72263,0.00689,-0.01146,0.69111,0.01,0.0801,-9.7804,-0.2775,0.0847,0.0045,0.098,3,15,0.64,0.79,0.2,24.561,18.89,89.9,32.1,19768.0,8491,8473,8615,8427,45.5,47.1,46.9,47.8,2.459,2.829,2.684,2.599,0.0,117.2,23.5,41.7,1017.14,-29.79,-1.34,1.25,21.9,37.3,27.0,0,no_anomaly,0.0,0,0,0,0,26.9123135,75.7872989,13.2,0.0
2024-08-14T16:13:11.500Z,MISSION_0048,115,0,transit,SITE_JAI_009,26.9123168,75.7873036,13.2,85.46,1.608,0.007,9.28,-1.4802,0.1859,85.4591,0.73449,-0.01059,-0.00757,0.6785,-0.0624,-0.0955,-9.8482,0.1273,-0.9716,-0.0054,0.1073,3,10,0.63,0.6,0.23,24.629,21.61,89.8,31.9,19756.0,8353,8327,8468,8303,51.4,48.0,49.6,45.4,3.096,2.791,2.852,2.671,0.77,118.8,23.4,40.9,1017.03,-31.73,1.02,1.36,17.4,35.5,25.1,0,no_anomaly,0.0,0,0,0,0,26.9123168,75.7873036,13.2,0.0
2024-08-14T16:13:11.600Z,MISSION_0048,116,0,transit,SITE_JAI_009,26.912316,75.787306,13.2,81.02,1.063,0.135,9.38,-1.6427,-1.2555,81.0182,0.76028,-0.00378,-0.01764,0.64934,0.0473,0.0137,-9.7837,0.2355,0.1007,-0.485,0.1024,3,20,0.59,1.06,0.2,24.442,17.77,89.7,32.5,19744.0,8447,8560,8430,8531,46.6,47.8,50.0,46.6,2.704,3.167,2.875,2.723,0.33,109.1,23.7,41.0,1017.39,-32.24,0.8,1.75,22.1,33.1,29.1,0,no_anomaly,0.0,0,0,0,0,26.912316,75.787306,13.2,0.0
2024-08-14T16:13:11.700Z,MISSION_0048,117,0,transit,SITE_JAI_009,26.9123105,75.7873015,13.2,82.45,1.592,0.092,9.97,-1.0386,-1.2034,82.4494,0.75212,0.0001,-0.01387,0.65888,-0.0315,-0.0192,-9.7463,0.4857,-1.1705,0.2414,0.0731,3,17,0.64,0.6,0.22,24.489,22.08,89.7,32.2,19733.0,8309,8371,8588,8570,46.4,47.4,49.3,47.6,2.862,2.806,2.916,2.965,0.0,116.3,23.7,40.5,1017.29,-24.47,0.1,1.9,14.6,36.3,25.1,0,no_anomaly,0.0,0,0,0,0,26.9123105,75.7873015,13.2,0.0
2024-08-14T16:13:11.800Z,MISSION_0048,118,0,transit,SITE_JAI_009,26.9123119,75.7873014,13.2,82.59,1.494,0.07,9.81,-1.1939,-0.1622,82.5912,0.75128,-0.00689,-0.00794,0.6599,-0.0204,-0.0338,-9.7845,0.917,0.35,0.3181,0.1067,3,11,0.52,1.03,0.21,24.553,18.75,89.6,31.8,19721.0,8617,8649,8446,8495,46.5,47.8,47.7,48.0,2.707,2.525,2.453,2.608,0.23,110.6,23.7,40.6,1016.82,-22.74,2.4,1.77,14.9,34.9,24.3,0,no_anomaly,0.0,0,0,0,0,26.9123119,75.7873014,13.2,0.0
2024-08-14T16:13:11.900Z,MISSION_0048,119,0,transit,SITE_JAI_009,26.912314,75.7872975,13.2,84.39,0.911,0.075,9.58,-1.5352,-1.225,84.3947,0.74082,-0.00274,-0.01692,0.67148,0.0117,-0.0001,-9.8586,-0.3394,-0.2268,0.012,0.1112,3,10,0.62,1.09,0.41,24.466,20.41,89.6,32.0,19709.0,8240,8100,8439,8320,48.3,50.7,49.6,48.9,2.62,2.954,2.66,2.928,0.82,112.7,23.4,40.4,1017.44,-25.8,-0.04,1.87,16.6,29.9,25.6,0,no_anomaly,0.0,0,0,0,0,26.912314,75.7872975,13.2,0.0
2024-08-14T16:13:12.000Z,MISSION_0048,120,0,transit,SITE_JAI_009,26.9123166,75.7872968,13.2,82.47,0.814,0.17,9.29,-2.3434,-0.7114,82.474,0.7519,-0.01129,-0.01815,0.65893,0.0138,-0.056,-9.754,-0.3596,0.0642,-0.2456,0.1939,3,12,0.6,0.68,0.2,24.508,20.26,89.5,31.4,19697.0,8504,8610,8516,8471,50.1,46.4,49.4,50.7,2.668,2.719,2.745,2.755,0.68,120.1,23.4,42.4,1017.02,-29.48,-0.1,1.0,19.3,32.5,24.9,0,no_anomaly,0.0,0,0,0,0,26.9123166,75.7872968,13.2,0.0
2024-08-14T16:13:12.100Z,MISSION_0048,121,0,transit,SITE_JAI_009,26.9123157,75.7872966,13.2,82.4,0.847,0.119,9.39,-1.3733,-2.712,82.3961,0.75236,0.00657,-0.0257,0.65822,0.1078,0.0655,-9.7228,-0.3648,-0.1779,0.1965,0.061,3,17,0.74,0.89,0.37,24.579,11.14,89.5,31.8,19686.0,8550,8597,8322,8516,49.7,47.6,49.5,46.6,2.987,2.93,2.891,2.42,0.75,105.4,23.5,40.3,1017.19,-34.2,-0.35,1.03,21.6,40.3,30.5,0,no_anomaly,0.0,0,0,0,0,26.9123157,75.7872966,13.2,0.0
2024-08-14T16:13:12.200Z,MISSION_0048,122,0,transit,SITE_JAI_009,26.9123187,75.7873017,13.2,83.34,0.421,0.096,9.05,1.8749,-3.7372,83.3356,0.74616,0.03389,-0.01348,0.66477,0.0341,0.0088,-9.8275,-0.1952,-0.279,0.6085,0.0733,3,18,0.83,0.88,0.3,24.497,25.58,89.4,31.7,19674.0,8728,8346,8192,8346,43.5,47.2,47.7,44.1,2.923,2.408,2.565,3.034,0.0,111.9,23.6,41.3,1016.99,-32.28,0.3,1.0,19.7,31.3,28.8,0,no_anomaly,0.0,0,0,0,0,26.9123187,75.7873017,13.2,0.0
2024-08-14T16:13:12.300Z,MISSION_0048,123,0,transit,SITE_JAI_009,26.9123212,75.7873041,13.2,83.41,0.946,0.105,8.78,-0.8059,-3.2121,83.4127,0.74638,0.0134,-0.0256,0.66489,0.0187,-0.1142,-9.7748,0.6898,0.2088,0.1401,0.1685,3,12,0.81,1.07,0.29,24.534,22.54,89.4,31.2,19662.0,8555,8290,8345,8740,51.0,51.3,51.4,51.2,2.837,2.881,2.76,2.883,0.77,110.7,23.5,41.2,1017.18,-29.43,-0.87,1.34,18.5,34.8,27.6,0,no_anomaly,0.0,0,0,0,0,26.9123212,75.7873041,13.2,0.0
2024-08-14T16:13:12.400Z,MISSION_0048,124,0,transit,SITE_JAI_009,26.9123217,75.7873052,13.2,82.54,0.876,0.098,8.74,-1.1231,-2.7451,82.5376,0.75153,0.00843,-0.02447,0.6592,0.0203,-0.0163,-9.82,1.0506,-0.4217,0.4661,0.0815,3,14,0.53,0.73,0.2,24.588,14.92,89.3,32.0,19650.0,8521,8573,8403,8277,48.4,48.0,49.5,51.9,2.977,2.905,2.799,2.854,0.57,109.4,23.5,41.0,1017.06,-28.73,-1.06,1.97,15.2,37.3,25.4,0,no_anomaly,0.0,0,0,0,0,26.9123217,75.7873052,13.2,0.0
2024-08-14T16:13:12.500Z,MISSION_0048,125,1,transit,SITE_JAI_009,26.91232,75.7873036,13.2,83.61,1.316,0.075,8.92,-0.3361,-1.1516,83.6116,0.74539,0.00451,-0.00945,0.66655,0.0991,0.0052,-9.9368,-0.6442,-0.1895,0.1257,0.0979,3,19,0.64,0.94,0.36,24.555,19.06,89.3,32.4,19639.0,8257,8196,8458,8158,47.5,51.6,46.4,46.0,2.943,2.843,2.835,2.619,0.27,109.1,23.4,40.7,1017.5,-28.6,1.39,1.72,19.7,34.1,30.0,0,no_anomaly,0.0,0,0,0,0,26.91232,75.7873036,13.2,0.0
2024-08-14T16:13:12.600Z,MISSION_0048,126,1,transit,SITE_JAI_009,26.9123232,75.7873009,13.2,86.0,1.686,0.108,8.54,-1.9992,-2.8524,85.9993,0.73132,0.00422,-0.03009,0.68136,-0.0073,-0.0386,-9.8592,-0.3334,0.0018,-0.1873,0.1602,3,15,0.82,1.01,0.37,24.46,17.19,89.2,31.0,19627.0,8530,8483,8792,8490,50.3,49.3,51.5,49.2,2.562,2.816,3.022,2.8,0.0,124.6,23.6,40.5,1017.38,-36.06,-0.72,1.35,20.3,35.4,24.4,0,no_anomaly,0.0,0,0,0,0,26.9123232,75.7873009,13.2,0.0
2024-08-14T16:13:12.700Z,MISSION_0048,127,1,transit,SITE_JAI_009,26.9123219,75.7873,13.2,85.6,1.784,0.15,8.69,-0.2571,-6.1155,85.5966,0.73278,0.0346,-0.04066,0.67836,-0.0283,-0.1252,-9.8671,-0.0553,-0.4237,0.1773,0.1364,3,12,0.79,1.06,0.28,24.541,19.18,89.2,31.8,19615.0,8319,8495,8020,8575,50.2,47.9,50.9,50.0,3.053,2.659,2.615,2.925,0.25,117.7,23.5,41.0,1017.2,-31.87,0.66,1.72,18.5,37.3,23.1,0,no_anomaly,0.0,0,0,0,0,26.9123219,75.7873,13.2,0.0
2024-08-14T16:13:12.800Z,MISSION_0048,128,1,transit,SITE_JAI_009,26.9123197,75.7873017,13.2,84.87,2.044,0.098,8.94,-2.1323,-2.8176,84.8695,0.738,0.00286,-0.03069,0.67409,0.0132,0.0898,-9.7598,0.1103,-0.4529,-0.108,0.064,3,12,0.61,1.0,0.32,24.479,13.65,89.1,31.2,19604.0,8491,8317,8482,8241,50.5,49.3,48.6,48.0,3.041,3.141,2.61,2.655,0.16,110.7,23.6,41.6,1017.44,-28.22,0.21,1.59,18.3,29.7,24.1,0,no_anomaly,0.0,0,0,0,0,26.9123197,75.7873017,13.2,0.0
2024-08-14T16:13:12.900Z,MISSION_0048,129,1,transit,SITE_JAI_009,26.9123211,75.7873,13.2,83.68,1.85,0.048,8.78,-0.7719,-3.993,83.6838,0.74468,0.01822,-0.03044,0.66648,-0.0774,-0.0272,-9.8319,-0.187,0.0806,-0.0283,0.1063,3,17,0.68,1.2,0.28,24.524,10.62,89.1,31.4,19592.0,8688,8296,8527,8417,47.2,45.8,50.7,45.1,2.759,2.861,2.862,2.963,0.05,116.7,23.7,41.3,1017.17,-26.95,0.28,1.38,20.3,32.8,27.0,0,no_anomaly,0.0,0,0,0,0,26.9123211,75.7873,13.2,0.0
2024-08-14T16:13:13.000Z,MISSION_0048,130,1,transit,SITE_JAI_009,26.9123194,75.7873017,13.2,86.06,1.865,0.142,8.97,-2.388,-2.9611,86.064,0.73094,0.0024,-0.0331,0.68164,0.0787,0.0441,-9.7731,-0.6403,-0.006,0.7566,0.058,3,18,0.77,0.64,0.29,24.474,15.33,89.0,32.1,19580.0,8565,8419,8377,8360,48.5,46.2,48.4,50.1,2.795,2.944,2.716,2.86,0.0,115.6,23.8,41.5,1017.1,-26.68,0.07,2.06,16.7,28.4,27.4,0,no_anomaly,0.0,0,0,0,0,26.9123194,75.7873017,13.2,0.0
