timestamp_utc,mission_id,frame_id,waypoint_id,inspection_phase,site_id,latitude_deg,longitude_deg,altitude_m,heading_deg,ground_speed_ms,vertical_speed_ms,distance_to_tower_m,roll_deg,pitch_deg,yaw_deg,quat_w,quat_x,quat_y,quat_z,accel_x_ms2,accel_y_ms2,accel_z_ms2,gyro_x_rads,gyro_y_rads,gyro_z_rads,vibration_level,gps_fix_type,gps_satellite_count,gps_hdop,gps_vdop,position_error_m,battery_voltage_v,battery_current_a,battery_remaining_pct,battery_temp_c,battery_capacity_mah,motor_fl_rpm,motor_fr_rpm,motor_rl_rpm,motor_rr_rpm,motor_fl_temp_c,motor_fr_temp_c,motor_rl_temp_c,motor_rr_temp_c,motor_fl_thrust_n,motor_fr_thrust_n,motor_rl_thrust_n,motor_rr_thrust_n,wind_speed_ms,wind_dir_deg,air_temp_c,humidity_pct,pressure_hpa,gimbal_pitch_deg,gimbal_roll_deg,zoom_factor,ir_temp_min_c,ir_temp_max_c,ir_temp_avg_c,anomaly_detected,anomaly_class,anomaly_confidence,anomaly_bbox_x,anomaly_bbox_y,anomaly_bbox_w,anomaly_bbox_h,anomaly_gps_lat,anomaly_gps_lon,anomaly_gps_alt_m,ir_temp_delta_c
2024-08-17T15:32:00.000Z,MISSION_0066,0,0,takeoff,SITE_PUN_007,18.520405,73.8567005,1.5,46.36,0.28,0.068,0.56,-3.7647,-2.9176,46.3624,0.9188,-0.02017,-0.03632,0.39253,-0.0958,-0.0441,-9.7165,-0.1396,-0.6003,0.0455,0.2019,3,10,0.55,0.81,0.32,24.701,18.14,95.4,44.4,20985.0,7954,7746,7750,7864,58.7,61.0,61.0,58.7,2.488,3.059,2.879,2.99,4.32,249.0,35.8,50.6,1015.42,-33.91,0.69,1.69,28.6,44.3,36.2,0,no_anomaly,0.0,0,0,0,0,18.520405,73.8567005,1.5,0.0
2024-08-17T15:32:00.100Z,MISSION_0066,1,0,takeoff,SITE_PUN_007,18.5204049,73.8567021,3.0,50.04,0.0,0.087,0.59,2.2083,-1.2909,50.0415,0.90584,0.02222,-0.00206,0.42304,-0.1354,-0.0099,-9.8081,0.2783,-0.7219,0.1742,0.1569,3,14,0.76,0.68,0.31,24.718,16.89,95.3,44.0,20968.0,7996,7900,7872,7917,57.7,60.1,61.6,61.3,2.732,2.639,2.547,3.063,4.31,238.8,36.1,49.9,1015.26,-30.04,-1.04,2.15,31.6,40.1,35.5,0,no_anomaly,0.0,0,0,0,0,18.5204049,73.8567021,3.0,0.0
2024-08-17T15:32:00.200Z,MISSION_0066,2,0,takeoff,SITE_PUN_007,18.5203984,73.856701,4.5,48.31,0.652,0.193,0.21,-1.4131,-3.9526,48.3123,0.912,0.00287,-0.03651,0.40856,0.0683,-0.133,-9.7406,-0.1482,0.2076,-0.1853,0.199,3,17,0.58,1.11,0.31,24.698,23.38,95.2,44.4,20952.0,7774,7997,7747,8039,60.9,57.0,61.2,60.3,2.733,2.898,2.488,2.762,4.12,240.1,35.7,51.4,1015.76,-29.05,-1.1,1.86,32.5,49.6,38.6,0,no_anomaly,0.0,0,0,0,0,18.5203984,73.856701,4.5,0.0
2024-08-17T15:32:00.300Z,MISSION_0066,3,0,takeoff,SITE_PUN_007,18.5203936,73.8566988,5.0,48.59,0.884,0.109,0.72,4.278,-1.7036,48.5949,0.91046,0.04013,0.00182,0.41165,0.1686,0.0413,-9.8338,-0.1828,-0.0587,-0.3938,0.148,3,10,0.69,0.86,0.27,24.628,19.56,95.2,44.4,20935.0,7949,7902,7910,7955,62.3,61.4,59.4,63.3,2.788,2.859,2.813,2.733,4.53,234.8,35.7,50.7,1015.09,-34.77,-0.28,1.27,32.9,50.4,37.2,0,no_anomaly,0.0,0,0,0,0,18.5203936,73.8566988,5.0,0.0
2024-08-17T15:32:00.400Z,MISSION_0066,4,0,takeoff,SITE_PUN_007,18.5203982,73.8566983,5.0,48.86,0.746,0.057,0.28,2.9931,-3.9855,48.856,0.90925,0.03814,-0.02086,0.41399,-0.1048,0.0311,-9.7642,0.2395,-0.7844,0.2449,0.1785,3,17,0.73,0.78,0.34,24.69,18.11,95.1,44.2,20918.0,8179,7840,7870,7667,62.5,60.3,62.1,59.1,2.839,2.739,3.023,3.074,3.96,237.7,35.6,50.5,1015.23,-30.8,0.71,1.49,27.1,44.4,34.6,0,no_anomaly,0.0,0,0,0,0,18.5203982,73.8566983,5.0,0.0
2024-08-17T15:32:00.500Z,MISSION_0066,5,0,takeoff,SITE_PUN_007,18.5203983,73.856704,5.0,47.49,0.754,0.013,0.48,2.7749,-3.5046,47.4908,0.91435,0.03446,-0.01824,0.40305,-0.2402,0.065,-9.815,0.5008,0.3649,-0.1097,0.2289,3,20,0.75,0.83,0.24,24.592,22.38,95.0,45.0,20902.0,8040,7888,7654,7768,63.1,62.8,59.8,59.6,2.661,2.866,2.681,2.654,4.93,238.2,35.8,50.5,1015.58,-25.67,0.37,1.15,30.8,49.7,36.9,0,no_anomaly,0.0,0,0,0,0,18.5203983,73.856704,5.0,0.0
2024-08-17T15:32:00.600Z,MISSION_0066,6,0,takeoff,SITE_PUN_007,18.520398,73.8567025,5.0,49.1,0.965,0.121,0.35,4.7744,-1.9014,49.0988,0.9084,0.04477,0.00222,0.41569,0.0072,-0.0353,-9.8015,0.0787,-0.3635,-0.0011,0.218,3,19,0.65,0.98,0.2,24.643,14.66,94.9,43.3,20885.0,7771,7909,7776,8067,61.5,61.1,61.5,60.3,2.867,2.871,2.794,3.055,4.15,243.4,35.8,50.7,1015.59,-30.11,1.43,1.48,30.0,50.0,37.1,0,no_anomaly,0.0,0,0,0,0,18.520398,73.8567025,5.0,0.0
2024-08-17T15:32:00.700Z,MISSION_0066,7,0,takeoff,SITE_PUN_007,18.5203953,73.856701,5.0,48.25,0.932,0.064,0.53,-3.1901,-0.3118,48.2518,0.91232,-0.02429,-0.01386,0.40851,-0.293,-0.1139,-9.8428,-0.3601,-0.6703,-0.0086,0.1203,3,10,0.74,0.93,0.3,24.7,18.22,94.9,44.3,20869.0,7921,7615,7897,7888,61.5,58.2,61.9,63.4,2.7,2.883,2.871,2.778,3.92,239.4,35.6,50.8,1015.09,-25.55,-0.59,1.26,30.5,46.3,37.0,0,no_anomaly,0.0,0,0,0,0,18.5203953,73.856701,5.0,0.0
2024-08-17T15:32:00.800Z,MISSION_0066,8,0,takeoff,SITE_PUN_007,18.5203953,73.8566984,5.0,48.74,0.727,0.063,0.55,-4.7822,-1.1228,48.7417,0.91023,-0.03396,-0.02613,0.41189,0.1224,-0.02,-9.7915,0.0344,0.5109,0.2852,0.1625,3,15,0.82,1.11,0.25,24.613,20.11,94.8,43.5,20852.0,7819,7675,8027,7677,64.2,61.4,58.4,61.8,2.642,3.024,2.844,2.91,4.68,234.7,36.0,51.6,1015.11,-31.02,-0.16,1.4,30.5,49.3,40.5,0,no_anomaly,0.0,0,0,0,0,18.5203953,73.8566984,5.0,0.0
2024-08-17T15:32:00.900Z,MISSION_0066,9,0,takeoff,SITE_PUN_007,18.5203965,73.8566944,5.0,49.76,0.431,0.16,0.74,-1.1594,-4.1321,49.7559,0.90672,0.00599,-0.03696,0.42006,0.1148,0.0237,-9.8189,0.267,-0.6995,0.2533,0.2109,3,11,0.54,0.87,0.2,24.579,18.05,94.7,43.3,20835.0,7934,7813,7964,7702,60.5,60.2,59.0,64.7,2.718,2.735,2.824,2.646,4.21,246.2,35.4,50.9,1015.02,-31.07,-1.49,1.98,29.7,43.1,39.9,0,no_anomaly,0.0,0,0,0,0,18.5203965,73.8566944,5.0,0.0
2024-08-17T15:32:01.000Z,MISSION_0066,10,0,takeoff,SITE_PUN_007,18.5203966,73.856691,5.0,52.07,0.628,0.157,1.07,0.5645,-0.6555,52.0747,0.89847,0.00694,-0.00298,0.43897,-0.0203,-0.0588,-9.8163,-0.1004,0.2608,0.1826,0.239,3,15,0.65,1.2,0.26,24.59,16.46,94.6,44.2,20819.0,7783,7873,7944,7979,62.1,58.5,59.0,63.2,2.62,2.711,3.012,2.894,4.31,233.3,35.6,50.2,1015.69,-31.26,0.03,1.51,31.0,40.4,38.5,0,no_anomaly,0.0,0,0,0,0,18.5203966,73.856691,5.0,0.0
2024-08-17T15:32:01.100Z,MISSION_0066,11,0,takeoff,SITE_PUN_007,18.5203898,73.8566877,5.0,52.06,0.342,0.101,1.78,-1.1555,-2.5626,52.0611,0.89839,0.00075,-0.02452,0.43852,0.0384,0.0366,-9.8689,-0.0645,-0.5388,-0.2196,0.1048,3,13,0.86,0.89,0.46,24.603,16.98,94.6,43.8,20802.0,7948,8061,7839,7818,55.4,59.4,59.1,62.0,2.919,2.734,2.67,2.999,4.45,235.5,36.2,51.2,1015.04,-32.66,0.14,1.63,34.0,43.8,38.9,0,no_anomaly,0.0,0,0,0,0,18.5203898,73.8566877,5.0,0.0
2024-08-17T15:32:01.200Z,MISSION_0066,12,0,takeoff,SITE_PUN_007,18.5203889,73.8566887,5.0,53.28,0.405,0.047,1.76,2.2437,-1.4347,53.2824,0.89348,0.02311,-0.00241,0.4485,-0.0075,-0.038,-9.8402,-0.8535,-0.186,0.1016,0.2591,3,18,0.63,0.94,0.26,24.659,21.6,94.5,43.9,20785.0,7845,7955,7590,7854,60.2,57.6,61.6,60.5,2.774,2.9,2.653,2.898,4.68,235.5,36.0,50.5,1015.38,-21.93,0.71,1.43,32.6,47.5,40.2,0,no_anomaly,0.0,0,0,0,0,18.5203889,73.8566887,5.0,0.0
2024-08-17T15:32:01.300Z,MISSION_0066,13,0,takeoff,SITE_PUN_007,18.5203938,73.856691,5.0,52.56,0.648,0.076,1.22,1.7478,-1.6691,52.5604,0.89634,0.02012,-0.00631,0.44286,0.1217,-0.0422,-9.7937,0.7195,-0.351,0.2263,0.2794,3,18,0.72,0.88,0.29,24.573,16.3,94.4,44.2,20769.0,7747,7821,7734,7990,59.1,60.7,64.2,59.7,2.856,2.681,2.641,3.066,4.4,234.6,35.8,50.9,1015.39,-29.01,0.65,1.0,30.1,48.7,37.8,0,no_anomaly,0.0,0,0,0,0,18.5203938,73.856691,5.0,0.0
2024-08-17T15:32:01.400Z,MISSION_0066,14,0,takeoff,SITE_PUN_007,18.5203953,73.8566913,5.0,51.74,0.374,0.09,1.1,-2.566,-0.5052,51.74,0.8996,-0.01822,-0.01374,0.43613,0.0684,0.0303,-9.8436,-0.1147,0.5823,-0.0726,0.1828,3,17,0.5,1.05,0.2,24.594,18.76,94.3,43.2,20752.0,7934,8000,7973,7932,61.5,59.9,59.6,61.8,2.815,2.785,2.822,2.69,3.39,232.2,35.5,51.5,1015.19,-33.68,1.43,1.68,31.3,49.2,38.3,0,no_anomaly,0.0,0,0,0,0,18.5203953,73.8566913,5.0,0.0
2024-08-17T15:32:01.500Z,MISSION_0066,15,0,takeoff,SITE_PUN_007,18.5203987,73.8566911,5.0,49.8,0.219,0.174,1.0,-2.0309,0.0558,49.7977,0.90691,-0.01628,-0.00702,0.42096,0.095,-0.0121,-9.7412,0.2802,0.7729,-0.1256,0.254,3,11,0.65,0.71,0.24,24.634,19.06,94.3,44.2,20736.0,7868,8001,7842,7688,59.8,60.2,64.6,62.3,2.899,2.782,2.497,3.157,4.35,244.3,36.0,50.1,1015.35,-30.8,-0.35,1.56,29.2,49.1,36.8,0,no_anomaly,0.0,0,0,0,0,18.5203987,73.8566911,5.0,0.0
2024-08-17T15:32:01.600Z,MISSION_0066,16,0,takeoff,SITE_PUN_007,18.5203987,73.8566893,5.0,48.47,0.508,0.047,1.2,0.4879,-1.7609,48.4688,0.91173,0.01019,-0.01226,0.41048,-0.0266,0.0039,-9.7331,-0.218,-0.164,0.0001,0.1967,3,17,0.71,0.83,0.2,24.727,23.56,94.2,44.6,20719.0,7469,8082,7910,8071,60.7,63.1,62.9,61.9,2.706,2.834,2.904,2.781,4.84,234.6,35.9,51.3,1015.11,-30.34,0.18,1.26,27.9,47.6,38.4,0,no_anomaly,0.0,0,0,0,0,18.5203987,73.8566893,5.0,0.0
2024-08-17T15:32:01.700Z,MISSION_0066,17,0,takeoff,SITE_PUN_007,18.520401,73.8566879,5.0,48.15,0.219,0.081,1.35,4.387,-3.4622,48.1456,0.91147,0.04724,-0.01196,0.40847,-0.121,-0.0104,-9.8234,1.0125,0.0817,-0.0078,0.0416,3,16,0.65,0.84,0.32,24.618,20.99,94.1,43.2,20702.0,7935,7551,8026,8027,58.8,60.3,58.0,61.9,2.593,2.56,2.792,2.871,4.12,245.1,35.8,50.5,1015.25,-30.23,0.7,1.03,30.7,51.0,39.9,0,no_anomaly,0.0,0,0,0,0,18.520401,73.8566879,5.0,0.0
2024-08-17T15:32:01.800Z,MISSION_0066,18,0,takeoff,SITE_PUN_007,18.5203962,73.856689,5.0,48.34,0.0,0.095,1.29,2.9701,-1.6635,48.3373,0.91179,0.02958,-0.00263,0.40959,-0.2374,-0.0068,-9.8628,-0.5043,-0.6666,-0.1434,0.1301,3,13,0.65,0.83,0.36,24.623,17.68,94.0,44.9,20686.0,7852,7839,7738,7971,59.0,63.8,60.7,64.8,2.74,2.843,2.713,3.051,3.6,244.8,35.8,51.2,1015.37,-31.63,1.46,1.0,32.4,46.6,38.5,0,no_anomaly,0.0,0,0,0,0,18.5203962,73.856689,5.0,0.0
2024-08-17T15:32:01.900Z,MISSION_0066,19,0,takeoff,SITE_PUN_007,18.5203954,73.8566888,5.0,46.35,0.0,0.081,1.35,-0.7358,-1.4967,46.3528,0.91923,-0.00076,-0.01453,0.39344,0.0291,0.067,-9.8148,0.721,-0.3241,-0.2068,0.2327,3,18,0.65,1.11,0.3,24.667,14.53,94.0,44.2,20669.0,7964,7717,7764,7666,58.7,62.3,62.5,60.6,2.812,2.674,2.778,2.862,3.79,238.8,35.7,51.6,1015.32,-32.49,-0.34,1.61,28.6,48.2,38.9,0,no_anomaly,0.0,0,0,0,0,18.5203954,73.8566888,5.0,0.0
2024-08-17T15:32:02.000Z,MISSION_0066,20,0,takeoff,SITE_PUN_007,18.5203971,73.8566878,5.0,44.81,0.0,0.08,1.39,-4.9499,-0.8182,44.8094,0.92375,-0.0372,-0.02305,0.3805,-0.0692,0.0013,-9.8602,0.1391,0.7782,0.1318,0.1006,3,14,0.77,0.69,0.29,24.609,22.59,93.9,43.8,20652.0,7858,7942,7970,7974,62.5,59.7,56.7,61.0,2.733,2.748,2.732,3.033,3.88,228.4,35.8,50.7,1015.48,-29.43,0.4,1.16,31.0,46.3,40.1,0,no_anomaly,0.0,0,0,0,0,18.5203971,73.8566878,5.0,0.0
2024-08-17T15:32:02.100Z,MISSION_0066,21,0,takeoff,SITE_PUN_007,18.5203954,73.8566812,5.0,46.17,0.028,0.058,2.16,0.247,-3.7632,46.1698,0.9194,0.01486,-0.02936,0.39195,-0.121,0.0398,-9.7937,-0.1744,1.3401,0.5191,0.1481,3,14,0.86,0.97,0.49,24.634,18.33,93.8,44.1,20636.0,7971,8030,8009,7777,57.2,61.2,64.9,59.2,2.609,2.883,2.848,2.586,4.42,240.6,36.0,50.6,1015.41,-31.19,0.99,1.02,32.3,46.9,35.1,0,no_anomaly,0.0,0,0,0,0,18.5203954,73.8566812,5.0,0.0
2024-08-17T15:32:02.200Z,MISSION_0066,22,0,takeoff,SITE_PUN_007,18.5203972,73.8566797,5.0,45.84,0.0,0.135,2.29,4.0298,-0.9586,45.8439,0.92032,0.03564,0.00599,0.38949,-0.206,-0.0378,-9.7762,-0.3453,0.993,0.0552,0.2534,3,10,0.53,0.76,0.26,24.693,15.43,93.7,44.3,20619.0,7795,7666,7912,7930,59.9,61.0,57.9,59.2,2.719,2.924,2.972,2.579,4.12,237.9,36.1,50.7,1014.97,-32.39,1.7,1.0,32.4,41.8,35.7,0,no_anomaly,0.0,0,0,0,0,18.5203972,73.8566797,5.0,0.0
2024-08-17T15:32:02.300Z,MISSION_0066,23,0,takeoff,SITE_PUN_007,18.520399,73.8566799,5.0,46.39,0.043,0.089,2.24,1.6672,-5.1402,46.3869,0.9179,0.03102,-0.03549,0.394,0.1571,0.0437,-9.8013,0.3983,-0.1184,-0.1322,0.1964,3,20,0.79,0.84,0.3,24.583,17.04,93.6,44.2,20603.0,7831,7972,7841,7806,59.4,56.0,61.4,62.4,2.935,2.751,2.718,2.871,4.83,243.5,35.8,51.5,1015.08,-32.37,-1.61,1.19,33.0,43.4,35.6,0,no_anomaly,0.0,0,0,0,0,18.520399,73.8566799,5.0,0.0
2024-08-17T15:32:02.400Z,MISSION_0066,24,0,takeoff,SITE_PUN_007,18.5203931,73.8566783,5.0,47.21,0.09,0.067,2.54,3.9712,-3.5376,47.2126,0.9149,0.04409,-0.0144,0.401,0.0392,0.1101,-9.892,-0.8831,0.577,-0.2851,0.162,3,20,0.65,0.81,0.29,24.647,16.3,93.6,44.0,20586.0,8003,7949,8061,8135,61.0,60.5,63.0,58.4,2.593,3.044,2.836,2.81,4.0,235.9,35.8,51.0,1015.43,-36.87,0.23,1.58,28.8,46.6,39.6,0,no_anomaly,0.0,0,0,0,0,18.5203931,73.8566783,5.0,0.0
2024-08-17T15:32:02.500Z,MISSION_0066,25,0,takeoff,SITE_PUN_007,18.5203922,73.8566808,5.0,46.47,0.0,0.144,2.31,1.8664,-0.5198,46.4666,0.91875,0.01675,0.00226,0.39449,-0.0012,-0.0796,-9.7993,1.066,-0.2534,0.0059,0.2145,3,16,0.78,0.96,0.31,24.58,15.27,93.5,43.9,20569.0,7969,7795,8001,7784,56.5,61.3,58.4,61.5,2.663,2.994,2.816,2.762,4.59,244.2,35.9,50.5,1015.22,-28.16,1.16,1.53,31.2,42.4,37.5,0,no_anomaly,0.0,0,0,0,0,18.5203922,73.8566808,5.0,0.0
2024-08-17T15:32:02.600Z,MISSION_0066,26,0,takeoff,SITE_PUN_007,18.5203939,73.8566812,5.0,47.88,0.498,0.12,2.2,-3.4014,-1.9093,47.8844,0.91363,-0.02036,-0.02726,0.40513,-0.2139,0.046,-9.7343,-0.0767,0.3773,-0.23,0.2045,3,14,0.79,0.76,0.36,24.691,20.63,93.4,44.8,20553.0,7677,7933,7913,7730,59.9,58.1,62.0,59.5,2.93,2.934,2.671,2.892,4.47,237.9,35.7,50.9,1015.49,-29.51,0.48,1.63,27.9,41.5,39.2,0,no_anomaly,0.0,0,0,0,0,18.5203939,73.8566812,5.0,0.0
2024-08-17T15:32:02.700Z,MISSION_0066,27,0,takeoff,SITE_PUN_007,18.5203935,73.8566821,5.0,46.92,1.023,0.053,2.12,-3.7283,-1.258,46.923,0.91693,-0.02547,-0.02302,0.39757,0.0232,0.0692,-9.8631,0.148,-0.3237,-0.1403,0.2007,3,12,0.76,0.93,0.38,24.526,13.87,93.3,44.6,20536.0,7927,7876,7808,7631,62.6,60.1,60.6,58.1,3.092,2.832,2.805,2.614,3.96,238.9,36.1,50.2,1015.41,-32.11,-0.23,1.54,32.0,45.9,37.7,0,no_anomaly,0.0,0,0,0,0,18.5203935,73.8566821,5.0,0.0
2024-08-17T15:32:02.800Z,MISSION_0066,28,0,takeoff,SITE_PUN_007,18.5203932,73.8566835,5.0,46.35,0.427,0.141,1.98,-1.0477,-3.4421,46.3473,0.91897,0.00342,-0.03121,0.39307,-0.0223,-0.0465,-9.8307,-0.6874,0.3384,-0.1091,0.0991,3,18,0.75,0.8,0.31,24.659,17.36,93.3,43.8,20519.0,7876,8018,8209,7932,60.7,62.1,62.1,59.5,2.91,2.602,2.778,2.644,5.02,239.4,35.8,50.0,1014.89,-26.31,0.79,1.52,29.2,42.3,38.6,0,no_anomaly,0.0,0,0,0,0,18.5203932,73.8566835,5.0,0.0
2024-08-17T15:32:02.900Z,MISSION_0066,29,0,takeoff,SITE_PUN_007,18.5203963,73.8566847,5.0,46.3,0.328,0.109,1.76,0.4791,-3.8059,46.2984,0.91891,0.0169,-0.02889,0.39303,0.203,0.0251,-9.8752,-0.6632,0.1145,-0.3609,0.0529,3,11,0.68,0.66,0.22,24.61,17.69,93.2,43.0,20503.0,7853,7831,7745,7908,61.0,62.2,58.0,61.1,2.866,2.844,3.001,2.697,4.22,240.5,36.0,50.3,1015.21,-32.38,0.33,1.99,34.0,48.6,38.2,0,no_anomaly,0.0,0,0,0,0,18.5203963,73.8566847,5.0,0.0
2024-08-17T15:32:03.000Z,MISSION_0066,30,0,takeoff,SITE_PUN_007,18.5203929,73.8566861,5.0,45.2,0.449,0.058,1.74,-0.8652,-1.0328,45.2022,0.92317,-0.00351,-0.01122,0.38422,-0.1899,0.0394,-9.8,-0.0588,0.2856,0.1134,0.2129,3,17,0.75,0.88,0.31,24.674,9.06,93.1,43.2,20486.0,7884,7904,7736,7815,65.1,60.4,63.9,60.5,2.797,2.765,2.847,2.761,4.27,232.6,35.4,52.0,1015.3,-29.86,0.02,1.47,29.4,47.3,40.5,0,no_anomaly,0.0,0,0,0,0,18.5203929,73.8566861,5.0,0.0
2024-08-17T15:32:03.100Z,MISSION_0066,31,0,takeoff,SITE_PUN_007,18.5203969,73.8566842,5.0,48.65,0.592,0.107,1.79,-4.5716,-1.2065,48.6454,0.91064,-0.03201,-0.02601,0.41114,-0.0112,0.0163,-9.776,-0.3012,0.05,0.0516,0.2329,3,10,0.55,1.0,0.26,24.633,22.71,93.0,44.2,20470.0,7844,7999,7845,7675,61.1,61.6,62.8,60.9,2.895,2.61,2.759,2.576,3.98,233.7,36.1,50.8,1015.1,-32.41,0.51,1.47,30.4,45.3,37.3,0,no_anomaly,0.0,0,0,0,0,18.5203969,73.8566842,5.0,0.0
2024-08-17T15:32:03.200Z,MISSION_0066,32,0,takeoff,SITE_PUN_007,18.5203977,73.8566857,5.0,49.28,0.299,0.069,1.61,0.9999,-0.8773,49.2751,0.90887,0.01112,-0.00332,0.41691,-0.179,0.0676,-9.8378,-0.2123,0.1732,0.2932,0.1159,3,11,0.68,0.72,0.29,24.615,14.98,93.0,43.7,20453.0,7742,8041,7759,8010,62.1,59.5,59.8,59.9,2.913,2.842,2.609,2.56,4.56,233.5,35.9,50.8,1015.32,-35.97,-0.78,1.71,31.7,43.8,40.5,0,no_anomaly,0.0,0,0,0,0,18.5203977,73.8566857,5.0,0.0
2024-08-17T15:32:03.300Z,MISSION_0066,33,0,takeoff,SITE_PUN_007,18.520402,73.8566818,5.0,51.95,0.334,0.155,2.04,1.0301,-3.7917,51.9546,0.89831,0.02257,-0.0258,0.43802,-0.0657,0.002,-9.7789,0.7859,-0.321,0.154,0.1983,3,15,0.82,0.79,0.3,24.62,13.72,92.9,44.1,20436.0,7802,7875,8111,7750,59.1,61.0,60.9,61.5,2.593,2.489,2.633,2.749,5.17,246.4,35.7,51.1,1015.35,-31.88,-0.43,1.22,29.5,42.9,38.9,0,no_anomaly,0.0,0,0,0,0,18.520402,73.8566818,5.0,0.0
2024-08-17T15:32:03.400Z,MISSION_0066,34,0,takeoff,SITE_PUN_007,18.5204021,73.8566786,5.0,52.78,0.55,0.13,2.39,-1.8785,-3.2415,52.7752,0.89554,-0.00211,-0.03262,0.44379,0.1602,0.0114,-9.8438,0.0421,-0.245,0.3417,0.1384,3,14,0.74,1.01,0.3,24.613,17.77,92.8,43.2,20420.0,7910,7619,8024,8140,61.2,63.5,56.8,59.4,2.831,2.779,2.664,2.857,3.75,231.9,35.8,51.0,1015.54,-25.23,-1.16,1.53,30.9,41.6,37.3,0,no_anomaly,0.0,0,0,0,0,18.5204021,73.8566786,5.0,0.0
2024-08-17T15:32:03.500Z,MISSION_0066,35,0,takeoff,SITE_PUN_007,18.5203991,73.8566788,5.0,53.54,0.505,0.097,2.37,-0.4688,-0.7272,53.5426,0.8928,-0.00079,-0.00751,0.45039,-0.2117,-0.0137,-9.8353,-0.4114,0.6648,0.0183,0.165,3,11,0.58,1.05,0.31,24.632,22.94,92.7,43.6,20403.0,7567,8021,7985,7675,60.5,62.9,62.8,63.0,2.637,2.931,2.593,2.877,3.35,234.3,35.7,50.6,1015.67,-30.3,0.53,1.95,29.8,47.5,36.2,0,no_anomaly,0.0,0,0,0,0,18.5203991,73.8566788,5.0,0.0
2024-08-17T15:32:03.600Z,MISSION_0066,36,0,takeoff,SITE_PUN_007,18.5203995,73.8566764,5.0,53.86,0.05,0.12,2.63,0.5573,-4.7637,53.8608,0.89069,0.02315,-0.03485,0.45269,-0.2369,0.0131,-9.7626,-0.2058,-0.4733,0.2107,0.1929,3,14,0.52,0.8,0.2,24.542,14.73,92.7,43.9,20387.0,7955,7986,7873,7608,60.7,61.1,57.6,60.5,2.71,2.921,2.782,2.882,4.84,237.0,35.4,50.0,1015.43,-30.12,-1.05,1.55,30.7,45.1,36.1,0,no_anomaly,0.0,0,0,0,0,18.5203995,73.8566764,5.0,0.0
2024-08-17T15:32:03.700Z,MISSION_0066,37,0,takeoff,SITE_PUN_007,18.5203969,73.8566678,5.0,55.45,0.085,0.122,3.6,-3.2374,-1.7261,55.4512,0.88493,-0.018,-0.02647,0.46462,-0.1197,0.0731,-9.8049,0.4056,0.1124,-0.1037,0.1772,3,10,0.7,0.86,0.2,24.611,18.02,92.6,43.1,20370.0,7793,7773,7888,8138,60.7,60.6,60.1,61.7,2.57,2.903,2.882,2.78,4.48,238.9,35.6,50.6,1015.43,-28.6,1.1,1.46,32.8,42.6,38.5,0,no_anomaly,0.0,0,0,0,0,18.5203969,73.8566678,5.0,0.0
2024-08-17T15:32:03.800Z,MISSION_0066,38,0,takeoff,SITE_PUN_007,18.5203986,73.8566735,5.0,55.65,0.141,0.114,2.95,-5.2936,-3.7455,55.6543,0.88365,-0.02558,-0.05042,0.46472,-0.012,-0.0634,-9.9221,-0.8203,0.3657,0.608,0.1113,3,18,0.67,1.03,0.27,24.562,16.25,92.5,44.1,20353.0,7749,7852,7572,7773,59.9,64.4,61.8,60.1,2.563,2.646,2.706,2.786,4.14,242.4,35.9,50.1,1015.25,-34.05,-2.82,1.7,30.5,50.8,39.0,0,no_anomaly,0.0,0,0,0,0,18.5203986,73.8566735,5.0,0.0
2024-08-17T15:32:03.900Z,MISSION_0066,39,0,takeoff,SITE_PUN_007,18.520402,73.8566743,5.0,55.49,0.242,0.096,2.87,-2.6221,-3.4489,55.4852,0.88474,-0.00624,-0.03727,0.46456,-0.1252,0.0284,-9.8196,0.2604,-0.3842,0.3782,0.1492,3,19,0.68,0.94,0.26,24.575,15.62,92.4,44.0,20337.0,7989,8196,7885,7759,60.0,61.3,58.0,58.6,3.007,2.648,2.68,2.826,4.03,249.5,35.9,50.3,1015.48,-28.29,2.41,1.42,29.7,44.6,40.9,0,no_anomaly,0.0,0,0,0,0,18.520402,73.8566743,5.0,0.0
2024-08-17T15:32:04.000Z,MISSION_0066,40,0,takeoff,SITE_PUN_007,18.5204064,73.8566721,5.0,55.4,0.32,0.121,3.18,4.9859,-2.5668,55.3994,0.88388,0.0489,0.0004,0.46514,0.0817,-0.019,-9.8092,1.0451,-0.1957,0.1239,0.1489,3,17,0.87,0.84,0.45,24.574,17.96,92.4,43.7,20320.0,7673,7845,7985,7754,60.1,60.2,58.0,63.3,2.904,2.599,2.916,2.886,4.13,235.4,35.5,51.2,1014.8,-37.25,-0.22,1.76,29.8,48.1,38.4,0,no_anomaly,0.0,0,0,0,0,18.5204064,73.8566721,5.0,0.0
2024-08-17T15:32:04.100Z,MISSION_0066,41,0,takeoff,SITE_PUN_007,18.5204059,73.8566718,5.0,55.43,0.471,0.136,3.21,2.1321,-6.0626,55.4304,0.88342,0.04104,-0.03817,0.46522,-0.0146,-0.0187,-9.7327,0.6703,-0.1133,-0.1888,0.2758,3,11,0.86,0.93,0.2,24.582,17.01,92.3,44.5,20303.0,7718,7691,7879,7792,61.0,59.1,61.9,61.9,2.97,2.892,2.572,2.819,4.86,232.0,35.5,50.2,1015.4,-32.37,0.49,1.11,30.4,45.7,36.4,0,no_anomaly,0.0,0,0,0,0,18.5204059,73.8566718,5.0,0.0
2024-08-17T15:32:04.200Z,MISSION_0066,42,0,takeoff,SITE_PUN_007,18.5204101,73.8566766,5.0,55.41,0.108,0.051,2.84,0.8788,-2.8762,55.4052,0.88498,0.01845,-0.01866,0.46489,0.24,0.0302,-9.8502,-0.1887,0.141,-0.1235,0.2375,3,15,0.63,1.05,0.28,24.588,19.94,92.2,43.2,20287.0,7642,7853,7715,7909,62.0,60.1,60.6,62.1,2.788,2.719,2.893,2.516,4.49,238.0,35.9,50.9,1015.44,-33.23,1.13,1.0,31.7,41.2,37.8,0,no_anomaly,0.0,0,0,0,0,18.5204101,73.8566766,5.0,0.0
2024-08-17T15:32:04.300Z,MISSION_0066,43,0,takeoff,SITE_PUN_007,18.5204128,73.8566786,5.0,55.35,0.0,0.108,2.77,3.5701,-2.5967,55.3508,0.88461,0.0381,-0.00559,0.46474,0.2345,-0.0241,-9.7994,0.3045,0.1867,-0.4073,0.1382,3,19,0.73,1.07,0.41,24.646,18.77,92.1,43.3,20270.0,7749,8103,7856,7882,58.7,64.1,64.5,64.1,2.998,2.644,2.901,2.706,4.46,238.4,35.5,50.3,1015.04,-30.41,-0.08,1.56,30.3,48.3,38.1,0,no_anomaly,0.0,0,0,0,0,18.5204128,73.8566786,5.0,0.0
2024-08-17T15:32:04.400Z,MISSION_0066,44,0,takeoff,SITE_PUN_007,18.5204144,73.8566789,5.0,56.24,0.015,0.105,2.84,-3.0704,-2.7629,56.2373,0.88171,-0.01226,-0.03388,0.47042,-0.0057,-0.0292,-9.7884,1.272,-0.546,-0.2433,0.149,3,18,0.6,0.92,0.26,24.602,22.61,92.1,43.6,20254.0,7786,7641,7777,8051,60.7,59.9,58.4,64.4,2.757,3.048,2.702,3.067,3.54,233.1,35.9,52.1,1015.13,-33.4,0.2,1.77,28.9,47.9,36.1,0,no_anomaly,0.0,0,0,0,0,18.5204144,73.8566789,5.0,0.0
2024-08-17T15:32:04.500Z,MISSION_0066,45,0,takeoff,SITE_PUN_007,18.5204163,73.8566796,5.0,54.8,0.0,0.101,2.91,-0.2299,-4.7632,54.8017,0.88708,0.01734,-0.03782,0.45974,-0.1003,-0.0533,-9.7738,-0.4808,-0.3813,-0.2608,0.1745,3,19,0.7,0.85,0.3,24.489,14.96,92.0,43.8,20237.0,7680,7819,7722,7993,61.0,62.0,58.7,58.4,2.698,2.898,2.375,2.935,4.31,232.5,35.6,50.9,1015.67,-25.82,-0.77,1.88,29.6,48.4,40.8,0,no_anomaly,0.0,0,0,0,0,18.5204163,73.8566796,5.0,0.0
2024-08-17T15:32:04.600Z,MISSION_0066,46,0,takeoff,SITE_PUN_007,18.5204127,73.8566803,5.0,53.4,0.493,0.076,2.61,0.4503,-1.0255,53.3977,0.89332,0.00753,-0.00623,0.44931,0.0782,0.0102,-9.8154,-1.172,0.5508,0.1327,0.274,3,16,0.81,0.9,0.39,24.57,15.33,91.9,44.8,20220.0,7811,8043,7803,7708,58.0,62.0,63.0,61.0,2.78,2.848,2.672,2.711,3.77,240.3,36.0,50.7,1015.33,-30.08,-1.05,2.08,33.4,49.2,38.7,0,no_anomaly,0.0,0,0,0,0,18.5204127,73.8566803,5.0,0.0
2024-08-17T15:32:04.700Z,MISSION_0066,47,0,transit,SITE_PUN_007,18.5204102,73.8566772,5.5,52.92,0.434,0.126,2.78,-0.3785,-1.7137,52.9213,0.89516,0.00371,-0.01486,0.44549,-0.1941,-0.0166,-9.7444,0.476,-0.0063,-0.7204,0.2255,3,10,0.68,0.9,0.31,24.705,17.69,91.8,43.7,20204.0,7903,7851,7612,7803,61.5,61.6,61.6,62.2,2.673,2.606,2.853,2.616,3.44,245.8,35.6,49.7,1015.37,-29.21,0.17,1.27,33.9,49.6,40.5,0,no_anomaly,0.0,0,0,0,0,18.5204102,73.8566772,5.5,0.0
2024-08-17T15:32:04.800Z,MISSION_0066,48,0,transit,SITE_PUN_007,18.5204077,73.8566761,6.0,51.23,0.0,0.084,2.79,-1.5448,-1.1773,51.2293,0.90165,-0.00771,-0.01509,0.43213,0.0596,0.0816,-9.784,0.0714,0.1352,-0.0619,0.1295,3,12,0.71,0.77,0.42,24.573,16.76,91.8,44.8,20187.0,7908,7870,7783,7963,60.5,61.5,60.3,59.2,3.084,2.738,2.831,3.175,3.55,232.9,35.8,50.7,1015.13,-23.68,1.1,1.61,29.1,43.2,36.7,0,no_anomaly,0.0,0,0,0,0,18.5204077,73.8566761,6.0,0.0
2024-08-17T15:32:04.900Z,MISSION_0066,49,0,transit,SITE_PUN_007,18.5204051,73.8566762,6.5,49.74,0.426,0.156,2.71,-0.8914,-4.0777,49.7405,0.90678,0.00791,-0.03555,0.42003,-0.1177,-0.0122,-9.8772,0.2209,-0.3473,0.0842,0.1272,3,15,0.75,0.78,0.28,24.642,16.12,91.7,43.8,20170.0,7918,7992,7876,7777,59.4,65.7,60.7,61.5,3.019,2.91,2.765,3.039,4.6,236.8,36.0,50.1,1015.22,-32.48,0.0,1.39,28.9,44.4,39.0,0,no_anomaly,0.0,0,0,0,0,18.5204051,73.8566762,6.5,0.0
2024-08-17T15:32:05.000Z,MISSION_0066,50,0,transit,SITE_PUN_007,18.5204054,73.8566729,7.0,46.8,1.05,0.056,3.07,6.523,0.2611,46.8,0.91632,0.05131,0.02468,0.39638,-0.2024,-0.0961,-9.7808,0.228,0.272,-0.3242,0.0947,3,11,0.75,0.91,0.28,24.529,19.64,91.6,43.4,20154.0,7593,7803,7728,8028,61.1,64.6,60.3,61.0,3.042,2.866,2.786,2.94,4.03,243.3,35.7,51.4,1015.38,-28.84,1.09,1.51,31.7,44.9,36.2,0,no_anomaly,0.0,0,0,0,0,18.5204054,73.8566729,7.0,0.0
2024-08-17T15:32:05.100Z,MISSION_0066,51,0,transit,SITE_PUN_007,18.520405,73.8566727,7.5,46.45,1.164,0.212,3.09,1.7865,-1.2343,46.4463,0.91875,0.01857,-0.00375,0.3944,0.0623,0.0097,-9.7896,-0.7056,-0.1382,0.0448,0.2913,3,15,0.67,0.79,0.32,24.65,18.2,91.5,43.6,20137.0,7693,7664,7890,8057,59.8,60.2,57.1,59.7,2.752,2.592,2.833,2.694,3.51,242.1,35.7,50.9,1014.93,-33.11,0.8,1.48,28.2,47.9,39.6,0,no_anomaly,0.0,0,0,0,0,18.520405,73.8566727,7.5,0.0
2024-08-17T15:32:05.200Z,MISSION_0066,52,0,transit,SITE_PUN_007,18.5204045,73.8566742,8.0,46.6,1.595,0.142,2.92,-1.3969,-3.9887,46.6029,0.91798,0.00258,-0.03678,0.39491,0.0813,-0.0339,-9.8097,0.1472,0.2901,0.2731,0.1549,3,18,0.68,0.88,0.23,24.615,17.2,91.5,43.7,20121.0,7857,7789,7868,7778,58.8,63.7,63.7,61.6,2.88,2.895,2.992,2.475,3.78,241.0,35.8,51.0,1015.42,-34.25,-1.03,1.5,33.5,47.4,38.6,0,no_anomaly,0.0,0,0,0,0,18.5204045,73.8566742,8.0,0.0
2024-08-17T15:32:05.300Z,MISSION_0066,53,0,transit,SITE_PUN_007,18.5204089,73.8566722,8.5,45.02,1.628,0.147,3.25,2.2311,-3.6396,45.0163,0.92295,0.03013,-0.02188,0.38312,0.0283,-0.0632,-9.8253,0.1176,-0.2046,0.1555,0.2531,3,19,0.61,0.98,0.3,24.562,17.22,91.4,43.8,20104.0,7855,7832,7870,7796,58.3,56.2,59.3,60.2,2.787,2.973,2.698,2.939,4.23,224.9,35.8,51.2,1014.9,-32.24,0.15,1.41,31.8,50.5,35.8,0,no_anomaly,0.0,0,0,0,0,18.5204089,73.8566722,8.5,0.0
2024-08-17T15:32:05.400Z,MISSION_0066,54,0,transit,SITE_PUN_007,18.5204064,73.8566707,9.0,45.85,1.789,0.069,3.34,1.0513,-3.4432,45.8518,0.92045,0.02015,-0.0241,0.3896,0.0903,0.0504,-9.9117,-0.1584,-0.343,-0.2975,0.1018,3,11,0.76,0.92,0.5,24.61,18.02,91.3,43.9,20087.0,7718,8018,7913,7821,59.2,60.3,61.9,59.7,2.677,2.633,2.823,2.769,3.9,234.6,35.6,51.5,1015.6,-29.93,0.25,1.72,32.9,47.0,36.2,0,no_anomaly,0.0,0,0,0,0,18.5204064,73.8566707,9.0,0.0
2024-08-17T15:32:05.500Z,MISSION_0066,55,0,transit,SITE_PUN_007,18.520403,73.8566678,9.5,49.46,2.214,0.076,3.6,0.1419,-1.4049,49.4618,0.90821,0.00625,-0.01062,0.41834,0.0598,0.0157,-9.8008,-0.1881,-0.6804,0.2293,0.176,3,14,0.73,0.99,0.3,24.591,26.49,91.2,44.9,20071.0,8418,7731,7920,7835,57.4,64.9,59.0,63.7,2.908,2.876,2.998,2.726,4.73,231.9,35.4,50.7,1015.4,-32.15,-0.98,1.2,33.7,47.3,36.6,0,no_anomaly,0.0,0,0,0,0,18.520403,73.8566678,9.5,0.0
2024-08-17T15:32:05.600Z,MISSION_0066,56,0,transit,SITE_PUN_007,18.5204034,73.8566687,10.0,50.18,2.071,0.092,3.5,-0.8419,-3.783,50.18,0.90523,0.00735,-0.03301,0.42358,0.0917,0.0249,-9.8036,0.3845,0.0331,0.1386,0.2006,3,13,0.69,0.89,0.2,24.593,14.38,91.2,44.9,20054.0,7686,7906,7922,7770,64.0,59.1,59.7,59.1,2.818,2.811,2.666,2.758,4.0,240.0,35.7,50.8,1015.12,-33.98,-0.34,1.33,33.1,47.3,39.3,0,no_anomaly,0.0,0,0,0,0,18.5204034,73.8566687,10.0,0.0
2024-08-17T15:32:05.700Z,MISSION_0066,57,0,transit,SITE_PUN_007,18.5204008,73.8566702,10.5,50.93,2.181,0.076,3.31,6.7376,-4.3271,50.9324,0.89968,0.06922,-0.00878,0.43093,0.0214,-0.0163,-9.7488,0.0932,0.5942,-0.5095,0.2234,3,16,0.73,1.13,0.29,24.599,19.92,91.1,44.1,20037.0,7936,8091,8045,7892,60.1,63.6,61.7,61.6,2.929,2.806,2.959,2.516,3.62,237.6,35.6,50.1,1015.5,-23.92,-1.52,1.71,29.5,47.7,40.6,0,no_anomaly,0.0,0,0,0,0,18.5204008,73.8566702,10.5,0.0
2024-08-17T15:32:05.800Z,MISSION_0066,58,0,transit,SITE_PUN_007,18.5204031,73.8566719,11.0,47.62,2.192,0.2,3.14,3.5618,-1.9749,47.6159,0.91411,0.03538,-0.00322,0.40391,-0.0132,0.0296,-9.7911,1.2599,-0.1325,-0.4167,0.1729,3,14,0.54,0.87,0.2,24.651,16.54,91.0,44.2,20021.0,8147,7828,7872,8145,63.6,63.2,60.6,61.3,2.83,2.885,2.822,2.66,3.66,235.3,35.7,50.7,1015.06,-30.87,-0.32,1.68,29.8,51.7,40.3,0,no_anomaly,0.0,0,0,0,0,18.5204031,73.8566719,11.0,0.0
2024-08-17T15:32:05.900Z,MISSION_0066,59,0,transit,SITE_PUN_007,18.5204051,73.8566735,11.5,47.19,2.088,0.117,3.0,-2.7571,-0.4558,47.188,0.91617,-0.02045,-0.01327,0.40005,-0.1891,-0.0466,-9.8321,-0.0839,-0.3883,0.2344,0.2226,3,12,0.59,0.94,0.28,24.586,18.44,90.9,44.3,20004.0,7820,8041,7767,7929,60.7,56.0,60.7,62.0,2.462,2.496,2.638,2.843,3.83,235.7,35.6,50.3,1015.7,-30.33,0.06,1.44,29.1,42.4,37.3,0,no_anomaly,0.0,0,0,0,0,18.5204051,73.8566735,11.5,0.0
2024-08-17T15:32:06.000Z,MISSION_0066,60,0,transit,SITE_PUN_007,18.5204064,73.8566729,12.0,49.5,2.512,0.052,3.1,1.7932,-1.1867,49.5045,0.9079,0.01854,-0.00285,0.41877,0.0636,-0.0655,-9.7203,-0.3915,0.1364,0.1137,0.1475,3,14,0.71,1.02,0.2,24.525,14.25,90.9,43.5,19988.0,8157,8266,7768,7959,61.4,62.2,56.6,59.8,2.702,3.057,2.575,2.714,3.89,236.2,35.5,51.5,1015.61,-28.62,-0.58,1.65,29.7,48.3,41.7,0,no_anomaly,0.0,0,0,0,0,18.5204064,73.8566729,12.0,0.0
2024-08-17T15:32:06.100Z,MISSION_0066,61,0,transit,SITE_PUN_007,18.5204042,73.8566764,12.0,49.92,2.673,0.181,2.67,1.3757,0.3352,49.923,0.90654,0.00965,0.00772,0.42195,0.0657,0.0724,-9.8381,-0.1533,0.4478,0.6191,0.1363,3,12,0.68,0.77,0.28,24.556,21.29,90.8,44.1,19971.0,7865,7954,7946,7876,60.2,64.5,62.9,60.3,2.801,2.793,2.667,2.787,3.92,234.8,35.7,50.6,1015.16,-34.65,-2.0,1.58,31.0,46.1,36.8,0,no_anomaly,0.0,0,0,0,0,18.5204042,73.8566764,12.0,0.0
2024-08-17T15:32:06.200Z,MISSION_0066,62,0,transit,SITE_PUN_007,18.5204036,73.8566767,12.0,51.72,2.578,0.087,2.62,3.1605,-2.9733,51.716,0.89892,0.03612,-0.01131,0.43647,-0.027,0.0912,-9.8069,0.5374,1.0345,0.1095,0.2316,3,13,0.79,1.24,0.3,24.617,22.22,90.7,43.3,19954.0,8000,8035,7789,7727,58.9,63.9,60.9,63.3,2.549,2.78,2.78,2.717,4.26,226.8,35.7,50.6,1015.21,-27.64,0.28,1.45,31.7,46.6,37.5,0,no_anomaly,0.0,0,0,0,0,18.5204036,73.8566767,12.0,0.0
2024-08-17T15:32:06.300Z,MISSION_0066,63,0,transit,SITE_PUN_007,18.5204029,73.8566755,12.0,53.44,2.396,0.054,2.75,0.0318,-2.7868,53.4355,0.89296,0.01118,-0.0216,0.44947,-0.0057,-0.0328,-9.812,-0.0481,0.6277,0.285,0.1879,3,19,0.78,1.22,0.3,24.526,20.49,90.6,43.6,19938.0,7800,7966,7832,7708,63.5,61.8,58.8,65.6,2.876,2.786,2.537,2.875,4.73,234.2,35.4,50.4,1015.29,-31.74,0.34,1.35,31.3,46.6,37.0,0,no_anomaly,0.0,0,0,0,0,18.5204029,73.8566755,12.0,0.0
2024-08-17T15:32:06.400Z,MISSION_0066,64,0,transit,SITE_PUN_007,18.5204061,73.8566787,12.0,54.67,2.317,0.069,2.47,-1.22,-3.312,54.6684,0.88806,0.00382,-0.03056,0.45869,-0.0395,-0.0628,-9.7868,0.4263,0.0057,0.1786,0.1939,3,20,0.7,0.98,0.35,24.553,19.07,90.6,44.0,19921.0,7800,7893,7906,7979,60.2,61.5,64.4,58.2,2.771,2.722,2.851,2.674,4.74,237.7,35.4,51.5,1015.57,-33.38,-0.58,1.56,31.8,51.6,40.9,0,no_anomaly,0.0,0,0,0,0,18.5204061,73.8566787,12.0,0.0
2024-08-17T15:32:06.500Z,MISSION_0066,65,0,transit,SITE_PUN_007,18.5204042,73.8566836,12.0,53.68,2.4,0.084,1.89,1.3948,-0.3079,53.6791,0.89219,0.01207,0.0031,0.45149,-0.215,-0.1064,-9.8602,0.7936,0.6169,0.3553,0.2005,3,13,0.73,0.78,0.29,24.64,15.24,90.5,43.4,19904.0,7667,7883,8066,7969,58.0,62.0,61.7,62.0,2.966,2.846,3.069,2.869,3.96,237.1,35.9,50.6,1015.5,-33.87,1.44,1.86,31.3,41.8,40.9,0,no_anomaly,0.0,0,0,0,0,18.5204042,73.8566836,12.0,0.0
2024-08-17T15:32:06.600Z,MISSION_0066,66,0,transit,SITE_PUN_007,18.5204048,73.8566816,12.0,55.66,1.965,0.123,2.12,-1.2583,-0.688,55.6639,0.88428,-0.00691,-0.01044,0.46679,-0.066,-0.0041,-9.7439,0.3943,-0.3152,-0.2392,0.0984,3,15,0.81,1.17,0.39,24.575,24.03,90.4,44.2,19888.0,8109,7865,7990,8017,62.1,57.2,62.9,59.1,3.01,2.734,2.668,2.659,4.24,234.5,35.5,50.6,1015.25,-28.78,-0.44,1.83,30.9,48.1,40.2,0,no_anomaly,0.0,0,0,0,0,18.5204048,73.8566816,12.0,0.0
2024-08-17T15:32:06.700Z,MISSION_0066,67,0,transit,SITE_PUN_007,18.5204076,73.8566806,12.0,55.06,1.803,0.039,2.32,4.7512,-3.3522,55.0588,0.88507,0.05025,-0.00677,0.46268,0.2515,0.0939,-9.702,-0.1053,-0.0984,-0.3627,0.1987,3,18,0.84,0.78,0.32,24.498,17.07,90.3,43.3,19871.0,7816,7775,7876,7913,61.5,62.2,63.5,62.5,2.636,2.635,2.874,2.978,3.61,237.8,35.7,50.5,1015.2,-20.66,-0.33,1.73,30.4,46.2,37.2,0,no_anomaly,0.0,0,0,0,0,18.5204076,73.8566806,12.0,0.0
2024-08-17T15:32:06.800Z,MISSION_0066,68,0,transit,SITE_PUN_007,18.5204098,73.8566772,12.0,55.22,1.762,0.076,2.77,-3.2243,-3.193,55.2195,0.88579,-0.01201,-0.03771,0.46239,-0.159,0.0982,-9.7731,0.2653,0.064,0.2235,0.2035,3,17,0.78,0.61,0.38,24.564,15.72,90.2,44.3,19855.0,8004,7901,7992,7899,60.8,59.9,62.5,64.3,2.735,2.975,3.189,2.818,4.29,236.5,35.9,51.2,1015.29,-34.85,-0.51,1.58,32.5,45.8,38.0,0,no_anomaly,0.0,0,0,0,0,18.5204098,73.8566772,12.0,0.0
2024-08-17T15:32:06.900Z,MISSION_0066,69,0,transit,SITE_PUN_007,18.5204081,73.8566773,12.0,52.99,1.319,0.081,2.68,-1.2614,-6.0721,52.9924,0.89391,0.01379,-0.0523,0.44496,-0.2284,0.0134,-9.7791,-0.3886,-1.5442,-0.1878,0.1102,3,14,0.77,1.0,0.28,24.599,16.94,90.2,43.1,19838.0,8092,7964,8026,7901,61.5,59.7,60.6,57.4,3.024,2.732,3.155,3.015,3.67,226.4,35.9,50.2,1015.32,-34.68,1.37,1.69,30.2,41.7,36.8,0,no_anomaly,0.0,0,0,0,0,18.5204081,73.8566773,12.0,0.0
2024-08-17T15:32:07.000Z,MISSION_0066,70,0,transit,SITE_PUN_007,18.5204087,73.8566753,12.0,51.66,1.058,0.019,2.91,-3.1549,-1.0729,51.6648,0.8998,-0.0207,-0.02042,0.43532,-0.1411,-0.0345,-9.8591,0.1732,0.1677,-0.3996,0.1981,3,11,0.66,0.75,0.22,24.531,19.49,90.1,43.7,19821.0,7991,7683,7817,7782,62.9,63.5,61.4,59.5,2.835,2.862,2.686,2.941,3.61,234.3,35.7,50.0,1015.19,-29.03,-0.64,1.16,34.1,47.3,37.6,0,no_anomaly,0.0,0,0,0,0,18.5204087,73.8566753,12.0,0.0
2024-08-17T15:32:07.100Z,MISSION_0066,71,0,transit,SITE_PUN_007,18.5204068,73.8566751,12.0,49.31,1.079,0.071,2.87,1.044,-2.7443,49.3084,0.90845,0.01827,-0.01796,0.4172,0.013,-0.0162,-9.8262,-0.9405,0.6589,-0.0535,0.2137,3,10,0.66,1.15,0.2,24.461,20.64,90.0,43.4,19805.0,7936,7932,7893,7709,59.4,59.7,60.0,62.7,2.746,2.77,2.937,2.872,4.21,234.9,35.8,50.9,1015.09,-32.45,0.56,1.13,31.9,42.1,36.0,0,no_anomaly,0.0,0,0,0,0,18.5204068,73.8566751,12.0,0.0
2024-08-17T15:32:07.200Z,MISSION_0066,72,0,transit,SITE_PUN_007,18.520413,73.8566819,12.0,48.22,1.067,0.16,2.48,2.0839,-1.4724,48.2225,0.91243,0.02184,-0.0043,0.40862,0.3288,-0.0113,-9.9129,-0.4009,-0.0732,0.1225,0.1043,3,13,0.81,0.8,0.3,24.626,17.14,89.9,44.5,19788.0,8117,7798,7791,7871,59.7,65.2,61.4,59.0,2.81,2.8,2.906,2.67,4.32,243.4,35.7,51.4,1015.35,-28.55,-2.15,1.22,30.2,48.2,37.6,0,no_anomaly,0.0,0,0,0,0,18.520413,73.8566819,12.0,0.0
2024-08-17T15:32:07.300Z,MISSION_0066,73,0,transit,SITE_PUN_007,18.5204127,73.8566769,12.0,48.29,1.281,0.145,2.93,2.4688,-1.7286,48.2855,0.91208,0.02582,-0.00495,0.40917,-0.03,-0.0051,-9.8894,0.0831,-0.509,0.1538,0.1716,3,12,0.57,1.05,0.2,24.516,17.59,89.9,43.8,19771.0,7963,7992,7937,7894,60.9,62.9,60.3,63.4,2.783,2.539,2.748,2.704,4.49,240.2,35.5,52.0,1015.05,-29.01,0.98,1.82,29.2,40.6,38.9,0,no_anomaly,0.0,0,0,0,0,18.5204127,73.8566769,12.0,0.0
2024-08-17T15:32:07.400Z,MISSION_0066,74,0,transit,SITE_PUN_007,18.5204138,73.8566806,12.0,47.93,1.277,-0.028,2.65,1.0305,-1.2331,47.9342,0.91365,0.01259,-0.00618,0.40626,-0.0301,0.1392,-9.7743,0.3307,0.0018,-0.2666,0.2181,3,11,0.54,0.69,0.2,24.604,17.26,89.8,44.0,19755.0,8037,7779,7863,7633,62.6,61.2,62.4,60.0,3.097,2.63,2.767,2.715,4.26,244.0,35.7,50.5,1015.27,-28.91,2.09,1.64,29.5,50.4,39.9,0,no_anomaly,0.0,0,0,0,0,18.5204138,73.8566806,12.0,0.0
2024-08-17T15:32:07.500Z,MISSION_0066,75,0,transit,SITE_PUN_007,18.520415,73.8566795,12.0,47.37,1.167,0.097,2.82,1.492,-2.3651,47.3719,0.91538,0.02021,-0.01367,0.40185,0.2353,0.0373,-9.8622,-0.5227,-0.0569,-0.1567,0.2468,3,17,0.65,0.95,0.31,24.524,20.26,89.7,44.6,19738.0,7836,7768,7730,8030,60.0,60.8,60.6,60.9,2.908,2.996,2.901,2.793,3.22,230.8,35.9,50.8,1015.54,-29.81,-0.44,1.7,31.1,51.5,39.7,0,no_anomaly,0.0,0,0,0,0,18.520415,73.8566795,12.0,0.0
2024-08-17T15:32:07.600Z,MISSION_0066,76,0,transit,SITE_PUN_007,18.5204164,73.8566804,12.0,45.79,0.898,0.078,2.84,4.8279,-3.7355,45.7943,0.91936,0.05145,-0.01362,0.38979,0.0404,-0.0475,-9.8788,-0.0179,0.3847,0.0244,0.2093,3,11,0.75,0.86,0.28,24.472,20.32,89.6,44.5,19722.0,7913,8010,8010,7745,59.7,59.8,60.9,58.5,2.769,2.947,2.821,2.757,4.5,232.9,35.7,50.5,1015.0,-30.64,1.76,1.09,28.9,40.3,35.3,0,no_anomaly,0.0,0,0,0,0,18.5204164,73.8566804,12.0,0.0
2024-08-17T15:32:07.700Z,MISSION_0066,77,0,transit,SITE_PUN_007,18.520417,73.8566846,12.0,44.23,0.833,0.097,2.55,-0.8649,-1.2285,44.2324,0.92637,-0.00296,-0.01277,0.37638,-0.0868,-0.0058,-9.8136,-1.0807,0.0358,-0.361,0.0687,3,20,0.71,0.8,0.35,24.596,16.41,89.6,43.8,19705.0,7929,7796,7880,7812,58.3,58.6,58.6,61.0,3.087,2.537,2.909,3.04,4.56,234.4,35.8,51.4,1015.26,-27.62,-0.58,1.64,31.1,44.5,38.0,0,no_anomaly,0.0,0,0,0,0,18.520417,73.8566846,12.0,0.0
2024-08-17T15:32:07.800Z,MISSION_0066,78,0,transit,SITE_PUN_007,18.520419,73.856682,12.0,45.45,0.741,0.079,2.91,-2.7385,-2.3558,45.4517,0.9221,-0.0141,-0.02819,0.38568,0.0111,-0.0371,-9.7928,0.3288,0.0953,0.0441,0.1731,3,18,0.73,0.96,0.33,24.533,19.56,89.5,43.4,19688.0,8183,7762,7803,7728,59.2,59.6,60.9,61.9,2.81,2.756,2.6,2.592,3.31,232.7,35.9,50.1,1015.0,-25.8,-1.11,1.19,33.6,45.4,40.8,0,no_anomaly,0.0,0,0,0,0,18.520419,73.856682,12.0,0.0
2024-08-17T15:32:07.900Z,MISSION_0066,79,0,transit,SITE_PUN_007,18.5204166,73.8566784,12.0,46.99,0.196,0.086,3.03,0.5895,-1.3931,46.9937,0.91698,0.00956,-0.0091,0.39872,-0.1841,0.0121,-9.7342,-0.2481,-0.0549,-0.1056,0.2727,3,14,0.58,1.0,0.2,24.504,18.51,89.4,43.9,19672.0,7640,8039,7898,7915,59.3,62.6,61.0,60.9,2.677,2.676,2.683,2.69,4.21,237.8,35.5,51.7,1015.22,-29.9,-0.55,1.44,31.2,42.2,35.7,0,no_anomaly,0.0,0,0,0,0,18.5204166,73.8566784,12.0,0.0
2024-08-17T15:32:08.000Z,MISSION_0066,80,0,transit,SITE_PUN_007,18.5204139,73.856676,12.0,46.25,0.0,0.085,3.09,-0.2601,0.848,46.2485,0.91962,-0.00499,0.00591,0.39273,-0.1054,0.0653,-9.7589,0.0381,1.0998,-0.3012,0.1607,3,11,0.5,1.1,0.2,24.479,20.52,89.3,44.5,19655.0,7968,8118,7892,7942,61.0,56.4,62.8,58.5,3.225,3.163,2.744,2.908,4.98,235.3,35.9,50.3,1015.22,-32.4,-0.46,1.7,31.6,44.4,39.5,0,no_anomaly,0.0,0,0,0,0,18.5204139,73.856676,12.0,0.0
2024-08-17T15:32:08.100Z,MISSION_0066,81,0,transit,SITE_PUN_007,18.5204161,73.8566739,12.0,45.54,0.0,0.092,3.41,-1.2816,-1.832,45.5353,0.92198,-0.00412,-0.01907,0.38676,-0.135,-0.0553,-9.8128,-0.7711,0.3477,0.1981,0.2227,3,18,0.74,0.93,0.26,24.483,22.1,89.3,43.7,19639.0,7994,7830,8148,7832,62.0,58.6,63.6,60.1,2.844,2.692,2.753,2.695,3.55,222.7,36.0,50.7,1015.47,-36.11,-0.56,1.49,33.6,47.7,36.7,0,no_anomaly,0.0,0,0,0,0,18.5204161,73.8566739,12.0,0.0
2024-08-17T15:32:08.200Z,MISSION_0066,82,0,transit,SITE_PUN_007,18.5204163,73.8566728,12.0,45.78,0.0,0.103,3.54,-3.9006,-2.743,45.7797,0.92077,-0.02204,-0.03527,0.38787,-0.0253,-0.0261,-9.8714,-0.2724,-0.0375,-0.0835,0.1573,3,19,0.79,0.86,0.25,24.502,21.55,89.2,44.5,19622.0,7919,7887,8012,7653,57.9,58.0,61.2,58.0,2.424,2.866,3.087,2.536,4.54,243.9,35.7,51.2,1015.28,-24.85,0.77,1.6,31.7,48.0,40.5,0,no_anomaly,0.0,0,0,0,0,18.5204163,73.8566728,12.0,0.0
2024-08-17T15:32:08.300Z,MISSION_0066,83,0,transit,SITE_PUN_007,18.5204145,73.8566693,12.0,45.54,0.205,0.104,3.78,-3.1077,0.1283,45.5381,0.92172,-0.02544,-0.00946,0.3869,0.2385,-0.0195,-9.8113,-0.1771,0.857,0.1606,0.151,3,20,0.83,1.08,0.22,24.503,15.66,89.1,44.4,19605.0,7996,7935,7861,8235,56.3,61.8,58.3,60.9,2.902,2.814,2.762,2.762,4.34,244.9,35.7,51.0,1015.43,-35.01,-1.12,1.62,33.0,42.8,40.2,0,no_anomaly,0.0,0,0,0,0,18.5204145,73.8566693,12.0,0.0
2024-08-17T15:32:08.400Z,MISSION_0066,84,0,transit,SITE_PUN_007,18.5204173,73.8566683,12.0,48.67,0.0,0.182,4.02,-1.0789,-1.5241,48.6723,0.91107,-0.0031,-0.016,0.41192,0.1225,-0.0408,-9.7847,-0.478,-0.2159,0.4586,0.2407,3,18,0.69,0.74,0.26,24.534,15.95,89.0,44.3,19589.0,7663,8135,7849,7977,59.2,59.5,61.2,61.1,2.801,2.794,3.031,2.714,3.83,234.6,35.8,50.0,1015.41,-32.59,1.03,1.54,28.3,43.4,38.2,0,no_anomaly,0.0,0,0,0,0,18.5204173,73.8566683,12.0,0.0
2024-08-17T15:32:08.500Z,MISSION_0066,85,0,transit,SITE_PUN_007,18.520412,73.8566695,12.0,49.22,0.291,0.225,3.65,1.456,-3.2197,49.2162,0.9086,0.02324,-0.02025,0.41654,-0.0698,0.0556,-9.719,0.3808,-0.4777,0.2249,0.2021,3,19,0.71,1.04,0.43,24.498,16.69,89.0,43.5,19572.0,7803,7827,7901,8110,61.6,59.8,59.1,59.0,2.918,2.712,2.653,2.755,4.41,238.7,35.7,51.3,1015.44,-30.54,1.16,1.12,31.7,50.6,40.5,0,no_anomaly,0.0,0,0,0,0,18.520412,73.8566695,12.0,0.0
2024-08-17T15:32:08.600Z,MISSION_0066,86,0,transit,SITE_PUN_007,18.5204139,73.8566649,12.0,47.79,0.422,0.078,4.2,0.8914,-3.4885,47.7868,0.91375,0.01944,-0.02468,0.40505,-0.0775,-0.0235,-9.8258,-0.6271,0.1729,0.0868,0.2321,3,19,0.62,0.8,0.2,24.395,17.41,88.9,44.7,19555.0,7799,7618,7700,8028,60.0,61.5,62.7,61.2,2.495,2.591,2.789,2.968,4.54,236.1,36.0,51.0,1015.53,-30.23,1.4,1.12,27.4,42.6,38.6,0,no_anomaly,0.0,0,0,0,0,18.5204139,73.8566649,12.0,0.0
2024-08-17T15:32:08.700Z,MISSION_0066,87,0,transit,SITE_PUN_007,18.5204133,73.8566647,12.0,47.86,0.93,0.029,4.2,-5.5465,-2.9935,47.8576,0.91318,-0.03363,-0.04347,0.40383,0.22,0.0214,-9.8339,0.1766,0.9955,0.1217,0.1071,3,19,0.72,0.6,0.2,24.627,14.97,88.8,43.9,19539.0,8210,7834,7973,7634,59.1,59.9,59.6,61.2,2.908,2.966,2.854,2.979,3.65,236.3,35.6,49.9,1015.41,-26.35,-0.25,1.68,32.8,45.8,36.5,0,no_anomaly,0.0,0,0,0,0,18.5204133,73.8566647,12.0,0.0
2024-08-17T15:32:08.800Z,MISSION_0066,88,0,transit,SITE_PUN_007,18.5204139,73.8566616,12.0,48.14,1.305,0.143,4.54,-1.1698,1.2188,48.1375,0.91291,-0.01366,0.00555,0.40789,-0.0463,0.0087,-9.8058,0.2646,-0.5668,-0.0928,0.1531,3,20,0.61,0.85,0.2,24.525,17.58,88.7,43.4,19522.0,8009,7769,7918,7851,60.4,58.3,59.5,61.2,2.586,2.913,2.785,2.642,3.88,238.7,35.5,50.7,1015.38,-24.56,0.6,1.47,29.0,45.6,35.4,0,no_anomaly,0.0,0,0,0,0,18.5204139,73.8566616,12.0,0.0
2024-08-17T15:32:08.900Z,MISSION_0066,89,0,transit,SITE_PUN_007,18.5204082,73.8566649,12.0,48.01,1.155,0.06,4.01,2.1939,-1.6029,48.0088,0.91315,0.02318,-0.00499,0.40694,-0.0335,-0.0321,-9.8324,0.014,-0.1892,0.1459,0.1758,3,12,0.83,1.05,0.35,24.549,14.05,88.7,44.5,19506.0,7783,7944,7819,7728,56.7,59.2,63.5,57.5,2.781,2.749,2.623,2.809,5.45,236.0,35.7,50.9,1015.13,-28.01,-0.62,1.12,30.3,44.5,37.0,0,no_anomaly,0.0,0,0,0,0,18.5204082,73.8566649,12.0,0.0
2024-08-17T15:32:09.000Z,MISSION_0066,90,0,transit,SITE_PUN_007,18.5204095,73.856669,12.0,48.62,0.579,0.042,3.61,0.0118,0.4195,48.6169,0.91134,-0.00141,0.00338,0.41165,-0.0801,0.0286,-9.8031,0.0541,0.8423,0.1109,0.1585,3,11,0.63,1.01,0.23,24.502,19.26,88.6,44.3,19489.0,7886,7914,7895,7988,59.3,62.9,61.4,58.1,2.906,2.706,2.726,2.572,3.79,234.8,36.1,51.1,1015.3,-28.61,1.94,1.5,28.8,45.6,39.3,0,no_anomaly,0.0,0,0,0,0,18.5204095,73.856669,12.0,0.0
2024-08-17T15:32:09.100Z,MISSION_0066,91,0,transit,SITE_PUN_007,18.5204142,73.8566672,12.0,47.83,0.437,0.01,3.98,0.2261,-2.5717,47.8273,0.91391,0.0109,-0.01971,0.4053,0.0933,-0.0977,-9.7888,0.403,-1.0758,0.0884,0.1676,3,20,0.77,1.01,0.2,24.549,18.94,88.5,44.7,19472.0,7941,7931,7968,7769,60.3,60.7,62.2,61.6,2.838,2.753,2.862,2.717,4.04,233.5,35.6,51.7,1015.33,-33.88,0.48,1.62,30.8,45.7,41.4,0,no_anomaly,0.0,0,0,0,0,18.5204142,73.8566672,12.0,0.0
2024-08-17T15:32:09.200Z,MISSION_0066,92,0,transit,SITE_PUN_007,18.520413,73.8566723,12.0,48.77,0.566,0.098,3.41,-1.9712,-1.9797,48.765,0.91066,-0.00853,-0.02283,0.41243,0.0474,0.0565,-9.8381,-0.1328,0.8402,-0.3061,0.222,3,13,0.57,0.68,0.21,24.497,17.46,88.4,43.4,19456.0,7635,7842,7968,8228,60.7,61.1,59.5,62.3,2.779,2.751,2.72,2.805,3.64,241.7,35.9,50.8,1015.33,-31.2,2.21,1.64,27.6,39.8,35.7,0,no_anomaly,0.0,0,0,0,0,18.520413,73.8566723,12.0,0.0
2024-08-17T15:32:09.300Z,MISSION_0066,93,0,transit,SITE_PUN_007,18.5204086,73.8566714,12.0,46.2,0.346,0.127,3.33,-4.8393,0.7468,46.1996,0.91888,-0.04139,-0.01057,0.39223,0.0229,-0.0459,-9.8091,-1.0022,0.0638,0.4367,0.1098,3,20,0.79,1.21,0.27,24.445,14.25,88.4,44.7,19439.0,7736,7989,7957,7729,62.5,58.3,61.0,61.7,2.804,3.007,2.435,2.888,4.64,233.0,36.0,50.3,1015.17,-29.37,-0.28,2.06,28.0,49.8,40.2,0,no_anomaly,0.0,0,0,0,0,18.5204086,73.8566714,12.0,0.0
2024-08-17T15:32:09.400Z,MISSION_0066,94,1,transit,SITE_PUN_007,18.5204141,73.8566712,12.0,48.01,0.461,0.066,3.57,0.5995,-2.496,48.012,0.91323,0.01364,-0.01777,0.40683,0.0208,-0.0151,-9.8131,-0.2497,-0.4487,0.2874,0.2342,3,15,0.58,0.89,0.26,24.458,19.4,88.3,44.6,19422.0,7875,7930,7973,7816,63.7,56.2,63.4,58.6,2.707,2.937,2.751,2.785,4.89,239.0,35.8,50.6,1015.48,-29.22,1.38,1.62,27.3,41.3,39.8,0,no_anomaly,0.0,0,0,0,0,18.5204141,73.8566712,12.0,0.0
2024-08-17T15:32:09.500Z,MISSION_0066,95,1,transit,SITE_PUN_007,18.5204107,73.8566705,12.0,45.95,0.293,0.182,3.5,2.2615,-1.964,45.9471,0.92024,0.02485,-0.00807,0.39048,-0.0836,-0.02,-9.8077,0.811,-1.1167,-0.7276,0.2385,3,10,0.58,0.7,0.22,24.484,20.13,88.2,43.7,19406.0,7675,7857,7802,7701,61.8,61.0,62.6,62.6,2.857,2.565,2.804,2.673,3.73,243.7,35.7,50.5,1015.43,-25.87,-0.74,1.97,28.5,47.3,38.0,0,no_anomaly,0.0,0,0,0,0,18.5204107,73.8566705,12.0,0.0
2024-08-17T15:32:09.600Z,MISSION_0066,96,1,transit,SITE_PUN_007,18.5204038,73.8566668,12.0,44.95,0.991,0.095,3.72,-0.3742,-1.0404,44.9457,0.92403,0.00045,-0.00964,0.3822,-0.041,0.0209,-9.8594,-0.7936,-0.2266,0.0937,0.1773,3,15,0.77,1.1,0.43,24.545,14.94,88.1,43.3,19389.0,7785,7917,7981,7766,61.7,60.3,60.7,63.5,2.836,3.203,2.856,2.685,4.37,239.0,35.6,50.7,1014.82,-31.64,1.91,1.56,30.0,48.2,40.4,0,no_anomaly,0.0,0,0,0,0,18.5204038,73.8566668,12.0,0.0
2024-08-17T15:32:09.700Z,MISSION_0066,97,1,transit,SITE_PUN_007,18.5204079,73.8566672,12.0,45.05,0.808,0.14,3.75,-1.4324,-0.5036,45.0518,0.92365,-0.00986,-0.00885,0.38302,0.1002,0.0348,-9.8253,-0.4814,0.0694,0.021,0.1928,3,10,0.79,0.86,0.34,24.385,20.02,88.1,44.3,19373.0,7916,7906,8064,7593,61.8,57.7,61.9,63.6,3.003,2.808,2.765,2.92,4.04,239.9,35.9,50.3,1015.73,-33.6,-0.36,1.27,30.6,48.0,41.1,0,no_anomaly,0.0,0,0,0,0,18.5204079,73.8566672,12.0,0.0
2024-08-17T15:32:09.800Z,MISSION_0066,98,1,transit,SITE_PUN_007,18.520409,73.8566735,12.0,45.17,0.77,0.138,3.12,1.201,-1.2443,45.1741,0.92315,0.01385,-0.006,0.38415,-0.0023,-0.069,-9.8473,0.4367,-0.3008,0.2519,0.2012,3,20,0.67,1.18,0.21,24.539,14.01,88.0,44.9,19356.0,8076,8156,7929,8055,58.7,59.5,60.2,59.5,2.794,2.75,2.726,2.746,3.61,246.9,35.8,50.2,1015.13,-28.05,-0.75,1.65,29.9,43.4,38.6,0,no_anomaly,0.0,0,0,0,0,18.520409,73.8566735,12.0,0.0
2024-08-17T15:32:09.900Z,MISSION_0066,99,1,transit,SITE_PUN_007,18.520408,73.8566795,12.0,48.05,0.35,0.147,2.45,4.259,-2.3138,48.0548,0.91223,0.04215,-0.0033,0.40749,-0.0985,0.0193,-9.8413,-0.1776,-0.0927,0.1835,0.2967,3,17,0.52,0.84,0.26,24.474,17.77,87.9,44.1,19339.0,7867,7787,8136,7984,63.4,60.8,59.6,57.5,2.705,2.799,3.006,2.938,3.8,242.9,35.8,50.9,1015.41,-30.4,-0.88,1.27,28.9,47.7,37.0,0,no_anomaly,0.0,0,0,0,0,18.520408,73.8566795,12.0,0.0
2024-08-17T15:32:10.000Z,MISSION_0066,100,1,transit,SITE_PUN_007,18.5204124,73.8566835,12.0,49.76,0.576,0.149,2.3,-1.4524,-0.9851,49.755,0.90715,-0.00788,-0.01313,0.42053,-0.1263,-0.1,-9.7953,0.5324,0.0084,0.1454,0.2291,3,20,0.63,1.05,0.27,24.482,23.29,87.8,44.3,19323.0,7910,8063,7880,7735,59.6,63.3,62.4,61.3,2.708,2.485,2.862,2.746,4.24,233.9,35.9,50.0,1015.27,-32.25,-0.11,1.69,33.4,50.4,36.5,0,no_anomaly,0.0,0,0,0,0,18.5204124,73.8566835,12.0,0.0
2024-08-17T15:32:10.100Z,MISSION_0066,101,1,transit,SITE_PUN_007,18.5204176,73.8566815,12.0,50.46,0.912,0.042,2.85,-2.5369,0.0123,50.4632,0.90437,-0.02007,-0.00934,0.42618,0.0032,-0.1108,-9.8455,-0.5343,-0.4876,-0.0934,0.2509,3,14,0.64,0.91,0.24,24.451,20.11,87.8,44.1,19306.0,8210,8013,7655,8141,58.9,59.9,61.9,60.2,2.594,2.867,2.89,2.715,3.91,233.3,35.9,51.4,1015.02,-30.07,0.74,1.18,32.8,42.7,38.9,0,no_anomaly,0.0,0,0,0,0,18.5204176,73.8566815,12.0,0.0
2024-08-17T15:32:10.200Z,MISSION_0066,102,1,transit,SITE_PUN_007,18.5204227,73.856679,12.0,50.72,0.542,0.085,3.44,-1.6879,0.4092,50.718,0.90352,-0.01484,-0.00308,0.42829,-0.1266,0.0061,-9.8798,0.604,-0.7623,0.2621,0.2236,3,16,0.62,0.94,0.2,24.561,14.66,87.7,44.0,19289.0,8140,7841,7955,7996,61.6,61.7,60.0,63.3,2.642,3.031,2.696,2.746,3.84,238.2,35.6,49.5,1015.28,-25.32,0.18,1.72,31.1,46.6,40.8,0,no_anomaly,0.0,0,0,0,0,18.5204227,73.856679,12.0,0.0
2024-08-17T15:32:10.300Z,MISSION_0066,103,1,transit,SITE_PUN_007,18.5204217,73.8566812,12.0,50.71,0.772,0.143,3.19,-0.6268,-2.1718,50.7141,0.90353,0.00317,-0.01947,0.42808,-0.1902,-0.0443,-9.859,-0.6064,0.463,-0.0682,0.1801,3,13,0.57,0.87,0.23,24.427,20.47,87.6,44.3,19273.0,7686,7733,7973,7815,59.2,62.3,60.7,61.9,3.166,3.028,2.702,2.953,3.91,234.7,35.8,51.2,1015.33,-30.8,0.14,1.07,29.5,39.8,34.5,0,no_anomaly,0.0,0,0,0,0,18.5204217,73.8566812,12.0,0.0
2024-08-17T15:32:10.400Z,MISSION_0066,104,1,transit,SITE_PUN_007,18.520418,73.8566823,12.0,48.56,0.94,0.136,2.82,2.4659,-3.6152,48.5584,0.91061,0.03257,-0.0199,0.4115,0.0463,-0.0512,-9.8383,0.336,-0.1225,-0.3189,0.223,3,13,0.75,0.85,0.37,24.469,21.17,87.5,44.2,19256.0,8049,8285,7662,7718,59.2,62.5,59.6,60.9,2.592,2.817,2.771,2.742,3.83,237.4,35.7,50.6,1015.37,-30.66,-1.94,1.66,31.7,41.2,39.6,0,no_anomaly,0.0,0,0,0,0,18.520418,73.8566823,12.0,0.0
2024-08-17T15:32:10.500Z,MISSION_0066,105,1,transit,SITE_PUN_007,18.5204178,73.8566842,12.0,48.63,1.129,0.036,2.65,-0.0362,-2.2218,48.6287,0.91113,0.0077,-0.0178,0.41166,-0.1506,0.0998,-9.8654,0.4716,0.2006,-0.0748,0.1844,3,11,0.61,1.23,0.3,24.476,19.35,87.5,43.8,19240.0,8005,7747,7792,8080,63.0,62.9,61.3,60.9,2.598,2.785,2.888,2.983,3.52,229.7,35.5,50.4,1015.21,-33.32,-1.17,1.45,35.4,50.4,40.3,0,no_anomaly,0.0,0,0,0,0,18.5204178,73.8566842,12.0,0.0
2024-08-17T15:32:10.600Z,MISSION_0066,106,1,transit,SITE_PUN_007,18.5204182,73.8566849,12.0,48.05,0.442,0.152,2.63,3.3655,-2.2819,48.0524,0.91255,0.03492,-0.00623,0.40743,-0.2453,0.0746,-9.8152,0.2125,0.0045,-0.2829,0.2078,3,15,0.85,0.74,0.31,24.455,16.58,87.4,45.1,19223.0,7773,7678,7832,7720,61.4,61.1,62.2,57.8,3.083,2.778,2.809,2.554,4.39,242.6,35.9,51.2,1015.41,-30.19,-0.74,1.69,33.6,51.1,38.7,0,no_anomaly,0.0,0,0,0,0,18.5204182,73.8566849,12.0,0.0
2024-08-17T15:32:10.700Z,MISSION_0066,107,1,transit,SITE_PUN_007,18.5204203,73.8566824,12.0,46.95,0.173,0.12,3.0,0.8001,-0.6096,46.9541,0.91717,0.00852,-0.0021,0.3984,0.3027,0.0133,-9.7376,-0.0232,0.1965,0.002,0.3128,3,13,0.73,1.07,0.36,24.455,23.02,87.3,44.0,19206.0,8015,7814,8020,7990,56.5,60.7,64.2,63.3,3.068,2.497,2.883,2.638,4.03,235.2,35.6,50.2,1014.96,-33.75,-0.88,1.44,28.5,45.1,36.4,0,no_anomaly,0.0,0,0,0,0,18.5204203,73.8566824,12.0,0.0
2024-08-17T15:32:10.800Z,MISSION_0066,108,1,transit,SITE_PUN_007,18.5204161,73.8566825,12.0,43.63,0.0,0.174,2.65,3.0374,-1.541,43.6325,0.92784,0.0296,-0.00263,0.3718,0.0624,0.0568,-9.8447,-0.2864,0.6084,0.09,0.2014,3,18,0.88,0.97,0.35,24.472,14.95,87.2,43.3,19190.0,7633,7724,7888,7892,66.1,58.0,59.9,61.8,2.9,2.75,2.647,2.667,5.09,234.4,36.0,51.4,1015.5,-29.74,-1.55,1.68,35.7,44.0,41.7,0,no_anomaly,0.0,0,0,0,0,18.5204161,73.8566825,12.0,0.0
2024-08-17T15:32:10.900Z,MISSION_0066,109,1,transit,SITE_PUN_007,18.5204183,73.8566786,12.0,43.14,0.153,-0.013,3.13,0.2922,-1.6463,43.1432,0.92985,0.00765,-0.01242,0.36766,0.1844,0.0015,-9.8307,0.4215,-0.0683,0.5454,0.1652,3,11,0.71,1.04,0.3,24.503,12.21,87.2,44.0,19173.0,7802,8127,7717,7875,62.4,59.5,61.9,59.8,2.602,2.622,2.823,2.711,4.26,236.1,35.7,50.8,1015.03,-30.36,1.93,1.3,32.5,47.0,36.5,0,no_anomaly,0.0,0,0,0,0,18.5204183,73.8566786,12.0,0.0
2024-08-17T15:32:11.000Z,MISSION_0066,110,1,transit,SITE_PUN_007,18.5204155,73.8566808,12.0,41.36,0.0,0.124,2.74,1.9149,-1.9475,41.3553,0.93522,0.02163,-0.01,0.35328,0.0079,-0.0154,-9.8051,0.0491,-0.3536,0.1578,0.1801,3,18,0.54,1.11,0.2,24.48,23.53,87.1,43.9,19156.0,7900,7668,7938,7775,60.6,61.9,63.7,59.7,2.722,2.95,2.822,2.697,4.7,243.5,35.7,49.5,1015.18,-27.86,0.76,1.81,33.3,48.6,41.1,0,no_anomaly,0.0,0,0,0,0,18.5204155,73.8566808,12.0,0.0
2024-08-17T15:32:11.100Z,MISSION_0066,111,1,transit,SITE_PUN_007,18.5204154,73.8566785,12.0,41.95,0.177,0.098,2.95,0.1175,-1.7048,41.9483,0.93363,0.00628,-0.01352,0.35792,0.0032,0.0781,-9.8279,0.0203,-0.6412,-0.2182,0.1999,3,16,0.73,1.06,0.35,24.424,18.31,87.0,44.5,19140.0,7750,7824,8180,7820,61.2,62.1,62.4,58.4,2.522,3.082,2.631,2.817,4.24,238.4,35.5,51.7,1015.27,-26.77,1.56,1.51,33.0,40.3,39.1,0,no_anomaly,0.0,0,0,0,0,18.5204154,73.8566785,12.0,0.0
2024-08-17T15:32:11.200Z,MISSION_0066,112,1,transit,SITE_PUN_007,18.5204132,73.8566808,12.0,39.79,0.141,0.061,2.59,-1.9626,0.1587,39.7902,0.94017,-0.01658,-0.00453,0.34027,-0.008,0.0449,-9.8395,-0.3719,0.3365,-0.0795,0.1518,3,11,0.66,0.82,0.29,24.501,19.26,86.9,44.1,19123.0,8016,7781,7927,7833,63.7,63.5,58.4,61.7,2.765,2.329,2.818,2.87,4.33,242.2,35.8,51.2,1015.34,-27.29,-0.36,1.88,31.8,43.8,35.0,0,no_anomaly,0.0,0,0,0,0,18.5204132,73.8566808,12.0,0.0
2024-08-17T15:32:11.300Z,MISSION_0066,113,1,orbit_base,SITE_PUN_007,18.5203225,73.8566803,12.3,38.77,0.0,0.114,8.91,-0.4043,-2.0119,38.7668,0.94319,0.0025,-0.01773,0.33178,0.1527,0.0242,-9.8194,0.5992,-0.4521,-0.2893,0.1982,3,11,0.84,1.05,0.28,24.489,20.68,86.8,44.5,19107.0,7911,7676,8156,8042,62.4,62.2,60.1,63.6,2.55,2.817,2.935,2.664,4.4,237.7,35.6,50.1,1015.38,-27.44,0.56,1.42,27.9,43.8,36.5,0,no_anomaly,0.0,0,0,0,0,18.5203225,73.8566803,12.3,0.0
2024-08-17T15:32:11.400Z,MISSION_0066,114,1,orbit_base,SITE_PUN_007,18.5203231,73.856678,12.6,37.84,0.161,0.119,8.91,0.4774,-2.7303,37.8398,0.94566,0.01166,-0.02119,0.32425,-0.1887,-0.0172,-9.8509,0.7442,-0.6644,-0.2432,0.1511,3,13,0.61,1.08,0.34,24.565,16.16,86.8,43.5,19090.0,7768,8081,7921,8098,60.3,63.0,62.7,59.8,3.202,2.791,2.87,2.889,4.05,248.3,36.1,52.0,1015.29,-34.48,-0.88,1.43,27.2,45.3,37.2,0,no_anomaly,0.0,0,0,0,0,18.5203231,73.856678,12.6,0.0
2024-08-17T15:32:11.500Z,MISSION_0066,115,1,orbit_base,SITE_PUN_007,18.5203238,73.8566757,12.9,37.36,0.417,0.175,8.91,0.4066,-0.8005,37.363,0.94728,0.0056,-0.00548,0.32032,0.1245,0.0524,-9.7914,-0.2579,-1.1243,0.1363,0.2285,3,17,0.78,0.95,0.31,24.48,17.71,86.7,45.1,19073.0,7830,7951,7934,8058,59.6,66.0,62.3,60.5,2.633,3.124,2.769,2.937,4.58,236.4,36.0,51.4,1015.08,-30.88,1.64,1.32,30.0,42.3,38.6,0,no_anomaly,0.0,0,0,0,0,18.5203238,73.8566757,12.9,0.0
2024-08-17T15:32:11.600Z,MISSION_0066,116,1,orbit_base,SITE_PUN_007,18.5203245,73.8566734,13.2,33.76,0.052,0.01,8.91,-0.1497,-3.027,33.7596,0.95659,0.00642,-0.02565,0.29023,0.1185,-0.0777,-9.8515,0.035,0.2876,-0.0238,0.1664,3,13,0.81,0.74,0.36,24.466,18.99,86.6,44.4,19057.0,7723,8012,7859,7581,61.3,60.2,61.7,62.8,2.656,2.582,2.811,2.756,3.22,237.3,35.6,50.7,1015.12,-27.57,-0.63,1.91,29.0,46.7,36.8,0,no_anomaly,0.0,0,0,0,0,18.5203245,73.8566734,13.2,0.0
2024-08-17T15:32:11.700Z,MISSION_0066,117,1,orbit_base,SITE_PUN_007,18.5203254,73.8566712,13.5,33.92,0.673,0.076,8.91,5.7724,-0.7946,33.9184,0.95517,0.05018,0.00806,0.29165,0.0957,-0.0217,-9.7386,-0.3813,-1.1041,0.1996,0.1789,3,19,0.66,0.91,0.2,24.444,15.76,86.5,44.0,19040.0,7980,7999,7882,7917,62.0,60.2,59.6,66.2,2.609,2.588,2.851,2.642,5.36,242.8,35.9,51.0,1015.24,-33.26,-0.15,1.48,32.4,46.1,35.6,0,no_anomaly,0.0,0,0,0,0,18.5203254,73.8566712,13.5,0.0
2024-08-17T15:32:11.800Z,MISSION_0066,118,1,orbit_base,SITE_PUN_007,18.5203263,73.856669,13.8,33.15,0.763,0.096,8.91,0.6361,-0.4394,33.1508,0.95842,0.00641,-0.00209,0.28529,0.0078,-0.0903,-9.8675,-1.0396,0.9757,0.0525,0.1651,3,14,0.6,1.06,0.21,24.506,16.81,86.5,44.8,19023.0,7881,8133,7901,7931,62.8,60.5,58.8,61.9,2.592,2.795,2.861,2.733,4.98,229.5,35.6,49.9,1015.28,-32.9,0.8,1.42,32.3,41.4,37.2,0,no_anomaly,0.0,0,0,0,0,18.5203263,73.856669,13.8,0.0
2024-08-17T15:32:11.900Z,MISSION_0066,119,1,orbit_base,SITE_PUN_007,18.5203272,73.8566668,14.1,33.79,0.963,0.019,8.91,-2.9853,-1.3658,33.7867,0.95654,-0.02146,-0.01897,0.29017,-0.221,-0.0127,-9.7666,0.3243,0.3734,0.4059,0.1828,3,20,0.64,1.03,0.22,24.542,10.09,86.4,43.5,19007.0,7796,7845,7766,7649,64.1,58.8,65.4,62.1,2.694,2.848,2.819,2.623,4.25,235.4,35.9,50.5,1015.07,-26.88,0.55,1.64,28.1,48.4,35.7,0,no_anomaly,0.0,0,0,0,0,18.5203272,73.8566668,14.1,0.0
2024-08-17T15:32:12.000Z,MISSION_0066,120,1,orbit_base,SITE_PUN_007,18.5203283,73.8566646,14.4,32.67,0.567,0.151,8.91,-1.2362,-0.754,32.6667,0.95959,-0.0085,-0.00935,0.28113,0.0806,0.0415,-9.7898,-0.467,0.4597,0.1398,0.1784,3,16,0.67,0.82,0.2,24.382,16.23,86.3,44.4,18990.0,7983,7855,8131,8025,65.6,59.2,61.1,65.8,2.73,2.741,2.613,2.739,2.86,238.9,35.6,50.9,1015.43,-28.7,1.3,1.86,29.0,41.3,36.8,0,no_anomaly,0.0,0,0,0,0,18.5203283,73.8566646,14.4,0.0
2024-08-17T15:32:12.100Z,MISSION_0066,121,1,orbit_base,SITE_PUN_007,18.5203294,73.8566625,14.7,33.65,0.529,0.101,8.91,2.3115,-3.7589,33.6521,0.95629,0.02879,-0.02555,0.28989,0.0095,0.079,-9.7337,-0.337,0.1302,-0.2507,0.1887,3,16,0.61,0.97,0.22,24.428,22.79,86.2,45.1,18974.0,7811,7986,7871,7995,61.7,61.8,61.0,57.2,2.667,2.517,3.02,2.659,3.68,243.3,36.0,50.4,1015.29,-27.7,-1.15,1.3,30.8,43.0,38.5,0,no_anomaly,0.0,0,0,0,0,18.5203294,73.8566625,14.7,0.0
2024-08-17T15:32:12.200Z,MISSION_0066,122,1,orbit_base,SITE_PUN_007,18.5203305,73.8566604,15.0,34.83,1.06,0.123,8.91,-1.6246,-0.5729,34.8322,0.95407,-0.01203,-0.00901,0.29921,0.1698,0.0166,-9.8251,0.2913,0.633,-0.0136,0.1479,3,18,0.74,1.03,0.35,24.421,22.83,86.2,44.0,18957.0,8068,7969,7978,7977,63.2,60.6,64.2,58.9,2.759,2.566,2.699,2.837,4.67,241.2,35.9,50.9,1015.33,-30.67,-0.27,1.51,32.4,41.4,36.9,0,no_anomaly,0.0,0,0,0,0,18.5203305,73.8566604,15.0,0.0
2024-08-17T15:32:12.300Z,MISSION_0066,123,1,orbit_base,SITE_PUN_007,18.5203317,73.8566583,15.3,35.35,1.267,0.072,8.91,-3.4323,-5.4286,35.3491,0.95173,-0.01413,-0.05418,0.30178,0.3528,-0.0233,-9.8639,-0.1496,0.1731,-0.2011,0.14,3,18,0.65,0.77,0.2,24.377,20.17,86.1,43.6,18940.0,8021,7778,8019,8024,61.9,61.9,60.7,60.7,2.962,2.875,2.652,2.961,4.43,240.1,35.9,50.5,1015.29,-26.8,0.44,1.78,31.6,51.1,40.0,0,no_anomaly,0.0,0,0,0,0,18.5203317,73.8566583,15.3,0.0
2024-08-17T15:32:12.400Z,MISSION_0066,124,1,orbit_base,SITE_PUN_007,18.520333,73.8566563,15.6,37.15,0.722,0.106,8.91,-2.3293,-3.8482,37.1463,0.9474,-0.00856,-0.03829,0.31762,-0.0216,0.0039,-9.7864,-0.0203,0.0787,-0.1248,0.1767,3,11,0.52,0.82,0.2,24.373,16.56,86.0,44.2,18924.0,8194,7747,8081,7938,57.1,60.2,58.4,60.3,2.712,2.772,2.908,2.72,4.65,237.0,35.8,51.0,1015.44,-30.64,2.17,1.27,29.9,50.4,39.1,0,no_anomaly,0.0,0,0,0,0,18.520333,73.8566563,15.6,0.0
2024-08-17T15:32:12.500Z,MISSION_0066,125,1,orbit_base,SITE_PUN_007,18.5203344,73.8566543,15.9,36.5,0.964,0.109,8.91,-1.4993,0.1596,36.499,0.94961,-0.01286,-0.00277,0.31315,0.0047,0.067,-9.7443,-0.5473,0.0605,-0.0936,0.275,3,17,0.67,0.6,0.3,24.363,18.16,85.9,44.5,18907.0,7929,7644,7852,7960,58.0,62.4,60.1,60.5,2.709,2.688,2.663,2.866,4.26,226.0,35.7,51.7,1015.18,-27.3,0.23,1.04,31.9,47.8,37.1,0,no_anomaly,0.0,0,0,0,0,18.5203344,73.8566543,15.9,0.0
2024-08-17T15:32:12.600Z,MISSION_0066,126,1,orbit_base,SITE_PUN_007,18.5203358,73.8566523,16.2,34.04,0.902,0.081,8.91,2.7939,-1.6634,34.0378,0.95572,0.02756,-0.00674,0.29291,0.2188,-0.0443,-9.7119,-0.0153,0.3486,-0.2326,0.1395,3,17,0.53,1.17,0.27,24.402,19.33,85.9,44.1,18890.0,7867,8064,7811,8042,60.8,59.2,62.7,62.5,2.85,2.995,2.695,3.038,4.01,235.4,35.6,51.3,1015.31,-27.53,1.27,1.53,30.2,47.5,37.8,0,no_anomaly,0.0,0,0,0,0,18.5203358,73.8566523,16.2,0.0
2024-08-17T15:32:12.700Z,MISSION_0066,127,1,orbit_base,SITE_PUN_007,18.5203372,73.8566504,16.5,35.77,0.479,0.087,8.91,5.0176,-2.4597,35.7721,0.95025,0.04823,-0.00697,0.30765,0.0534,0.0645,-9.8,0.6819,0.6883,0.3953,0.1155,3,17,0.74,0.64,0.31,24.41,17.49,85.8,44.8,18874.0,7986,7842,7574,7861,60.4,61.3,59.5,56.9,2.878,2.717,2.486,2.807,4.5,240.2,35.7,51.2,1015.43,-27.66,-0.61,1.26,33.1,49.1,40.7,0,no_anomaly,0.0,0,0,0,0,18.5203372,73.8566504,16.5,0.0
2024-08-17T15:32:12.800Z,MISSION_0066,128,1,orbit_base,SITE_PUN_007,18.5203387,73.8566486,16.8,38.43,0.317,0.195,8.91,-5.8956,-1.6529,38.4259,0.9432,-0.04382,-0.03052,0.32791,-0.192,0.0214,-9.8177,-0.5995,-0.2358,-0.1516,0.19,3,12,0.79,1.05,0.34,24.352,16.12,85.7,44.0,18857.0,7931,7857,8009,7948,61.3,59.8,62.7,61.8,2.825,2.508,3.087,2.541,4.23,234.0,35.6,50.1,1015.73,-29.71,0.62,2.33,32.3,47.4,40.3,0,no_anomaly,0.0,0,0,0,0,18.5203387,73.8566486,16.8,0.0
2024-08-17T15:32:12.900Z,MISSION_0066,129,1,orbit_base,SITE_PUN_007,18.5203403,73.8566467,17.1,36.76,0.0,0.075,8.91,-2.4597,-1.9288,36.7595,0.94875,-0.01506,-0.02274,0.31485,0.1417,0.0356,-9.8567,0.4095,0.0296,0.1373,0.1718,3,15,0.63,0.9,0.23,24.363,13.14,85.6,44.0,18841.0,7899,8023,7951,7881,60.4,63.1,59.2,61.2,2.711,2.832,2.857,2.891,4.54,244.4,35.8,51.0,1014.94,-31.52,-0.64,1.51,34.0,42.8,37.8,0,no_anomaly,0.0,0,0,0,0,18.5203403,73.8566467,17.1,0.0
