timestamp_utc,mission_id,frame_id,waypoint_id,inspection_phase,site_id,latitude_deg,longitude_deg,altitude_m,heading_deg,ground_speed_ms,vertical_speed_ms,distance_to_tower_m,roll_deg,pitch_deg,yaw_deg,quat_w,quat_x,quat_y,quat_z,accel_x_ms2,accel_y_ms2,accel_z_ms2,gyro_x_rads,gyro_y_rads,gyro_z_rads,vibration_level,gps_fix_type,gps_satellite_count,gps_hdop,gps_vdop,position_error_m,battery_voltage_v,battery_current_a,battery_remaining_pct,battery_temp_c,battery_capacity_mah,motor_fl_rpm,motor_fr_rpm,motor_rl_rpm,motor_rr_rpm,motor_fl_temp_c,motor_fr_temp_c,motor_rl_temp_c,motor_rr_temp_c,motor_fl_thrust_n,motor_fr_thrust_n,motor_rl_thrust_n,motor_rr_thrust_n,wind_speed_ms,wind_dir_deg,air_temp_c,humidity_pct,pressure_hpa,gimbal_pitch_deg,gimbal_roll_deg,zoom_factor,ir_temp_min_c,ir_temp_max_c,ir_temp_avg_c,anomaly_detected,anomaly_class,anomaly_confidence,anomaly_bbox_x,anomaly_bbox_y,anomaly_bbox_w,anomaly_bbox_h,anomaly_gps_lat,anomaly_gps_lon,anomaly_gps_alt_m,ir_temp_delta_c
2024-12-28T16:52:00.000Z,MISSION_0052,0,0,takeoff,SITE_BLR_003,12.9715976,77.594598,1.5,310.33,0.255,0.07,0.35,-0.3273,-0.816,310.3289,-0.90748,0.00558,0.00526,0.42002,-0.0346,-0.0288,-9.8305,0.0327,0.122,0.3316,0.0717,3,19,0.71,1.1,0.29,24.688,17.81,97.2,46.4,21382.0,7343,7062,7441,7465,60.8,63.6,62.6,61.5,2.848,2.763,2.875,2.814,3.71,304.0,37.5,32.7,1009.33,-32.28,-1.29,1.24,29.3,46.7,37.9,0,no_anomaly,0.0,0,0,0,0,12.9715976,77.594598,1.5,0.0
2024-12-28T16:52:00.100Z,MISSION_0052,1,0,takeoff,SITE_BLR_003,12.9716002,77.5945989,3.0,310.31,0.0,0.161,0.13,-2.8918,0.3481,310.3132,-0.9072,0.02162,-0.01336,0.41993,0.042,-0.0095,-9.8453,0.4073,-0.1942,-0.1482,0.2661,3,15,0.74,0.63,0.43,24.686,23.47,97.1,45.0,21363.0,7114,7215,7071,7330,63.0,63.1,60.4,62.2,2.948,2.978,2.684,2.712,3.74,300.5,38.0,31.4,1009.1,-33.0,-0.74,1.53,30.9,52.5,39.7,0,no_anomaly,0.0,0,0,0,0,12.9716002,77.5945989,3.0,0.0
2024-12-28T16:52:00.200Z,MISSION_0052,2,0,takeoff,SITE_BLR_003,12.971606,77.5945999,4.5,314.81,0.0,0.2,0.67,-0.8279,-2.5244,314.8074,-0.92293,0.01513,0.01756,0.38428,-0.1994,-0.1051,-9.7356,-0.0344,-0.051,-0.6293,0.1587,3,19,0.69,0.93,0.32,24.742,14.97,97.0,45.4,21343.0,7057,7117,6854,7031,64.2,61.3,60.4,61.0,2.556,2.752,2.648,2.985,3.15,290.9,37.5,31.9,1009.32,-26.23,-1.1,1.59,34.5,46.7,42.7,0,no_anomaly,0.0,0,0,0,0,12.971606,77.5945999,4.5,0.0
2024-12-28T16:52:00.300Z,MISSION_0052,3,0,takeoff,SITE_BLR_003,12.9716063,77.5946013,5.0,317.9,0.245,0.022,0.71,-1.7248,-4.3798,317.9012,-0.93228,0.02776,0.03026,0.35941,0.0086,-0.0744,-9.8849,-0.994,0.0938,-0.116,0.1496,3,17,0.58,0.76,0.2,24.714,19.75,96.9,46.1,21323.0,7063,7101,7220,7226,67.4,62.9,63.4,60.5,2.77,2.85,2.94,2.851,3.78,308.5,37.9,32.3,1009.2,-35.85,1.2,1.51,35.0,49.0,39.2,0,no_anomaly,0.0,0,0,0,0,12.9716063,77.5946013,5.0,0.0
2024-12-28T16:52:00.400Z,MISSION_0052,4,0,takeoff,SITE_BLR_003,12.9716077,77.5945998,5.0,320.42,0.714,0.139,0.86,-3.8655,-1.9306,320.4238,-0.94009,0.03743,0.00443,0.33884,0.2051,0.0344,-9.8202,0.8455,-0.3325,-0.4565,0.1508,3,20,0.89,0.74,0.38,24.663,11.36,96.8,45.1,21304.0,7039,7083,7014,6995,59.7,63.2,62.4,60.9,2.725,2.968,2.943,2.887,4.18,301.2,37.6,31.4,1009.2,-28.71,-0.8,1.53,33.8,44.2,39.1,0,no_anomaly,0.0,0,0,0,0,12.9716077,77.5945998,5.0,0.0
2024-12-28T16:52:00.500Z,MISSION_0052,5,0,takeoff,SITE_BLR_003,12.9716089,77.5946022,5.0,319.85,0.618,0.022,1.02,3.325,-0.7639,319.849,-0.93889,-0.02496,0.01622,0.34292,-0.1939,-0.0264,-9.8798,-0.4615,-0.4403,0.4411,0.2072,3,16,0.88,0.88,0.45,24.726,19.53,96.7,46.3,21284.0,7273,7197,7253,7231,63.9,60.7,62.0,62.6,2.786,2.791,3.076,2.867,3.67,301.0,37.7,32.3,1009.5,-30.17,-0.71,1.73,34.7,45.9,38.5,0,no_anomaly,0.0,0,0,0,0,12.9716089,77.5946022,5.0,0.0
2024-12-28T16:52:00.600Z,MISSION_0052,6,0,takeoff,SITE_BLR_003,12.9716107,77.5946013,5.0,323.54,0.264,0.085,1.2,0.2855,0.4774,323.5361,-0.94978,-0.00367,-0.00318,0.31287,0.0819,0.0264,-9.802,-0.7651,0.4209,0.4228,0.1915,3,11,0.7,0.9,0.33,24.709,20.6,96.7,45.9,21265.0,7398,7098,7227,7117,67.2,62.2,63.6,64.3,2.735,2.863,2.896,2.654,4.27,293.6,37.6,31.4,1009.03,-28.75,-0.8,1.62,31.8,41.9,38.3,0,no_anomaly,0.0,0,0,0,0,12.9716107,77.5946013,5.0,0.0
2024-12-28T16:52:00.700Z,MISSION_0052,7,0,takeoff,SITE_BLR_003,12.971606,77.5946048,5.0,323.09,0.156,0.139,0.85,2.9397,0.3077,323.0919,-0.94824,-0.02518,0.00557,0.3165,-0.0004,0.0009,-9.8587,0.0587,0.118,0.1951,0.15,3,12,0.68,1.01,0.31,24.666,15.52,96.6,45.5,21245.0,7121,7036,6952,6847,64.1,63.5,66.9,66.0,2.869,2.532,2.804,2.957,3.44,297.4,37.6,32.0,1009.15,-26.12,-1.51,1.0,33.1,46.1,38.8,0,no_anomaly,0.0,0,0,0,0,12.971606,77.5946048,5.0,0.0
2024-12-28T16:52:00.800Z,MISSION_0052,8,0,takeoff,SITE_BLR_003,12.9716067,77.5946077,5.0,321.31,0.0,0.022,1.13,4.561,-3.5197,321.3071,-0.94275,-0.02736,0.04213,0.32971,0.0455,0.0451,-9.8231,-0.2663,-0.7182,0.0552,0.1355,3,16,0.94,0.83,0.42,24.594,19.25,96.5,45.4,21225.0,7392,6982,7283,7202,61.8,66.2,60.9,65.8,2.821,2.972,2.68,2.554,4.14,303.3,37.7,31.3,1009.12,-33.22,0.95,2.0,29.6,49.1,40.8,0,no_anomaly,0.0,0,0,0,0,12.9716067,77.5946077,5.0,0.0
2024-12-28T16:52:00.900Z,MISSION_0052,9,0,takeoff,SITE_BLR_003,12.97161,77.5946051,5.0,319.75,0.0,0.023,1.25,-2.0456,-3.4599,319.7514,-0.93819,0.02714,0.0222,0.34435,0.0429,0.018,-9.8472,-0.008,-0.3367,0.0846,0.1277,3,14,0.65,0.82,0.42,24.634,18.71,96.4,45.8,21206.0,7079,7182,7000,7030,64.5,62.2,62.6,65.7,2.659,2.588,2.691,2.978,4.42,298.7,37.6,32.8,1009.26,-31.31,-0.92,1.74,29.5,43.7,37.5,0,no_anomaly,0.0,0,0,0,0,12.97161,77.5946051,5.0,0.0
2024-12-28T16:52:01.000Z,MISSION_0052,10,0,takeoff,SITE_BLR_003,12.9716071,77.5946037,5.0,318.33,0.011,0.081,0.89,-1.7457,0.374,318.3274,-0.9345,0.01308,-0.00847,0.35561,-0.2634,-0.0607,-9.7979,-0.2242,-0.2878,0.1673,0.1638,3,10,0.75,1.01,0.3,24.734,20.88,96.3,46.1,21186.0,7360,7101,7133,7119,61.8,60.3,62.8,61.2,2.714,2.573,2.768,2.706,4.17,298.0,37.9,32.6,1009.14,-27.12,1.83,1.47,31.5,46.8,37.8,0,no_anomaly,0.0,0,0,0,0,12.9716071,77.5946037,5.0,0.0
2024-12-28T16:52:01.100Z,MISSION_0052,11,0,takeoff,SITE_BLR_003,12.9716036,77.5946055,5.0,315.79,0.65,0.064,0.73,-3.1125,-4.7792,315.7868,-0.92491,0.04082,0.0284,0.37691,0.1199,-0.0313,-9.8657,-0.1237,-0.327,-0.3651,0.1813,3,12,0.86,0.83,0.35,24.693,15.36,96.2,46.9,21166.0,7074,7037,7112,7139,63.1,59.9,65.8,61.9,2.721,2.871,2.699,2.601,4.72,291.3,37.9,31.8,1009.09,-28.61,-1.13,1.76,30.7,43.0,41.2,0,no_anomaly,0.0,0,0,0,0,12.9716036,77.5946055,5.0,0.0
2024-12-28T16:52:01.200Z,MISSION_0052,12,0,takeoff,SITE_BLR_003,12.9716071,77.594606,5.0,314.23,0.836,0.076,1.04,3.4611,-1.3296,314.2267,-0.92093,-0.02331,0.02243,0.38838,-0.0609,-0.0356,-9.815,-0.2427,0.1728,0.0854,0.1956,3,19,0.59,0.91,0.24,24.712,20.59,96.1,45.8,21147.0,7396,7269,7252,7172,61.4,62.7,61.7,61.7,2.92,2.491,3.026,2.629,3.89,299.0,37.3,32.6,1009.43,-25.92,-1.05,1.37,32.7,47.0,39.7,0,no_anomaly,0.0,0,0,0,0,12.9716071,77.594606,5.0,0.0
2024-12-28T16:52:01.300Z,MISSION_0052,13,0,takeoff,SITE_BLR_003,12.9716012,77.5946036,5.0,316.12,1.137,0.061,0.43,-0.9519,-1.8509,316.1174,-0.92736,0.01374,0.01188,0.37372,-0.0192,0.0057,-9.8488,0.3884,1.0547,-0.0829,0.2194,3,19,0.79,0.96,0.25,24.722,19.92,96.0,46.2,21127.0,6891,7057,7260,7307,61.9,62.5,63.8,63.2,2.967,2.863,2.944,2.806,4.39,296.9,37.4,32.4,1009.05,-33.46,-1.02,1.44,31.5,48.9,39.1,0,no_anomaly,0.0,0,0,0,0,12.9716012,77.5946036,5.0,0.0
2024-12-28T16:52:01.400Z,MISSION_0052,14,0,takeoff,SITE_BLR_003,12.9716026,77.5946,5.0,313.61,0.658,0.157,0.29,1.3803,-1.4926,313.6108,-0.91909,-0.00594,0.01671,0.39365,-0.1183,0.0212,-9.7621,0.1876,-0.1572,-0.4827,0.1792,3,17,0.61,1.09,0.3,24.604,15.82,95.9,45.5,21107.0,7265,7209,7138,7408,63.6,59.9,63.7,61.9,2.738,2.909,2.874,2.929,4.02,298.9,37.8,31.4,1009.31,-32.35,1.8,1.31,30.5,46.0,40.6,0,no_anomaly,0.0,0,0,0,0,12.9716026,77.5946,5.0,0.0
2024-12-28T16:52:01.500Z,MISSION_0052,15,0,takeoff,SITE_BLR_003,12.9716078,77.5945968,5.0,313.52,0.295,0.116,0.94,-1.1585,-4.2111,313.5179,-0.91804,0.02378,0.02977,0.39465,0.0589,0.0143,-9.8304,0.5933,0.2578,-0.0179,0.2198,3,16,0.76,1.03,0.35,24.692,17.21,95.9,45.5,21088.0,7194,7066,7207,7108,62.2,61.9,63.3,64.0,3.087,2.946,2.812,2.549,3.49,293.8,37.9,32.1,1009.21,-33.35,1.46,1.46,32.6,45.5,39.9,0,no_anomaly,0.0,0,0,0,0,12.9716078,77.5945968,5.0,0.0
2024-12-28T16:52:01.600Z,MISSION_0052,16,0,takeoff,SITE_BLR_003,12.9716038,77.5945942,5.0,313.86,0.258,0.087,0.77,0.357,-1.711,313.8577,-0.91993,0.00299,0.01496,0.39179,0.088,0.052,-9.777,-0.317,0.4146,0.5188,0.1723,3,11,0.81,1.01,0.4,24.654,19.36,95.8,45.9,21068.0,7354,7139,7118,7147,65.7,62.3,61.2,62.1,2.828,2.746,2.833,2.97,3.77,307.3,37.3,31.7,1009.31,-27.03,-0.08,1.81,31.1,50.2,38.8,0,no_anomaly,0.0,0,0,0,0,12.9716038,77.5945942,5.0,0.0
2024-12-28T16:52:01.700Z,MISSION_0052,17,0,takeoff,SITE_BLR_003,12.9715999,77.5945971,5.0,312.98,0.804,0.016,0.32,-1.7243,-1.1337,312.9816,-0.91679,0.01774,0.00307,0.39897,-0.2112,-0.0415,-9.8239,0.4873,0.416,-0.0204,0.2018,3,13,0.55,0.77,0.25,24.695,19.15,95.7,46.3,21049.0,7431,7179,7117,7224,61.5,63.3,60.1,63.2,2.957,2.832,2.832,2.679,3.59,309.4,38.0,32.3,1009.53,-31.23,0.7,1.23,36.2,51.0,43.0,0,no_anomaly,0.0,0,0,0,0,12.9715999,77.5945971,5.0,0.0
2024-12-28T16:52:01.800Z,MISSION_0052,18,0,takeoff,SITE_BLR_003,12.9716023,77.5945924,5.0,315.34,0.774,0.064,0.89,2.3606,-4.15,315.3417,-0.9245,-0.00529,0.04131,0.37891,-0.0643,0.0374,-9.8729,-1.2029,-0.2824,-0.1784,0.2136,3,14,0.5,0.84,0.2,24.728,21.1,95.6,45.5,21029.0,7073,7052,7456,7349,60.2,60.2,60.6,63.9,2.797,2.538,2.519,2.627,4.19,306.1,38.0,31.7,1009.5,-28.85,0.01,1.57,30.8,49.3,36.9,0,no_anomaly,0.0,0,0,0,0,12.9716023,77.5945924,5.0,0.0
2024-12-28T16:52:01.900Z,MISSION_0052,19,0,takeoff,SITE_BLR_003,12.9716078,77.5945956,5.0,313.28,0.84,0.079,1.0,3.3551,-2.7095,313.2762,-0.91764,-0.0175,0.0333,0.39562,0.0121,-0.0785,-9.8616,0.1471,0.1508,-0.0712,0.0948,3,12,0.62,0.85,0.27,24.679,19.79,95.5,45.8,21009.0,7212,7338,7376,6994,67.6,63.8,64.6,60.2,2.867,2.769,2.652,2.899,4.16,302.5,37.8,32.4,1009.3,-30.35,-1.34,1.32,30.4,42.2,41.4,0,no_anomaly,0.0,0,0,0,0,12.9716078,77.5945956,5.0,0.0
2024-12-28T16:52:02.000Z,MISSION_0052,20,0,takeoff,SITE_BLR_003,12.9716074,77.5945996,5.0,315.13,0.96,0.162,0.82,2.1298,-4.2528,315.1255,-0.92377,-0.00301,0.04138,0.38071,-0.0602,-0.0196,-9.7975,0.0895,-0.4855,-0.592,0.0698,3,10,0.5,1.0,0.23,24.716,19.46,95.4,45.5,20990.0,7093,6901,7325,7070,64.3,63.8,63.1,63.2,2.85,2.851,2.735,2.684,3.54,305.0,37.8,32.1,1009.39,-28.96,-1.16,1.41,31.1,46.0,38.5,0,no_anomaly,0.0,0,0,0,0,12.9716074,77.5945996,5.0,0.0
2024-12-28T16:52:02.100Z,MISSION_0052,21,0,takeoff,SITE_BLR_003,12.9716067,77.594609,5.0,315.65,0.99,0.121,1.24,0.7729,-1.8667,315.6452,-0.92592,-0.0001,0.01763,0.37732,0.0776,-0.0275,-9.8415,0.5714,-0.304,0.1819,0.1343,3,15,0.54,0.75,0.25,24.612,18.36,95.3,46.1,20970.0,7318,7016,6987,6824,63.4,65.9,61.1,68.1,2.83,2.637,2.951,2.788,3.56,297.3,37.9,31.5,1009.4,-31.11,0.11,1.4,33.0,47.6,40.1,0,no_anomaly,0.0,0,0,0,0,12.9716067,77.594609,5.0,0.0
2024-12-28T16:52:02.200Z,MISSION_0052,22,0,takeoff,SITE_BLR_003,12.9716037,77.5946127,5.0,317.53,1.188,0.138,1.47,-1.2809,-3.3035,317.5321,-0.93155,0.02085,0.02282,0.3623,-0.0008,-0.0503,-9.8259,-0.3867,-0.0208,-0.0929,0.1269,3,10,0.67,0.9,0.26,24.673,18.66,95.2,46.6,20950.0,7083,7192,7126,7261,65.0,63.7,60.5,65.1,2.46,2.731,2.733,2.754,3.77,304.4,37.8,32.7,1009.16,-32.51,-0.11,1.98,36.3,47.7,42.8,0,no_anomaly,0.0,0,0,0,0,12.9716037,77.5946127,5.0,0.0
2024-12-28T16:52:02.300Z,MISSION_0052,23,0,takeoff,SITE_BLR_003,12.971602,77.5946114,5.0,317.28,1.401,0.1,1.29,3.2635,-2.3771,317.285,-0.93096,-0.01896,0.02968,0.36341,-0.2422,-0.0287,-9.8792,0.1606,-0.0065,-0.4036,0.1484,3,14,0.77,0.72,0.26,24.665,27.38,95.1,46.3,20931.0,7214,7398,7471,7152,64.5,59.8,63.0,67.9,2.966,2.708,2.768,2.857,3.4,301.0,37.9,32.7,1008.99,-29.96,0.38,1.54,35.1,47.4,41.2,0,no_anomaly,0.0,0,0,0,0,12.971602,77.5946114,5.0,0.0
2024-12-28T16:52:02.400Z,MISSION_0052,24,0,takeoff,SITE_BLR_003,12.9715979,77.5946155,5.0,317.6,1.424,0.122,1.74,0.3158,0.0839,317.5979,-0.93231,-0.00283,0.00031,0.36164,-0.0298,-0.0549,-9.81,-0.2944,1.0338,0.3071,0.1812,3,12,0.82,1.05,0.37,24.589,23.06,95.1,46.6,20911.0,7165,6991,7270,7254,62.9,63.8,66.2,63.8,3.025,2.818,2.805,2.803,3.39,297.3,37.7,31.8,1009.31,-37.2,-0.4,1.57,34.5,46.1,41.1,0,no_anomaly,0.0,0,0,0,0,12.9715979,77.5946155,5.0,0.0
2024-12-28T16:52:02.500Z,MISSION_0052,25,0,takeoff,SITE_BLR_003,12.9715967,77.5946197,5.0,319.23,0.959,0.153,2.23,6.9376,-0.4706,319.2262,-0.93572,-0.05529,0.02492,0.34748,0.0052,0.0634,-9.8125,0.1507,-0.1627,0.088,0.1334,3,11,0.72,0.81,0.29,24.679,24.14,95.0,46.1,20892.0,7207,7274,6971,7236,65.6,62.5,63.7,64.3,2.896,2.948,2.923,2.794,3.7,303.6,38.1,32.0,1009.41,-31.1,-1.22,1.0,31.4,44.4,38.2,0,no_anomaly,0.0,0,0,0,0,12.9715967,77.5946197,5.0,0.0
2024-12-28T16:52:02.600Z,MISSION_0052,26,0,takeoff,SITE_BLR_003,12.9715978,77.5946159,5.0,317.4,0.57,0.125,1.78,-4.8398,-0.3364,317.3966,-0.9308,0.0404,-0.01261,0.36307,0.0836,-0.0108,-9.737,0.2741,-0.8294,-0.175,0.2691,3,19,0.57,0.99,0.2,24.72,22.44,94.9,45.9,20872.0,7044,7366,7078,7028,64.5,64.5,61.9,63.5,2.905,2.978,2.537,2.934,4.45,292.3,37.7,31.9,1008.94,-26.63,-1.9,1.75,31.2,43.3,39.7,0,no_anomaly,0.0,0,0,0,0,12.9715978,77.5946159,5.0,0.0
2024-12-28T16:52:02.700Z,MISSION_0052,27,0,takeoff,SITE_BLR_003,12.9715917,77.5946186,5.0,316.35,0.171,0.144,2.27,0.2369,-1.2657,316.3459,-0.92826,0.00219,0.01102,0.37176,-0.0915,0.0044,-9.8506,0.7088,-0.708,0.4075,0.3149,3,13,0.77,0.92,0.25,24.624,16.14,94.8,45.7,20852.0,7344,7076,7000,7281,63.7,59.3,64.5,61.9,2.692,2.778,2.616,2.611,3.5,297.0,37.6,32.8,1009.27,-30.33,0.05,1.34,33.9,43.0,41.6,0,no_anomaly,0.0,0,0,0,0,12.9715917,77.5946186,5.0,0.0
2024-12-28T16:52:02.800Z,MISSION_0052,28,0,takeoff,SITE_BLR_003,12.9715881,77.5946179,5.0,315.46,0.0,0.171,2.39,3.3397,-2.9386,315.4619,-0.925,-0.01725,0.03476,0.37798,0.1703,0.0048,-9.7752,0.1062,1.1338,0.5562,0.1678,3,10,0.57,0.79,0.32,24.661,17.69,94.7,45.9,20833.0,7109,7115,7090,7363,65.9,67.1,60.8,62.1,2.786,2.84,2.736,2.817,4.04,305.7,37.5,30.6,1009.51,-25.74,1.67,1.67,35.5,45.2,44.1,0,no_anomaly,0.0,0,0,0,0,12.9715881,77.5946179,5.0,0.0
2024-12-28T16:52:02.900Z,MISSION_0052,29,0,takeoff,SITE_BLR_003,12.971588,77.5946176,5.0,315.46,0.609,0.103,2.37,2.9833,-3.5204,315.4585,-0.92496,-0.01244,0.03828,0.37794,0.1748,0.0019,-9.8297,0.0102,-0.2031,-0.3326,0.2299,3,17,0.75,0.9,0.42,24.673,25.62,94.6,46.0,20813.0,7368,7253,7011,6941,64.9,64.8,63.5,63.5,2.93,2.62,3.007,2.91,3.6,302.2,37.7,32.4,1009.23,-24.31,0.37,1.33,38.4,48.2,41.9,0,no_anomaly,0.0,0,0,0,0,12.971588,77.5946176,5.0,0.0
2024-12-28T16:52:03.000Z,MISSION_0052,30,0,takeoff,SITE_BLR_003,12.9715911,77.5946157,5.0,315.47,0.679,0.118,2.01,1.151,-2.5505,315.4697,-0.92525,-0.00086,0.0244,0.37857,0.0906,0.0598,-9.7697,-0.4106,0.0995,-0.4848,0.1737,3,17,0.52,0.99,0.25,24.678,18.02,94.5,46.3,20793.0,7314,7138,7266,7338,62.5,64.0,63.3,64.0,2.974,2.766,2.915,2.875,4.11,304.1,37.9,32.4,1009.64,-30.87,-0.7,1.67,32.9,50.3,42.5,0,no_anomaly,0.0,0,0,0,0,12.9715911,77.5946157,5.0,0.0
2024-12-28T16:52:03.100Z,MISSION_0052,31,0,takeoff,SITE_BLR_003,12.9715914,77.5946205,5.0,315.99,0.872,-0.018,2.47,3.92,-2.5162,315.9943,-0.92668,-0.02348,0.03316,0.37365,0.1008,0.0292,-9.7097,0.1704,-0.0155,-0.0997,0.2531,3,17,0.67,1.06,0.23,24.666,19.17,94.4,45.8,20774.0,7227,7379,7279,7104,63.9,63.0,66.1,62.0,2.646,3.16,2.651,2.78,3.23,296.6,37.7,31.4,1009.38,-29.55,0.62,1.67,34.2,52.1,40.5,0,no_anomaly,0.0,0,0,0,0,12.9715914,77.5946205,5.0,0.0
2024-12-28T16:52:03.200Z,MISSION_0052,32,0,takeoff,SITE_BLR_003,12.9715909,77.5946209,5.0,316.29,0.461,0.094,2.54,-3.8293,1.1272,316.2932,-0.9277,0.02735,-0.02156,0.3717,0.1902,0.0529,-9.7805,0.0095,-1.0848,-0.1649,0.1644,3,10,0.76,1.06,0.22,24.59,17.56,94.3,46.1,20754.0,7133,7377,7453,7072,63.4,66.4,61.8,59.8,2.67,2.898,2.842,2.78,3.71,296.2,37.8,31.9,1009.11,-32.23,0.07,1.56,35.7,49.4,39.3,0,no_anomaly,0.0,0,0,0,0,12.9715909,77.5946209,5.0,0.0
2024-12-28T16:52:03.300Z,MISSION_0052,33,0,takeoff,SITE_BLR_003,12.9715904,77.5946253,5.0,315.44,0.242,0.12,3.01,0.9991,-0.4922,315.4358,-0.9253,-0.00644,0.00728,0.37911,0.1432,-0.0291,-9.8293,-0.213,-0.2725,0.2426,0.2279,3,17,0.58,0.89,0.25,24.678,15.54,94.2,45.6,20735.0,7229,7217,7272,7272,60.9,64.4,62.6,65.2,2.666,2.853,2.693,2.884,3.76,292.8,37.9,31.4,1009.43,-37.64,-0.22,1.55,31.6,49.2,38.7,0,no_anomaly,0.0,0,0,0,0,12.9715904,77.5946253,5.0,0.0
2024-12-28T16:52:03.400Z,MISSION_0052,34,0,takeoff,SITE_BLR_003,12.9715901,77.5946228,5.0,315.03,0.048,0.076,2.77,-2.9431,-1.0118,315.0323,-0.92356,0.0271,-0.00166,0.38249,-0.1693,0.0382,-9.7333,-0.1025,-0.9064,0.0024,0.2738,3,13,0.84,0.85,0.2,24.695,14.67,94.2,45.2,20715.0,7082,6894,6986,7049,62.8,67.8,64.7,64.6,2.988,2.634,2.813,2.754,3.65,288.8,37.8,32.5,1009.44,-30.03,0.6,1.74,32.9,47.9,38.9,0,no_anomaly,0.0,0,0,0,0,12.9715901,77.5946228,5.0,0.0
2024-12-28T16:52:03.500Z,MISSION_0052,35,0,takeoff,SITE_BLR_003,12.9715919,77.5946278,5.0,315.1,0.362,0.052,3.23,-2.0513,-3.2832,315.1005,-0.92349,0.02747,0.01964,0.38213,-0.0191,0.0146,-9.7298,0.1769,0.574,-0.421,0.1387,3,16,0.56,0.76,0.2,24.62,19.38,94.1,45.6,20695.0,7086,7085,7224,7303,62.5,60.9,65.0,61.4,2.765,3.094,2.581,2.959,3.31,300.8,37.7,32.1,1009.47,-30.85,1.19,1.39,32.1,45.4,42.6,0,no_anomaly,0.0,0,0,0,0,12.9715919,77.5946278,5.0,0.0
2024-12-28T16:52:03.600Z,MISSION_0052,36,0,takeoff,SITE_BLR_003,12.9715893,77.5946252,5.0,314.06,0.0,0.014,3.05,-1.9705,-1.0008,314.0639,-0.92049,0.01924,0.00133,0.39028,0.1409,-0.0974,-9.8339,-0.3077,-0.9885,0.05,0.1653,3,16,0.74,0.89,0.43,24.722,20.95,94.0,46.0,20676.0,7186,7232,7042,7028,62.2,64.0,62.3,62.2,2.834,2.734,2.805,3.068,3.37,295.1,37.5,31.2,1009.26,-35.47,-1.21,1.7,33.6,43.4,41.7,0,no_anomaly,0.0,0,0,0,0,12.9715893,77.5946252,5.0,0.0
2024-12-28T16:52:03.700Z,MISSION_0052,37,0,takeoff,SITE_BLR_003,12.9715891,77.5946221,5.0,314.13,0.088,0.108,2.75,3.0408,-2.6827,314.1329,-0.92062,-0.01531,0.03189,0.38885,-0.162,0.052,-9.8655,0.772,0.1254,0.0833,0.1869,3,17,0.5,1.05,0.25,24.661,20.26,93.9,45.4,20656.0,7188,7239,7254,7432,62.3,60.1,63.1,60.0,2.825,2.572,3.175,2.761,3.31,295.2,38.0,31.3,1009.03,-29.72,-0.83,1.43,32.4,49.3,38.6,0,no_anomaly,0.0,0,0,0,0,12.9715891,77.5946221,5.0,0.0
2024-12-28T16:52:03.800Z,MISSION_0052,38,0,takeoff,SITE_BLR_003,12.9715906,77.5946218,5.0,313.01,0.0,0.108,2.64,-6.0854,-1.5335,313.0139,-0.91545,0.054,-0.0089,0.39869,-0.0605,0.052,-9.8505,0.0445,-0.1501,-0.0235,0.1984,3,15,0.65,1.01,0.29,24.626,19.99,93.8,45.5,20636.0,7005,7026,7332,7151,61.8,62.7,60.1,59.7,2.712,2.62,2.643,2.746,3.38,304.0,37.7,31.4,1009.43,-28.71,-1.87,1.46,32.4,49.3,38.1,0,no_anomaly,0.0,0,0,0,0,12.9715906,77.5946218,5.0,0.0
2024-12-28T16:52:03.900Z,MISSION_0052,39,0,takeoff,SITE_BLR_003,12.9715909,77.5946208,5.0,314.36,0.086,0.102,2.53,6.3629,-3.9676,314.3631,-0.92051,-0.03772,0.05337,0.38521,-0.1201,0.0147,-9.8434,-0.6303,0.2611,0.1421,0.1905,3,14,0.78,0.96,0.36,24.584,19.57,93.7,45.2,20617.0,7126,7533,7213,7193,65.8,65.3,60.5,63.8,2.829,2.726,2.862,2.754,2.83,296.6,37.8,32.1,1009.35,-28.38,1.35,2.1,33.1,53.8,42.7,0,no_anomaly,0.0,0,0,0,0,12.9715909,77.5946208,5.0,0.0
2024-12-28T16:52:04.000Z,MISSION_0052,40,0,takeoff,SITE_BLR_003,12.9715865,77.594622,5.0,313.36,0.254,0.199,2.87,-1.0381,-4.4329,313.3571,-0.91743,0.02362,0.03193,0.3959,-0.0553,-0.1263,-9.8375,-0.4961,-1.0094,-0.1943,0.1736,3,14,0.75,1.27,0.22,24.623,17.78,93.6,45.8,20597.0,7331,7364,7243,7203,64.1,61.8,65.9,61.7,2.813,2.836,2.751,2.763,3.89,293.6,37.7,32.0,1009.21,-25.54,-0.2,1.13,35.6,52.0,38.7,0,no_anomaly,0.0,0,0,0,0,12.9715865,77.594622,5.0,0.0
2024-12-28T16:52:04.100Z,MISSION_0052,41,0,takeoff,SITE_BLR_003,12.9715874,77.5946249,5.0,315.04,0.0,0.086,3.1,1.4337,-2.6827,315.0353,-0.92378,-0.00261,0.02641,0.38199,-0.0943,-0.009,-9.8319,-0.1877,-0.3513,-0.4221,0.1715,3,18,0.78,0.73,0.27,24.659,13.89,93.5,46.3,20577.0,7208,6976,7219,7227,63.5,60.9,61.7,62.7,2.932,2.856,2.799,2.805,3.36,312.8,37.7,32.3,1009.53,-30.54,-0.45,2.12,33.4,50.9,42.0,0,no_anomaly,0.0,0,0,0,0,12.9715874,77.5946249,5.0,0.0
2024-12-28T16:52:04.200Z,MISSION_0052,42,0,takeoff,SITE_BLR_003,12.9715881,77.5946308,5.0,312.58,0.207,0.117,3.68,2.2089,-3.5096,312.5761,-0.91522,-0.00533,0.03578,0.40133,-0.2104,-0.0113,-9.7993,0.0737,0.1479,-0.2402,0.257,3,17,0.72,0.78,0.2,24.681,16.05,93.4,46.3,20558.0,7394,7514,7213,7216,65.1,62.6,63.6,64.6,2.613,2.934,2.667,2.912,2.84,305.6,37.8,31.4,1009.47,-29.28,1.07,1.73,33.3,45.7,40.8,0,no_anomaly,0.0,0,0,0,0,12.9715881,77.5946308,5.0,0.0
2024-12-28T16:52:04.300Z,MISSION_0052,43,0,takeoff,SITE_BLR_003,12.9715894,77.594637,5.0,312.21,0.522,0.114,4.28,-4.3918,-1.9295,312.2115,-0.91323,0.04184,-0.00013,0.40529,-0.1732,-0.0275,-9.7479,-0.6633,0.3828,0.1011,0.1388,3,18,0.69,1.02,0.28,24.631,16.35,93.4,46.4,20538.0,7282,7310,6943,7456,63.3,66.4,64.9,61.6,2.878,2.599,2.868,3.147,4.48,290.4,37.7,31.6,1009.12,-31.83,0.44,1.83,30.7,42.9,37.9,0,no_anomaly,0.0,0,0,0,0,12.9715894,77.594637,5.0,0.0
2024-12-28T16:52:04.400Z,MISSION_0052,44,0,transit,SITE_BLR_003,12.9715934,77.5946337,5.5,313.15,0.736,0.086,3.82,2.7133,0.8888,313.1527,-0.91723,-0.02481,0.0023,0.39757,-0.1794,-0.0353,-9.7599,0.5124,-0.3649,0.0303,0.1434,3,18,0.79,1.08,0.28,24.589,20.57,93.3,46.3,20519.0,7152,7064,7215,7275,62.4,63.7,59.3,61.6,2.689,2.737,3.008,2.835,4.09,296.0,37.8,32.0,1009.12,-25.05,-1.09,1.34,30.2,49.8,40.4,0,no_anomaly,0.0,0,0,0,0,12.9715934,77.5946337,5.5,0.0
2024-12-28T16:52:04.500Z,MISSION_0052,45,0,transit,SITE_BLR_003,12.9715909,77.5946309,6.0,311.7,0.505,0.05,3.59,-0.6658,0.0629,311.6961,-0.91245,0.00508,-0.00288,0.40915,0.0127,0.0012,-9.7934,0.7641,0.4467,0.1408,0.1927,3,19,0.57,1.05,0.21,24.613,17.27,93.2,46.1,20499.0,7297,7326,7261,7096,64.0,63.7,63.3,61.8,2.767,2.799,2.87,2.859,4.52,297.0,37.6,32.4,1009.19,-27.83,0.51,1.63,34.7,53.6,42.2,0,no_anomaly,0.0,0,0,0,0,12.9715909,77.5946309,6.0,0.0
2024-12-28T16:52:04.600Z,MISSION_0052,46,0,transit,SITE_BLR_003,12.9715901,77.5946305,6.5,311.27,0.122,0.071,3.57,-4.5833,-0.5382,311.2739,-0.91013,0.03836,-0.01222,0.41235,-0.046,0.0236,-9.7908,-0.5249,0.2568,-0.0988,0.1533,3,14,0.63,0.94,0.21,24.591,18.75,93.1,46.5,20479.0,6965,7270,7355,7295,67.8,65.4,62.6,66.2,2.959,2.751,2.782,2.812,3.84,299.5,37.5,32.1,1008.94,-32.99,-0.26,1.29,30.5,48.1,39.2,0,no_anomaly,0.0,0,0,0,0,12.9715901,77.5946305,6.5,0.0
2024-12-28T16:52:04.700Z,MISSION_0052,47,0,transit,SITE_BLR_003,12.9715895,77.5946339,7.0,312.47,0.55,0.132,3.95,3.8889,-1.4832,312.47,-0.91478,-0.02584,0.02551,0.40232,0.1274,0.0189,-9.7939,0.1824,-0.8231,0.6204,0.1863,3,14,0.63,0.82,0.35,24.636,14.64,93.0,46.1,20460.0,7228,7357,7415,7190,60.5,63.5,61.4,62.6,2.614,2.743,2.689,2.627,3.82,294.6,37.7,31.2,1009.16,-29.14,-0.44,1.63,27.9,42.4,35.6,0,no_anomaly,0.0,0,0,0,0,12.9715895,77.5946339,7.0,0.0
2024-12-28T16:52:04.800Z,MISSION_0052,48,0,transit,SITE_BLR_003,12.9715878,77.5946367,7.5,311.31,0.291,0.155,4.3,-3.0644,-2.8113,311.3139,-0.91022,0.03446,0.01132,0.41253,0.0657,-0.0086,-9.7662,-0.8698,0.0045,-0.5041,0.1539,3,14,0.9,0.86,0.3,24.609,21.0,92.9,46.2,20440.0,7350,7075,7341,7471,62.6,65.8,66.2,61.5,2.998,2.978,2.994,2.972,4.87,304.2,37.3,31.9,1009.48,-29.78,-0.09,1.83,32.2,47.3,43.5,0,no_anomaly,0.0,0,0,0,0,12.9715878,77.5946367,7.5,0.0
2024-12-28T16:52:04.900Z,MISSION_0052,49,0,transit,SITE_BLR_003,12.9715882,77.594635,8.0,311.61,0.716,0.154,4.11,0.2477,-1.952,311.6119,-0.91204,0.00501,0.01642,0.40973,-0.0265,0.004,-9.8089,1.1342,0.0945,0.0926,0.2112,3,13,0.6,0.8,0.28,24.647,17.99,92.8,45.4,20420.0,7334,7035,7070,7305,62.6,62.1,60.9,68.0,2.915,2.933,2.84,2.73,4.03,291.6,37.9,31.8,1009.55,-28.7,1.55,1.6,31.1,51.0,41.5,0,no_anomaly,0.0,0,0,0,0,12.9715882,77.594635,8.0,0.0
2024-12-28T16:52:05.000Z,MISSION_0052,50,0,transit,SITE_BLR_003,12.9715845,77.5946312,8.5,308.59,0.528,0.047,3.88,0.3117,-1.3518,308.5939,-0.901,0.00267,0.01181,0.43365,0.0818,0.0272,-9.8144,0.3809,0.4807,-0.0677,0.2512,3,17,0.61,0.98,0.32,24.63,16.64,92.7,46.6,20401.0,7364,6988,7134,7311,65.1,61.9,62.2,62.4,2.838,2.862,2.707,2.739,3.8,307.1,37.8,32.1,1009.06,-27.7,-1.28,1.6,30.6,47.4,41.3,0,no_anomaly,0.0,0,0,0,0,12.9715845,77.5946312,8.5,0.0
2024-12-28T16:52:05.100Z,MISSION_0052,51,0,transit,SITE_BLR_003,12.9715855,77.5946286,9.0,309.49,0.441,0.036,3.57,1.473,0.7826,309.493,-0.9043,-0.01454,-0.00069,0.42666,-0.1,-0.0302,-9.8569,0.3329,-0.2288,-0.1424,0.2796,3,14,0.85,0.89,0.36,24.563,20.18,92.6,46.4,20381.0,6922,7081,6978,7136,66.3,61.8,61.9,63.5,3.096,2.755,2.987,2.669,3.62,307.9,38.2,32.4,1009.14,-30.05,1.07,1.8,34.5,46.2,41.2,0,no_anomaly,0.0,0,0,0,0,12.9715855,77.5946286,9.0,0.0
2024-12-28T16:52:05.200Z,MISSION_0052,52,0,transit,SITE_BLR_003,12.9715868,77.5946275,9.5,308.61,0.368,0.02,3.39,6.1888,-2.7733,308.6071,-0.90009,-0.03815,0.04517,0.43167,-0.224,-0.022,-9.9359,0.7889,0.6112,-0.3067,0.163,3,16,0.75,0.95,0.42,24.664,19.8,92.6,45.9,20362.0,7428,7367,7409,7232,62.9,65.6,63.5,62.7,2.806,3.018,2.709,2.918,4.66,299.0,37.6,32.0,1009.17,-28.79,-1.54,1.52,31.9,49.5,40.1,0,no_anomaly,0.0,0,0,0,0,12.9715868,77.5946275,9.5,0.0
2024-12-28T16:52:05.300Z,MISSION_0052,53,0,transit,SITE_BLR_003,12.9715853,77.5946268,10.0,310.09,0.796,0.118,3.41,-3.42,-4.9644,310.0897,-0.90484,0.04529,0.02667,0.4225,0.029,-0.0548,-9.7669,0.2037,-0.477,-0.5349,0.2378,3,17,0.73,1.04,0.38,24.64,18.49,92.5,45.6,20342.0,7267,7122,7281,7325,59.8,62.4,63.9,61.3,2.79,2.819,2.905,2.535,3.6,293.4,37.9,31.9,1008.96,-30.05,2.64,1.64,32.5,43.5,43.0,0,no_anomaly,0.0,0,0,0,0,12.9715853,77.5946268,10.0,0.0
2024-12-28T16:52:05.400Z,MISSION_0052,54,0,transit,SITE_BLR_003,12.9715799,77.5946246,10.5,307.02,1.167,0.148,3.53,-1.0329,-1.3892,307.0163,-0.89485,0.01347,0.00683,0.44612,0.0428,-0.011,-9.845,-0.1493,-0.0567,0.3659,0.1117,3,11,0.66,0.85,0.21,24.598,21.03,92.4,46.1,20322.0,7174,7132,7367,6880,60.7,63.8,63.4,61.5,2.745,2.855,2.882,2.952,4.56,309.7,37.6,31.6,1009.36,-33.23,-0.56,1.29,31.9,49.5,39.6,0,no_anomaly,0.0,0,0,0,0,12.9715799,77.5946246,10.5,0.0
2024-12-28T16:52:05.500Z,MISSION_0052,55,0,transit,SITE_BLR_003,12.9715775,77.5946216,11.0,308.29,1.891,0.201,3.47,-0.0292,1.1464,308.2899,-0.89986,-0.00413,-0.00911,0.43607,0.1421,0.0089,-9.886,-0.4978,0.7888,0.1537,0.1486,3,18,0.52,1.03,0.2,24.598,13.74,92.3,46.9,20303.0,7519,7178,7192,7043,63.7,62.4,62.8,61.3,2.899,2.791,2.751,2.613,3.95,304.0,37.6,32.6,1009.38,-31.36,-0.76,1.44,34.5,48.8,42.7,0,no_anomaly,0.0,0,0,0,0,12.9715775,77.5946216,11.0,0.0
2024-12-28T16:52:05.600Z,MISSION_0052,56,0,transit,SITE_BLR_003,12.9715765,77.5946235,11.5,307.65,1.403,0.117,3.7,2.1424,-2.1501,307.6506,-0.89729,-0.0085,0.02508,0.44064,-0.049,-0.0356,-9.8246,-0.9961,-0.5688,0.0106,0.1203,3,16,0.73,0.75,0.34,24.52,19.6,92.2,45.4,20283.0,7352,7209,7185,7349,65.3,59.1,59.7,60.6,2.908,2.575,2.427,3.022,4.01,295.2,37.8,32.4,1009.32,-35.35,-0.67,1.4,31.2,53.4,41.5,0,no_anomaly,0.0,0,0,0,0,12.9715765,77.5946235,11.5,0.0
2024-12-28T16:52:05.700Z,MISSION_0052,57,0,transit,SITE_BLR_003,12.9715753,77.5946229,12.0,308.03,1.756,0.004,3.75,3.0849,-3.3202,308.0336,-0.89856,-0.0115,0.03782,0.43706,0.1006,0.0215,-9.8172,-0.2348,-0.3174,0.3979,0.2497,3,11,0.62,1.16,0.31,24.672,13.11,92.1,46.4,20263.0,7362,7054,7227,7491,59.8,62.2,62.7,60.8,2.85,3.083,2.887,2.759,4.06,304.4,37.6,32.3,1008.97,-29.43,0.39,1.5,33.3,48.1,37.9,0,no_anomaly,0.0,0,0,0,0,12.9715753,77.5946229,12.0,0.0
2024-12-28T16:52:05.800Z,MISSION_0052,58,0,transit,SITE_BLR_003,12.971575,77.594626,12.5,308.83,1.471,0.17,4.01,5.8384,-2.1925,308.8338,-0.90105,-0.03768,0.03922,0.4303,-0.0715,-0.0042,-9.8671,-0.874,1.4442,0.3884,0.2309,3,16,0.74,1.17,0.26,24.572,20.23,92.0,45.7,20244.0,7278,7278,7121,6866,61.1,63.8,60.3,64.0,2.987,2.788,2.892,2.792,3.09,308.9,37.6,31.8,1009.39,-32.15,-0.4,1.43,32.2,53.0,39.5,0,no_anomaly,0.0,0,0,0,0,12.971575,77.594626,12.5,0.0
2024-12-28T16:52:05.900Z,MISSION_0052,59,0,transit,SITE_BLR_003,12.9715735,77.5946218,13.0,306.91,1.5,0.138,3.83,3.9994,-1.9706,306.906,-0.89416,-0.02353,0.03097,0.44606,-0.0467,0.0599,-9.7812,0.5599,0.2206,-0.6404,0.134,3,10,0.74,0.85,0.3,24.657,16.96,91.9,45.9,20224.0,7228,7372,7177,7067,64.9,62.2,65.0,64.0,2.793,2.776,2.67,2.63,4.12,295.2,37.6,31.6,1009.24,-31.88,1.06,1.53,32.2,42.7,36.5,0,no_anomaly,0.0,0,0,0,0,12.9715735,77.5946218,13.0,0.0
2024-12-28T16:52:06.000Z,MISSION_0052,60,0,transit,SITE_BLR_003,12.9715744,77.5946198,13.5,308.32,1.131,0.063,3.61,0.5931,-3.2528,308.3246,-0.89972,0.00771,0.0278,0.43551,-0.0397,0.0724,-9.7943,-0.5319,0.1286,-0.2111,0.1205,3,13,0.81,0.85,0.37,24.532,16.68,91.8,46.4,20205.0,7324,7280,7434,7148,62.8,60.7,58.8,64.9,2.909,2.956,3.065,2.83,2.97,292.5,37.5,32.1,1009.11,-30.96,-0.11,1.3,29.6,47.7,37.7,0,no_anomaly,0.0,0,0,0,0,12.9715744,77.5946198,13.5,0.0
2024-12-28T16:52:06.100Z,MISSION_0052,61,0,transit,SITE_BLR_003,12.9715748,77.5946174,14.0,308.0,0.809,0.126,3.41,-0.7844,-2.1686,307.9957,-0.89854,0.01445,0.01401,0.43843,0.2195,-0.1373,-9.8324,-0.3703,-0.21,0.0673,0.2022,3,15,0.63,0.94,0.21,24.552,17.74,91.7,45.3,20185.0,7260,7115,7178,7304,64.8,64.0,62.6,66.7,2.562,2.914,2.716,2.693,4.04,309.1,37.9,32.6,1009.59,-29.45,-0.33,1.75,31.7,44.3,39.4,0,no_anomaly,0.0,0,0,0,0,12.9715748,77.5946174,14.0,0.0
2024-12-28T16:52:06.200Z,MISSION_0052,62,0,transit,SITE_BLR_003,12.9715718,77.594609,14.5,307.9,0.485,0.051,3.29,-1.4738,-3.2243,307.9023,-0.89783,0.0239,0.01963,0.43925,-0.2251,0.0392,-9.9312,0.0011,0.1749,-0.3368,0.1684,3,20,0.64,0.98,0.27,24.549,17.73,91.7,47.0,20165.0,7155,7360,7301,7377,64.2,63.6,63.4,65.1,2.718,2.888,2.768,2.668,3.84,294.2,37.8,31.6,1009.03,-32.62,-0.4,1.34,34.9,43.7,41.2,0,no_anomaly,0.0,0,0,0,0,12.9715718,77.594609,14.5,0.0
2024-12-28T16:52:06.300Z,MISSION_0052,63,0,transit,SITE_BLR_003,12.9715678,77.5946075,15.0,310.52,0.032,0.045,3.68,-2.1531,-1.8599,310.5177,-0.9078,0.02385,0.00688,0.41867,0.0676,-0.0466,-9.7465,-1.4207,-0.2728,0.5087,0.2592,3,19,0.9,0.92,0.2,24.565,16.01,91.6,45.5,20146.0,7114,7191,7407,7270,61.5,65.6,60.6,57.9,3.003,2.876,2.843,2.726,3.53,304.5,37.9,32.1,1009.5,-30.28,0.77,1.4,35.8,49.9,40.5,0,no_anomaly,0.0,0,0,0,0,12.9715678,77.5946075,15.0,0.0
2024-12-28T16:52:06.400Z,MISSION_0052,64,0,transit,SITE_BLR_003,12.9715636,77.5946038,15.5,308.43,0.0,0.112,4.07,-1.7596,-1.8053,308.4252,-0.90009,0.02068,0.0075,0.43515,0.0211,0.0038,-9.8161,0.051,-0.0173,0.3045,0.1575,3,10,0.84,0.98,0.43,24.572,21.15,91.5,45.5,20126.0,7322,7338,7092,7494,61.5,62.6,63.5,59.4,2.822,3.005,2.317,2.763,3.95,302.1,37.8,31.6,1009.04,-29.46,-0.96,1.65,32.3,43.2,40.0,0,no_anomaly,0.0,0,0,0,0,12.9715636,77.5946038,15.5,0.0
2024-12-28T16:52:06.500Z,MISSION_0052,65,0,transit,SITE_BLR_003,12.9715631,77.5946061,16.0,309.04,0.233,0.071,4.16,-4.5961,-0.9413,309.0387,-0.90183,0.03973,-0.00984,0.43014,0.0346,0.0062,-9.7288,-1.0827,-0.4713,-0.0071,0.1307,3,15,0.88,1.05,0.28,24.615,14.15,91.4,45.7,20106.0,7153,7259,7552,7090,63.4,67.0,63.1,62.8,3.046,2.907,2.863,2.692,3.44,304.1,37.7,32.4,1009.43,-27.29,1.54,1.51,32.7,47.7,37.9,0,no_anomaly,0.0,0,0,0,0,12.9715631,77.5946061,16.0,0.0
2024-12-28T16:52:06.600Z,MISSION_0052,66,0,transit,SITE_BLR_003,12.9715648,77.5946093,16.5,307.75,0.0,0.067,4.06,0.621,-0.5173,307.7502,-0.89782,-0.00288,0.00644,0.4403,0.0196,0.0409,-9.7789,0.011,0.5501,0.0673,0.1651,3,13,0.64,1.39,0.2,24.564,18.93,91.3,46.0,20087.0,7130,7296,7615,7286,60.9,67.3,62.7,59.7,2.701,2.915,2.816,2.869,3.46,299.3,37.7,31.8,1009.41,-27.11,-0.59,1.71,30.2,50.7,40.7,0,no_anomaly,0.0,0,0,0,0,12.9715648,77.5946093,16.5,0.0
2024-12-28T16:52:06.700Z,MISSION_0052,67,0,transit,SITE_BLR_003,12.9715644,77.5946078,17.0,307.34,0.0,0.04,4.06,1.1483,-3.3536,307.3377,-0.89595,0.004,0.03067,0.44308,-0.1414,0.0451,-9.8217,-0.2044,-0.1712,0.1562,0.1144,3,11,0.93,1.1,0.43,24.601,21.12,91.2,46.3,20067.0,7267,7364,7353,7255,65.3,64.2,61.5,64.7,2.751,2.733,2.846,2.984,3.94,300.7,37.6,31.9,1009.34,-29.79,-0.59,1.61,33.7,49.8,42.1,0,no_anomaly,0.0,0,0,0,0,12.9715644,77.5946078,17.0,0.0
2024-12-28T16:52:06.800Z,MISSION_0052,68,0,transit,SITE_BLR_003,12.9715619,77.5946123,17.5,309.82,0.096,0.002,4.46,-3.7649,-2.1962,309.8227,-0.90473,0.03787,0.00342,0.42428,-0.0692,0.104,-9.8086,0.1855,0.1167,0.016,0.1733,3,10,0.71,1.13,0.24,24.549,16.71,91.1,46.0,20047.0,7528,7515,7236,7056,64.1,65.7,63.5,63.7,2.85,2.932,2.73,2.718,3.82,292.7,37.8,33.0,1009.32,-30.66,0.92,1.0,34.4,46.2,39.9,0,no_anomaly,0.0,0,0,0,0,12.9715619,77.5946123,17.5,0.0
2024-12-28T16:52:06.900Z,MISSION_0052,69,0,transit,SITE_BLR_003,12.9715638,77.5946124,18.0,311.79,0.0,0.205,4.26,-0.3423,-2.315,311.7856,-0.91257,0.01098,0.01722,0.40842,-0.0361,-0.0012,-9.7836,-0.0838,-0.1118,-0.0993,0.1834,3,10,0.81,1.05,0.42,24.541,16.46,91.0,45.0,20028.0,7333,7457,7348,7376,60.9,59.2,62.3,60.0,2.781,2.668,2.804,2.679,5.38,312.3,37.9,31.5,1009.08,-30.11,-0.88,1.67,34.5,47.2,39.0,0,no_anomaly,0.0,0,0,0,0,12.9715638,77.5946124,18.0,0.0
2024-12-28T16:52:07.000Z,MISSION_0052,70,0,transit,SITE_BLR_003,12.9715716,77.5946115,18.5,311.57,0.0,0.086,3.41,-1.5227,-3.2458,311.5672,-0.9114,0.02373,0.02038,0.41033,-0.0327,-0.0168,-9.8062,0.4437,0.3211,-0.5261,0.2397,3,18,0.73,0.92,0.4,24.632,17.3,90.9,45.9,20008.0,7273,7588,6937,7287,63.5,63.1,61.5,66.2,3.08,3.054,2.696,2.726,2.74,299.4,38.1,32.1,1009.35,-31.76,-0.26,1.48,29.7,48.9,39.2,0,no_anomaly,0.0,0,0,0,0,12.9715716,77.5946115,18.5,0.0
2024-12-28T16:52:07.100Z,MISSION_0052,71,0,transit,SITE_BLR_003,12.9715736,77.5946106,19.0,311.96,0.14,0.099,3.17,2.8278,-0.2008,311.9559,-0.91313,-0.02182,0.01164,0.40692,0.13,-0.0624,-9.8291,0.0306,0.8433,-0.2886,0.123,3,11,0.66,0.77,0.2,24.564,17.23,90.9,46.5,19989.0,7582,7265,7172,7240,62.7,60.8,64.1,60.0,2.87,3.08,2.704,2.556,3.62,301.7,37.8,32.0,1009.46,-29.5,0.92,1.73,28.8,49.4,36.1,0,no_anomaly,0.0,0,0,0,0,12.9715736,77.5946106,19.0,0.0
2024-12-28T16:52:07.200Z,MISSION_0052,72,0,transit,SITE_BLR_003,12.9715785,77.5946147,19.5,312.16,0.261,0.143,2.9,-0.102,-0.1884,312.1563,-0.9141,0.00148,0.00114,0.40549,0.0447,0.0835,-9.7928,-0.363,0.056,0.0078,0.2075,3,12,0.5,1.16,0.24,24.562,19.9,90.8,46.4,19969.0,7282,7551,7493,7103,59.9,64.7,63.9,64.0,2.763,2.586,2.511,2.77,3.67,289.4,37.6,31.8,1009.37,-22.93,1.61,1.3,31.7,48.7,40.4,0,no_anomaly,0.0,0,0,0,0,12.9715785,77.5946147,19.5,0.0
2024-12-28T16:52:07.300Z,MISSION_0052,73,0,transit,SITE_BLR_003,12.9715723,77.594621,20.0,313.16,0.199,0.119,3.87,-2.2615,-2.0149,313.1589,-0.91715,0.02509,0.00829,0.39766,0.0344,0.0809,-9.7555,0.4004,-0.0754,0.5745,0.0895,3,20,0.61,0.91,0.23,24.604,18.58,90.7,46.3,19949.0,7360,7600,7293,7261,63.1,61.5,63.3,64.9,2.542,3.111,2.713,2.959,3.64,297.6,37.2,32.7,1009.33,-35.99,0.91,1.82,31.1,52.9,40.5,0,no_anomaly,0.0,0,0,0,0,12.9715723,77.594621,20.0,0.0
2024-12-28T16:52:07.400Z,MISSION_0052,74,0,transit,SITE_BLR_003,12.9715673,77.5946184,20.5,312.38,0.83,0.061,4.17,1.3616,-2.5737,312.3827,-0.91471,-0.0018,0.02534,0.40331,-0.0268,0.0174,-9.8333,-0.0627,0.0892,0.2939,0.2191,3,17,0.68,0.82,0.37,24.563,16.4,90.6,46.4,19930.0,7510,7156,7663,7339,59.5,61.9,60.1,61.0,2.783,2.827,2.902,2.706,4.15,300.4,37.8,32.0,1009.3,-36.59,-0.31,1.32,31.3,51.9,41.9,0,no_anomaly,0.0,0,0,0,0,12.9715673,77.5946184,20.5,0.0
2024-12-28T16:52:07.500Z,MISSION_0052,75,0,transit,SITE_BLR_003,12.9715672,77.5946183,21.0,312.27,0.617,0.11,4.18,-1.6153,0.569,312.2734,-0.91444,0.01088,-0.01024,0.40445,-0.0087,0.0694,-9.7584,-0.4478,0.2392,0.2421,0.1405,3,17,0.87,0.93,0.24,24.623,17.21,90.5,45.0,19910.0,7247,7099,7289,7065,64.5,63.2,64.7,65.5,2.944,2.618,2.912,2.976,3.38,299.3,37.5,32.7,1009.26,-32.05,-0.31,1.52,34.8,47.0,42.8,0,no_anomaly,0.0,0,0,0,0,12.9715672,77.5946183,21.0,0.0
2024-12-28T16:52:07.600Z,MISSION_0052,76,0,transit,SITE_BLR_003,12.9715698,77.5946204,21.5,311.38,1.086,0.136,4.06,3.6729,-0.0732,311.3776,-0.91086,-0.02894,0.01378,0.41146,-0.0096,-0.0406,-9.7525,-1.0464,0.112,-0.2079,0.1784,3,18,0.61,0.97,0.2,24.596,24.15,90.4,46.0,19890.0,7159,7367,7135,7373,66.8,61.9,61.9,62.9,2.617,3.048,2.682,2.97,3.34,296.5,37.7,32.7,1009.01,-32.39,-0.21,1.0,33.7,50.8,38.7,0,no_anomaly,0.0,0,0,0,0,12.9715698,77.5946204,21.5,0.0
2024-12-28T16:52:07.700Z,MISSION_0052,77,0,transit,SITE_BLR_003,12.9715704,77.5946194,22.0,310.74,1.173,0.055,3.94,2.7481,-1.7499,310.7352,-0.90879,-0.01543,0.02387,0.41629,0.0906,-0.0658,-9.8281,0.713,0.3983,-0.2124,0.1445,3,12,0.64,1.3,0.2,24.454,17.8,90.3,45.0,19871.0,7318,7300,7301,6945,60.8,66.5,60.5,62.6,2.722,2.702,2.523,2.531,4.09,297.5,38.1,32.2,1009.05,-29.01,0.72,1.78,29.4,50.7,39.3,0,no_anomaly,0.0,0,0,0,0,12.9715704,77.5946194,22.0,0.0
2024-12-28T16:52:07.800Z,MISSION_0052,78,0,transit,SITE_BLR_003,12.9715659,77.594617,22.0,308.01,1.732,0.051,4.25,-0.9553,-3.1365,308.0091,-0.89836,0.01949,0.02095,0.43833,-0.0848,-0.0084,-9.788,-0.3169,-0.2341,0.4132,0.1847,3,17,0.81,0.96,0.24,24.495,19.96,90.2,46.1,19851.0,7434,7333,7193,7215,60.6,63.5,60.1,62.3,2.814,2.653,3.012,2.673,4.26,306.9,37.6,32.6,1009.1,-32.5,1.36,1.65,31.1,45.4,41.4,0,no_anomaly,0.0,0,0,0,0,12.9715659,77.594617,22.0,0.0
2024-12-28T16:52:07.900Z,MISSION_0052,79,0,transit,SITE_BLR_003,12.971566,77.5946224,22.0,308.96,1.062,0.065,4.53,-3.4336,-2.3089,308.9635,-0.9016,0.03571,0.00527,0.43106,0.0152,-0.0063,-9.8509,-1.2273,-0.3554,0.1821,0.2178,3,13,0.66,0.62,0.27,24.58,18.28,90.1,46.0,19832.0,7375,7327,7107,7280,65.0,64.3,57.8,63.7,3.124,2.79,2.761,2.705,4.52,295.7,37.7,31.8,1009.28,-33.09,2.66,1.72,34.7,47.2,42.1,0,no_anomaly,0.0,0,0,0,0,12.971566,77.5946224,22.0,0.0
2024-12-28T16:52:08.000Z,MISSION_0052,80,0,transit,SITE_BLR_003,12.9715615,77.5946301,22.0,311.37,1.135,0.189,5.44,-0.6423,-2.7192,311.3741,-0.91098,0.01488,0.01932,0.41172,0.114,-0.0146,-9.8228,-0.7955,0.2267,-0.2656,0.1391,3,20,0.77,0.88,0.33,24.569,22.95,90.1,45.3,19812.0,7240,7495,7234,7389,64.4,61.2,64.4,64.6,2.624,2.905,2.927,2.757,3.51,306.8,37.9,31.8,1009.03,-23.85,0.42,1.18,30.1,43.6,37.8,0,no_anomaly,0.0,0,0,0,0,12.9715615,77.5946301,22.0,0.0
2024-12-28T16:52:08.100Z,MISSION_0052,81,0,transit,SITE_BLR_003,12.9715659,77.5946287,22.0,311.68,1.371,0.071,4.96,-2.9938,-1.0572,311.6789,-0.91195,0.02761,-0.00228,0.40936,-0.1905,0.0241,-9.7708,0.1885,-0.3341,-0.2751,0.1393,3,10,0.63,1.13,0.2,24.561,20.37,90.0,46.9,19792.0,7370,7465,7516,7193,63.6,65.8,64.9,59.6,2.874,3.052,2.651,2.86,3.99,306.6,38.0,33.1,1009.14,-26.27,-1.09,1.93,30.3,49.2,39.6,0,no_anomaly,0.0,0,0,0,0,12.9715659,77.5946287,22.0,0.0
2024-12-28T16:52:08.200Z,MISSION_0052,82,0,transit,SITE_BLR_003,12.9715676,77.5946332,22.0,312.41,0.801,0.179,5.16,-1.8373,-3.3522,312.4138,-0.91431,0.02646,0.02029,0.40364,0.0397,0.0619,-9.7913,-0.1441,0.0999,-0.1085,0.1787,3,11,0.87,1.0,0.44,24.61,16.85,89.9,46.3,19773.0,7306,7148,7468,7059,64.2,64.1,63.4,63.2,2.561,2.519,2.43,2.693,4.41,304.5,37.8,32.3,1008.9,-32.22,0.02,2.1,35.9,44.9,39.7,0,no_anomaly,0.0,0,0,0,0,12.9715676,77.5946332,22.0,0.0
2024-12-28T16:52:08.300Z,MISSION_0052,83,0,transit,SITE_BLR_003,12.9715651,77.5946343,22.0,312.62,0.434,0.011,5.45,0.2107,-3.0495,312.6205,-0.91543,0.00901,0.02511,0.4016,0.0156,0.0148,-9.8228,-0.4953,0.3326,-0.5348,0.1306,3,10,0.7,0.88,0.27,24.549,14.29,89.8,46.8,19753.0,7358,7223,7534,7204,60.1,61.8,61.4,63.0,2.968,2.811,2.985,2.733,4.87,302.9,37.7,32.5,1009.25,-25.52,0.78,1.59,31.7,47.1,40.2,0,no_anomaly,0.0,0,0,0,0,12.9715651,77.5946343,22.0,0.0
2024-12-28T16:52:08.400Z,MISSION_0052,84,0,transit,SITE_BLR_003,12.9715618,77.5946354,22.0,315.31,0.394,0.173,5.8,-1.0577,-1.9703,315.3115,-0.92468,0.01507,0.01239,0.38024,0.0693,-0.0029,-9.8425,0.8019,0.6296,-0.1813,0.1945,3,11,0.81,0.81,0.25,24.567,17.81,89.7,46.1,19733.0,7298,7396,7406,7435,67.9,64.7,62.8,58.4,2.61,2.768,2.621,3.021,3.68,306.5,37.7,31.4,1009.69,-29.23,0.45,1.34,30.2,44.0,41.1,0,no_anomaly,0.0,0,0,0,0,12.9715618,77.5946354,22.0,0.0
2024-12-28T16:52:08.500Z,MISSION_0052,85,0,transit,SITE_BLR_003,12.971564,77.5946416,22.0,315.02,0.534,0.072,6.12,-1.3078,-2.9851,315.0158,-0.92344,0.0205,0.0197,0.38268,0.0805,-0.0094,-9.87,0.8388,0.5627,-0.4641,0.175,3,12,0.87,0.68,0.43,24.606,12.56,89.6,45.1,19714.0,7506,7339,7600,7274,66.8,62.3,62.7,62.9,2.561,2.653,2.713,2.711,4.95,295.8,37.8,31.3,1009.56,-31.67,-0.28,2.14,34.8,46.2,40.1,0,no_anomaly,0.0,0,0,0,0,12.971564,77.5946416,22.0,0.0
2024-12-28T16:52:08.600Z,MISSION_0052,86,0,transit,SITE_BLR_003,12.9715651,77.5946432,22.0,315.11,0.273,0.092,6.18,-2.127,-3.848,315.1058,-0.92331,0.02996,0.02394,0.38212,0.0476,-0.0075,-9.8137,-0.2211,0.8977,0.3666,0.093,3,19,0.73,1.09,0.29,24.467,17.12,89.5,45.7,19694.0,7083,7153,7452,7364,63.2,57.8,62.5,66.2,2.736,3.189,2.784,2.728,4.1,296.3,37.6,32.0,1009.27,-24.35,-0.46,1.51,36.8,50.2,39.4,0,no_anomaly,0.0,0,0,0,0,12.9715651,77.5946432,22.0,0.0
2024-12-28T16:52:08.700Z,MISSION_0052,87,0,transit,SITE_BLR_003,12.9715665,77.5946431,22.0,315.84,0.303,0.206,6.08,-2.3294,-2.4576,315.8449,-0.92611,0.02689,0.01223,0.3761,-0.0272,-0.0388,-9.8013,-0.1226,-0.4155,0.2502,0.1581,3,11,0.67,0.93,0.25,24.478,17.95,89.4,45.4,19675.0,7155,7223,7262,7289,59.9,63.4,60.9,62.0,2.919,2.778,2.855,2.78,4.31,302.4,37.7,32.3,1009.25,-33.92,-0.74,1.94,32.3,48.8,41.4,0,no_anomaly,0.0,0,0,0,0,12.9715665,77.5946431,22.0,0.0
2024-12-28T16:52:08.800Z,MISSION_0052,88,1,transit,SITE_BLR_003,12.9715704,77.5946449,22.0,313.14,0.516,0.076,5.99,-0.55,0.7216,313.1394,-0.91753,0.0019,-0.00769,0.39759,0.1919,-0.0622,-9.9001,0.3339,-0.3901,0.5709,0.2166,3,17,0.9,0.83,0.3,24.568,19.57,89.3,46.1,19655.0,7258,7517,7390,7143,66.2,62.9,63.6,59.7,2.959,2.941,2.766,2.773,4.03,294.0,37.8,32.6,1009.46,-31.58,-0.41,1.52,28.3,50.6,38.8,0,no_anomaly,0.0,0,0,0,0,12.9715704,77.5946449,22.0,0.0
2024-12-28T16:52:08.900Z,MISSION_0052,89,1,transit,SITE_BLR_003,12.9715728,77.5946456,22.0,312.88,1.0,0.056,5.91,-1.2082,-1.5242,312.885,-0.91647,0.01498,0.00798,0.39974,0.0357,-0.0174,-9.7852,-0.731,0.0147,0.2183,0.2043,3,18,0.69,0.91,0.32,24.486,22.31,89.3,45.5,19635.0,7091,7030,7427,7623,65.6,67.3,64.1,62.4,2.653,3.142,2.453,2.231,3.53,299.4,37.9,32.5,1008.91,-22.65,-1.79,1.46,36.1,44.1,42.7,0,no_anomaly,0.0,0,0,0,0,12.9715728,77.5946456,22.0,0.0
2024-12-28T16:52:09.000Z,MISSION_0052,90,1,transit,SITE_BLR_003,12.9715699,77.5946468,22.0,311.82,1.391,0.049,6.19,-1.6068,-1.6434,311.8172,-0.91263,0.01865,0.00737,0.40829,0.1177,0.0381,-9.8257,0.2158,-0.4578,0.5118,0.1848,3,14,0.68,0.87,0.38,24.526,23.9,89.2,45.8,19616.0,7494,6955,7057,7245,63.3,62.0,60.2,59.7,2.663,2.674,2.444,2.626,3.78,303.1,37.7,32.3,1009.24,-26.11,0.28,1.47,34.5,51.3,42.3,0,no_anomaly,0.0,0,0,0,0,12.9715699,77.5946468,22.0,0.0
2024-12-28T16:52:09.100Z,MISSION_0052,91,1,transit,SITE_BLR_003,12.9715702,77.5946461,22.0,314.57,1.872,0.11,6.11,-4.9581,-3.3988,314.5693,-0.92067,0.05132,0.01063,0.3868,0.112,-0.0162,-9.7422,-0.324,-0.0397,0.1584,0.1544,3,17,0.62,0.6,0.28,24.529,12.42,89.1,46.4,19596.0,7259,7261,7201,7249,61.4,63.5,59.0,64.5,2.726,2.861,2.748,2.796,3.49,294.6,37.9,31.8,1009.13,-28.6,-1.92,1.63,30.7,45.2,41.9,0,no_anomaly,0.0,0,0,0,0,12.9715702,77.5946461,22.0,0.0
2024-12-28T16:52:09.200Z,MISSION_0052,92,1,transit,SITE_BLR_003,12.9715656,77.5946432,22.0,315.95,1.528,0.065,6.15,4.2002,-2.7155,315.9509,-0.92647,-0.02508,0.03569,0.37384,0.1388,0.1037,-9.811,-0.0879,0.4369,0.1606,0.2399,3,20,0.74,1.25,0.28,24.544,16.62,89.0,47.5,19576.0,7758,7428,7243,7288,65.3,62.1,61.9,62.5,2.807,2.751,2.955,2.946,3.68,306.2,37.8,32.0,1009.06,-25.67,1.97,1.28,34.3,43.3,40.2,0,no_anomaly,0.0,0,0,0,0,12.9715656,77.5946432,22.0,0.0
2024-12-28T16:52:09.300Z,MISSION_0052,93,1,transit,SITE_BLR_003,12.9715664,77.5946439,22.0,317.4,1.629,0.028,6.15,-0.3758,-1.686,317.3977,-0.93156,0.0084,0.01252,0.36327,0.08,0.0241,-9.7883,-0.2101,-0.8446,0.1141,0.2513,3,17,0.54,0.78,0.24,24.551,19.27,88.9,46.0,19557.0,7036,7427,7464,7173,61.4,65.4,63.9,64.0,3.229,2.846,2.814,3.112,3.99,297.1,37.6,31.9,1009.39,-30.41,-1.3,1.46,33.5,44.6,41.2,0,no_anomaly,0.0,0,0,0,0,12.9715664,77.5946439,22.0,0.0
2024-12-28T16:52:09.400Z,MISSION_0052,94,1,transit,SITE_BLR_003,12.9715663,77.5946458,22.0,318.3,1.541,0.116,6.33,0.2137,-2.1079,318.2962,-0.93436,0.00481,0.01785,0.35586,-0.1081,0.0112,-9.8717,1.4713,0.7977,0.0828,0.1524,3,19,0.74,0.87,0.22,24.434,20.96,88.8,46.0,19537.0,7228,7439,7254,7177,61.5,62.1,61.4,63.9,3.027,2.814,2.747,2.893,3.53,298.1,37.4,32.0,1009.27,-31.49,-1.95,1.66,33.6,51.0,38.9,0,no_anomaly,0.0,0,0,0,0,12.9715663,77.5946458,22.0,0.0
2024-12-28T16:52:09.500Z,MISSION_0052,95,1,transit,SITE_BLR_003,12.9715657,77.5946462,22.0,319.5,1.607,0.065,6.4,-0.738,0.8178,319.4961,-0.93815,0.00357,-0.00892,0.34609,-0.3069,-0.0181,-9.8009,0.5916,-0.5713,0.13,0.2292,3,19,0.78,0.87,0.22,24.589,18.36,88.7,46.2,19517.0,7183,7339,7155,7365,59.8,62.4,66.0,64.9,2.724,2.842,2.648,2.997,3.58,293.3,37.8,31.6,1009.29,-32.89,1.65,1.91,31.3,44.9,40.5,0,no_anomaly,0.0,0,0,0,0,12.9715657,77.5946462,22.0,0.0
2024-12-28T16:52:09.600Z,MISSION_0052,96,1,transit,SITE_BLR_003,12.9715679,77.5946428,22.0,313.99,1.326,0.062,5.96,-2.6029,-2.7496,313.9918,-0.91976,0.03027,0.01321,0.39109,0.2552,-0.0265,-9.7429,0.0282,-0.5328,0.3897,0.2029,3,10,0.61,1.11,0.2,24.481,16.33,88.6,46.0,19498.0,7150,7371,7410,7288,63.5,64.2,63.9,62.1,2.857,2.974,2.955,2.863,3.49,293.6,38.1,32.7,1009.0,-31.06,1.04,1.4,33.1,51.8,39.0,0,no_anomaly,0.0,0,0,0,0,12.9715679,77.5946428,22.0,0.0
2024-12-28T16:52:09.700Z,MISSION_0052,97,1,transit,SITE_BLR_003,12.9715646,77.594644,22.0,312.83,1.194,0.118,6.28,0.8909,-2.3837,312.8251,-0.91629,0.0012,0.02217,0.3999,0.1206,0.1057,-9.7917,0.2389,0.2741,-0.5287,0.2446,3,19,0.82,0.67,0.52,24.56,18.07,88.5,47.0,19478.0,7276,7237,7147,7410,63.5,62.8,63.8,66.3,2.625,3.103,2.667,2.967,4.14,301.8,37.8,32.0,1009.23,-29.55,-0.48,1.89,32.9,48.9,40.2,0,no_anomaly,0.0,0,0,0,0,12.9715646,77.594644,22.0,0.0
2024-12-28T16:52:09.800Z,MISSION_0052,98,1,transit,SITE_BLR_003,12.9715657,77.5946428,22.0,314.69,1.096,0.122,6.11,3.3175,-1.8772,314.6907,-0.92252,-0.0204,0.02626,0.38453,0.1282,0.0104,-9.8624,-0.2595,-0.1477,-0.0527,0.1326,3,10,0.61,0.93,0.2,24.547,20.2,88.4,46.9,19459.0,7287,7387,7425,7272,62.5,61.2,62.6,61.6,2.863,2.754,3.064,2.871,3.46,302.3,37.6,32.1,1009.46,-29.3,-0.68,1.75,36.3,48.3,41.8,0,no_anomaly,0.0,0,0,0,0,12.9715657,77.5946428,22.0,0.0
2024-12-28T16:52:09.900Z,MISSION_0052,99,1,transit,SITE_BLR_003,12.9715623,77.5946408,22.0,316.97,0.698,0.025,6.18,1.3421,-2.4137,316.966,-0.93013,-0.00317,0.02389,0.36644,-0.1446,0.0384,-9.7676,0.3037,-0.3321,-0.2034,0.1888,3,14,0.56,0.78,0.38,24.394,20.55,88.4,45.6,19439.0,7330,7373,7461,7371,65.6,63.6,62.2,61.8,2.791,2.626,2.92,3.002,2.8,300.0,38.1,31.6,1009.1,-30.56,1.13,1.75,32.8,45.3,41.5,0,no_anomaly,0.0,0,0,0,0,12.9715623,77.5946408,22.0,0.0
2024-12-28T16:52:10.000Z,MISSION_0052,100,1,transit,SITE_BLR_003,12.9715616,77.59464,22.0,313.76,0.778,0.1,6.17,0.1445,-4.7091,313.7594,-0.91893,0.01497,0.03828,0.39228,-0.1663,0.041,-9.8244,-0.9012,0.953,-0.6176,0.2264,3,19,0.73,1.11,0.32,24.403,19.85,88.3,46.0,19419.0,7121,7293,7196,7298,61.5,62.6,61.3,64.1,2.478,2.757,2.807,3.086,3.82,300.0,38.0,32.1,1009.25,-26.01,0.46,2.1,30.3,43.1,40.8,0,no_anomaly,0.0,0,0,0,0,12.9715616,77.59464,22.0,0.0
2024-12-28T16:52:10.100Z,MISSION_0052,101,1,transit,SITE_BLR_003,12.9715585,77.5946445,22.0,312.97,0.597,0.079,6.77,-0.4929,-2.637,312.9717,-0.91667,0.01312,0.01938,0.39896,-0.1701,-0.0644,-9.7807,-0.2692,0.1051,0.3162,0.17,3,15,0.79,1.1,0.37,24.57,18.49,88.2,46.7,19400.0,7309,7251,7533,7423,59.8,60.5,61.1,60.3,2.753,2.836,2.855,2.549,3.55,301.7,37.6,31.2,1009.31,-23.78,0.4,1.0,31.0,50.1,40.5,0,no_anomaly,0.0,0,0,0,0,12.9715585,77.5946445,22.0,0.0
2024-12-28T16:52:10.200Z,MISSION_0052,102,1,transit,SITE_BLR_003,12.9715616,77.5946479,22.0,314.04,0.67,0.158,6.83,-0.0995,-2.2882,314.04,-0.92045,0.00859,0.01804,0.39035,-0.096,-0.0998,-9.7625,0.7419,-0.0994,-0.4707,0.1182,3,10,0.68,0.8,0.23,24.487,16.7,88.1,46.0,19380.0,7288,7138,7335,7451,61.0,62.1,64.6,61.1,2.778,3.257,2.912,3.069,4.06,309.7,37.6,32.5,1009.61,-29.23,0.41,1.34,36.6,45.1,43.0,0,no_anomaly,0.0,0,0,0,0,12.9715616,77.5946479,22.0,0.0
2024-12-28T16:52:10.300Z,MISSION_0052,103,1,transit,SITE_BLR_003,12.9715643,77.5946494,22.0,316.05,0.849,0.067,6.78,1.9586,-0.3559,316.0548,-0.92724,-0.01469,0.00927,0.37406,-0.3156,0.0619,-9.7794,0.0058,-1.0207,-0.1354,0.1743,3,15,0.51,0.6,0.2,24.546,20.25,88.0,44.9,19360.0,7519,7196,7186,7098,66.3,65.2,64.1,63.2,2.489,2.739,2.793,2.86,3.27,306.0,37.7,31.8,1009.13,-29.51,-0.03,1.93,34.0,44.9,41.2,0,no_anomaly,0.0,0,0,0,0,12.9715643,77.5946494,22.0,0.0
2024-12-28T16:52:10.400Z,MISSION_0052,104,1,transit,SITE_BLR_003,12.9715606,77.5946457,22.0,319.1,0.912,0.133,6.72,-1.1051,-3.3655,319.1005,-0.93643,0.01929,0.02415,0.34948,0.132,-0.0658,-9.754,0.8593,0.1854,0.0253,0.2195,3,10,0.68,1.01,0.3,24.494,20.97,87.9,46.2,19341.0,7524,7382,7332,7240,61.5,65.2,66.6,62.0,2.557,2.614,2.62,2.937,4.5,303.9,37.7,31.8,1009.02,-29.4,0.41,1.63,30.6,47.9,42.4,0,no_anomaly,0.0,0,0,0,0,12.9715606,77.5946457,22.0,0.0
2024-12-28T16:52:10.500Z,MISSION_0052,105,1,orbit_base,SITE_BLR_003,12.97152,77.5945993,22.3,319.94,0.829,0.148,8.91,1.6298,-1.3969,319.939,-0.9394,-0.00919,0.01632,0.3423,-0.0932,0.0784,-9.8235,0.4454,0.1867,0.4176,0.2103,3,15,0.56,0.71,0.2,24.549,18.47,87.8,45.4,19321.0,7395,7312,7161,7239,61.8,58.5,66.5,63.1,2.67,2.707,2.565,2.768,4.04,292.9,37.9,31.3,1009.35,-28.93,0.69,1.36,34.4,44.2,39.7,0,no_anomaly,0.0,0,0,0,0,12.97152,77.5945993,22.3,0.0
2024-12-28T16:52:10.600Z,MISSION_0052,106,1,orbit_base,SITE_BLR_003,12.9715201,77.5945969,22.6,319.83,1.234,-0.036,8.91,0.874,1.3598,319.8282,-0.93905,-0.01124,-0.00853,0.34348,-0.1197,-0.0442,-9.8939,0.0592,-1.0366,-0.196,0.1547,3,18,0.73,0.78,0.31,24.435,20.36,87.7,46.3,19302.0,7310,7253,7246,7573,62.9,64.2,66.7,61.7,2.635,2.877,2.606,2.684,3.72,291.9,37.6,32.1,1009.24,-34.58,0.23,2.23,33.2,50.1,37.6,0,no_anomaly,0.0,0,0,0,0,12.9715201,77.5945969,22.6,0.0
2024-12-28T16:52:10.700Z,MISSION_0052,107,1,orbit_base,SITE_BLR_003,12.9715202,77.5945945,22.9,317.44,1.855,0.092,8.91,5.1088,-2.9596,317.4434,-0.93101,-0.03215,0.04021,0.36134,-0.1534,0.0164,-9.7684,0.2756,-0.3615,0.1933,0.2479,3,12,0.72,0.98,0.4,24.524,17.16,87.6,45.8,19282.0,7216,7157,7345,7385,60.5,67.9,63.5,63.9,2.876,2.721,2.857,2.814,4.84,307.4,37.6,32.1,1009.46,-31.27,0.31,1.57,31.7,47.0,40.4,0,no_anomaly,0.0,0,0,0,0,12.9715202,77.5945945,22.9,0.0
2024-12-28T16:52:10.800Z,MISSION_0052,108,1,orbit_base,SITE_BLR_003,12.9715204,77.5945921,23.2,314.09,1.887,0.135,8.91,-4.1855,-3.4928,314.0939,-0.91935,0.04549,0.01381,0.39056,0.2487,-0.055,-9.9673,0.3,0.0859,0.1098,0.1495,3,15,0.71,0.6,0.24,24.501,17.43,87.6,46.7,19262.0,7329,7395,7619,7353,63.5,61.7,61.7,60.2,3.025,2.842,2.835,2.918,4.55,299.5,38.1,31.4,1009.55,-34.17,0.58,1.51,30.9,45.1,42.5,0,no_anomaly,0.0,0,0,0,0,12.9715204,77.5945921,23.2,0.0
2024-12-28T16:52:10.900Z,MISSION_0052,109,1,orbit_base,SITE_BLR_003,12.9715207,77.5945898,23.5,314.73,1.447,0.041,8.91,-4.749,-0.5463,314.725,-0.92208,0.04007,-0.01155,0.38475,-0.0122,0.0797,-9.8567,-0.359,-0.5194,-0.1728,0.184,3,13,0.68,0.75,0.4,24.453,17.05,87.5,45.3,19243.0,7354,7262,7383,7276,64.5,64.3,63.8,63.3,2.882,3.084,2.339,2.665,3.0,303.5,37.6,31.6,1008.9,-28.48,0.04,1.33,37.1,52.0,44.3,0,no_anomaly,0.0,0,0,0,0,12.9715207,77.5945898,23.5,0.0
2024-12-28T16:52:11.000Z,MISSION_0052,110,1,orbit_base,SITE_BLR_003,12.971521,77.5945874,23.8,314.17,1.585,0.092,8.91,3.5286,-0.9016,314.1679,-0.92071,-0.02529,0.01923,0.38896,0.2095,0.0292,-9.7654,0.3274,-0.2663,0.3294,0.2522,3,14,0.67,0.93,0.2,24.461,17.56,87.4,47.6,19223.0,7108,7414,7612,7134,65.0,64.4,61.1,62.3,2.925,2.796,2.562,2.962,3.68,305.0,37.6,32.4,1009.14,-30.24,0.04,1.36,30.1,49.7,38.8,0,no_anomaly,0.0,0,0,0,0,12.971521,77.5945874,23.8,0.0
2024-12-28T16:52:11.100Z,MISSION_0052,111,1,orbit_base,SITE_BLR_003,12.9715214,77.594585,24.1,314.49,1.712,0.098,8.91,0.4004,-1.1979,314.491,-0.92213,0.00082,0.01099,0.38673,-0.16,0.0237,-9.7418,-0.4735,-0.1139,-0.2375,0.2024,3,14,0.65,0.6,0.28,24.407,15.4,87.3,46.9,19203.0,7513,7112,7347,7370,61.8,64.7,65.6,65.0,2.731,2.944,2.553,3.013,3.76,303.0,37.7,32.4,1008.91,-30.52,-0.16,1.17,31.6,44.9,39.3,0,no_anomaly,0.0,0,0,0,0,12.9715214,77.594585,24.1,0.0
2024-12-28T16:52:11.200Z,MISSION_0052,112,1,orbit_base,SITE_BLR_003,12.9715219,77.5945827,24.4,312.16,1.555,0.032,8.91,2.1995,0.5711,312.1599,-0.91389,-0.01956,0.00323,0.40547,0.1,-0.0078,-9.8286,-0.3626,-0.9679,0.1894,0.19,3,11,0.75,1.03,0.31,24.409,19.92,87.2,46.9,19184.0,7076,7148,7374,7121,61.0,64.4,64.4,63.7,2.837,2.706,2.82,3.352,3.41,300.3,37.7,31.3,1009.6,-34.47,-0.15,1.45,32.1,47.4,42.7,0,no_anomaly,0.0,0,0,0,0,12.9715219,77.5945827,24.4,0.0
2024-12-28T16:52:11.300Z,MISSION_0052,113,1,orbit_base,SITE_BLR_003,12.9715225,77.5945803,24.7,313.19,2.009,0.065,8.91,3.6589,-2.326,313.1851,-0.9173,-0.02123,0.0313,0.39639,0.262,-0.0492,-9.7724,-0.0623,0.8229,-0.0351,0.1572,3,20,0.88,0.78,0.38,24.444,16.45,87.1,45.7,19164.0,7420,7179,7322,7335,60.9,64.7,61.6,59.7,2.748,2.848,2.809,2.896,4.95,290.1,37.5,31.4,1009.32,-32.98,-1.42,1.56,33.1,52.6,42.7,0,no_anomaly,0.0,0,0,0,0,12.9715225,77.5945803,24.7,0.0
2024-12-28T16:52:11.400Z,MISSION_0052,114,1,orbit_base,SITE_BLR_003,12.9715231,77.594578,25.0,313.1,2.217,0.093,8.91,-3.2045,0.5477,313.1013,-0.9171,0.02375,-0.01551,0.39766,0.0424,0.038,-9.7888,0.3792,0.0897,-0.2964,0.1833,3,19,0.8,0.88,0.21,24.497,15.75,87.0,47.0,19145.0,7331,7249,7509,7115,63.0,62.2,64.4,63.6,2.924,2.803,2.88,2.997,5.06,303.7,37.7,32.1,1009.26,-25.54,-0.05,1.62,36.6,51.3,42.5,0,no_anomaly,0.0,0,0,0,0,12.9715231,77.594578,25.0,0.0
2024-12-28T16:52:11.500Z,MISSION_0052,115,1,orbit_base,SITE_BLR_003,12.9715238,77.5945757,25.3,314.34,2.388,0.133,8.91,1.9292,-0.759,314.3394,-0.92155,-0.01295,0.01264,0.38784,0.0133,0.0286,-9.8291,0.1072,-0.148,0.2683,0.1096,3,18,0.65,0.9,0.2,24.396,15.46,86.9,47.0,19125.0,7269,7421,7300,7170,65.9,61.4,62.1,61.5,2.56,2.744,2.461,2.905,3.91,296.4,37.8,32.2,1009.12,-26.36,0.51,1.0,32.2,48.0,41.3,0,no_anomaly,0.0,0,0,0,0,12.9715238,77.5945757,25.3,0.0
2024-12-28T16:52:11.600Z,MISSION_0052,116,1,orbit_base,SITE_BLR_003,12.9715245,77.5945734,25.6,315.11,2.05,0.128,8.91,-1.4335,-2.9906,315.1138,-0.92375,0.02152,0.01934,0.38191,0.0602,0.0033,-9.8041,0.0612,-0.1625,-0.156,0.1765,3,16,0.77,1.03,0.43,24.578,21.23,86.8,45.5,19105.0,7256,7063,7362,7362,63.5,62.3,62.9,61.1,2.495,2.91,2.86,2.872,3.95,302.2,37.7,32.6,1009.37,-28.71,0.82,1.39,31.5,45.4,39.3,0,no_anomaly,0.0,0,0,0,0,12.9715245,77.5945734,25.6,0.0
2024-12-28T16:52:11.700Z,MISSION_0052,117,1,orbit_base,SITE_BLR_003,12.9715254,77.5945712,25.9,312.67,1.958,0.104,8.91,-1.1324,-5.6311,312.6739,-0.91458,0.02875,0.04103,0.4013,0.0061,-0.0857,-9.7607,0.263,0.3785,-0.4829,0.1375,3,18,0.53,0.97,0.21,24.394,19.25,86.8,46.7,19086.0,7361,7546,7496,7340,64.7,65.3,59.9,61.4,2.523,2.645,2.712,2.982,3.93,307.9,37.7,31.6,1009.72,-33.25,0.74,1.03,32.5,45.8,40.1,0,no_anomaly,0.0,0,0,0,0,12.9715254,77.5945712,25.9,0.0
2024-12-28T16:52:11.800Z,MISSION_0052,118,1,orbit_base,SITE_BLR_003,12.9715263,77.594569,26.2,312.2,1.744,0.076,8.91,-2.803,-2.8608,312.1994,-0.91345,0.03246,0.01291,0.40546,-0.2159,0.0821,-9.8718,-0.2236,-0.8516,-0.1275,0.0426,3,11,0.65,1.1,0.28,24.366,19.38,86.7,46.6,19066.0,7259,7550,7369,7411,64.9,63.0,65.6,64.8,2.795,2.707,2.671,2.77,3.36,305.1,37.7,31.4,1009.18,-26.89,-1.59,1.13,34.3,50.0,40.9,0,no_anomaly,0.0,0,0,0,0,12.9715263,77.594569,26.2,0.0
2024-12-28T16:52:11.900Z,MISSION_0052,119,1,orbit_base,SITE_BLR_003,12.9715272,77.5945668,26.5,313.15,1.525,0.125,8.91,0.2695,-2.3697,313.152,-0.91741,0.00606,0.01991,0.3974,-0.0059,0.0265,-9.849,0.2025,0.3267,0.072,0.1922,3,18,0.71,0.98,0.27,24.467,13.88,86.6,45.9,19046.0,7421,7230,7530,7289,64.1,63.5,63.4,64.5,2.583,2.811,2.919,2.75,3.48,301.7,37.3,32.1,1009.28,-27.34,-1.32,2.04,34.0,50.8,43.6,0,no_anomaly,0.0,0,0,0,0,12.9715272,77.5945668,26.5,0.0
2024-12-28T16:52:12.000Z,MISSION_0052,120,1,orbit_base,SITE_BLR_003,12.9715283,77.5945646,26.8,311.74,1.616,0.076,8.91,-0.0494,-1.6758,311.7435,-0.91253,0.00637,0.01317,0.40874,0.1167,-0.0587,-9.7434,0.2979,0.2277,-0.2419,0.1628,3,20,0.72,0.88,0.3,24.434,21.25,86.5,46.8,19027.0,7286,7328,7425,7191,59.9,66.3,62.0,63.6,2.712,2.639,2.896,2.983,3.72,301.7,37.7,32.2,1009.43,-30.1,0.07,1.03,32.7,51.2,41.8,0,no_anomaly,0.0,0,0,0,0,12.9715283,77.5945646,26.8,0.0
2024-12-28T16:52:12.100Z,MISSION_0052,121,1,orbit_base,SITE_BLR_003,12.9715294,77.5945625,27.1,312.89,1.663,0.125,8.91,-1.8064,-0.1842,312.8938,-0.91656,0.01509,-0.00483,0.39957,-0.2235,0.0304,-9.7967,0.1431,-0.5795,0.3074,0.1548,3,11,0.54,0.95,0.22,24.399,19.13,86.4,46.7,19007.0,7467,7415,7440,7301,62.1,64.6,58.6,63.9,2.373,2.982,2.959,2.813,3.62,291.6,37.7,31.8,1009.27,-30.83,0.34,1.63,33.9,48.5,43.5,0,no_anomaly,0.0,0,0,0,0,12.9715294,77.5945625,27.1,0.0
2024-12-28T16:52:12.200Z,MISSION_0052,122,1,orbit_base,SITE_BLR_003,12.9715305,77.5945604,27.4,311.41,1.465,0.089,8.91,-2.0767,-0.033,311.4055,-0.91127,0.01664,-0.00719,0.41141,0.0702,0.054,-9.7443,-0.2667,0.6637,0.2037,0.1616,3,20,0.5,0.83,0.2,24.457,19.92,86.3,45.6,18987.0,7251,7248,7310,7314,63.1,64.0,61.1,67.9,3.002,2.76,2.844,2.649,4.18,293.4,38.2,31.6,1009.13,-30.37,0.14,1.34,34.9,45.0,41.2,0,no_anomaly,0.0,0,0,0,0,12.9715305,77.5945604,27.4,0.0
2024-12-28T16:52:12.300Z,MISSION_0052,123,1,orbit_base,SITE_BLR_003,12.9715317,77.5945583,27.7,311.18,1.401,0.195,8.91,3.4159,-4.4451,311.1839,-0.91001,-0.0111,0.04761,0.41169,-0.0809,-0.0682,-9.7978,-0.5013,-0.1449,-0.1142,0.1629,3,15,0.63,0.89,0.26,24.427,15.9,86.2,46.2,18968.0,7064,7341,7352,7126,60.5,63.6,60.1,64.4,2.96,2.947,2.885,2.561,3.92,300.8,37.5,32.0,1009.12,-28.54,0.89,1.5,30.0,47.1,38.4,0,no_anomaly,0.0,0,0,0,0,12.9715317,77.5945583,27.7,0.0
2024-12-28T16:52:12.400Z,MISSION_0052,124,1,orbit_base,SITE_BLR_003,12.971533,77.5945563,28.0,309.51,1.731,0.186,8.91,8.9562,-1.7581,309.5055,-0.90212,-0.06409,0.04713,0.42409,-0.1169,-0.0234,-9.7607,0.3205,0.4676,0.1928,0.2189,3,10,0.73,0.78,0.4,24.434,23.51,86.1,47.1,18948.0,7264,7533,7294,7241,62.9,63.4,64.0,64.6,2.794,3.028,2.523,2.867,4.05,297.1,38.0,31.2,1009.25,-34.53,0.51,1.51,35.3,45.7,40.4,0,no_anomaly,0.0,0,0,0,0,12.971533,77.5945563,28.0,0.0
2024-12-28T16:52:12.500Z,MISSION_0052,125,1,orbit_base,SITE_BLR_003,12.9715344,77.5945543,28.3,310.56,1.171,0.136,8.91,6.0513,-0.9498,310.561,-0.90725,-0.04448,0.02959,0.41718,-0.0629,-0.026,-9.691,-0.1023,0.1397,-0.0911,0.1732,3,15,0.63,0.95,0.2,24.446,20.4,86.0,46.8,18929.0,7669,7530,7672,7213,62.7,62.2,62.5,64.4,2.855,2.832,2.733,2.97,4.11,300.4,37.8,33.7,1009.35,-28.18,-0.8,1.58,33.8,46.3,41.9,0,no_anomaly,0.0,0,0,0,0,12.9715344,77.5945543,28.3,0.0
2024-12-28T16:52:12.600Z,MISSION_0052,126,1,orbit_base,SITE_BLR_003,12.9715358,77.5945523,28.6,309.01,1.145,0.118,8.91,0.9745,-2.928,309.008,-0.90238,0.00332,0.02672,0.4301,0.0712,0.137,-9.8084,-0.3386,-0.5219,0.304,0.1764,3,10,0.59,0.86,0.21,24.343,21.08,85.9,46.5,18909.0,7233,7248,7327,7575,63.1,67.2,64.4,61.9,2.441,2.766,2.723,2.643,4.06,302.1,37.6,32.6,1009.05,-27.55,-0.62,1.74,36.0,44.3,42.0,0,no_anomaly,0.0,0,0,0,0,12.9715358,77.5945523,28.6,0.0
2024-12-28T16:52:12.700Z,MISSION_0052,127,1,orbit_base,SITE_BLR_003,12.9715372,77.5945504,28.9,312.2,0.975,0.12,8.91,-1.4252,-6.1659,312.2049,-0.91261,0.03314,0.04414,0.4051,-0.0018,-0.0355,-9.8158,0.4777,-0.4298,-0.2533,0.2092,3,16,0.61,0.88,0.31,24.386,15.0,85.9,46.7,18889.0,7466,7445,7195,6923,65.8,61.6,65.3,64.8,2.675,2.835,2.801,2.653,3.89,307.1,37.7,32.5,1009.11,-25.3,-0.46,1.48,34.8,48.4,41.4,0,no_anomaly,0.0,0,0,0,0,12.9715372,77.5945504,28.9,0.0
2024-12-28T16:52:12.800Z,MISSION_0052,128,1,orbit_base,SITE_BLR_003,12.9715387,77.5945486,29.2,311.69,1.344,0.126,8.91,0.0845,-1.6475,311.6863,-0.91234,0.00521,0.01342,0.40918,-0.0358,0.0737,-9.8466,-0.4739,0.0638,-0.5875,0.1466,3,11,0.64,1.03,0.2,24.427,15.5,85.8,45.9,18870.0,7195,7325,7254,7281,61.6,68.9,60.1,62.9,2.753,2.902,2.868,2.618,3.55,305.1,38.3,31.9,1009.37,-27.17,1.17,2.01,32.9,44.4,40.8,0,no_anomaly,0.0,0,0,0,0,12.9715387,77.5945486,29.2,0.0
2024-12-28T16:52:12.900Z,MISSION_0052,129,1,orbit_base,SITE_BLR_003,12.9715403,77.5945467,29.5,311.78,1.005,0.029,8.91,-1.6125,-2.0525,311.7777,-0.91241,0.02016,0.0106,0.40863,-0.1849,-0.073,-9.7717,0.4904,0.3781,-0.1609,0.1435,3,14,0.69,0.94,0.29,24.507,20.25,85.7,46.5,18850.0,7360,7341,7312,7073,63.8,61.0,59.0,59.7,2.735,2.94,2.574,2.787,4.45,304.7,37.8,31.7,1009.09,-28.86,0.59,1.45,31.7,47.8,40.1,0,no_anomaly,0.0,0,0,0,0,12.9715403,77.5945467,29.5,0.0
