timestamp_utc,mission_id,frame_id,waypoint_id,inspection_phase,site_id,latitude_deg,longitude_deg,altitude_m,heading_deg,ground_speed_ms,vertical_speed_ms,distance_to_tower_m,roll_deg,pitch_deg,yaw_deg,quat_w,quat_x,quat_y,quat_z,accel_x_ms2,accel_y_ms2,accel_z_ms2,gyro_x_rads,gyro_y_rads,gyro_z_rads,vibration_level,gps_fix_type,gps_satellite_count,gps_hdop,gps_vdop,position_error_m,battery_voltage_v,battery_current_a,battery_remaining_pct,battery_temp_c,battery_capacity_mah,motor_fl_rpm,motor_fr_rpm,motor_rl_rpm,motor_rr_rpm,motor_fl_temp_c,motor_fr_temp_c,motor_rl_temp_c,motor_rr_temp_c,motor_fl_thrust_n,motor_fr_thrust_n,motor_rl_thrust_n,motor_rr_thrust_n,wind_speed_ms,wind_dir_deg,air_temp_c,humidity_pct,pressure_hpa,gimbal_pitch_deg,gimbal_roll_deg,zoom_factor,ir_temp_min_c,ir_temp_max_c,ir_temp_avg_c,anomaly_detected,anomaly_class,anomaly_confidence,anomaly_bbox_x,anomaly_bbox_y,anomaly_bbox_w,anomaly_bbox_h,anomaly_gps_lat,anomaly_gps_lon,anomaly_gps_alt_m,ir_temp_delta_c
2024-12-10T12:13:00.000Z,MISSION_0060,0,0,takeoff,SITE_BOM_001,19.076001,72.8776965,1.5,77.66,0.0,0.032,0.4,0.2936,-3.1348,77.6587,0.77868,0.01915,-0.0197,0.62682,0.091,0.0083,-9.8468,-0.9235,0.3052,0.2309,0.2594,3,13,0.64,0.86,0.26,24.896,18.83,98.4,36.6,21641.0,8049,8089,8043,8023,58.2,52.1,55.1,51.8,2.957,2.777,2.975,2.713,7.95,319.2,29.5,84.0,1016.53,-35.59,0.63,1.43,24.7,37.3,30.0,0,no_anomaly,0.0,0,0,0,0,19.076001,72.8776965,1.5,0.0
2024-12-10T12:13:00.100Z,MISSION_0060,1,0,takeoff,SITE_BOM_001,19.0760052,72.8777005,3.0,79.9,0.382,0.174,0.58,-1.9527,-1.7183,79.9007,0.76657,-0.00343,-0.02243,0.64176,-0.172,0.0454,-9.7919,0.188,0.1737,-0.3288,0.2156,3,10,0.81,0.96,0.3,24.758,19.94,98.3,37.0,21625.0,7855,7874,7911,8083,55.0,53.3,53.7,51.8,2.828,2.594,2.87,2.622,7.37,309.1,29.2,84.5,1016.75,-25.99,-0.58,2.06,23.9,43.8,31.5,0,no_anomaly,0.0,0,0,0,0,19.0760052,72.8777005,3.0,0.0
2024-12-10T12:13:00.200Z,MISSION_0060,2,0,takeoff,SITE_BOM_001,19.0760034,72.8776974,4.5,80.93,0.585,0.068,0.47,4.1247,-1.6963,80.9298,0.75988,0.03698,0.0121,0.6489,-0.148,-0.0356,-9.7995,-0.5804,0.7945,0.1887,0.2497,3,12,0.75,0.86,0.23,24.757,14.71,98.2,37.0,21609.0,8004,7984,7999,8262,57.0,56.1,52.4,51.7,2.646,2.859,2.778,2.649,7.7,319.2,28.9,85.2,1016.93,-26.2,1.25,1.48,24.1,39.3,35.0,0,no_anomaly,0.0,0,0,0,0,19.0760034,72.8776974,4.5,0.0
2024-12-10T12:13:00.300Z,MISSION_0060,3,0,takeoff,SITE_BOM_001,19.0760064,72.8776984,5.0,81.44,0.439,0.102,0.73,-0.228,-3.218,81.4445,0.75762,0.01681,-0.02258,0.65209,0.2832,0.0247,-9.8071,-0.5091,-0.3873,0.0876,0.2986,3,16,0.72,1.22,0.2,24.844,13.31,98.1,37.2,21592.0,7963,8019,8294,8271,54.7,53.7,54.2,57.7,2.722,3.007,2.474,2.783,7.33,320.3,29.0,85.3,1016.16,-26.76,0.2,1.67,24.9,35.9,32.8,0,no_anomaly,0.0,0,0,0,0,19.0760064,72.8776984,5.0,0.0
2024-12-10T12:13:00.400Z,MISSION_0060,4,0,takeoff,SITE_BOM_001,19.0760039,72.8776984,5.0,80.84,0.464,0.211,0.47,-2.7049,-5.7458,80.8397,0.76091,0.01454,-0.05343,0.64649,-0.0694,-0.0795,-9.7428,0.0096,0.913,0.3703,0.2688,3,10,0.63,0.64,0.3,24.791,18.5,98.1,35.9,21576.0,8182,8265,8106,8267,58.1,53.5,52.4,53.0,2.795,2.775,2.827,2.803,7.78,320.6,29.1,85.4,1016.44,-24.26,0.38,1.98,21.1,36.7,29.5,0,no_anomaly,0.0,0,0,0,0,19.0760039,72.8776984,5.0,0.0
2024-12-10T12:13:00.500Z,MISSION_0060,5,0,takeoff,SITE_BOM_001,19.0760025,72.8776993,5.0,84.04,0.306,0.1,0.29,-5.7127,0.8992,84.0406,0.7417,-0.04227,-0.02753,0.66883,0.0403,-0.0131,-9.8695,0.8981,0.2039,0.4052,0.1983,3,17,0.7,1.0,0.33,24.801,19.39,98.0,37.1,21560.0,7879,8008,7798,8150,52.7,55.3,56.7,48.8,2.74,2.797,2.62,2.763,7.63,321.5,29.3,84.0,1016.65,-30.6,-0.42,1.0,25.0,39.4,32.6,0,no_anomaly,0.0,0,0,0,0,19.0760025,72.8776993,5.0,0.0
2024-12-10T12:13:00.600Z,MISSION_0060,6,0,takeoff,SITE_BOM_001,19.0760033,72.877703,5.0,84.3,0.416,0.194,0.5,-5.9139,-1.2542,84.299,0.74074,-0.03091,-0.04272,0.66972,0.1332,0.0386,-9.7166,-0.0587,-0.1425,0.1638,0.2463,3,12,0.78,1.1,0.41,24.668,15.71,97.9,37.7,21544.0,8336,8146,8106,7937,55.2,52.2,50.2,52.5,2.885,2.739,3.133,2.835,7.99,323.4,28.8,85.3,1016.71,-25.72,-0.8,1.19,22.7,41.8,30.1,0,no_anomaly,0.0,0,0,0,0,19.0760033,72.877703,5.0,0.0
2024-12-10T12:13:00.700Z,MISSION_0060,7,0,takeoff,SITE_BOM_001,19.0760076,72.8777034,5.0,80.78,0.32,0.096,0.92,-2.4512,-2.1551,80.776,0.76163,-0.00411,-0.02818,0.64739,0.2892,0.0438,-9.8419,-0.3114,-0.2336,-0.1368,0.2323,3,14,0.79,0.86,0.36,24.754,15.77,97.9,37.0,21528.0,8108,8112,8066,7924,50.9,53.2,51.3,58.0,2.906,2.969,2.899,2.716,8.02,319.1,29.0,84.7,1016.62,-32.97,-0.62,1.35,22.6,33.1,28.7,0,no_anomaly,0.0,0,0,0,0,19.0760076,72.8777034,5.0,0.0
2024-12-10T12:13:00.800Z,MISSION_0060,8,0,takeoff,SITE_BOM_001,19.0760051,72.877697,5.0,78.9,0.443,0.01,0.66,-6.7326,-4.3032,78.898,0.77172,-0.0215,-0.06622,0.63215,0.0632,0.0136,-9.839,1.1404,0.0968,0.6605,0.2704,3,12,0.75,0.7,0.27,24.692,14.14,97.8,37.1,21511.0,7957,8130,8219,8047,53.2,54.5,54.6,51.7,2.889,3.143,2.682,2.689,8.31,325.6,29.4,85.4,1016.63,-33.07,-0.07,1.68,26.5,40.7,29.8,0,no_anomaly,0.0,0,0,0,0,19.0760051,72.877697,5.0,0.0
2024-12-10T12:13:00.900Z,MISSION_0060,9,0,takeoff,SITE_BOM_001,19.076012,72.8776935,5.0,78.89,0.648,0.06,1.52,-4.7181,-0.7025,78.887,0.77174,-0.02789,-0.03088,0.63457,0.0431,-0.061,-9.849,0.2783,0.2273,-0.1195,0.223,3,17,0.66,0.98,0.2,24.717,19.5,97.7,37.2,21495.0,8314,8017,8026,8064,53.8,55.0,56.3,55.1,2.602,3.147,3.034,2.887,8.26,329.8,29.2,84.9,1016.58,-24.41,-1.17,1.6,21.5,41.5,28.1,0,no_anomaly,0.0,0,0,0,0,19.076012,72.8776935,5.0,0.0
2024-12-10T12:13:01.000Z,MISSION_0060,10,0,takeoff,SITE_BOM_001,19.0760112,72.8776974,5.0,77.84,0.285,0.123,1.29,-1.6464,-3.3142,77.8419,0.77787,0.00699,-0.03152,0.6276,-0.1212,0.0158,-9.752,0.3509,-0.2398,0.0518,0.1946,3,13,0.79,0.63,0.41,24.788,13.34,97.6,36.9,21479.0,8231,8078,7867,8204,49.1,56.0,53.2,52.3,2.879,3.188,2.913,2.684,6.98,320.9,28.9,83.8,1016.42,-34.0,-1.01,2.0,24.8,41.7,32.2,0,no_anomaly,0.0,0,0,0,0,19.0760112,72.8776974,5.0,0.0
2024-12-10T12:13:01.100Z,MISSION_0060,11,0,takeoff,SITE_BOM_001,19.0760085,72.8776975,5.0,79.08,0.274,0.136,0.99,3.9893,-2.9432,79.081,0.76988,0.04317,0.00236,0.63672,-0.1291,-0.0862,-9.7872,-0.1861,0.3743,-0.1043,0.1931,3,19,0.65,0.76,0.29,24.778,23.32,97.6,37.1,21463.0,8030,8132,8300,8007,52.8,51.1,53.4,56.9,2.777,2.702,2.843,2.572,6.92,317.0,28.9,85.2,1016.41,-29.31,-0.42,1.27,19.3,36.3,30.4,0,no_anomaly,0.0,0,0,0,0,19.0760085,72.8776975,5.0,0.0
2024-12-10T12:13:01.200Z,MISSION_0060,12,0,takeoff,SITE_BOM_001,19.0760086,72.8776992,5.0,76.83,0.393,0.102,0.96,2.4429,-2.1769,76.8316,0.78295,0.0285,-0.00164,0.62143,0.0622,-0.0508,-9.8319,-0.1821,-1.4043,-0.0285,0.2959,3,13,0.68,0.78,0.24,24.735,14.38,97.5,37.0,21447.0,7990,8192,8169,8129,51.9,55.8,52.9,54.6,3.088,2.889,2.789,2.564,7.69,309.8,29.1,85.2,1016.75,-27.09,-0.65,2.16,26.2,37.2,32.0,0,no_anomaly,0.0,0,0,0,0,19.0760086,72.8776992,5.0,0.0
2024-12-10T12:13:01.300Z,MISSION_0060,13,0,takeoff,SITE_BOM_001,19.0760112,72.8777026,5.0,76.35,0.459,0.174,1.28,3.7145,-1.1956,76.3485,0.78547,0.03192,0.01183,0.61796,0.2087,0.0405,-9.8851,1.0033,0.6473,0.5709,0.2745,3,15,0.74,0.94,0.28,24.72,20.08,97.4,36.8,21430.0,8072,7906,7970,8257,54.0,49.8,56.5,52.3,2.647,2.665,2.621,2.676,7.83,315.6,28.5,83.9,1016.5,-34.42,0.54,1.13,27.2,38.5,32.9,0,no_anomaly,0.0,0,0,0,0,19.0760112,72.8777026,5.0,0.0
2024-12-10T12:13:01.400Z,MISSION_0060,14,0,takeoff,SITE_BOM_001,19.0760166,72.8776942,5.0,75.4,0.928,0.043,1.96,-9.9072,-1.3246,75.3973,0.78884,-0.06128,-0.06191,0.60839,-0.3462,0.0387,-9.8184,-0.5287,-0.2192,-0.1015,0.1959,3,16,0.65,1.08,0.24,24.785,18.44,97.3,37.0,21414.0,8319,8047,8137,7851,55.1,54.3,57.7,54.4,2.747,2.742,2.801,2.878,7.24,314.8,28.9,84.5,1016.89,-31.15,-1.27,1.23,21.8,42.8,33.4,0,no_anomaly,0.0,0,0,0,0,19.0760166,72.8776942,5.0,0.0
2024-12-10T12:13:01.500Z,MISSION_0060,15,0,takeoff,SITE_BOM_001,19.076017,72.877698,5.0,73.48,0.629,0.092,1.91,-0.3296,-4.1053,73.4795,0.8009,0.01912,-0.03042,0.59771,0.0528,0.0444,-9.7489,0.4177,0.1076,-0.2747,0.2371,3,16,0.79,0.93,0.38,24.755,22.17,97.3,36.3,21398.0,8188,7942,7931,7879,53.7,55.1,51.7,54.7,2.779,2.964,2.805,3.004,7.35,319.8,28.8,86.0,1016.96,-26.72,-1.78,1.29,28.6,37.5,35.6,0,no_anomaly,0.0,0,0,0,0,19.076017,72.877698,5.0,0.0
2024-12-10T12:13:01.600Z,MISSION_0060,16,0,takeoff,SITE_BOM_001,19.0760186,72.8777005,5.0,76.02,0.55,0.036,2.07,1.3714,-3.5579,76.0213,0.78723,0.02854,-0.01709,0.61576,-0.0224,-0.0528,-9.7855,-1.057,0.2164,0.0869,0.2906,3,12,1.0,0.83,0.48,24.659,18.49,97.2,37.4,21382.0,8053,8068,8403,8255,53.7,50.3,52.0,59.4,2.847,2.924,2.407,2.877,7.81,321.6,28.8,85.3,1016.71,-31.73,0.33,1.37,21.0,39.1,31.9,0,no_anomaly,0.0,0,0,0,0,19.0760186,72.8777005,5.0,0.0
2024-12-10T12:13:01.700Z,MISSION_0060,17,0,takeoff,SITE_BOM_001,19.0760163,72.8776985,5.0,75.26,1.014,0.075,1.82,-1.3918,-0.5728,75.255,0.79197,-0.00657,-0.01137,0.61042,-0.1497,-0.0548,-9.7417,0.6433,-0.6735,-0.0241,0.1905,3,10,0.66,0.87,0.29,24.79,19.63,97.1,36.5,21366.0,8074,7882,8288,8491,51.9,56.4,51.9,58.3,3.164,2.837,2.942,2.858,7.0,315.4,28.8,85.0,1016.78,-30.65,-2.12,1.77,22.3,34.8,29.3,0,no_anomaly,0.0,0,0,0,0,19.0760163,72.8776985,5.0,0.0
2024-12-10T12:13:01.800Z,MISSION_0060,18,0,takeoff,SITE_BOM_001,19.0760214,72.8776968,5.0,75.19,0.847,0.117,2.41,1.3514,-1.6873,75.1918,0.79209,0.01833,-0.00447,0.61012,-0.026,0.0509,-9.81,0.3319,0.1018,-0.402,0.2851,3,16,0.62,0.9,0.2,24.72,14.35,97.0,36.9,21350.0,8183,8227,8134,7978,56.0,54.9,55.1,50.6,3.051,2.683,2.629,3.127,7.43,322.7,29.4,85.0,1016.85,-30.71,0.52,1.48,23.8,39.2,30.1,0,no_anomaly,0.0,0,0,0,0,19.0760214,72.8776968,5.0,0.0
2024-12-10T12:13:01.900Z,MISSION_0060,19,0,takeoff,SITE_BOM_001,19.0760154,72.8776949,5.0,74.86,0.953,0.091,1.8,-0.0629,-1.7053,74.8607,0.79401,0.00861,-0.01215,0.60772,0.27,0.0652,-9.8168,0.5478,0.4427,0.2373,0.2515,3,17,0.56,1.17,0.29,24.703,22.24,97.0,37.7,21333.0,8430,8079,7934,8466,55.8,55.1,53.8,51.6,3.031,2.821,2.955,2.766,7.28,319.2,29.0,84.7,1016.51,-33.44,0.04,1.32,21.1,39.9,29.3,0,no_anomaly,0.0,0,0,0,0,19.0760154,72.8776949,5.0,0.0
2024-12-10T12:13:02.000Z,MISSION_0060,20,0,takeoff,SITE_BOM_001,19.0760154,72.8776875,5.0,73.33,0.839,0.07,2.21,2.3664,-0.5725,73.3342,0.80188,0.01955,0.00832,0.59711,-0.4167,-0.0013,-9.8668,-0.6936,-0.182,0.1449,0.238,3,18,0.77,0.77,0.21,24.707,19.23,96.9,36.9,21317.0,8311,8176,7836,7933,57.8,53.3,54.8,56.0,2.717,2.806,2.693,2.621,7.35,321.6,28.9,85.5,1016.39,-28.14,-0.71,1.69,22.1,35.8,29.6,0,no_anomaly,0.0,0,0,0,0,19.0760154,72.8776875,5.0,0.0
2024-12-10T12:13:02.100Z,MISSION_0060,21,0,takeoff,SITE_BOM_001,19.0760169,72.8776826,5.0,73.76,0.735,0.119,2.7,-6.418,-2.5759,73.7635,0.79918,-0.0313,-0.05154,0.59807,0.025,0.0177,-9.8173,-0.4491,0.873,-0.0555,0.1941,3,19,0.76,1.02,0.31,24.653,19.63,96.8,36.6,21301.0,8099,8067,8028,8123,51.5,52.9,53.1,59.3,2.822,2.847,2.911,3.005,6.87,318.5,29.4,85.6,1016.37,-28.42,-0.2,1.45,25.5,37.1,32.4,0,no_anomaly,0.0,0,0,0,0,19.0760169,72.8776826,5.0,0.0
2024-12-10T12:13:02.200Z,MISSION_0060,22,0,takeoff,SITE_BOM_001,19.076011,72.8776863,5.0,71.35,0.34,0.164,1.95,3.4518,1.4214,71.3459,0.81215,0.01723,0.02763,0.58254,0.2333,0.0387,-9.8378,0.7076,0.0627,-0.1685,0.2048,3,19,0.69,1.05,0.33,24.683,16.86,96.7,37.3,21285.0,7784,8169,8072,7989,51.7,53.9,55.6,51.2,2.572,2.648,2.734,2.769,7.63,323.6,29.1,84.7,1016.89,-28.94,-1.19,1.8,26.5,40.2,33.1,0,no_anomaly,0.0,0,0,0,0,19.076011,72.8776863,5.0,0.0
2024-12-10T12:13:02.300Z,MISSION_0060,23,0,takeoff,SITE_BOM_001,19.0760196,72.8776913,5.0,71.47,0.188,0.22,2.39,1.7957,-1.4094,71.4735,0.81144,0.0199,-0.00083,0.5841,-0.1561,-0.0229,-9.7592,-0.2519,-0.1075,0.2011,0.2971,3,14,0.95,1.2,0.2,24.674,15.93,96.7,36.9,21269.0,7985,8095,8042,8196,53.2,54.4,55.3,48.9,3.068,2.877,2.819,2.737,6.69,323.0,29.2,84.9,1016.35,-29.82,1.44,1.33,27.1,41.3,33.6,0,no_anomaly,0.0,0,0,0,0,19.0760196,72.8776913,5.0,0.0
2024-12-10T12:13:02.400Z,MISSION_0060,24,0,takeoff,SITE_BOM_001,19.0760209,72.877694,5.0,71.2,0.117,0.111,2.42,-9.0302,-0.618,71.1986,0.81082,-0.06088,-0.0502,0.57995,-0.1424,0.0676,-9.852,-0.0797,-0.2714,0.1252,0.3316,3,18,0.58,1.23,0.28,24.671,14.1,96.6,36.9,21252.0,8101,8060,7963,8105,49.2,53.6,51.8,54.0,3.026,2.818,2.999,2.882,7.22,326.3,29.0,85.2,1016.53,-30.74,0.65,1.6,23.5,42.7,29.2,0,no_anomaly,0.0,0,0,0,0,19.0760209,72.877694,5.0,0.0
2024-12-10T12:13:02.500Z,MISSION_0060,25,0,takeoff,SITE_BOM_001,19.0760225,72.8776896,5.0,69.65,0.327,0.176,2.75,3.3241,-5.3034,69.6452,0.81893,0.05019,-0.02142,0.57129,0.3327,-0.048,-9.7768,-0.6127,-0.3791,0.739,0.2567,3,17,0.69,0.87,0.32,24.66,19.02,96.5,38.0,21236.0,7738,7965,8241,8022,56.5,55.0,55.6,54.1,2.852,2.826,2.876,2.732,8.05,320.4,29.3,85.7,1016.3,-29.51,0.03,1.71,22.0,36.6,30.8,0,no_anomaly,0.0,0,0,0,0,19.0760225,72.8776896,5.0,0.0
2024-12-10T12:13:02.600Z,MISSION_0060,26,0,takeoff,SITE_BOM_001,19.0760193,72.8776858,5.0,69.57,0.876,0.102,2.67,-1.5767,1.3454,69.5709,0.82107,-0.018,0.00179,0.57054,-0.3837,-0.0112,-9.7758,0.8182,0.2158,0.0648,0.282,3,16,0.55,1.11,0.2,24.771,13.55,96.5,36.7,21220.0,8025,8237,8052,8011,55.5,51.9,56.9,54.8,2.904,2.776,2.991,2.877,7.55,322.0,29.2,85.4,1016.47,-32.25,0.39,1.4,25.1,39.3,28.5,0,no_anomaly,0.0,0,0,0,0,19.0760193,72.8776858,5.0,0.0
2024-12-10T12:13:02.700Z,MISSION_0060,27,0,takeoff,SITE_BOM_001,19.0760217,72.8776882,5.0,69.93,1.229,0.113,2.75,-0.2789,-0.1374,69.9258,0.81952,-0.00131,-0.00238,0.57304,-0.1765,0.0611,-9.737,-0.6433,0.01,0.0838,0.2372,3,12,0.81,0.79,0.35,24.754,21.11,96.4,36.6,21204.0,8123,8026,8166,7973,56.5,51.2,54.4,47.8,3.038,2.578,2.634,3.062,7.41,311.3,29.0,85.5,1016.41,-26.88,0.75,1.42,20.9,43.6,29.8,0,no_anomaly,0.0,0,0,0,0,19.0760217,72.8776882,5.0,0.0
2024-12-10T12:13:02.800Z,MISSION_0060,28,0,takeoff,SITE_BOM_001,19.0760216,72.8776836,5.0,71.23,0.994,0.106,3.02,-4.4166,-1.6204,71.227,0.8126,-0.02309,-0.03392,0.58138,0.2286,0.0226,-9.8179,-0.0195,0.3549,-0.148,0.2787,3,11,0.53,0.93,0.2,24.764,21.4,96.3,37.2,21188.0,8086,8111,8107,8015,53.7,55.7,52.9,57.1,2.79,2.958,2.695,2.747,7.01,311.1,28.9,84.8,1016.74,-28.35,1.82,1.4,26.2,41.1,30.5,0,no_anomaly,0.0,0,0,0,0,19.0760216,72.8776836,5.0,0.0
2024-12-10T12:13:02.900Z,MISSION_0060,29,0,takeoff,SITE_BOM_001,19.0760218,72.8776841,5.0,72.91,1.581,0.081,3.0,6.0691,-2.4757,72.9136,0.80231,0.05539,0.0141,0.59416,-0.1784,-0.003,-9.9478,-0.1958,0.071,-0.2135,0.2021,3,11,0.8,0.88,0.31,24.707,15.91,96.2,37.6,21171.0,8035,7924,8024,8067,54.1,54.4,53.1,55.5,2.795,2.763,2.92,2.801,7.7,321.8,29.0,85.1,1016.37,-29.64,-0.81,1.41,22.9,37.1,32.9,0,no_anomaly,0.0,0,0,0,0,19.0760218,72.8776841,5.0,0.0
2024-12-10T12:13:03.000Z,MISSION_0060,30,0,takeoff,SITE_BOM_001,19.0760226,72.8776836,5.0,73.43,1.566,0.156,3.11,0.4756,-1.7696,73.4287,0.80149,0.01256,-0.0099,0.5978,0.3011,0.0288,-9.8258,0.6935,-0.4687,0.503,0.2683,3,19,0.58,0.78,0.22,24.678,22.93,96.2,38.0,21155.0,8187,8234,7907,8077,57.1,51.3,56.4,53.1,2.908,2.789,2.776,3.148,7.4,307.5,28.7,85.0,1016.47,-34.09,1.54,1.56,25.3,40.5,30.2,0,no_anomaly,0.0,0,0,0,0,19.0760226,72.8776836,5.0,0.0
2024-12-10T12:13:03.100Z,MISSION_0060,31,0,takeoff,SITE_BOM_001,19.0760226,72.8776806,5.0,72.99,1.598,0.13,3.31,-3.595,-3.617,72.9947,0.80368,-0.00644,-0.044,0.5934,0.1708,-0.0339,-9.732,-0.1837,0.0775,0.3842,0.2828,3,16,0.76,0.89,0.34,24.675,21.6,96.1,37.0,21139.0,8180,8165,8147,8019,52.8,54.6,52.5,57.5,2.932,2.75,2.991,2.874,6.99,329.5,29.0,85.6,1016.71,-26.76,0.33,1.38,26.2,41.5,32.0,0,no_anomaly,0.0,0,0,0,0,19.0760226,72.8776806,5.0,0.0
2024-12-10T12:13:03.200Z,MISSION_0060,32,0,takeoff,SITE_BOM_001,19.0760186,72.8776751,5.0,72.79,1.1,0.151,3.46,1.8151,-1.5705,72.7933,0.80462,0.02088,-0.00163,0.59342,-0.1699,0.0254,-9.7593,-0.6059,-0.0165,-0.1311,0.2257,3,20,0.67,0.98,0.2,24.696,21.68,96.0,36.6,21123.0,7987,8108,8027,8249,50.1,56.1,54.5,53.8,2.588,2.764,2.881,2.731,7.54,326.7,28.9,85.9,1016.64,-22.23,2.43,1.6,24.5,39.0,29.8,0,no_anomaly,0.0,0,0,0,0,19.0760186,72.8776751,5.0,0.0
2024-12-10T12:13:03.300Z,MISSION_0060,33,0,takeoff,SITE_BOM_001,19.0760192,72.8776764,5.0,70.38,1.173,0.035,3.39,6.3524,-2.5589,70.3812,0.81507,0.05812,0.0137,0.57628,-0.0761,-0.0163,-9.8446,-0.1955,-0.2582,0.2541,0.3273,3,12,0.82,0.78,0.33,24.74,19.08,95.9,37.5,21107.0,8180,8206,8073,8363,51.8,55.6,55.4,55.2,2.675,2.693,2.592,2.579,7.12,319.0,29.2,86.0,1016.82,-32.28,1.77,1.21,25.6,41.4,33.2,0,no_anomaly,0.0,0,0,0,0,19.0760192,72.8776764,5.0,0.0
2024-12-10T12:13:03.400Z,MISSION_0060,34,0,takeoff,SITE_BOM_001,19.0760154,72.8776807,5.0,69.53,1.101,0.158,2.75,6.656,-0.2078,69.5308,0.82005,0.04872,0.03161,0.56934,0.1921,0.0506,-9.7202,-0.0113,-0.7978,0.1691,0.3422,3,12,0.55,1.12,0.2,24.698,20.49,95.9,37.0,21090.0,8063,8014,8020,8212,54.5,52.8,51.7,54.8,2.553,2.781,2.792,2.72,8.36,317.5,29.0,85.3,1016.67,-26.54,0.11,1.95,21.4,36.7,32.9,0,no_anomaly,0.0,0,0,0,0,19.0760154,72.8776807,5.0,0.0
2024-12-10T12:13:03.500Z,MISSION_0060,35,0,takeoff,SITE_BOM_001,19.0760196,72.877685,5.0,68.79,0.457,0.162,2.74,3.1556,-0.9856,68.7931,0.82467,0.02758,0.00846,0.56488,-0.2609,-0.0116,-9.8507,-0.8866,0.1972,-0.6015,0.3006,3,18,0.5,0.95,0.21,24.557,16.48,95.8,37.3,21074.0,7822,8191,8304,7971,50.9,51.6,56.7,52.0,2.782,2.785,2.715,2.733,7.79,318.1,29.0,84.9,1016.47,-28.45,-0.34,1.2,23.7,35.6,34.0,0,no_anomaly,0.0,0,0,0,0,19.0760196,72.877685,5.0,0.0
2024-12-10T12:13:03.600Z,MISSION_0060,36,0,takeoff,SITE_BOM_001,19.0760179,72.8776854,5.0,68.65,0.38,0.041,2.57,-4.6259,-4.0478,68.6527,0.82546,-0.01341,-0.05189,0.56192,0.1476,-0.0385,-9.8899,-0.2925,-0.5211,0.1701,0.203,3,20,0.69,0.73,0.2,24.735,20.81,95.7,36.9,21058.0,8137,8015,7963,7753,53.5,52.7,58.0,54.6,2.887,2.886,2.936,2.82,7.96,312.2,29.1,86.3,1016.63,-35.49,-1.03,1.14,26.5,35.7,30.3,0,no_anomaly,0.0,0,0,0,0,19.0760179,72.8776854,5.0,0.0
2024-12-10T12:13:03.700Z,MISSION_0060,37,0,takeoff,SITE_BOM_001,19.0760212,72.8776885,5.0,67.22,0.311,0.145,2.68,-2.8972,-1.6146,67.2209,0.83267,-0.01326,-0.02572,0.55302,0.0717,0.0393,-9.7625,-0.0427,-0.3921,0.5231,0.2763,3,19,0.63,0.93,0.2,24.614,15.51,95.6,37.8,21042.0,8085,7901,8202,8002,53.1,50.1,55.3,53.3,2.718,2.788,2.783,2.602,7.93,318.1,28.8,84.6,1016.63,-28.74,0.22,1.55,22.0,43.7,32.8,0,no_anomaly,0.0,0,0,0,0,19.0760212,72.8776885,5.0,0.0
2024-12-10T12:13:03.800Z,MISSION_0060,38,0,takeoff,SITE_BOM_001,19.0760212,72.8776873,5.0,66.58,0.027,0.073,2.75,-1.1698,-1.0167,66.5824,0.83586,-0.00366,-0.01302,0.54877,0.1366,0.0615,-9.8149,-0.0047,0.1669,-0.0712,0.2279,3,13,0.82,0.96,0.35,24.612,11.79,95.6,37.8,21026.0,7985,8053,8160,7989,53.0,52.6,54.3,53.3,2.813,2.797,2.881,2.678,7.74,318.8,29.3,85.2,1016.75,-26.69,0.55,1.2,24.9,34.8,33.6,0,no_anomaly,0.0,0,0,0,0,19.0760212,72.8776873,5.0,0.0
2024-12-10T12:13:03.900Z,MISSION_0060,39,0,takeoff,SITE_BOM_001,19.0760243,72.8776841,5.0,65.66,0.0,0.1,3.23,7.6544,-1.6812,65.6583,0.8378,0.06402,0.02388,0.54169,0.2151,-0.0141,-9.8082,0.1763,0.3092,0.0634,0.2637,3,11,0.57,0.84,0.2,24.719,14.27,95.5,37.5,21009.0,7861,8059,7866,8071,52.6,55.2,54.1,56.9,2.994,2.768,2.764,2.895,7.33,324.1,28.5,84.9,1016.76,-27.71,0.36,1.87,24.2,41.5,30.9,0,no_anomaly,0.0,0,0,0,0,19.0760243,72.8776841,5.0,0.0
2024-12-10T12:13:04.000Z,MISSION_0060,40,0,takeoff,SITE_BOM_001,19.0760213,72.8776805,5.0,67.8,0.182,0.072,3.21,-2.5972,-0.2807,67.8014,0.82982,-0.01744,-0.01467,0.55756,-0.037,-0.0041,-9.8689,-0.2929,0.5523,-0.0883,0.2716,3,14,0.7,0.82,0.26,24.702,18.26,95.4,37.3,20993.0,8374,8224,8018,8169,56.3,52.4,55.3,53.5,2.837,3.014,2.736,2.936,7.61,316.6,29.0,84.9,1017.01,-30.67,-0.92,1.84,26.2,34.9,29.3,0,no_anomaly,0.0,0,0,0,0,19.0760213,72.8776805,5.0,0.0
2024-12-10T12:13:04.100Z,MISSION_0060,41,0,takeoff,SITE_BOM_001,19.0760215,72.8776801,5.0,68.69,0.139,0.099,3.26,-8.6719,-1.2816,68.6932,0.8237,-0.05613,-0.05186,0.56185,0.4804,-0.0137,-9.7681,-0.6697,0.5203,0.3157,0.2841,3,17,0.66,1.02,0.34,24.695,21.27,95.3,36.9,20977.0,7986,8014,7940,7911,53.3,52.1,55.3,55.1,2.715,2.808,2.65,3.042,8.0,313.4,29.1,84.7,1016.6,-29.76,0.08,1.49,22.8,38.6,29.7,0,no_anomaly,0.0,0,0,0,0,19.0760215,72.8776801,5.0,0.0
2024-12-10T12:13:04.200Z,MISSION_0060,42,0,takeoff,SITE_BOM_001,19.0760257,72.8776853,5.0,69.02,0.279,0.13,3.29,-4.8803,-3.3255,69.0193,0.82364,-0.01864,-0.048,0.56478,-0.0826,0.0455,-9.8903,-0.214,0.2382,-0.0212,0.2731,3,14,0.6,0.7,0.24,24.632,20.47,95.3,37.3,20961.0,7866,7857,8030,7876,56.6,53.2,54.8,55.4,2.918,2.802,3.034,2.74,6.96,318.3,28.9,84.6,1016.63,-31.17,0.69,1.53,25.7,41.6,34.0,0,no_anomaly,0.0,0,0,0,0,19.0760257,72.8776853,5.0,0.0
2024-12-10T12:13:04.300Z,MISSION_0060,43,0,takeoff,SITE_BOM_001,19.076026,72.8776843,5.0,68.25,0.0,0.133,3.38,-0.6504,-1.2224,68.2458,0.82781,0.00129,-0.01201,0.56088,-0.022,-0.0627,-9.9099,-0.0622,-0.1425,-0.1382,0.253,3,15,0.76,0.83,0.41,24.599,18.86,95.2,36.7,20945.0,8185,8292,8029,8350,54.7,55.3,53.0,54.9,2.642,2.774,2.836,3.047,7.82,316.9,28.9,85.5,1016.61,-30.14,-0.31,1.24,25.2,36.9,31.4,0,no_anomaly,0.0,0,0,0,0,19.076026,72.8776843,5.0,0.0
2024-12-10T12:13:04.400Z,MISSION_0060,44,0,takeoff,SITE_BOM_001,19.0760251,72.8776868,5.0,69.68,0.0,0.077,3.16,0.5565,-1.7041,69.6766,0.82063,0.01248,-0.00943,0.57125,-0.1501,0.0202,-9.7955,0.4034,-0.4941,0.0261,0.2068,3,16,0.79,0.92,0.4,24.61,19.1,95.1,37.2,20928.0,8251,8092,8046,7858,54.3,58.2,54.6,50.7,2.869,2.545,2.792,2.859,6.91,318.3,29.1,85.3,1016.55,-29.48,1.1,1.91,22.4,35.6,33.3,0,no_anomaly,0.0,0,0,0,0,19.0760251,72.8776868,5.0,0.0
2024-12-10T12:13:04.500Z,MISSION_0060,45,0,takeoff,SITE_BOM_001,19.0760239,72.8776893,5.0,71.0,0.412,0.068,2.92,-4.2858,-0.7386,70.9986,0.81368,-0.0267,-0.02696,0.58008,0.053,-0.1075,-9.8836,-0.6427,-0.0219,0.4931,0.2766,3,17,0.67,0.96,0.2,24.743,21.96,95.1,36.3,20912.0,8101,7991,8242,7854,54.5,53.5,53.7,51.7,2.836,2.801,2.872,2.696,6.85,312.7,29.1,83.9,1016.66,-32.74,-1.71,1.4,24.4,37.4,31.4,0,no_anomaly,0.0,0,0,0,0,19.0760239,72.8776893,5.0,0.0
2024-12-10T12:13:04.600Z,MISSION_0060,46,0,takeoff,SITE_BOM_001,19.0760241,72.877688,5.0,72.68,0.741,0.134,3.0,-1.6092,-3.3212,72.6805,0.80534,0.00586,-0.03166,0.59194,-0.0717,-0.0283,-9.8315,0.1656,0.1038,0.1378,0.2564,3,19,0.75,0.68,0.38,24.636,20.28,95.0,36.0,20896.0,7895,8029,8325,8190,55.9,53.6,55.1,53.3,2.673,2.847,2.648,2.711,8.11,326.1,29.0,85.6,1016.65,-28.66,-0.09,1.4,27.8,41.0,32.5,0,no_anomaly,0.0,0,0,0,0,19.0760241,72.877688,5.0,0.0
2024-12-10T12:13:04.700Z,MISSION_0060,47,0,takeoff,SITE_BOM_001,19.0760245,72.8776876,5.0,75.85,0.287,0.034,3.05,3.2491,-1.3934,75.8544,0.78821,0.02983,0.00784,0.61464,0.1515,-0.072,-9.8801,-0.9321,-0.0547,0.2309,0.2251,3,10,0.76,0.62,0.3,24.662,20.3,94.9,36.9,20880.0,7922,8009,8031,8026,49.4,56.4,52.6,52.2,2.848,2.602,2.86,2.552,7.98,315.0,28.8,85.3,1016.59,-29.14,-0.13,1.82,26.4,41.4,34.7,0,no_anomaly,0.0,0,0,0,0,19.0760245,72.8776876,5.0,0.0
2024-12-10T12:13:04.800Z,MISSION_0060,48,0,takeoff,SITE_BOM_001,19.076026,72.877689,5.0,75.54,0.254,0.096,3.14,-2.6893,-0.7002,75.5407,0.79033,-0.01481,-0.0192,0.6122,0.0616,0.0515,-9.7878,-0.7741,-0.5267,-0.08,0.3155,3,14,0.76,0.86,0.22,24.632,23.31,94.8,37.4,20864.0,7900,8263,8037,8220,54.0,57.2,51.5,56.3,2.929,2.672,2.704,2.49,7.22,313.0,29.4,85.0,1016.43,-27.66,-1.48,1.09,24.8,39.1,31.3,0,no_anomaly,0.0,0,0,0,0,19.076026,72.877689,5.0,0.0
2024-12-10T12:13:04.900Z,MISSION_0060,49,0,takeoff,SITE_BOM_001,19.0760245,72.8776951,5.0,74.67,0.209,0.057,2.78,5.4473,-1.9737,74.6729,0.79358,0.04821,0.01514,0.60637,-0.2396,-0.0703,-9.7829,0.0524,0.0745,0.6353,0.3252,3,16,0.65,0.91,0.31,24.558,16.12,94.8,37.2,20847.0,8105,7778,8078,8082,55.2,53.2,52.2,55.8,2.671,2.864,2.826,2.756,7.26,315.0,29.0,84.5,1017.02,-29.35,-0.09,1.8,26.4,40.2,32.0,0,no_anomaly,0.0,0,0,0,0,19.0760245,72.8776951,5.0,0.0
2024-12-10T12:13:05.000Z,MISSION_0060,50,0,takeoff,SITE_BOM_001,19.0760268,72.8776907,5.0,73.8,0.503,0.088,3.15,-5.005,-3.5764,73.7973,0.79937,-0.01618,-0.05113,0.59845,0.1603,-0.001,-9.8555,-0.2353,0.3774,-0.1704,0.2616,3,19,0.7,1.09,0.2,24.725,24.09,94.7,36.7,20831.0,7760,7963,7945,8028,55.2,58.5,57.4,55.3,2.885,2.576,2.783,2.878,8.28,319.1,29.0,83.6,1016.78,-28.15,1.47,1.43,23.9,40.0,31.4,0,no_anomaly,0.0,0,0,0,0,19.0760268,72.8776907,5.0,0.0
2024-12-10T12:13:05.100Z,MISSION_0060,51,0,takeoff,SITE_BOM_001,19.0760238,72.8776904,5.0,75.96,0.446,0.051,2.86,-3.8233,-3.6832,75.9618,0.78803,-0.00651,-0.04583,0.61389,0.0931,0.0428,-9.7708,-0.263,-0.6398,0.1623,0.3199,3,11,0.5,0.94,0.2,24.719,17.82,94.6,37.2,20815.0,8213,8321,8036,8257,54.0,56.0,51.2,55.7,2.715,2.901,2.938,2.585,6.87,319.4,29.2,84.8,1016.72,-24.34,-0.35,1.46,21.8,37.6,31.5,0,no_anomaly,0.0,0,0,0,0,19.0760238,72.8776904,5.0,0.0
2024-12-10T12:13:05.200Z,MISSION_0060,52,0,takeoff,SITE_BOM_001,19.0760241,72.8776881,5.0,78.33,0.607,0.117,2.99,-2.3029,-1.9783,78.3284,0.77529,-0.00468,-0.02607,0.63105,0.0068,0.0043,-9.7924,0.0401,-0.2318,-0.2461,0.228,3,10,0.69,0.93,0.28,24.682,17.21,94.5,36.4,20799.0,7879,8033,8246,8055,53.5,50.2,52.4,55.6,2.739,2.522,2.83,2.642,7.81,324.1,28.7,85.3,1016.49,-32.25,1.05,1.84,26.3,40.1,32.1,0,no_anomaly,0.0,0,0,0,0,19.0760241,72.8776881,5.0,0.0
2024-12-10T12:13:05.300Z,MISSION_0060,53,0,takeoff,SITE_BOM_001,19.0760194,72.8776912,5.0,80.01,0.72,0.145,2.37,-7.4878,-3.2322,80.0132,0.76522,-0.0319,-0.06352,0.63984,0.0444,-0.1089,-9.8455,-0.4912,-0.2403,-0.0099,0.172,3,13,0.57,0.71,0.29,24.717,26.21,94.5,37.0,20783.0,8026,7943,8384,7880,51.7,54.6,53.4,56.2,2.718,2.998,2.805,2.482,7.93,310.1,29.3,85.6,1016.64,-32.41,1.83,1.0,26.6,39.2,31.1,0,no_anomaly,0.0,0,0,0,0,19.0760194,72.8776912,5.0,0.0
2024-12-10T12:13:05.400Z,MISSION_0060,54,0,takeoff,SITE_BOM_001,19.0760191,72.8776886,5.0,79.13,0.763,0.073,2.48,-4.7324,-1.6178,79.1334,0.77052,-0.02284,-0.03717,0.63592,-0.146,-0.0117,-9.8339,-0.5477,-1.2898,-0.1988,0.2261,3,16,0.7,0.92,0.33,24.611,20.13,94.4,37.6,20766.0,8433,8077,7904,8060,54.7,55.8,55.2,55.8,2.642,2.772,2.88,2.923,8.11,318.6,29.2,85.5,1016.46,-26.08,0.93,2.05,23.1,43.2,32.2,0,no_anomaly,0.0,0,0,0,0,19.0760191,72.8776886,5.0,0.0
2024-12-10T12:13:05.500Z,MISSION_0060,55,0,takeoff,SITE_BOM_001,19.076017,72.8776846,5.0,80.58,0.901,0.098,2.56,4.4706,0.4891,80.5761,0.76232,0.02699,0.02847,0.64601,0.1105,0.0551,-9.6481,0.3413,-0.1129,-0.0001,0.188,3,18,0.77,0.65,0.31,24.712,18.21,94.3,37.2,20750.0,8378,8122,7941,8111,51.9,54.1,57.6,53.1,3.009,2.865,2.749,2.753,6.8,320.6,28.9,84.6,1016.64,-28.46,0.77,1.1,21.4,34.2,29.3,0,no_anomaly,0.0,0,0,0,0,19.076017,72.8776846,5.0,0.0
2024-12-10T12:13:05.600Z,MISSION_0060,56,0,takeoff,SITE_BOM_001,19.076018,72.8776812,5.0,81.14,0.733,0.094,2.9,-3.4377,-3.0606,81.1351,0.75955,-0.00542,-0.03978,0.64921,-0.1083,-0.0562,-9.8253,0.2991,-0.6488,0.3073,0.2533,3,18,0.71,0.81,0.28,24.638,21.16,94.2,37.4,20734.0,8078,8182,8263,8329,53.5,55.3,49.6,54.5,3.022,2.644,2.791,2.829,7.61,319.3,29.1,84.9,1016.43,-26.81,0.37,1.67,23.1,43.4,29.9,0,no_anomaly,0.0,0,0,0,0,19.076018,72.8776812,5.0,0.0
2024-12-10T12:13:05.700Z,MISSION_0060,57,0,takeoff,SITE_BOM_001,19.0760159,72.8776824,5.0,82.53,0.022,0.078,2.64,4.9952,-0.7935,82.5258,0.75076,0.03732,0.02354,0.6591,0.2391,-0.0509,-9.8479,0.3711,0.4384,0.5467,0.2637,3,18,0.56,0.82,0.23,24.694,21.72,94.2,37.4,20718.0,8151,8386,7810,8203,51.7,56.3,53.5,56.8,2.936,2.689,2.668,3.005,8.54,313.4,28.5,84.3,1016.86,-28.64,0.65,1.9,22.9,38.3,33.0,0,no_anomaly,0.0,0,0,0,0,19.0760159,72.8776824,5.0,0.0
2024-12-10T12:13:05.800Z,MISSION_0060,58,0,takeoff,SITE_BOM_001,19.0760201,72.8776798,5.0,81.64,0.0,0.054,3.17,-0.8683,-2.9374,81.6407,0.75662,0.01102,-0.02435,0.65331,0.1682,0.057,-9.7012,0.2627,1.2782,0.3751,0.2541,3,16,0.61,1.11,0.2,24.7,21.71,94.1,36.7,20702.0,8224,8078,8032,7993,52.3,53.9,56.4,53.6,2.647,2.788,2.653,2.932,7.35,309.0,29.1,85.6,1016.55,-31.66,-1.03,1.96,25.1,40.7,34.5,0,no_anomaly,0.0,0,0,0,0,19.0760201,72.8776798,5.0,0.0
2024-12-10T12:13:05.900Z,MISSION_0060,59,0,takeoff,SITE_BOM_001,19.076018,72.8776757,5.0,82.56,0.0,0.203,3.37,4.5984,-1.985,82.5629,0.7503,0.04156,0.01346,0.65965,0.0849,0.0051,-9.747,-0.015,-0.2532,0.4801,0.2652,3,11,0.75,0.85,0.2,24.626,25.95,94.0,36.6,20685.0,7822,8353,8096,7979,54.9,54.8,58.5,52.5,2.773,2.756,2.844,2.525,8.03,316.4,29.1,84.9,1016.55,-28.44,-0.34,1.44,24.8,40.0,32.8,0,no_anomaly,0.0,0,0,0,0,19.076018,72.8776757,5.0,0.0
2024-12-10T12:13:06.000Z,MISSION_0060,60,0,takeoff,SITE_BOM_001,19.0760155,72.8776763,5.0,81.35,0.043,0.018,3.15,6.3134,-1.7439,81.3539,0.75661,0.05166,0.02436,0.65136,0.246,-0.0189,-9.8679,-0.2185,0.7541,-0.2875,0.2745,3,10,0.72,0.96,0.24,24.666,17.68,94.0,37.3,20669.0,8119,8383,8099,8237,52.0,55.0,56.9,50.3,2.64,2.772,2.824,2.832,8.28,320.8,28.9,85.1,1016.64,-30.57,1.12,1.59,22.2,38.1,32.4,0,no_anomaly,0.0,0,0,0,0,19.0760155,72.8776763,5.0,0.0
2024-12-10T12:13:06.100Z,MISSION_0060,61,0,takeoff,SITE_BOM_001,19.0760144,72.8776697,5.0,81.39,0.0,0.143,3.74,-2.8508,1.3713,81.3885,0.75772,-0.02666,-0.00715,0.652,0.2323,-0.0538,-9.7909,0.633,0.6119,0.0036,0.2482,3,16,0.93,0.84,0.39,24.709,13.08,93.9,37.1,20653.0,8031,8201,8233,8003,49.1,57.7,51.7,57.5,2.526,2.784,2.866,2.996,6.74,323.3,28.7,84.6,1016.72,-33.12,-1.09,1.4,23.6,37.3,29.9,0,no_anomaly,0.0,0,0,0,0,19.0760144,72.8776697,5.0,0.0
2024-12-10T12:13:06.200Z,MISSION_0060,62,0,takeoff,SITE_BOM_001,19.0760151,72.8776629,5.0,81.31,0.0,0.18,4.46,-1.122,-1.0745,81.3078,0.75865,-0.00132,-0.01349,0.65136,-0.3478,-0.0467,-9.8207,0.5483,0.5135,0.4425,0.2173,3,12,0.57,0.76,0.25,24.708,16.47,93.8,37.7,20637.0,8205,8197,8097,8118,54.7,55.2,58.2,54.6,2.89,2.957,2.772,2.908,6.48,319.4,29.1,84.8,1016.62,-30.19,-0.16,1.36,21.0,38.1,33.0,0,no_anomaly,0.0,0,0,0,0,19.0760151,72.8776629,5.0,0.0
2024-12-10T12:13:06.300Z,MISSION_0060,63,0,takeoff,SITE_BOM_001,19.0760149,72.8776634,5.0,80.25,0.0,0.123,4.4,-3.7194,-1.3223,80.2519,0.76442,-0.01738,-0.02973,0.6438,-0.6221,0.0159,-9.7687,-0.2318,0.7826,0.2231,0.3502,3,16,0.75,0.78,0.31,24.624,18.0,93.7,36.7,20621.0,8228,8081,7871,8090,47.5,52.8,54.9,50.9,2.613,2.951,2.937,2.717,8.46,324.8,29.0,85.0,1016.37,-34.34,1.53,1.26,23.1,39.4,31.6,0,no_anomaly,0.0,0,0,0,0,19.0760149,72.8776634,5.0,0.0
2024-12-10T12:13:06.400Z,MISSION_0060,64,0,takeoff,SITE_BOM_001,19.0760132,72.8776584,5.0,81.99,0.0,0.102,4.85,0.1926,-4.7722,81.992,0.75405,0.02858,-0.03032,0.65549,0.2861,0.018,-9.8978,0.021,0.0975,-0.0711,0.2082,3,15,0.68,1.05,0.27,24.593,19.66,93.7,36.4,20604.0,8328,7998,8068,7893,57.4,55.7,53.4,54.4,2.768,2.894,2.92,2.768,7.63,323.1,28.9,84.5,1016.79,-31.54,0.15,1.21,25.4,40.5,35.5,0,no_anomaly,0.0,0,0,0,0,19.0760132,72.8776584,5.0,0.0
2024-12-10T12:13:06.500Z,MISSION_0060,65,0,takeoff,SITE_BOM_001,19.0760134,72.8776573,5.0,79.45,0.0,0.052,4.98,-6.7305,-1.7459,79.4541,0.76825,-0.03542,-0.04921,0.63727,-0.2328,-0.0315,-9.8315,0.2382,0.0309,0.7799,0.2316,3,13,0.61,0.69,0.24,24.719,20.65,93.6,38.0,20588.0,8012,7902,8082,8220,52.5,55.1,55.5,56.2,2.952,2.712,2.796,2.687,7.47,319.2,29.1,84.3,1016.78,-30.41,-1.58,1.67,24.9,41.8,33.1,0,no_anomaly,0.0,0,0,0,0,19.0760134,72.8776573,5.0,0.0
2024-12-10T12:13:06.600Z,MISSION_0060,66,0,takeoff,SITE_BOM_001,19.076015,72.8776569,5.0,77.88,0.278,0.15,5.08,-0.5376,-2.8384,77.88,0.77763,0.01192,-0.02221,0.62822,-0.2785,0.0248,-9.8169,0.3433,-0.3811,-0.1242,0.3388,3,16,0.71,0.99,0.28,24.579,20.55,93.5,36.1,20572.0,7991,8334,8051,8191,56.4,56.5,56.6,55.9,2.718,2.808,2.77,2.699,7.56,316.0,29.3,85.7,1016.82,-31.26,-1.0,1.54,23.0,43.7,33.9,0,no_anomaly,0.0,0,0,0,0,19.076015,72.8776569,5.0,0.0
2024-12-10T12:13:06.700Z,MISSION_0060,67,0,takeoff,SITE_BOM_001,19.0760136,72.8776611,5.0,78.91,0.0,0.063,4.58,-7.8674,-0.7069,78.9123,0.77055,-0.04906,-0.04835,0.63365,-0.4793,0.0345,-9.8076,-0.0748,0.603,-0.3181,0.2574,3,20,0.85,0.87,0.38,24.654,17.37,93.4,37.4,20556.0,8029,7808,8337,7816,55.3,54.5,52.2,55.0,3.102,2.787,2.891,2.829,6.59,320.4,29.2,84.7,1016.74,-29.24,-0.98,1.3,26.2,38.6,30.8,0,no_anomaly,0.0,0,0,0,0,19.0760136,72.8776611,5.0,0.0
2024-12-10T12:13:06.800Z,MISSION_0060,68,0,takeoff,SITE_BOM_001,19.0760165,72.8776622,5.0,79.36,0.0,0.149,4.59,3.1551,-1.901,79.3622,0.76892,0.03177,0.00481,0.63854,-0.1398,0.0138,-9.9149,-0.3637,-0.0361,-0.4277,0.2386,3,15,0.5,0.68,0.2,24.672,18.43,93.4,37.6,20540.0,8167,7993,8109,8195,57.1,55.2,53.7,51.4,2.909,2.736,2.74,2.608,6.81,324.4,29.0,83.7,1016.68,-29.49,1.16,1.3,25.0,39.9,32.3,0,no_anomaly,0.0,0,0,0,0,19.0760165,72.8776622,5.0,0.0
2024-12-10T12:13:06.900Z,MISSION_0060,69,0,takeoff,SITE_BOM_001,19.0760272,72.8776658,5.0,77.46,0.0,0.137,4.86,-1.8999,0.1799,77.4609,0.77997,-0.01392,-0.00915,0.62559,-0.0067,0.0212,-9.8601,-0.685,-0.1335,-0.2742,0.226,3,12,0.82,0.77,0.35,24.69,18.86,93.3,36.3,20523.0,8099,7922,8263,8196,55.7,54.4,57.2,54.7,2.97,2.715,2.831,2.692,7.78,318.5,28.8,84.9,1016.69,-30.32,-1.51,1.36,25.6,40.9,33.9,0,no_anomaly,0.0,0,0,0,0,19.0760272,72.8776658,5.0,0.0
2024-12-10T12:13:07.000Z,MISSION_0060,70,0,takeoff,SITE_BOM_001,19.0760262,72.8776649,5.0,79.79,0.063,0.1,4.87,0.1299,-0.831,79.7926,0.76718,0.00552,-0.00484,0.64139,0.0778,0.0878,-9.7885,-0.1285,-0.2997,-0.2409,0.1618,3,15,0.74,1.09,0.2,24.612,17.9,93.2,37.5,20507.0,7928,8052,8122,8427,57.6,52.4,54.0,57.0,2.776,2.939,2.975,2.927,7.53,323.7,28.9,85.9,1016.61,-33.69,-1.39,1.92,27.1,35.5,32.4,0,no_anomaly,0.0,0,0,0,0,19.0760262,72.8776649,5.0,0.0
2024-12-10T12:13:07.100Z,MISSION_0060,71,0,takeoff,SITE_BOM_001,19.076025,72.8776655,5.0,80.64,0.0,0.095,4.75,0.315,0.5349,80.6427,0.76242,-0.00092,0.00534,0.64705,0.3501,-0.0007,-9.8721,-0.1726,-0.2803,-0.457,0.1514,3,14,0.55,0.73,0.2,24.659,23.2,93.1,36.9,20491.0,8107,8180,8179,7889,51.7,55.5,52.3,51.9,2.899,2.847,2.665,2.474,6.92,318.8,28.8,84.8,1016.79,-30.62,0.36,1.46,25.1,38.7,35.1,0,no_anomaly,0.0,0,0,0,0,19.076025,72.8776655,5.0,0.0
2024-12-10T12:13:07.200Z,MISSION_0060,72,0,takeoff,SITE_BOM_001,19.0760217,72.8776673,5.0,79.68,0.0,0.046,4.37,-4.1676,-1.0683,79.6781,0.76752,-0.02195,-0.03045,0.63992,-0.0781,-0.0839,-9.7236,-0.9656,-0.1473,-0.3532,0.2425,3,18,0.66,0.94,0.2,24.674,18.8,93.1,37.8,20475.0,7948,8104,8051,7877,52.8,56.3,54.7,52.4,2.709,3.09,2.681,2.61,8.6,315.3,29.0,85.0,1016.96,-31.25,1.09,1.92,22.7,41.5,30.0,0,no_anomaly,0.0,0,0,0,0,19.0760217,72.8776673,5.0,0.0
2024-12-10T12:13:07.300Z,MISSION_0060,73,0,transit,SITE_BOM_001,19.0760145,72.8776657,5.5,81.26,0.387,0.13,4.15,-0.1972,-0.8925,81.2579,0.75893,0.00377,-0.00703,0.65113,-0.2355,-0.0128,-9.7936,-0.4517,0.7938,0.0727,0.3092,3,13,0.71,0.86,0.34,24.642,13.77,93.0,37.3,20459.0,7970,7814,7822,8251,55.5,53.9,52.5,53.5,2.618,3.008,2.803,2.87,7.24,310.8,29.4,85.0,1016.74,-30.69,-0.93,1.43,26.4,33.9,31.6,0,no_anomaly,0.0,0,0,0,0,19.0760145,72.8776657,5.5,0.0
2024-12-10T12:13:07.400Z,MISSION_0060,74,0,transit,SITE_BOM_001,19.0760109,72.8776674,6.0,79.88,0.953,0.122,3.83,-6.3802,-1.4587,79.8809,0.76592,-0.0345,-0.04547,0.6404,0.2354,0.0125,-9.7967,0.6846,-0.3515,-0.1585,0.3123,3,17,0.74,0.68,0.32,24.588,22.43,92.9,37.1,20442.0,8005,8164,8216,8148,57.2,53.7,54.3,51.7,2.845,2.798,2.503,2.853,7.49,327.2,28.9,84.5,1016.77,-28.25,-0.72,1.47,27.1,44.4,34.4,0,no_anomaly,0.0,0,0,0,0,19.0760109,72.8776674,6.0,0.0
2024-12-10T12:13:07.500Z,MISSION_0060,75,0,transit,SITE_BOM_001,19.0760099,72.877664,6.5,80.28,0.938,0.051,4.15,-2.103,1.4637,80.2837,0.76411,-0.02226,-0.00207,0.6447,0.05,0.0399,-9.8863,-0.5072,-0.6298,-0.1241,0.292,3,12,0.81,1.07,0.35,24.527,16.58,92.8,37.2,20426.0,8030,8142,8192,8277,54.1,54.0,49.7,51.2,2.478,2.609,2.54,2.977,7.1,316.1,28.6,83.8,1016.69,-31.33,0.66,1.29,23.7,38.6,33.7,0,no_anomaly,0.0,0,0,0,0,19.0760099,72.877664,6.5,0.0
2024-12-10T12:13:07.600Z,MISSION_0060,76,0,transit,SITE_BOM_001,19.0760094,72.8776668,7.0,79.63,1.066,0.168,3.84,2.8186,-2.4003,79.6348,0.76736,0.03229,-0.00034,0.6404,-0.045,-0.0259,-9.7644,0.0565,-0.0995,-0.4676,0.2895,3,10,0.71,1.31,0.28,24.601,10.65,92.8,38.3,20410.0,7920,7908,8331,8133,52.7,52.9,49.0,56.4,3.09,2.922,2.866,2.413,8.3,323.0,28.9,85.5,1016.65,-31.36,0.27,2.04,24.0,38.5,31.5,0,no_anomaly,0.0,0,0,0,0,19.0760094,72.8776668,7.0,0.0
2024-12-10T12:13:07.700Z,MISSION_0060,77,0,transit,SITE_BOM_001,19.0760075,72.8776672,7.5,79.87,0.926,0.059,3.75,-3.6273,-1.1055,79.8698,0.76655,-0.01808,-0.02771,0.64133,0.1703,0.0064,-9.8164,-0.0492,-0.4179,0.1478,0.2646,3,16,0.66,0.64,0.28,24.588,13.68,92.7,36.8,20394.0,8004,8311,7957,8021,55.7,55.5,54.2,53.7,2.848,2.754,2.579,2.839,7.79,319.8,29.0,85.1,1016.78,-29.26,1.17,1.56,24.7,38.3,32.2,0,no_anomaly,0.0,0,0,0,0,19.0760075,72.8776672,7.5,0.0
2024-12-10T12:13:07.800Z,MISSION_0060,78,0,transit,SITE_BOM_001,19.0760079,72.8776637,8.0,81.52,0.855,0.01,4.14,-4.8256,-1.6411,81.5231,0.75708,-0.02254,-0.03832,0.65181,0.258,0.0249,-9.7772,-0.1213,0.5027,-0.2677,0.1955,3,18,0.88,1.06,0.44,24.628,18.02,92.6,37.3,20378.0,8241,7993,7991,8157,55.4,54.5,54.3,53.9,2.764,2.742,2.692,2.633,8.44,323.1,29.4,84.7,1017.12,-28.94,1.08,1.25,26.0,38.5,29.1,0,no_anomaly,0.0,0,0,0,0,19.0760079,72.8776637,8.0,0.0
2024-12-10T12:13:07.900Z,MISSION_0060,79,0,transit,SITE_BOM_001,19.0760093,72.8776628,8.5,79.44,0.993,0.098,4.27,-4.3629,-3.9126,79.4437,0.76898,-0.00746,-0.05055,0.63723,-0.1349,0.0228,-9.7389,-0.6461,-0.9173,0.2352,0.2556,3,12,0.73,0.76,0.27,24.632,18.61,92.6,38.4,20361.0,8147,8184,7990,7948,56.5,50.4,56.0,52.6,3.034,2.782,2.816,2.768,7.73,319.1,29.3,85.1,1016.76,-31.15,-0.73,1.62,25.6,34.0,30.0,0,no_anomaly,0.0,0,0,0,0,19.0760093,72.8776628,8.5,0.0
2024-12-10T12:13:08.000Z,MISSION_0060,80,0,transit,SITE_BOM_001,19.0760127,72.8776662,9.0,79.5,0.949,0.041,4.02,-0.4253,-0.7517,79.4972,0.76885,0.00134,-0.00742,0.63938,0.1206,-0.04,-9.8365,-0.7776,0.7708,0.0682,0.2896,3,19,0.56,1.03,0.2,24.714,19.05,92.5,37.6,20345.0,8079,8149,8131,8176,57.0,50.1,56.0,56.6,2.757,2.858,2.844,2.926,6.97,322.2,29.2,84.7,1016.7,-27.24,1.76,1.18,22.0,33.9,28.7,0,no_anomaly,0.0,0,0,0,0,19.0760127,72.8776662,9.0,0.0
2024-12-10T12:13:08.100Z,MISSION_0060,81,0,transit,SITE_BOM_001,19.0760137,72.8776699,9.5,77.62,1.069,0.104,3.68,-2.0542,-1.9011,77.6223,0.77917,-0.00357,-0.02416,0.62634,0.0256,-0.0179,-9.8561,-0.3966,-0.127,-0.4086,0.2164,3,13,0.61,0.6,0.31,24.599,18.78,92.4,36.5,20329.0,8133,8284,7905,8216,52.2,51.8,53.8,54.5,2.7,2.882,2.966,2.924,7.6,319.0,28.7,84.6,1016.48,-25.72,-0.73,1.43,22.9,43.3,31.3,0,no_anomaly,0.0,0,0,0,0,19.0760137,72.8776699,9.5,0.0
2024-12-10T12:13:08.200Z,MISSION_0060,82,0,transit,SITE_BOM_001,19.0760098,72.8776634,10.0,77.93,0.68,0.045,4.22,2.3221,-0.974,77.9316,0.77723,0.0211,0.00613,0.62884,-0.0433,0.025,-9.7929,-0.8097,0.0057,-0.2089,0.2141,3,14,0.62,1.01,0.21,24.607,20.5,92.3,37.8,20313.0,8322,8342,8025,7959,55.5,52.6,50.9,54.0,2.78,2.753,2.616,2.64,7.15,327.8,28.9,85.5,1016.48,-25.13,-1.39,1.26,25.6,36.2,34.1,0,no_anomaly,0.0,0,0,0,0,19.0760098,72.8776634,10.0,0.0
2024-12-10T12:13:08.300Z,MISSION_0060,83,0,transit,SITE_BOM_001,19.0760077,72.8776656,10.5,80.12,0.698,0.126,3.93,-7.3821,-4.447,80.1202,0.76481,-0.02432,-0.07103,0.63986,0.0548,0.0034,-9.8205,-0.5663,0.0102,-0.1559,0.2037,3,18,0.87,0.77,0.33,24.594,24.11,92.3,37.1,20297.0,7971,7899,8197,8234,54.1,52.8,50.4,53.7,2.788,2.76,2.993,2.808,8.41,314.6,29.0,85.3,1016.53,-30.6,0.77,1.52,25.3,43.1,31.2,0,no_anomaly,0.0,0,0,0,0,19.0760077,72.8776656,10.5,0.0
2024-12-10T12:13:08.400Z,MISSION_0060,84,0,transit,SITE_BOM_001,19.0760064,72.8776712,11.0,81.3,0.949,0.078,3.29,7.0419,-0.6873,81.3001,0.75702,0.05049,0.03546,0.65048,0.2216,0.0689,-9.7968,0.0376,-1.1104,0.0417,0.2206,3,18,0.78,0.74,0.38,24.59,15.76,92.2,37.2,20280.0,8077,8034,8117,8331,55.6,54.5,56.0,58.6,2.906,2.822,2.826,2.781,7.28,316.9,29.2,85.1,1016.78,-32.7,1.31,1.14,25.1,39.8,29.2,0,no_anomaly,0.0,0,0,0,0,19.0760064,72.8776712,11.0,0.0
2024-12-10T12:13:08.500Z,MISSION_0060,85,0,transit,SITE_BOM_001,19.0760089,72.8776717,11.5,81.55,1.163,0.096,3.3,-1.5895,-3.0115,81.5537,0.75716,0.00666,-0.02895,0.65255,0.1034,-0.0502,-9.8107,-0.316,-0.5023,-0.2656,0.2227,3,11,0.58,0.72,0.2,24.507,17.91,92.1,37.0,20264.0,8130,8266,8316,8070,51.8,53.2,53.4,53.2,2.529,2.601,2.881,2.741,6.63,309.5,29.0,84.9,1016.62,-24.3,-0.51,2.02,22.1,41.2,33.0,0,no_anomaly,0.0,0,0,0,0,19.0760089,72.8776717,11.5,0.0
2024-12-10T12:13:08.600Z,MISSION_0060,86,0,transit,SITE_BOM_001,19.0760092,72.8776704,12.0,80.62,1.408,0.225,3.45,-0.2883,-1.6381,80.619,0.7625,0.00733,-0.01253,0.64682,0.0001,0.0512,-9.8149,-0.0666,0.1662,0.1361,0.34,3,18,0.79,1.13,0.24,24.563,13.96,92.0,37.2,20248.0,7821,8042,8243,8076,54.3,54.7,55.0,53.8,2.839,2.932,2.886,2.958,7.72,320.1,28.8,85.2,1016.76,-26.03,-0.06,1.39,22.0,36.1,31.5,0,no_anomaly,0.0,0,0,0,0,19.0760092,72.8776704,12.0,0.0
2024-12-10T12:13:08.700Z,MISSION_0060,87,0,transit,SITE_BOM_001,19.0760108,72.877664,12.5,82.01,1.661,0.11,4.19,-3.264,-1.4091,82.0129,0.7545,-0.01343,-0.02796,0.65556,-0.0997,-0.0457,-9.7976,0.4532,-0.1377,-0.3535,0.2613,3,13,0.75,0.92,0.3,24.565,20.76,92.0,37.2,20232.0,7790,8021,8153,8117,52.2,56.7,53.7,54.9,2.564,2.758,2.8,2.968,9.33,316.7,28.9,84.8,1016.44,-26.0,-0.4,1.22,22.0,42.8,28.8,0,no_anomaly,0.0,0,0,0,0,19.0760108,72.877664,12.5,0.0
2024-12-10T12:13:08.800Z,MISSION_0060,88,0,transit,SITE_BOM_001,19.0760058,72.8776587,13.0,82.44,1.739,0.105,4.65,4.8101,-4.7971,82.4365,0.74973,0.05909,-0.00383,0.65909,0.4627,-0.0081,-9.8266,0.2507,-0.0275,-0.3894,0.2344,3,15,0.77,0.94,0.35,24.57,20.23,91.9,36.6,20216.0,8207,8095,7946,8082,52.9,52.8,56.5,52.4,3.047,2.794,2.813,3.013,7.86,313.4,29.0,84.9,1016.74,-31.96,-1.21,1.69,24.1,39.6,29.8,0,no_anomaly,0.0,0,0,0,0,19.0760058,72.8776587,13.0,0.0
2024-12-10T12:13:08.900Z,MISSION_0060,89,0,transit,SITE_BOM_001,19.0760077,72.8776591,13.5,81.27,1.592,0.06,4.64,2.037,-3.3267,81.2675,0.75811,0.03238,-0.01045,0.65124,0.255,-0.0521,-9.7885,-0.7063,0.1343,0.2676,0.2157,3,19,0.72,1.08,0.3,24.546,22.2,91.8,36.5,20199.0,8172,8181,8195,8182,54.4,57.2,53.3,53.5,2.588,3.036,2.978,2.948,7.52,324.9,29.0,85.3,1016.76,-29.3,0.05,1.56,22.7,35.8,33.8,0,no_anomaly,0.0,0,0,0,0,19.0760077,72.8776591,13.5,0.0
2024-12-10T12:13:09.000Z,MISSION_0060,90,0,transit,SITE_BOM_001,19.0760018,72.8776561,14.0,79.2,1.545,0.129,4.89,9.508,0.7584,79.1993,0.7682,0.05965,0.05791,0.63479,0.0406,-0.0434,-9.8645,0.5517,-0.0548,0.0413,0.3133,3,13,0.65,1.06,0.3,24.574,22.6,91.7,36.7,20183.0,8226,8139,8167,8225,55.3,52.6,57.4,54.7,2.759,3.039,2.833,2.888,7.59,311.1,29.1,85.5,1016.98,-35.66,0.94,2.08,25.7,35.7,32.2,0,no_anomaly,0.0,0,0,0,0,19.0760018,72.8776561,14.0,0.0
2024-12-10T12:13:09.100Z,MISSION_0060,91,0,transit,SITE_BOM_001,19.0759974,72.8776575,14.5,82.33,1.518,0.042,4.74,-1.3722,-1.4522,82.332,0.75279,-0.00067,-0.01742,0.65803,0.372,-0.0131,-9.7489,0.0796,0.4273,-0.1379,0.1448,3,17,0.56,0.8,0.22,24.587,16.63,91.7,36.7,20167.0,8210,8003,8171,8375,53.5,54.7,56.7,58.3,2.795,2.847,2.967,2.751,7.3,324.6,29.3,85.6,1016.77,-31.82,-0.13,1.0,19.0,39.9,28.1,0,no_anomaly,0.0,0,0,0,0,19.0759974,72.8776575,14.5,0.0
2024-12-10T12:13:09.200Z,MISSION_0060,92,0,transit,SITE_BOM_001,19.0759962,72.8776601,15.0,85.82,1.904,0.095,4.46,-1.0267,-2.7134,85.8205,0.73233,0.00956,-0.02344,0.68048,-0.2425,-0.0366,-9.7524,0.8863,-0.3617,-0.0534,0.2203,3,16,0.68,1.1,0.26,24.565,24.03,91.6,36.6,20151.0,7655,8181,8201,7921,54.3,55.0,53.4,55.5,2.594,2.876,2.866,2.778,8.12,318.4,28.9,84.7,1016.49,-26.22,0.06,1.0,22.4,39.7,30.8,0,no_anomaly,0.0,0,0,0,0,19.0759962,72.8776601,15.0,0.0
2024-12-10T12:13:09.300Z,MISSION_0060,93,0,transit,SITE_BOM_001,19.0759913,72.8776655,15.5,84.14,2.253,0.082,3.96,-1.6354,-2.2872,84.1445,0.74227,0.00278,-0.02437,0.66965,-0.4384,-0.0276,-9.8623,-0.2458,-0.7361,0.067,0.2747,3,15,0.68,0.93,0.25,24.619,16.82,91.5,36.8,20135.0,8164,8110,8106,8083,54.0,53.9,49.6,54.9,2.705,2.903,2.806,2.674,7.73,315.3,28.8,85.0,1017.2,-26.24,0.61,1.46,22.5,39.6,30.6,0,no_anomaly,0.0,0,0,0,0,19.0759913,72.8776655,15.5,0.0
2024-12-10T12:13:09.400Z,MISSION_0060,94,0,transit,SITE_BOM_001,19.0759923,72.87767,16.0,84.31,2.285,0.009,3.44,1.1434,-2.7465,84.3059,0.74095,0.02348,-0.01107,0.67106,0.0892,0.0108,-9.8187,0.4966,-0.2085,0.3096,0.2595,3,16,0.52,0.74,0.27,24.685,25.49,91.4,36.8,20119.0,8136,7762,8126,8102,57.8,54.8,56.4,56.0,2.843,2.807,2.668,2.778,7.77,318.2,28.8,85.6,1016.5,-24.35,-2.03,1.97,24.1,42.5,32.6,0,no_anomaly,0.0,0,0,0,0,19.0759923,72.87767,16.0,0.0
2024-12-10T12:13:09.500Z,MISSION_0060,95,0,transit,SITE_BOM_001,19.075995,72.877674,16.5,84.17,2.177,0.083,2.95,-1.0675,-3.6049,84.1726,0.74193,0.01417,-0.02958,0.66967,-0.003,0.0204,-9.804,0.1254,-0.1385,-0.5398,0.338,3,16,0.64,1.06,0.28,24.604,22.08,91.4,37.0,20102.0,8374,8093,7914,7997,52.6,53.0,50.9,54.6,2.515,2.836,2.982,2.961,7.76,319.0,29.0,85.3,1016.54,-28.21,-0.2,1.92,21.9,35.3,30.2,0,no_anomaly,0.0,0,0,0,0,19.075995,72.877674,16.5,0.0
2024-12-10T12:13:09.600Z,MISSION_0060,96,0,transit,SITE_BOM_001,19.0759978,72.8776767,16.8,82.86,2.121,0.144,2.6,1.0627,-2.2697,82.857,0.74948,0.02006,-0.00871,0.66166,0.352,0.0344,-9.8003,0.5116,-0.1743,-0.4104,0.1771,3,15,0.79,0.64,0.47,24.649,24.74,91.3,37.0,20086.0,8052,7968,8244,7985,54.1,55.4,53.6,53.7,2.743,2.721,2.625,2.793,7.85,328.4,29.4,85.7,1016.6,-28.54,-0.93,2.14,26.3,41.3,30.0,0,no_anomaly,0.0,0,0,0,0,19.0759978,72.8776767,16.8,0.0
2024-12-10T12:13:09.700Z,MISSION_0060,97,0,transit,SITE_BOM_001,19.075994,72.8776745,16.8,85.61,2.273,0.068,2.92,-1.7748,-1.5328,85.6097,0.73366,-0.00227,-0.02034,0.67921,-0.0032,-0.035,-9.8305,0.0554,-0.3572,0.4416,0.1897,3,11,0.68,1.1,0.26,24.551,19.81,91.2,37.2,20070.0,8406,8301,7740,8190,54.2,53.6,51.6,52.9,2.94,2.654,3.087,2.77,7.13,314.8,29.1,84.7,1016.62,-30.61,1.5,1.51,25.2,38.5,31.9,0,no_anomaly,0.0,0,0,0,0,19.075994,72.8776745,16.8,0.0
2024-12-10T12:13:09.800Z,MISSION_0060,98,0,transit,SITE_BOM_001,19.0759932,72.8776728,16.8,82.27,2.536,0.12,3.12,5.5489,-3.0378,82.2732,0.75115,0.05386,0.01189,0.65782,-0.0913,0.0372,-9.8128,-1.4277,-0.0499,-0.4131,0.2789,3,16,0.81,1.01,0.23,24.646,20.18,91.2,37.0,20054.0,8061,7995,7978,8292,54.8,54.6,53.3,51.7,2.838,2.873,2.806,3.16,8.33,316.4,29.4,85.5,1016.43,-30.06,-1.15,1.55,20.9,41.3,30.2,0,no_anomaly,0.0,0,0,0,0,19.0759932,72.8776728,16.8,0.0
2024-12-10T12:13:09.900Z,MISSION_0060,99,0,transit,SITE_BOM_001,19.0759931,72.8776689,16.8,82.69,1.991,0.09,3.54,-0.1318,-2.7827,82.6906,0.75054,0.01518,-0.01899,0.66038,-0.0258,0.0459,-9.7092,-1.1017,-0.2502,0.189,0.1848,3,19,0.66,0.97,0.22,24.495,22.99,91.1,36.7,20038.0,8004,8127,8153,7904,53.9,53.5,52.0,53.1,2.896,2.918,2.864,2.755,7.98,322.7,29.2,85.0,1016.63,-24.68,0.92,2.05,23.9,36.1,33.6,0,no_anomaly,0.0,0,0,0,0,19.0759931,72.8776689,16.8,0.0
2024-12-10T12:13:10.000Z,MISSION_0060,100,0,transit,SITE_BOM_001,19.0759907,72.8776672,16.8,83.28,2.318,0.154,3.79,-3.4915,0.8835,83.2829,0.74679,-0.02789,-0.01448,0.66431,0.0765,0.011,-9.7425,-1.1616,0.4702,-0.066,0.2042,3,11,0.64,0.75,0.38,24.581,21.37,91.0,37.2,20021.0,8296,8139,7991,8103,55.7,55.1,56.4,52.2,2.876,2.895,2.724,2.845,7.86,322.3,28.9,85.3,1017.09,-26.55,0.81,1.7,26.3,43.5,33.9,0,no_anomaly,0.0,0,0,0,0,19.0759907,72.8776672,16.8,0.0
2024-12-10T12:13:10.100Z,MISSION_0060,101,0,transit,SITE_BOM_001,19.0759881,72.8776703,16.8,82.7,2.032,0.241,3.56,1.5529,1.6687,82.698,0.75068,0.00055,0.01988,0.66036,0.0732,-0.109,-9.78,0.275,0.4235,0.0711,0.2707,3,17,0.68,0.67,0.41,24.584,23.07,90.9,37.0,20005.0,8385,8018,8171,8073,55.7,55.1,50.4,55.2,3.068,2.781,2.661,2.96,7.45,329.6,29.0,84.8,1016.57,-31.16,1.28,1.85,26.4,42.3,34.6,0,no_anomaly,0.0,0,0,0,0,19.0759881,72.8776703,16.8,0.0
2024-12-10T12:13:10.200Z,MISSION_0060,102,0,transit,SITE_BOM_001,19.0759858,72.8776706,16.8,80.22,1.464,0.204,3.63,-2.9863,-5.0942,80.2177,0.76455,0.00871,-0.05075,0.6425,-0.17,-0.021,-9.816,-0.1214,-0.309,-0.0845,0.2179,3,11,0.82,0.79,0.31,24.543,14.45,90.9,35.6,19989.0,8064,8098,8108,8171,53.9,57.9,54.6,55.3,2.697,3.022,2.7,2.608,7.76,324.3,29.0,85.1,1016.98,-34.51,0.17,1.27,23.4,43.5,32.4,0,no_anomaly,0.0,0,0,0,0,19.0759858,72.8776706,16.8,0.0
2024-12-10T12:13:10.300Z,MISSION_0060,103,0,transit,SITE_BOM_001,19.0759803,72.87767,16.8,81.35,1.45,0.121,4.0,0.9502,-0.4857,81.3527,0.75835,0.00905,0.00219,0.65178,-0.0139,0.0149,-9.8951,1.0772,0.0436,-0.2091,0.2964,3,14,0.69,0.76,0.4,24.534,19.83,90.8,37.2,19973.0,8044,8202,8335,7862,53.3,51.9,54.4,53.1,2.815,2.733,2.749,2.718,8.4,314.4,29.1,85.0,1016.57,-28.34,0.29,1.82,23.9,40.9,30.7,0,no_anomaly,0.0,0,0,0,0,19.0759803,72.87767,16.8,0.0
2024-12-10T12:13:10.400Z,MISSION_0060,104,0,transit,SITE_BOM_001,19.0759786,72.8776709,16.8,81.35,1.822,0.068,4.02,8.2819,0.1981,81.3453,0.75655,0.05364,0.04837,0.64994,-0.0336,-0.0136,-9.8963,-0.0185,0.1392,0.4291,0.3259,3,10,0.83,0.65,0.22,24.564,18.58,90.7,36.9,19957.0,8229,7987,8167,8346,55.0,54.4,56.2,56.0,2.685,2.818,2.45,2.85,7.4,318.4,29.1,85.0,1016.54,-29.27,1.03,1.18,22.1,36.5,32.0,0,no_anomaly,0.0,0,0,0,0,19.0759786,72.8776709,16.8,0.0
2024-12-10T12:13:10.500Z,MISSION_0060,105,0,transit,SITE_BOM_001,19.0759781,72.8776656,16.8,83.07,1.72,0.089,4.54,-5.7925,-4.7864,83.071,0.74834,-0.01014,-0.06469,0.66008,0.0801,-0.0481,-9.8945,0.1615,0.3086,0.0118,0.2348,3,16,0.65,1.0,0.24,24.549,18.52,90.6,36.4,19940.0,7993,8288,8121,8079,55.5,57.3,52.7,55.3,2.862,2.779,2.804,2.533,7.12,315.4,28.9,84.9,1016.63,-24.53,0.1,1.31,26.4,42.0,32.9,0,no_anomaly,0.0,0,0,0,0,19.0759781,72.8776656,16.8,0.0
2024-12-10T12:13:10.600Z,MISSION_0060,106,0,transit,SITE_BOM_001,19.0759785,72.8776562,16.8,85.7,1.34,0.048,5.43,-0.5696,-0.6633,85.7016,0.73313,0.00029,-0.00762,0.68005,0.1471,0.0686,-9.7845,-0.1248,0.0137,0.5929,0.3285,3,19,0.82,1.06,0.31,24.508,19.71,90.6,37.6,19924.0,8464,8212,8099,7923,53.2,55.0,54.7,51.6,2.957,2.607,2.968,2.887,7.05,310.3,29.0,85.1,1016.82,-22.25,-0.13,1.02,25.3,36.8,29.3,0,no_anomaly,0.0,0,0,0,0,19.0759785,72.8776562,16.8,0.0
2024-12-10T12:13:10.700Z,MISSION_0060,107,0,transit,SITE_BOM_001,19.0759761,72.8776536,16.8,86.74,1.06,0.112,5.81,0.9386,-1.1028,86.7357,0.72685,0.01256,-0.00137,0.68668,-0.0408,0.0722,-9.8193,0.2058,0.6307,0.3173,0.3106,3,16,0.81,0.86,0.39,24.606,20.82,90.5,37.4,19908.0,8226,8129,8383,8082,52.9,56.6,55.6,53.1,2.59,2.88,2.875,3.016,8.29,318.9,29.0,85.4,1017.12,-22.84,0.17,1.69,23.8,40.1,33.4,0,no_anomaly,0.0,0,0,0,0,19.0759761,72.8776536,16.8,0.0
2024-12-10T12:13:10.800Z,MISSION_0060,108,0,transit,SITE_BOM_001,19.0759779,72.8776546,16.8,86.54,1.006,0.031,5.62,-1.8676,-2.6548,86.5388,0.72811,0.00401,-0.02803,0.68488,-0.0233,0.097,-9.7199,0.2612,0.1343,0.0762,0.1693,3,10,0.79,0.9,0.41,24.567,20.44,90.4,37.4,19892.0,8205,8189,8230,8091,51.5,51.9,54.1,54.0,2.763,2.935,2.7,2.438,7.71,315.2,29.0,85.2,1016.49,-29.53,-0.6,1.4,25.7,38.7,32.9,0,no_anomaly,0.0,0,0,0,0,19.0759779,72.8776546,16.8,0.0
2024-12-10T12:13:10.900Z,MISSION_0060,109,0,transit,SITE_BOM_001,19.0759778,72.8776518,16.8,89.49,1.301,0.089,5.91,-1.1932,-0.4912,89.4936,0.71021,-0.00438,-0.01037,0.7039,-0.0965,0.0368,-9.7768,0.3748,1.0201,0.3348,0.2472,3,10,0.86,0.93,0.27,24.596,23.25,90.3,37.8,19876.0,8169,7919,8055,8189,58.0,53.2,54.6,51.9,2.638,2.66,2.781,2.991,7.15,320.3,29.5,85.0,1016.76,-34.16,1.15,1.93,25.5,41.1,29.9,0,no_anomaly,0.0,0,0,0,0,19.0759778,72.8776518,16.8,0.0
2024-12-10T12:13:11.000Z,MISSION_0060,110,0,transit,SITE_BOM_001,19.0759809,72.8776457,16.8,86.86,1.298,0.057,6.41,-6.5187,-4.3433,86.8642,0.72598,-0.01525,-0.06653,0.68432,-0.3654,0.0112,-9.8263,-0.506,0.0634,0.8459,0.2078,3,16,0.74,0.76,0.23,24.51,15.73,90.3,37.1,19859.0,8063,8315,8159,8090,58.2,57.3,53.8,48.9,2.892,2.994,2.804,2.618,7.4,322.0,29.4,84.8,1016.8,-27.84,1.69,1.48,24.5,35.4,30.3,0,no_anomaly,0.0,0,0,0,0,19.0759809,72.8776457,16.8,0.0
2024-12-10T12:13:11.100Z,MISSION_0060,111,0,transit,SITE_BOM_001,19.0759789,72.8776464,16.8,86.02,1.279,0.026,6.41,3.4805,-3.2016,86.0207,0.73003,0.04124,0.00029,0.68217,-0.2287,-0.0473,-9.7829,-0.0782,0.7211,0.2408,0.246,3,11,0.59,0.95,0.24,24.606,16.82,90.2,37.1,19843.0,8129,8067,8204,8073,58.1,53.1,53.4,52.6,3.165,2.551,2.527,2.924,7.81,324.1,28.8,84.6,1016.48,-30.5,0.8,1.31,22.0,35.9,33.4,0,no_anomaly,0.0,0,0,0,0,19.0759789,72.8776464,16.8,0.0
2024-12-10T12:13:11.200Z,MISSION_0060,112,0,transit,SITE_BOM_001,19.0759795,72.8776436,16.8,87.95,1.818,0.116,6.69,0.1839,-1.9526,87.9488,0.71953,0.01299,-0.01115,0.69425,0.2588,0.0422,-9.7825,0.343,-0.4626,0.051,0.2379,3,10,0.67,0.6,0.2,24.583,17.57,90.1,37.7,19827.0,7875,8267,8012,8257,54.5,55.9,53.5,51.6,2.694,2.812,2.882,2.935,8.05,309.7,29.0,85.7,1016.35,-35.76,0.18,1.28,29.2,43.7,34.7,0,no_anomaly,0.0,0,0,0,0,19.0759795,72.8776436,16.8,0.0
2024-12-10T12:13:11.300Z,MISSION_0060,113,0,transit,SITE_BOM_001,19.0759835,72.8776493,16.8,88.36,2.112,0.063,5.94,0.3501,-0.7632,88.3616,0.71711,0.00683,-0.00265,0.69692,0.0002,-0.0551,-9.8593,-0.685,-0.8042,0.0845,0.2899,3,12,0.73,0.73,0.35,24.528,18.09,90.0,37.8,19811.0,8155,7959,8083,8330,58.6,56.7,54.0,57.0,2.714,2.802,2.794,2.76,8.49,322.0,29.2,84.2,1016.63,-24.54,-0.29,1.35,22.6,39.7,31.0,0,no_anomaly,0.0,0,0,0,0,19.0759835,72.8776493,16.8,0.0
2024-12-10T12:13:11.400Z,MISSION_0060,114,0,transit,SITE_BOM_001,19.0759805,72.8776477,16.8,86.67,2.448,0.072,6.21,-5.059,-1.4218,86.6684,0.72697,-0.02359,-0.0393,0.68513,-0.159,-0.0681,-9.853,-0.0776,-1.468,-0.5062,0.277,3,10,0.62,1.03,0.2,24.551,19.54,90.0,36.4,19795.0,8147,8282,8114,8183,51.9,55.2,53.9,53.7,2.715,2.835,2.732,2.886,7.04,323.6,29.1,84.9,1016.7,-29.55,0.69,1.71,25.6,44.4,30.6,0,no_anomaly,0.0,0,0,0,0,19.0759805,72.8776477,16.8,0.0
2024-12-10T12:13:11.500Z,MISSION_0060,115,0,transit,SITE_BOM_001,19.0759843,72.8776459,16.8,87.09,2.45,-0.05,6.27,-2.1228,-1.8083,87.0902,0.72482,-0.00256,-0.0242,0.68851,-0.2195,0.0025,-9.7977,0.2686,0.247,-0.1806,0.2516,3,19,0.71,0.67,0.36,24.477,21.95,89.9,37.3,19778.0,8148,8201,7985,8190,54.0,52.9,50.1,52.6,2.48,2.706,2.881,2.733,8.59,315.5,29.0,85.6,1016.49,-30.68,0.44,1.56,25.5,43.8,30.6,0,no_anomaly,0.0,0,0,0,0,19.0759843,72.8776459,16.8,0.0
2024-12-10T12:13:11.600Z,MISSION_0060,116,0,transit,SITE_BOM_001,19.0759868,72.8776416,16.8,87.91,2.363,0.223,6.67,0.954,-1.6888,87.9065,0.71972,0.01622,-0.00483,0.69406,0.1938,-0.0288,-9.7967,0.2706,-0.0108,0.5097,0.1958,3,11,0.56,0.88,0.2,24.498,18.47,89.8,37.6,19762.0,8076,8231,8233,8293,50.4,53.4,52.5,51.8,2.907,2.874,2.836,2.644,7.39,325.7,29.2,85.6,1016.68,-33.22,-0.3,1.22,25.7,34.8,29.3,0,no_anomaly,0.0,0,0,0,0,19.0759868,72.8776416,16.8,0.0
2024-12-10T12:13:11.700Z,MISSION_0060,117,0,transit,SITE_BOM_001,19.075983,72.877645,16.8,90.01,2.434,0.103,6.4,4.6806,-0.1644,90.0104,0.70641,0.02989,0.02786,0.70662,0.0162,-0.0683,-9.8041,-0.4936,-0.2338,-0.077,0.2864,3,11,0.55,0.61,0.2,24.517,21.0,89.8,36.7,19746.0,8239,8300,8327,8284,52.5,56.5,58.4,52.6,2.888,3.043,2.984,2.694,8.02,315.7,29.1,84.9,1016.55,-37.25,1.25,1.95,26.9,43.3,31.0,0,no_anomaly,0.0,0,0,0,0,19.075983,72.877645,16.8,0.0
2024-12-10T12:13:11.800Z,MISSION_0060,118,0,transit,SITE_BOM_001,19.0759855,72.8776495,16.8,87.57,2.754,0.072,5.85,2.5975,-1.483,87.5738,0.72147,0.02531,0.00634,0.69195,-0.3904,-0.0334,-9.8405,1.067,-0.596,-0.1322,0.2527,3,10,0.76,0.91,0.33,24.547,21.05,89.7,37.7,19730.0,8266,8165,8369,8217,52.1,54.8,51.3,52.3,2.773,2.651,2.752,2.917,7.22,318.3,29.4,85.2,1016.6,-27.55,-0.79,1.36,21.7,42.7,32.9,0,no_anomaly,0.0,0,0,0,0,19.0759855,72.8776495,16.8,0.0
2024-12-10T12:13:11.900Z,MISSION_0060,119,0,transit,SITE_BOM_001,19.0759827,72.8776474,16.8,87.78,2.913,0.08,6.16,1.2455,-1.9763,87.7849,0.72036,0.01979,-0.00489,0.6933,-0.0959,0.0982,-9.7542,0.2391,-0.1307,0.0791,0.1956,3,18,0.59,0.92,0.25,24.487,22.09,89.6,36.3,19714.0,7984,8034,8242,8291,53.2,53.9,54.8,53.1,2.93,2.619,2.856,2.929,7.27,322.8,29.0,84.8,1017.19,-29.92,2.25,1.44,26.5,37.7,34.2,0,no_anomaly,0.0,0,0,0,0,19.0759827,72.8776474,16.8,0.0
2024-12-10T12:13:12.000Z,MISSION_0060,120,0,transit,SITE_BOM_001,19.0759874,72.8776462,16.8,88.03,3.673,0.076,6.15,3.2895,-1.4848,88.0302,0.71854,0.02964,0.01063,0.69477,0.0513,-0.0158,-9.7567,0.8579,-0.5079,-0.2473,0.2236,3,11,0.7,0.95,0.27,24.528,18.85,89.5,38.0,19697.0,8145,8142,8158,8090,57.8,57.8,54.5,56.4,2.674,2.661,2.862,2.834,7.98,324.5,29.3,84.4,1016.59,-28.86,-0.52,1.44,27.5,35.6,33.4,0,no_anomaly,0.0,0,0,0,0,19.0759874,72.8776462,16.8,0.0
2024-12-10T12:13:12.100Z,MISSION_0060,121,0,transit,SITE_BOM_001,19.0759855,72.8776481,16.8,87.94,4.023,0.122,6.0,6.5539,-2.5522,87.9402,0.71746,0.05657,0.02367,0.69389,-0.066,0.0876,-9.9069,0.4163,-0.4563,0.222,0.2233,3,19,0.7,0.72,0.31,24.596,18.0,89.5,37.3,19681.0,7945,8193,8079,8277,56.0,54.3,53.9,49.3,2.917,2.641,2.689,2.608,7.83,318.2,29.1,85.5,1016.74,-29.63,-0.58,1.08,24.4,38.4,29.4,0,no_anomaly,0.0,0,0,0,0,19.0759855,72.8776481,16.8,0.0
2024-12-10T12:13:12.200Z,MISSION_0060,122,0,transit,SITE_BOM_001,19.0759901,72.8776422,16.8,86.95,4.274,0.092,6.53,2.8625,-0.4724,86.9456,0.7254,0.02096,0.01419,0.68786,-0.0042,-0.1377,-9.811,0.2761,0.3717,0.0813,0.2497,3,15,0.77,0.87,0.23,24.55,21.79,89.4,37.1,19665.0,8065,8213,8195,7993,51.6,55.1,55.3,56.9,2.649,2.794,2.877,2.688,7.61,316.3,28.8,84.4,1016.79,-34.37,-0.47,1.21,24.3,42.9,30.1,0,no_anomaly,0.0,0,0,0,0,19.0759901,72.8776422,16.8,0.0
2024-12-10T12:13:12.300Z,MISSION_0060,123,0,transit,SITE_BOM_001,19.0759901,72.8776408,16.8,87.31,4.388,0.106,6.68,-2.1669,-1.3951,87.3146,0.72346,-0.00528,-0.02186,0.69,-0.3131,0.0194,-9.7206,-0.379,-0.7473,-0.2788,0.267,3,18,0.76,1.0,0.22,24.541,21.7,89.3,37.4,19649.0,8311,8141,8132,8281,57.0,52.9,54.6,55.1,2.808,3.263,2.799,2.743,7.98,324.0,29.3,84.4,1016.55,-27.26,-0.46,1.27,24.7,35.7,30.6,0,no_anomaly,0.0,0,0,0,0,19.0759901,72.8776408,16.8,0.0
2024-12-10T12:13:12.400Z,MISSION_0060,124,0,transit,SITE_BOM_001,19.0759889,72.8776406,16.8,86.51,4.48,0.121,6.72,0.296,-5.4436,86.5148,0.72737,0.03442,-0.03282,0.68459,0.2562,-0.0305,-9.7972,-0.6485,-0.4682,0.2332,0.2339,3,17,0.79,0.8,0.36,24.426,21.0,89.2,37.3,19633.0,8397,8182,8411,8115,55.5,52.9,54.8,54.4,2.737,2.927,2.502,2.749,8.26,317.0,29.0,85.0,1016.67,-25.78,-1.31,1.76,22.9,40.9,30.2,0,no_anomaly,0.0,0,0,0,0,19.0759889,72.8776406,16.8,0.0
2024-12-10T12:13:12.500Z,MISSION_0060,125,0,transit,SITE_BOM_001,19.0759899,72.8776402,16.8,88.58,4.637,0.101,6.75,3.0343,-3.143,88.5805,0.71478,0.03809,-0.00114,0.69831,-0.0398,-0.067,-9.8401,0.6844,0.7367,0.1937,0.2271,3,17,0.85,0.9,0.31,24.549,25.45,89.2,37.7,19616.0,8167,7972,8204,8178,51.7,53.1,56.7,55.9,2.696,2.993,2.687,2.73,9.18,313.5,29.0,86.2,1016.48,-31.48,-0.82,1.58,22.6,41.1,33.6,0,no_anomaly,0.0,0,0,0,0,19.0759899,72.8776402,16.8,0.0
2024-12-10T12:13:12.600Z,MISSION_0060,126,0,transit,SITE_BOM_001,19.0759863,72.8776384,16.8,88.53,4.516,0.18,7.02,2.674,-2.188,88.5305,0.71548,0.03003,0.00261,0.69798,-0.1652,0.0272,-9.7571,-0.3649,-0.3031,-0.0961,0.3111,3,10,0.72,0.81,0.34,24.553,19.28,89.1,37.6,19600.0,8057,8102,8243,8048,51.5,51.6,56.1,56.2,2.53,2.691,2.852,3.237,8.48,315.0,29.4,84.8,1016.54,-27.73,-1.95,1.66,25.2,43.3,32.1,0,no_anomaly,0.0,0,0,0,0,19.0759863,72.8776384,16.8,0.0
2024-12-10T12:13:12.700Z,MISSION_0060,127,0,transit,SITE_BOM_001,19.0759828,72.877639,16.8,88.68,5.114,0.112,7.06,-1.5562,-2.0302,88.6769,0.71521,0.00267,-0.02216,0.69855,-0.1057,-0.043,-9.8154,0.0758,0.2865,0.1926,0.2482,3,14,0.73,1.11,0.23,24.514,23.98,89.0,37.0,19584.0,8189,8269,8278,8215,53.7,50.9,54.3,56.3,2.488,2.692,2.764,2.576,8.11,321.6,29.5,85.8,1016.48,-28.54,0.46,1.14,21.3,37.9,30.9,0,no_anomaly,0.0,0,0,0,0,19.0759828,72.877639,16.8,0.0
2024-12-10T12:13:12.800Z,MISSION_0060,128,0,transit,SITE_BOM_001,19.0759785,72.8776354,16.8,88.09,5.207,0.1,7.58,-0.7501,-0.9977,88.0852,0.71882,0.00135,-0.01081,0.69511,0.365,-0.0962,-9.7886,0.7979,0.4443,0.3895,0.2636,3,18,0.75,0.88,0.2,24.539,17.19,88.9,36.9,19568.0,8124,8353,8267,7963,55.8,56.0,55.8,51.5,2.99,2.773,2.786,2.784,6.92,316.1,29.0,83.9,1016.69,-31.5,-0.5,1.46,23.8,39.8,32.9,0,no_anomaly,0.0,0,0,0,0,19.0759785,72.8776354,16.8,0.0
2024-12-10T12:13:12.900Z,MISSION_0060,129,0,transit,SITE_BOM_001,19.075975,72.8776351,16.8,87.64,5.343,0.123,7.75,1.2921,-0.5484,87.6442,0.7214,0.01145,0.00435,0.69241,0.0208,-0.0285,-9.7685,0.5711,1.0851,0.455,0.2317,3,15,0.72,1.13,0.29,24.55,25.64,88.9,38.1,19552.0,8169,8203,8120,7970,55.1,53.9,51.9,53.6,2.696,2.846,2.736,2.82,7.87,314.5,28.5,83.8,1016.42,-26.79,0.19,1.62,23.7,44.6,31.0,0,no_anomaly,0.0,0,0,0,0,19.075975,72.8776351,16.8,0.0
2024-12-10T12:13:13.000Z,MISSION_0060,130,0,transit,SITE_BOM_001,19.0759734,72.8776345,16.8,88.13,5.029,0.068,7.87,0.4228,-3.8262,88.127,0.71808,0.02587,-0.02142,0.69515,0.0467,-0.0173,-9.8032,0.1389,0.585,-0.3156,0.2801,3,14,0.76,1.03,0.31,24.509,26.71,88.8,36.7,19535.0,8230,7964,7986,8021,56.4,56.7,54.4,56.0,2.713,2.923,2.694,2.856,7.53,324.7,29.3,85.8,1016.71,-35.15,-1.08,1.45,25.3,35.0,34.0,0,no_anomaly,0.0,0,0,0,0,19.0759734,72.8776345,16.8,0.0
