timestamp_utc,mission_id,frame_id,waypoint_id,inspection_phase,site_id,latitude_deg,longitude_deg,altitude_m,heading_deg,ground_speed_ms,vertical_speed_ms,distance_to_tower_m,roll_deg,pitch_deg,yaw_deg,quat_w,quat_x,quat_y,quat_z,accel_x_ms2,accel_y_ms2,accel_z_ms2,gyro_x_rads,gyro_y_rads,gyro_z_rads,vibration_level,gps_fix_type,gps_satellite_count,gps_hdop,gps_vdop,position_error_m,battery_voltage_v,battery_current_a,battery_remaining_pct,battery_temp_c,battery_capacity_mah,motor_fl_rpm,motor_fr_rpm,motor_rl_rpm,motor_rr_rpm,motor_fl_temp_c,motor_fr_temp_c,motor_rl_temp_c,motor_rr_temp_c,motor_fl_thrust_n,motor_fr_thrust_n,motor_rl_thrust_n,motor_rr_thrust_n,wind_speed_ms,wind_dir_deg,air_temp_c,humidity_pct,pressure_hpa,gimbal_pitch_deg,gimbal_roll_deg,zoom_factor,ir_temp_min_c,ir_temp_max_c,ir_temp_avg_c,anomaly_detected,anomaly_class,anomaly_confidence,anomaly_bbox_x,anomaly_bbox_y,anomaly_bbox_w,anomaly_bbox_h,anomaly_gps_lat,anomaly_gps_lon,anomaly_gps_alt_m,ir_temp_delta_c
2024-05-02T16:06:00.000Z,MISSION_0031,0,0,takeoff,SITE_DEL_002,28.6139015,77.2089997,1.5,280.54,0.0,0.075,0.18,-0.166,-0.5373,280.5398,-0.76905,0.00411,0.00268,0.63917,-0.0677,0.0324,-9.7396,-0.4251,0.7043,-0.3917,0.2568,3,16,0.65,0.94,0.3,24.778,16.46,97.0,29.9,21334.0,7571,7859,7499,7678,45.6,45.8,47.0,45.9,3.012,2.779,2.659,2.842,5.96,206.6,22.2,61.6,1015.96,-36.3,-0.51,1.53,19.8,32.7,26.6,0,no_anomaly,0.0,0,0,0,0,28.6139015,77.2089997,1.5,0.0
2024-05-02T16:06:00.100Z,MISSION_0031,1,0,takeoff,SITE_DEL_002,28.6139,77.2090012,3.0,283.2,0.468,0.017,0.14,-3.0411,-1.5002,283.2033,-0.78315,0.02892,-0.00622,0.62113,-0.0318,-0.0064,-9.7207,-0.4131,0.2303,-0.1104,0.2261,3,15,0.6,0.82,0.2,24.724,18.42,96.9,31.0,21312.0,7562,7800,7599,7587,42.9,47.0,46.4,50.9,2.67,2.605,2.785,2.69,5.78,200.3,22.6,60.5,1015.96,-30.54,-1.13,1.78,20.5,35.5,25.9,0,no_anomaly,0.0,0,0,0,0,28.6139,77.2090012,3.0,0.0
2024-05-02T16:06:00.200Z,MISSION_0031,2,0,takeoff,SITE_DEL_002,28.6138994,77.209005,4.5,282.87,0.0,0.086,0.56,-4.6926,-2.9087,282.8746,-0.78037,0.04781,-0.00568,0.62346,0.1388,-0.0052,-9.7706,-0.5372,1.3331,0.4843,0.1883,3,15,0.73,0.78,0.2,24.741,16.99,96.8,31.3,21291.0,8051,7729,7762,7828,46.0,46.7,45.6,46.1,2.917,2.826,2.898,2.809,6.38,208.6,22.1,60.6,1016.07,-30.39,-0.36,1.73,17.5,32.6,25.3,0,no_anomaly,0.0,0,0,0,0,28.6138994,77.209005,4.5,0.0
2024-05-02T16:06:00.300Z,MISSION_0031,3,0,takeoff,SITE_DEL_002,28.6139,77.2089997,5.0,282.23,0.222,0.09,0.03,-1.9904,-0.3595,282.2338,-0.77827,0.01549,-0.00846,0.62768,0.1615,0.0089,-9.777,-0.2506,0.6701,0.1433,0.2253,3,10,0.67,0.62,0.28,24.658,19.09,96.7,30.5,21270.0,7641,7858,7637,7597,45.9,47.7,47.9,44.9,2.695,2.794,2.84,2.784,5.83,199.4,22.3,60.6,1016.4,-28.56,-1.81,1.11,16.5,28.0,25.7,0,no_anomaly,0.0,0,0,0,0,28.6139,77.2089997,5.0,0.0
2024-05-02T16:06:00.400Z,MISSION_0031,4,0,takeoff,SITE_DEL_002,28.6139,77.2090017,5.0,284.93,0.0,0.155,0.19,3.3207,-0.6562,284.9273,-0.79272,-0.01949,0.02219,0.60887,-0.1814,0.0216,-9.8586,-0.0165,-0.329,-0.3138,0.12,3,12,0.86,0.64,0.28,24.763,12.63,96.6,29.9,21249.0,7740,7692,7699,7654,46.0,46.5,49.2,50.8,3.107,2.771,2.698,2.942,4.91,206.6,22.3,61.3,1016.4,-30.98,0.04,1.41,16.1,34.3,23.6,0,no_anomaly,0.0,0,0,0,0,28.6139,77.2090017,5.0,0.0
2024-05-02T16:06:00.500Z,MISSION_0031,5,0,takeoff,SITE_DEL_002,28.6139002,77.2090037,5.0,287.94,0.145,0.034,0.41,2.0511,-2.7349,287.9384,-0.80859,-0.00044,0.02982,0.58761,0.1084,-0.0878,-9.8368,-0.8825,0.5478,0.4119,0.1205,3,18,0.67,0.71,0.32,24.717,18.38,96.5,30.2,21228.0,7645,7983,7778,7754,44.9,44.8,48.4,41.9,2.962,2.618,2.892,2.84,5.28,202.9,22.1,61.0,1016.42,-31.12,1.32,2.12,17.0,29.3,27.2,0,no_anomaly,0.0,0,0,0,0,28.6139002,77.2090037,5.0,0.0
2024-05-02T16:06:00.600Z,MISSION_0031,6,0,takeoff,SITE_DEL_002,28.6138984,77.2089992,5.0,285.57,0.0,0.16,0.19,0.4263,-0.1102,285.5713,-0.79637,-0.00238,0.00302,0.60479,-0.2519,0.0619,-9.8679,-0.4695,-0.2238,-0.3544,0.2382,3,17,0.6,0.76,0.27,24.755,17.22,96.4,30.3,21206.0,7799,7698,7543,7724,48.3,47.3,50.0,45.1,2.929,2.677,2.81,2.872,4.76,207.4,22.2,61.9,1016.22,-26.46,-2.17,1.4,16.7,30.5,23.8,0,no_anomaly,0.0,0,0,0,0,28.6138984,77.2089992,5.0,0.0
2024-05-02T16:06:00.700Z,MISSION_0031,7,0,takeoff,SITE_DEL_002,28.6138997,77.2089988,5.0,285.17,0.0,0.215,0.14,3.6013,-2.1289,285.1657,-0.79406,-0.01367,0.03384,0.60674,-0.1554,0.0025,-9.8059,-0.5682,0.3514,-0.0753,0.2347,3,17,0.89,1.17,0.41,24.706,23.38,96.3,30.6,21185.0,7439,7959,7501,7590,42.4,48.2,48.4,42.2,2.677,2.644,3.003,2.67,4.47,201.6,22.2,62.0,1015.97,-25.68,0.77,1.39,17.9,29.1,25.0,0,no_anomaly,0.0,0,0,0,0,28.6138997,77.2089988,5.0,0.0
2024-05-02T16:06:00.800Z,MISSION_0031,8,0,takeoff,SITE_DEL_002,28.6138968,77.2089931,5.0,282.93,0.0,0.114,0.85,7.6738,-3.3764,282.9344,-0.78139,-0.03401,0.06466,0.61975,0.1193,-0.029,-9.8703,0.7984,0.0017,0.2761,0.1334,3,15,0.78,1.09,0.33,24.735,14.73,96.2,31.1,21164.0,7660,7938,7802,7385,47.5,49.5,46.7,48.3,2.878,2.741,2.651,2.775,5.37,211.2,21.9,60.3,1016.19,-28.66,0.48,1.51,13.8,33.9,23.0,0,no_anomaly,0.0,0,0,0,0,28.6138968,77.2089931,5.0,0.0
2024-05-02T16:06:00.900Z,MISSION_0031,9,0,takeoff,SITE_DEL_002,28.613901,77.2089977,5.0,281.71,0.0,0.14,0.27,2.7871,-2.5742,281.7054,-0.77545,-0.00468,0.03276,0.63055,0.1977,0.0177,-9.8217,-0.3533,-0.2965,-0.454,0.2131,3,17,0.65,1.1,0.25,24.673,17.84,96.1,30.3,21143.0,7750,7645,7623,7501,44.9,49.4,49.6,47.9,3.009,2.904,2.933,2.564,5.58,214.2,22.0,61.2,1015.93,-25.01,-0.75,1.67,19.0,32.1,25.4,0,no_anomaly,0.0,0,0,0,0,28.613901,77.2089977,5.0,0.0
2024-05-02T16:06:01.000Z,MISSION_0031,10,0,takeoff,SITE_DEL_002,28.6139073,77.2089979,5.0,280.39,0.0,0.105,0.84,-5.7552,-0.4823,280.3897,-0.76712,0.04126,-0.02891,0.63953,-0.2512,-0.0018,-9.7426,0.4484,-0.5357,0.2114,0.2134,3,19,0.76,0.88,0.2,24.738,22.91,96.0,30.1,21122.0,7624,7799,7960,7820,47.0,46.3,48.2,45.7,3.044,2.667,2.864,2.808,5.68,213.8,22.9,60.7,1016.04,-28.05,1.09,1.4,18.5,30.9,25.0,0,no_anomaly,0.0,0,0,0,0,28.6139073,77.2089979,5.0,0.0
2024-05-02T16:06:01.100Z,MISSION_0031,11,0,takeoff,SITE_DEL_002,28.6139137,77.2089962,5.0,281.42,0.0,0.096,1.59,0.4662,-3.3541,281.4195,-0.77369,0.01539,0.02523,0.63288,-0.2291,-0.0028,-9.7851,-0.5104,0.6362,-0.1413,0.302,3,19,0.74,0.81,0.38,24.712,16.8,95.9,29.5,21101.0,7945,7638,7624,7646,44.1,52.0,48.4,48.6,2.696,2.576,2.774,2.734,5.63,207.9,22.4,60.6,1016.12,-32.37,1.39,1.64,15.0,27.3,24.0,0,no_anomaly,0.0,0,0,0,0,28.6139137,77.2089962,5.0,0.0
2024-05-02T16:06:01.200Z,MISSION_0031,12,0,takeoff,SITE_DEL_002,28.6139142,77.2090018,5.0,281.28,0.0,0.151,1.59,1.0412,-0.4017,281.2832,-0.77318,-0.0048,0.00847,0.63411,-0.0281,0.001,-9.8465,0.1043,0.6541,0.2692,0.1553,3,18,0.73,0.78,0.5,24.719,16.8,95.8,29.7,21079.0,7750,7607,7480,7965,46.1,43.4,45.3,50.6,2.687,2.542,2.732,3.143,5.74,199.7,22.3,60.3,1016.26,-31.26,0.22,1.4,19.3,28.4,25.1,0,no_anomaly,0.0,0,0,0,0,28.6139142,77.2090018,5.0,0.0
2024-05-02T16:06:01.300Z,MISSION_0031,13,0,takeoff,SITE_DEL_002,28.6139115,77.2090016,5.0,282.6,0.0,0.008,1.29,-0.3013,-2.5822,282.596,-0.78017,0.01614,0.01594,0.62515,0.1763,0.1194,-9.8049,-0.5024,-0.6124,-0.5639,0.272,3,20,0.62,0.64,0.28,24.662,20.39,95.7,30.6,21058.0,7747,7510,7681,7970,45.0,43.7,46.0,47.2,2.675,2.845,3.001,2.774,5.7,203.7,22.4,60.2,1015.97,-31.3,-0.04,1.56,16.4,34.2,26.5,0,no_anomaly,0.0,0,0,0,0,28.6139115,77.2090016,5.0,0.0
2024-05-02T16:06:01.400Z,MISSION_0031,14,0,takeoff,SITE_DEL_002,28.6139113,77.2090042,5.0,285.11,0.0,0.179,1.35,0.8251,-2.9684,285.1131,-0.79378,0.01003,0.02494,0.60761,0.1091,0.0041,-9.7968,-0.4486,-0.3947,0.3958,0.2291,3,18,0.69,1.05,0.29,24.681,16.46,95.6,30.5,21037.0,7856,7702,7623,7572,48.2,46.6,43.4,45.8,2.862,2.852,2.745,2.758,5.45,200.2,22.2,60.9,1016.22,-29.13,-1.31,1.23,16.4,36.2,25.4,0,no_anomaly,0.0,0,0,0,0,28.6139113,77.2090042,5.0,0.0
2024-05-02T16:06:01.500Z,MISSION_0031,15,0,takeoff,SITE_DEL_002,28.6139099,77.2089997,5.0,284.95,0.0,0.143,1.1,1.6837,-1.528,284.9509,-0.79306,-0.00353,0.01952,0.60883,-0.1844,0.0242,-9.7973,-0.957,0.755,0.0052,0.2845,3,17,0.62,0.93,0.22,24.717,17.72,95.5,31.5,21016.0,8056,7601,7492,7521,47.6,46.2,47.2,47.4,2.67,2.896,2.802,2.903,5.51,205.7,22.1,61.0,1016.03,-30.09,0.5,1.23,15.5,36.1,26.1,0,no_anomaly,0.0,0,0,0,0,28.6139099,77.2089997,5.0,0.0
2024-05-02T16:06:01.600Z,MISSION_0031,16,0,takeoff,SITE_DEL_002,28.6139091,77.2090026,5.0,285.44,0.258,0.102,1.05,-0.8405,-0.0495,285.4446,-0.79569,0.0061,-0.0041,0.60566,0.0608,0.0798,-9.7977,0.4014,-0.1098,0.1988,0.188,3,15,0.64,1.13,0.2,24.734,17.68,95.4,31.1,20995.0,7701,7889,7735,7805,45.6,51.2,47.8,45.8,2.835,2.833,2.711,2.913,5.51,203.0,22.4,61.9,1016.53,-36.24,-0.91,2.03,15.8,35.1,25.2,0,no_anomaly,0.0,0,0,0,0,28.6139091,77.2090026,5.0,0.0
2024-05-02T16:06:01.700Z,MISSION_0031,17,0,takeoff,SITE_DEL_002,28.6139087,77.2090039,5.0,286.0,0.0,0.126,1.06,-0.5423,-2.813,286.0013,-0.79832,0.01855,0.01676,0.60171,0.0786,-0.0542,-9.9115,0.403,0.2386,-0.3886,0.3433,3,18,0.55,1.08,0.22,24.678,19.69,95.3,30.7,20974.0,7892,7422,7467,7479,48.4,50.8,47.3,49.8,2.807,2.643,2.447,2.718,5.48,204.6,22.3,60.7,1016.24,-31.49,0.95,1.2,19.2,28.7,26.9,0,no_anomaly,0.0,0,0,0,0,28.6139087,77.2090039,5.0,0.0
2024-05-02T16:06:01.800Z,MISSION_0031,18,0,takeoff,SITE_DEL_002,28.6139086,77.2090066,5.0,284.08,0.135,0.094,1.2,-1.8858,-0.6678,284.0793,-0.78826,0.01656,-0.00553,0.6151,0.0674,0.052,-9.7381,-0.4369,0.0136,0.1206,0.2526,3,11,0.76,1.17,0.28,24.63,17.21,95.2,30.8,20952.0,7835,7598,7872,7791,47.0,45.8,43.0,49.7,2.82,2.65,2.901,2.771,5.2,198.2,22.1,60.8,1016.09,-29.78,-2.43,1.88,16.1,30.0,25.4,0,no_anomaly,0.0,0,0,0,0,28.6139086,77.2090066,5.0,0.0
2024-05-02T16:06:01.900Z,MISSION_0031,19,0,takeoff,SITE_DEL_002,28.6139061,77.2090039,5.0,279.43,0.038,0.21,0.81,4.0503,-1.1578,279.4251,-0.76253,-0.02043,0.03055,0.64591,0.2543,0.1026,-9.7271,0.7778,-1.246,-0.1685,0.1656,3,13,0.58,1.01,0.26,24.631,20.5,95.1,30.8,20931.0,7918,7633,7924,7511,47.3,45.0,47.6,47.4,2.633,2.835,2.994,2.947,5.29,202.3,22.1,60.4,1016.21,-24.28,-0.14,1.4,18.7,37.1,27.5,0,no_anomaly,0.0,0,0,0,0,28.6139061,77.2090039,5.0,0.0
2024-05-02T16:06:02.000Z,MISSION_0031,20,0,takeoff,SITE_DEL_002,28.6139035,77.2090107,5.0,277.34,0.0,0.037,1.26,-0.9221,1.0032,277.3418,-0.75092,0.00026,-0.01189,0.66028,-0.0554,0.0448,-9.8045,0.3179,0.0497,0.5959,0.2481,3,18,0.64,0.67,0.2,24.595,20.24,95.0,28.8,20910.0,7454,7963,7896,7590,45.6,49.7,45.7,50.8,2.852,2.897,2.93,2.788,5.63,202.8,22.2,61.2,1015.85,-30.35,0.29,1.03,19.8,28.0,25.6,0,no_anomaly,0.0,0,0,0,0,28.6139035,77.2090107,5.0,0.0
2024-05-02T16:06:02.100Z,MISSION_0031,21,0,takeoff,SITE_DEL_002,28.6138958,77.2090061,5.0,275.07,0.383,0.053,0.83,1.5164,-1.0773,275.0684,-0.73767,-0.00341,0.01587,0.67497,0.0517,0.0706,-9.7763,0.5319,-0.6859,0.0147,0.2723,3,16,0.62,0.63,0.2,24.61,21.89,94.9,30.5,20889.0,7629,7593,7834,7800,45.1,48.4,50.8,48.1,2.722,2.895,3.218,2.861,5.03,209.9,22.1,61.2,1015.96,-31.0,-0.65,1.81,19.6,33.3,22.1,0,no_anomaly,0.0,0,0,0,0,28.6138958,77.2090061,5.0,0.0
2024-05-02T16:06:02.200Z,MISSION_0031,22,0,takeoff,SITE_DEL_002,28.6138993,77.2090008,5.0,275.75,0.311,0.021,0.12,7.3586,0.0943,275.7473,-0.7401,-0.04815,0.04244,0.66942,0.1663,0.0006,-9.7948,-0.3307,0.2104,0.3428,0.2439,3,20,0.71,0.68,0.52,24.704,15.01,94.9,29.9,20868.0,7883,7587,7882,7916,49.1,46.0,48.7,46.0,2.515,2.793,2.863,2.58,5.34,202.1,22.0,61.3,1016.31,-27.03,-1.18,1.52,16.6,35.2,26.1,0,no_anomaly,0.0,0,0,0,0,28.6138993,77.2090008,5.0,0.0
2024-05-02T16:06:02.300Z,MISSION_0031,23,0,takeoff,SITE_DEL_002,28.6139006,77.2090028,5.0,275.05,0.348,0.118,0.31,0.4421,0.621,275.0507,-0.73755,-0.0065,-0.00139,0.67526,0.0606,-0.0841,-9.8552,-0.4184,-0.1622,0.2893,0.269,3,12,0.75,0.94,0.41,24.671,18.03,94.8,30.9,20846.0,7311,7798,7633,7636,48.8,50.0,44.2,45.6,2.735,3.054,2.502,2.842,4.83,201.3,22.3,60.0,1016.12,-27.84,1.6,1.92,19.4,31.0,24.8,0,no_anomaly,0.0,0,0,0,0,28.6139006,77.2090028,5.0,0.0
2024-05-02T16:06:02.400Z,MISSION_0031,24,0,takeoff,SITE_DEL_002,28.6138998,77.2090054,5.0,273.93,0.013,0.07,0.61,1.6912,-1.5393,273.9254,-0.7309,-0.00162,0.01989,0.68219,-0.0734,0.0269,-9.8209,0.6812,-0.067,-0.0987,0.2421,3,12,0.75,0.94,0.39,24.565,14.35,94.7,30.1,20825.0,7856,7969,7879,7682,45.7,46.3,47.5,45.5,2.749,2.584,2.753,2.714,5.79,200.0,22.5,60.6,1016.03,-27.92,-0.06,1.43,14.6,32.3,23.3,0,no_anomaly,0.0,0,0,0,0,28.6138998,77.2090054,5.0,0.0
2024-05-02T16:06:02.500Z,MISSION_0031,25,0,takeoff,SITE_DEL_002,28.6139015,77.2090006,5.0,274.0,0.0,0.213,0.19,-0.3942,-0.7695,273.9953,-0.73129,0.0071,0.00256,0.68203,0.0901,0.0801,-9.7922,0.2483,-0.4483,-0.1977,0.235,3,17,0.68,0.93,0.27,24.739,15.81,94.6,29.6,20804.0,7938,7850,7587,7633,51.2,49.0,47.3,48.5,2.797,2.735,2.832,2.724,4.82,201.2,22.3,61.8,1016.28,-26.72,-2.25,1.0,15.4,30.1,22.1,0,no_anomaly,0.0,0,0,0,0,28.6139015,77.2090006,5.0,0.0
2024-05-02T16:06:02.600Z,MISSION_0031,26,0,takeoff,SITE_DEL_002,28.613898,77.2090026,5.0,277.19,0.456,0.075,0.36,-1.2658,-1.6757,277.1926,-0.74984,0.01795,0.00366,0.66137,0.242,0.037,-9.8336,-0.0646,0.3105,0.2169,0.2245,3,14,0.56,1.19,0.21,24.686,17.43,94.5,30.8,20783.0,7618,7866,7620,7799,47.3,48.9,46.0,50.5,2.669,2.521,2.808,2.971,6.2,207.3,22.4,61.4,1016.15,-30.96,-0.19,1.66,19.0,37.7,26.4,0,no_anomaly,0.0,0,0,0,0,28.613898,77.2090026,5.0,0.0
2024-05-02T16:06:02.700Z,MISSION_0031,27,0,takeoff,SITE_DEL_002,28.6138978,77.2090007,5.0,275.34,1.053,0.154,0.25,-0.6925,-3.9207,275.3384,-0.73868,0.0275,0.02122,0.67316,-0.0318,-0.0526,-9.8359,-0.379,-0.2139,0.1019,0.1812,3,18,0.69,0.74,0.2,24.617,17.24,94.4,30.5,20762.0,7728,7531,7598,7686,44.5,48.4,48.1,48.3,2.802,2.986,2.655,3.045,6.1,216.4,22.4,61.3,1016.24,-28.96,-1.38,1.59,13.4,31.6,23.5,0,no_anomaly,0.0,0,0,0,0,28.6138978,77.2090007,5.0,0.0
2024-05-02T16:06:02.800Z,MISSION_0031,28,0,takeoff,SITE_DEL_002,28.6139021,77.2090002,5.0,275.18,0.865,0.166,0.24,1.9849,-2.6461,275.1817,-0.73831,0.00278,0.02872,0.67384,-0.0277,-0.0387,-9.7522,-0.5377,-1.6832,-0.1182,0.2937,3,15,0.8,0.77,0.35,24.63,17.15,94.3,29.3,20741.0,7593,7606,7529,7744,47.6,46.9,50.1,48.4,3.047,2.722,2.385,2.949,5.09,210.9,22.6,60.9,1016.16,-27.38,-0.72,1.29,18.2,28.7,25.7,0,no_anomaly,0.0,0,0,0,0,28.6139021,77.2090002,5.0,0.0
2024-05-02T16:06:02.900Z,MISSION_0031,29,0,takeoff,SITE_DEL_002,28.6139018,77.2089955,5.0,276.15,0.931,0.11,0.54,-0.9326,0.7135,276.1459,-0.74399,0.00189,-0.01007,0.66811,0.1834,-0.0113,-9.8382,-0.3787,0.8702,0.1715,0.1724,3,13,0.65,0.95,0.2,24.713,17.55,94.2,29.6,20719.0,7691,7609,7697,7652,46.5,44.5,45.8,44.4,3.051,2.764,3.077,2.949,6.38,207.4,22.4,60.7,1016.48,-28.55,0.7,1.88,17.4,27.2,22.1,0,no_anomaly,0.0,0,0,0,0,28.6139018,77.2089955,5.0,0.0
2024-05-02T16:06:03.000Z,MISSION_0031,30,0,takeoff,SITE_DEL_002,28.6139037,77.2089962,5.0,278.28,0.906,0.123,0.59,7.6133,-2.6537,278.2825,-0.75546,-0.03508,0.0609,0.65142,-0.1745,-0.0471,-9.8638,-0.249,0.8909,-0.1908,0.2272,3,16,0.63,1.3,0.22,24.696,17.1,94.1,30.3,20698.0,7743,7663,7938,7724,46.1,47.2,51.1,49.4,3.044,2.798,2.798,2.961,5.65,205.7,22.5,61.3,1016.7,-31.51,-1.27,1.42,13.4,30.5,21.2,0,no_anomaly,0.0,0,0,0,0,28.6139037,77.2089962,5.0,0.0
2024-05-02T16:06:03.100Z,MISSION_0031,31,0,takeoff,SITE_DEL_002,28.6138998,77.2089959,5.0,277.69,1.041,0.06,0.46,2.1277,-2.6659,277.6868,-0.75286,0.00133,0.02973,0.6575,-0.1868,-0.0645,-9.7315,-0.1057,0.1266,0.1415,0.1474,3,12,0.74,0.89,0.29,24.705,28.22,94.0,30.1,20677.0,7894,7782,7742,7579,49.9,46.1,46.5,44.9,2.749,2.833,3.106,2.887,6.21,203.6,22.2,61.5,1016.09,-34.52,0.33,1.28,18.2,33.9,25.5,0,no_anomaly,0.0,0,0,0,0,28.6138998,77.2089959,5.0,0.0
2024-05-02T16:06:03.200Z,MISSION_0031,32,0,takeoff,SITE_DEL_002,28.6138997,77.2089914,5.0,280.91,0.815,0.052,0.96,0.2242,-3.4044,280.9147,-0.77085,0.0174,0.02415,0.63633,0.384,-0.0145,-9.8775,0.152,0.8309,-0.6533,0.2062,3,20,0.75,0.82,0.42,24.622,17.49,93.9,29.5,20656.0,7722,7865,7761,7766,46.8,49.4,46.5,45.6,2.774,2.744,2.625,2.896,5.59,208.2,22.0,61.2,1016.12,-35.15,0.48,1.34,15.5,32.5,24.3,0,no_anomaly,0.0,0,0,0,0,28.6138997,77.2089914,5.0,0.0
2024-05-02T16:06:03.300Z,MISSION_0031,33,0,takeoff,SITE_DEL_002,28.613902,77.2089912,5.0,278.61,0.852,0.076,1.0,-0.688,-1.4232,278.6135,-0.75809,0.01265,0.0055,0.652,0.0239,0.0923,-9.7226,-0.5213,0.4135,0.0037,0.2964,3,11,0.7,1.05,0.38,24.567,18.71,93.8,30.1,20635.0,7696,7840,7673,7504,49.1,41.2,50.3,46.5,2.739,2.562,2.751,3.082,5.78,203.9,22.2,61.1,1016.07,-24.78,0.49,1.82,17.6,34.0,23.9,0,no_anomaly,0.0,0,0,0,0,28.613902,77.2089912,5.0,0.0
2024-05-02T16:06:03.400Z,MISSION_0031,34,0,takeoff,SITE_DEL_002,28.6138973,77.2089867,5.0,274.58,1.165,0.157,1.51,-2.1528,-0.4478,274.5827,-0.73463,0.01645,-0.00987,0.6782,0.0102,0.048,-9.8278,-0.6609,-0.9706,0.2814,0.2482,3,19,0.63,0.78,0.28,24.661,22.28,93.7,30.6,20613.0,7695,7667,7671,7791,44.7,47.7,46.5,51.0,2.631,2.894,2.831,2.494,5.53,210.1,22.5,61.4,1016.43,-32.58,-0.58,1.48,14.4,29.5,25.5,0,no_anomaly,0.0,0,0,0,0,28.6138973,77.2089867,5.0,0.0
2024-05-02T16:06:03.500Z,MISSION_0031,35,0,takeoff,SITE_DEL_002,28.6138962,77.2089919,5.0,271.26,1.169,0.142,0.99,1.9733,-2.8575,271.2578,-0.7148,0.00513,0.02986,0.69868,-0.2369,0.0871,-9.7172,0.3399,-0.6942,-0.2156,0.3379,3,11,0.78,0.91,0.29,24.664,18.38,93.6,30.6,20592.0,7679,7861,7655,7660,49.4,47.3,48.6,48.0,2.534,2.944,2.996,2.735,4.82,199.2,22.2,60.5,1016.13,-32.93,-0.74,1.51,18.1,30.3,24.6,0,no_anomaly,0.0,0,0,0,0,28.6138962,77.2089919,5.0,0.0
2024-05-02T16:06:03.600Z,MISSION_0031,36,0,takeoff,SITE_DEL_002,28.613896,77.2089959,5.0,272.54,1.608,0.149,0.63,-0.304,-3.8048,272.5422,-0.72216,0.02486,0.02216,0.69093,0.1207,-0.0293,-9.7998,0.7783,-0.7417,-0.1964,0.2943,3,14,0.67,0.97,0.2,24.65,20.96,93.5,31.3,20571.0,7696,7890,7443,7879,48.1,49.1,48.1,46.5,2.684,2.858,2.942,2.895,6.45,209.5,22.2,60.8,1016.15,-23.9,1.29,1.36,19.1,33.0,23.9,0,no_anomaly,0.0,0,0,0,0,28.613896,77.2089959,5.0,0.0
2024-05-02T16:06:03.700Z,MISSION_0031,37,0,takeoff,SITE_DEL_002,28.6138998,77.2090013,5.0,276.19,1.426,0.131,0.15,0.3301,-1.0098,276.1853,-0.74421,0.00374,0.00848,0.66788,0.0737,-0.0173,-9.8653,-0.4627,-0.2739,-0.3117,0.1387,3,10,0.73,0.87,0.23,24.535,21.08,93.4,30.2,20550.0,7556,7626,7709,7631,45.8,46.2,48.9,47.1,2.942,2.639,2.767,2.808,5.61,215.1,22.5,61.5,1016.11,-29.62,1.09,1.0,17.9,30.1,25.3,0,no_anomaly,0.0,0,0,0,0,28.6138998,77.2090013,5.0,0.0
2024-05-02T16:06:03.800Z,MISSION_0031,38,0,takeoff,SITE_DEL_002,28.6139039,77.2090044,5.0,274.86,1.847,0.051,0.66,-0.5553,-0.0959,274.8589,-0.73643,0.00414,-0.00266,0.67649,0.0392,-0.0604,-9.7725,0.7741,0.5417,0.0201,0.2536,3,18,0.84,0.81,0.41,24.572,19.08,93.3,30.4,20529.0,7713,7733,7757,7694,52.4,45.6,50.1,47.5,2.569,2.705,3.054,2.859,4.31,209.4,22.2,61.2,1016.12,-24.48,-0.19,1.65,13.8,34.6,25.1,0,no_anomaly,0.0,0,0,0,0,28.6139039,77.2090044,5.0,0.0
2024-05-02T16:06:03.900Z,MISSION_0031,39,0,takeoff,SITE_DEL_002,28.6139018,77.209002,5.0,275.5,2.145,0.088,0.3,-2.6106,-1.6343,275.5036,-0.73975,0.02645,-0.00476,0.67234,0.0725,0.0103,-9.7865,-0.2351,-0.5719,0.3505,0.2102,3,17,0.77,0.91,0.5,24.631,19.26,93.2,30.6,20508.0,7887,7755,7883,7815,45.8,50.1,48.2,49.8,2.901,2.743,3.082,2.84,5.3,198.0,22.3,61.6,1016.69,-25.49,0.07,1.33,15.6,30.9,26.7,0,no_anomaly,0.0,0,0,0,0,28.6139018,77.209002,5.0,0.0
2024-05-02T16:06:04.000Z,MISSION_0031,40,0,takeoff,SITE_DEL_002,28.6139033,77.2090007,5.0,274.93,1.87,0.123,0.37,9.3368,-0.9269,274.9271,-0.73482,-0.05452,0.06096,0.67331,-0.0809,-0.0555,-9.7821,0.1035,0.0765,0.0667,0.2237,3,19,0.72,1.14,0.2,24.709,24.61,93.1,30.8,20486.0,7597,7828,7584,7597,48.9,47.9,49.6,45.7,2.764,2.774,2.399,2.687,6.22,197.4,22.0,60.8,1016.23,-33.18,0.65,1.77,16.3,27.3,26.8,0,no_anomaly,0.0,0,0,0,0,28.6139033,77.2090007,5.0,0.0
2024-05-02T16:06:04.100Z,MISSION_0031,41,0,takeoff,SITE_DEL_002,28.6139047,77.2090003,5.0,275.73,2.299,0.118,0.52,-7.5448,-0.7856,275.7335,-0.73966,0.05338,-0.03906,0.66972,-0.2511,0.0013,-9.7336,-0.1676,0.6535,-0.0103,0.1512,3,10,0.72,0.85,0.34,24.598,22.98,93.0,29.6,20465.0,7775,7828,7542,7670,47.4,45.3,47.0,49.5,3.09,2.875,2.487,3.0,6.28,203.8,22.2,60.7,1016.1,-31.49,-0.34,1.32,14.3,29.1,25.8,0,no_anomaly,0.0,0,0,0,0,28.6139047,77.2090003,5.0,0.0
2024-05-02T16:06:04.200Z,MISSION_0031,42,0,takeoff,SITE_DEL_002,28.613905,77.2089961,5.0,277.28,1.68,-0.001,0.71,5.8065,-3.0868,277.2838,-0.75026,-0.02023,0.05365,0.65865,0.13,-0.0563,-9.8812,1.2088,0.1094,0.4648,0.1531,3,16,0.69,0.97,0.23,24.673,18.72,92.9,30.0,20444.0,7733,7805,7725,7611,48.2,46.9,48.7,45.1,2.63,2.918,2.625,2.848,5.24,211.8,22.3,60.3,1016.41,-29.16,0.5,1.62,20.0,34.8,25.8,0,no_anomaly,0.0,0,0,0,0,28.613905,77.2089961,5.0,0.0
2024-05-02T16:06:04.300Z,MISSION_0031,43,0,takeoff,SITE_DEL_002,28.6139059,77.2089981,5.0,276.39,1.965,0.18,0.69,4.0337,-1.1945,276.3887,-0.74515,-0.01929,0.03122,0.66588,0.0152,-0.0731,-9.8339,-0.1091,0.0907,-0.2305,0.2374,3,12,0.74,0.78,0.27,24.467,13.37,92.8,29.1,20423.0,7834,7817,7561,7896,45.6,47.6,46.2,52.0,2.771,2.951,2.829,2.655,5.44,209.4,22.1,60.9,1015.91,-31.7,-1.67,1.49,16.0,34.1,25.4,0,no_anomaly,0.0,0,0,0,0,28.6139059,77.2089981,5.0,0.0
2024-05-02T16:06:04.400Z,MISSION_0031,44,0,takeoff,SITE_DEL_002,28.6139079,77.2089965,5.0,277.41,2.033,0.059,0.97,4.9007,-2.8613,277.4085,-0.7511,-0.01565,0.04695,0.65833,-0.1554,-0.0958,-9.7983,-0.69,-0.5046,-0.0561,0.1763,3,13,0.64,0.98,0.3,24.634,21.46,92.7,30.4,20402.0,7540,7962,7712,7552,48.7,51.0,46.3,45.4,2.652,2.95,2.821,2.634,6.0,204.0,22.5,60.5,1016.37,-29.6,0.46,1.2,15.9,34.6,23.8,0,no_anomaly,0.0,0,0,0,0,28.6139079,77.2089965,5.0,0.0
2024-05-02T16:06:04.500Z,MISSION_0031,45,0,takeoff,SITE_DEL_002,28.6139059,77.2090013,5.0,278.15,2.085,0.04,0.67,7.1963,-2.7209,278.148,-0.75483,-0.03188,0.059,0.65248,0.1655,-0.0132,-9.7928,-0.0447,-0.1741,-0.5225,0.265,3,15,0.71,0.99,0.22,24.545,18.85,92.6,30.8,20380.0,7464,7553,7944,7477,43.3,49.3,48.2,46.9,2.747,2.782,2.684,2.842,6.16,208.6,22.0,60.5,1016.0,-31.43,-0.69,1.33,14.4,27.5,24.3,0,no_anomaly,0.0,0,0,0,0,28.6139059,77.2090013,5.0,0.0
2024-05-02T16:06:04.600Z,MISSION_0031,46,0,takeoff,SITE_DEL_002,28.6139086,77.2089982,5.0,276.42,2.513,0.089,0.98,7.2117,-1.0361,276.4181,-0.74445,-0.04088,0.04864,0.66464,-0.0817,-0.0119,-9.8044,-0.0959,-0.1753,-0.3144,0.3503,3,15,0.68,0.95,0.2,24.569,20.64,92.5,30.2,20359.0,7773,7871,7571,7646,48.1,46.1,47.6,49.6,2.862,2.992,3.147,2.74,5.51,209.2,22.1,61.3,1016.64,-32.33,0.69,1.46,19.4,36.0,24.3,0,no_anomaly,0.0,0,0,0,0,28.6139086,77.2089982,5.0,0.0
2024-05-02T16:06:04.700Z,MISSION_0031,47,0,takeoff,SITE_DEL_002,28.6139113,77.2089947,5.0,275.75,2.398,0.112,1.39,1.1929,-1.7815,275.7518,-0.74167,0.00271,0.01851,0.6705,-0.0917,-0.0407,-9.7675,0.0847,-0.0879,0.5295,0.2684,3,11,0.66,0.78,0.35,24.579,19.05,92.4,30.6,20338.0,7582,7775,7312,7570,46.9,48.7,45.9,46.5,2.818,2.543,2.794,2.636,5.78,204.8,22.7,60.8,1016.02,-28.05,1.97,1.27,15.9,32.6,24.8,0,no_anomaly,0.0,0,0,0,0,28.6139113,77.2089947,5.0,0.0
2024-05-02T16:06:04.800Z,MISSION_0031,48,0,takeoff,SITE_DEL_002,28.6139148,77.2090015,5.0,274.51,2.247,0.072,1.66,2.1592,-3.1157,274.5082,-0.73432,0.00462,0.03275,0.678,-0.1419,0.0365,-9.8593,0.1755,-0.0046,0.2081,0.209,3,20,0.91,0.92,0.42,24.595,20.66,92.3,29.9,20317.0,7720,7510,7675,7912,47.6,48.0,45.7,47.0,2.929,2.707,2.832,2.711,6.12,203.0,22.4,60.5,1016.25,-27.84,-0.02,1.04,20.0,27.5,24.0,0,no_anomaly,0.0,0,0,0,0,28.6139148,77.2090015,5.0,0.0
2024-05-02T16:06:04.900Z,MISSION_0031,49,0,takeoff,SITE_DEL_002,28.6139185,77.2090047,5.0,272.86,2.635,0.148,2.12,7.7528,-2.4363,272.8612,-0.72371,-0.03435,0.06195,0.68646,0.3512,0.0003,-9.8449,0.2936,0.5113,0.0718,0.164,3,12,0.9,0.98,0.36,24.633,19.56,92.3,29.6,20296.0,7699,7519,7527,7628,43.9,46.8,51.3,47.5,2.997,2.653,2.686,2.61,6.22,200.2,22.2,61.3,1016.21,-28.22,-1.02,1.67,15.1,35.6,23.9,0,no_anomaly,0.0,0,0,0,0,28.6139185,77.2090047,5.0,0.0
2024-05-02T16:06:05.000Z,MISSION_0031,50,0,transit,SITE_DEL_002,28.6139165,77.2090045,5.5,273.5,2.935,0.144,1.9,-0.016,-4.0746,273.4971,-0.72789,0.02446,0.0258,0.68477,-0.0364,-0.0911,-9.7246,-0.2496,0.3425,-0.661,0.2195,3,14,0.56,0.97,0.24,24.58,24.03,92.2,31.1,20275.0,7908,7552,7874,7683,47.5,43.9,45.1,45.4,2.841,2.614,2.765,2.694,5.45,211.4,22.3,61.3,1015.99,-33.73,1.02,1.65,17.3,33.8,26.4,0,no_anomaly,0.0,0,0,0,0,28.6139165,77.2090045,5.5,0.0
2024-05-02T16:06:05.100Z,MISSION_0031,51,0,transit,SITE_DEL_002,28.6139161,77.2089947,6.0,275.2,2.401,0.038,1.89,-1.7387,-2.5812,275.1969,-0.73793,0.02639,0.0064,0.67433,-0.1192,-0.0023,-9.7604,-0.4409,-0.2143,-0.0208,0.1442,3,14,0.51,0.95,0.26,24.581,15.58,92.1,31.5,20253.0,7667,7465,7456,7874,47.9,47.8,47.2,47.0,2.735,2.9,2.805,3.055,4.91,209.9,22.5,61.3,1016.11,-29.12,0.32,1.0,17.4,30.8,24.4,0,no_anomaly,0.0,0,0,0,0,28.6139161,77.2089947,6.0,0.0
2024-05-02T16:06:05.200Z,MISSION_0031,52,0,transit,SITE_DEL_002,28.6139158,77.2089925,6.5,273.02,1.927,0.057,1.94,-3.3164,-1.7873,273.0222,-0.72481,0.03172,-0.0086,0.68817,0.0776,-0.0219,-9.7667,-0.3443,0.0156,0.0335,0.128,3,19,0.76,1.0,0.28,24.693,14.98,92.0,29.9,20232.0,7842,7517,7693,7671,47.3,48.1,45.7,46.5,2.94,2.711,2.961,2.716,4.94,205.2,22.0,60.5,1016.17,-30.87,2.57,1.05,14.6,28.6,22.8,0,no_anomaly,0.0,0,0,0,0,28.6139158,77.2089925,6.5,0.0
2024-05-02T16:06:05.300Z,MISSION_0031,53,0,transit,SITE_DEL_002,28.6139129,77.2089856,7.0,273.64,2.147,0.047,2.15,1.7827,-4.63,273.6387,-0.72895,0.0163,0.04009,0.6832,-0.311,-0.0155,-9.769,-0.2187,-0.2021,0.0892,0.1395,3,10,0.69,0.85,0.46,24.655,14.48,91.9,30.8,20211.0,7742,7633,8073,7751,50.7,48.0,48.2,49.6,2.667,2.586,2.789,2.932,5.56,205.5,22.3,62.0,1016.04,-31.04,1.03,1.56,18.8,29.1,22.7,0,no_anomaly,0.0,0,0,0,0,28.6139129,77.2089856,7.0,0.0
2024-05-02T16:06:05.400Z,MISSION_0031,54,0,transit,SITE_DEL_002,28.613916,77.2089819,7.5,270.2,2.243,0.119,2.69,2.7603,0.1051,270.1962,-0.7081,-0.01771,0.01635,0.70571,-0.1931,-0.0509,-9.8018,0.9277,-0.2651,0.3494,0.2368,3,11,0.66,0.64,0.21,24.59,15.25,91.8,29.6,20190.0,7973,7550,7657,8171,47.2,45.8,51.9,46.4,2.961,2.76,2.518,2.8,5.35,213.0,22.7,61.6,1016.17,-26.15,-0.87,1.67,19.0,32.5,23.4,0,no_anomaly,0.0,0,0,0,0,28.613916,77.2089819,7.5,0.0
2024-05-02T16:06:05.500Z,MISSION_0031,55,0,transit,SITE_DEL_002,28.613915,77.2089784,8.0,270.73,2.066,0.042,2.92,1.4314,-1.8128,270.7256,-0.71156,0.00223,0.02003,0.70233,0.0264,0.0012,-9.8454,0.2459,0.3382,-0.3855,0.1653,3,17,0.73,0.83,0.24,24.607,18.03,91.7,30.3,20169.0,7858,7632,7655,7805,45.0,48.0,46.1,50.5,2.917,3.067,2.904,3.01,6.32,213.5,22.3,61.4,1016.19,-30.03,0.71,1.29,16.4,31.3,25.0,0,no_anomaly,0.0,0,0,0,0,28.613915,77.2089784,8.0,0.0
2024-05-02T16:06:05.600Z,MISSION_0031,56,0,transit,SITE_DEL_002,28.6139132,77.2089806,8.5,269.5,2.12,0.133,2.61,1.2096,-7.1168,269.5046,-0.70311,0.03666,0.05118,0.70829,0.0829,0.0441,-9.8577,0.8259,-0.0481,-0.1434,0.2167,3,20,0.81,0.79,0.28,24.619,23.8,91.6,30.3,20147.0,7614,7608,7583,7628,48.0,48.7,45.8,46.7,2.689,2.889,2.817,2.588,6.23,218.7,22.5,61.9,1016.17,-33.91,-0.82,1.58,18.8,34.1,24.9,0,no_anomaly,0.0,0,0,0,0,28.6139132,77.2089806,8.5,0.0
2024-05-02T16:06:05.700Z,MISSION_0031,57,0,transit,SITE_DEL_002,28.6139122,77.2089851,9.0,270.31,1.892,0.095,2.14,-1.4966,-0.2186,270.3136,-0.70896,0.0106,-0.00786,0.70513,0.0229,0.0329,-9.7845,-0.4197,0.5345,0.0169,0.1846,3,20,0.72,1.27,0.4,24.522,15.58,91.5,29.6,20126.0,7696,7784,7904,7645,49.2,46.3,45.3,52.3,2.807,2.669,2.763,2.94,6.19,207.9,22.4,60.9,1016.27,-35.15,0.44,1.37,17.6,35.9,24.4,0,no_anomaly,0.0,0,0,0,0,28.6139122,77.2089851,9.0,0.0
2024-05-02T16:06:05.800Z,MISSION_0031,58,0,transit,SITE_DEL_002,28.6139147,77.2089851,9.5,272.17,1.731,0.089,2.32,4.036,-2.0448,272.1744,-0.72027,-0.013,0.03727,0.69257,-0.1427,0.03,-9.7592,0.1238,0.27,-0.7204,0.255,3,13,0.95,0.8,0.39,24.66,17.2,91.4,29.3,20105.0,7979,7862,7932,7982,48.2,47.6,46.3,44.0,2.795,2.912,2.636,2.838,6.56,216.7,22.6,60.7,1015.99,-33.54,-1.67,1.55,20.4,34.7,27.7,0,no_anomaly,0.0,0,0,0,0,28.6139147,77.2089851,9.5,0.0
2024-05-02T16:06:05.900Z,MISSION_0031,59,0,transit,SITE_DEL_002,28.613914,77.2089809,10.0,272.51,2.054,0.09,2.64,-2.5936,-0.7756,272.5128,-0.72213,0.02103,-0.01076,0.69135,0.0197,0.0033,-9.7646,-0.6207,0.9845,-0.5226,0.2377,3,16,0.5,0.9,0.2,24.614,20.96,91.3,31.0,20084.0,7632,8028,7499,7615,48.8,48.8,45.9,43.7,3.016,2.534,2.769,2.698,5.6,208.4,22.5,61.0,1016.44,-22.55,-0.58,1.24,14.3,30.9,21.5,0,no_anomaly,0.0,0,0,0,0,28.613914,77.2089809,10.0,0.0
2024-05-02T16:06:06.000Z,MISSION_0031,60,0,transit,SITE_DEL_002,28.6139094,77.2089824,10.5,272.68,1.604,0.114,2.22,-0.3597,-1.291,272.6755,-0.72335,0.01005,0.00598,0.69038,0.0787,0.0043,-9.8298,-0.2938,-0.3658,-0.3616,0.2606,3,18,0.83,0.81,0.42,24.526,17.24,91.2,30.1,20063.0,7770,7824,7543,8012,46.8,50.9,48.2,49.0,3.003,2.988,3.04,2.718,5.6,212.4,22.1,60.7,1015.96,-33.36,-1.15,1.41,19.6,37.5,25.1,0,no_anomaly,0.0,0,0,0,0,28.6139094,77.2089824,10.5,0.0
2024-05-02T16:06:06.100Z,MISSION_0031,61,0,transit,SITE_DEL_002,28.6139093,77.2089818,11.0,274.28,1.022,0.159,2.28,-4.4575,-3.4464,274.2788,-0.73133,0.04893,-0.00442,0.68025,-0.049,0.0125,-9.8059,-0.4451,-0.1659,-0.5055,0.3026,3,11,0.65,0.86,0.24,24.59,9.74,91.1,30.9,20042.0,7573,7774,7757,7721,43.6,51.6,44.0,44.7,2.705,2.746,2.832,2.739,5.84,206.3,22.3,60.6,1016.41,-32.65,-0.27,1.73,16.9,34.4,23.0,0,no_anomaly,0.0,0,0,0,0,28.6139093,77.2089818,11.0,0.0
2024-05-02T16:06:06.200Z,MISSION_0031,62,0,transit,SITE_DEL_002,28.6139102,77.2089817,11.5,273.85,1.095,-0.008,2.33,-5.3614,-2.1837,273.8511,-0.72893,0.04716,-0.01803,0.68273,-0.0389,0.0053,-9.8632,-0.0689,0.5793,-0.0977,0.1487,3,20,0.82,0.97,0.46,24.554,18.92,91.0,30.3,20020.0,8165,7891,7793,7548,47.3,47.0,46.7,43.0,2.589,2.579,2.856,2.963,5.48,208.4,22.5,60.9,1016.2,-26.81,-0.98,1.85,19.6,38.5,28.6,0,no_anomaly,0.0,0,0,0,0,28.6139102,77.2089817,11.5,0.0
2024-05-02T16:06:06.300Z,MISSION_0031,63,0,transit,SITE_DEL_002,28.6139131,77.2089805,12.0,273.99,1.355,0.05,2.61,-2.171,-3.1655,273.9937,-0.73055,0.03268,0.00728,0.68204,0.0531,0.0356,-9.849,0.5692,0.5258,0.1073,0.1872,3,17,0.79,1.02,0.4,24.513,18.17,90.9,31.3,19999.0,7648,7500,7844,7817,45.7,49.3,47.5,47.9,2.797,2.677,2.491,2.876,5.19,202.2,21.9,61.1,1016.49,-30.37,-0.76,1.9,15.0,32.1,23.4,0,no_anomaly,0.0,0,0,0,0,28.6139131,77.2089805,12.0,0.0
2024-05-02T16:06:06.400Z,MISSION_0031,64,0,transit,SITE_DEL_002,28.6139144,77.2089826,12.5,273.81,1.525,0.084,2.52,-4.6674,-1.8178,273.8108,-0.72909,0.04056,-0.01624,0.68302,0.0356,0.0282,-9.7665,-0.7461,-0.4832,0.1069,0.2702,3,12,0.77,0.93,0.25,24.513,16.71,90.8,30.8,19978.0,7639,7810,7959,7660,48.1,44.9,49.2,49.8,2.61,2.719,2.934,2.702,4.79,206.5,22.1,61.9,1016.23,-33.1,0.13,1.0,15.4,29.8,24.0,0,no_anomaly,0.0,0,0,0,0,28.6139144,77.2089826,12.5,0.0
2024-05-02T16:06:06.500Z,MISSION_0031,65,0,transit,SITE_DEL_002,28.6139128,77.2089791,13.0,273.44,1.513,0.183,2.73,3.6558,-3.362,273.4421,-0.72798,-0.00311,0.0432,0.68423,0.1167,0.0459,-9.8033,1.1112,-0.6128,-0.1231,0.1768,3,11,0.69,0.88,0.4,24.639,16.37,90.7,30.4,19957.0,7794,7865,7614,7688,48.1,48.7,46.3,47.0,2.837,2.926,2.697,2.705,5.49,204.0,22.7,61.4,1016.05,-29.99,0.16,1.05,17.2,27.9,27.0,0,no_anomaly,0.0,0,0,0,0,28.6139128,77.2089791,13.0,0.0
2024-05-02T16:06:06.600Z,MISSION_0031,66,0,transit,SITE_DEL_002,28.6139171,77.2089795,13.5,274.77,1.586,0.114,2.97,5.8213,-3.899,274.7671,-0.7357,-0.01434,0.05936,0.67455,0.0283,-0.0419,-9.827,0.1008,-0.2205,-0.4724,0.2425,3,20,0.71,1.01,0.31,24.596,17.72,90.6,29.6,19936.0,7561,7700,7774,7603,48.0,46.6,48.3,49.9,2.666,2.765,2.889,3.036,5.4,198.4,22.4,60.9,1016.46,-30.97,0.47,1.27,18.2,27.3,23.8,0,no_anomaly,0.0,0,0,0,0,28.6139171,77.2089795,13.5,0.0
2024-05-02T16:06:06.700Z,MISSION_0031,67,0,transit,SITE_DEL_002,28.6139157,77.2089796,14.0,276.51,1.297,0.136,2.87,-2.3352,-1.6517,276.5054,-0.74566,0.0248,-0.00282,0.66586,-0.1986,0.0698,-9.78,-0.5205,0.1846,-0.3297,0.2021,3,10,0.8,0.84,0.35,24.527,18.32,90.5,30.5,19914.0,7654,7641,7832,7873,49.3,53.3,48.3,49.8,2.664,2.699,2.879,2.657,6.21,197.0,22.3,60.5,1016.26,-31.21,1.89,2.0,19.7,29.6,22.6,0,no_anomaly,0.0,0,0,0,0,28.6139157,77.2089796,14.0,0.0
2024-05-02T16:06:06.800Z,MISSION_0031,68,0,transit,SITE_DEL_002,28.613917,77.2089802,14.0,276.73,1.326,0.132,2.9,-0.0607,2.4301,276.7314,-0.74724,-0.01369,-0.0162,0.66422,-0.0426,-0.1078,-9.8362,-0.5879,-0.2598,-0.213,0.1636,3,11,0.65,0.69,0.35,24.47,17.88,90.4,30.3,19893.0,7902,8118,7844,7825,48.5,46.5,47.7,47.6,2.979,2.844,2.736,2.497,6.28,211.1,22.3,60.4,1016.34,-31.37,-1.09,1.41,18.7,29.7,26.9,0,no_anomaly,0.0,0,0,0,0,28.613917,77.2089802,14.0,0.0
2024-05-02T16:06:06.900Z,MISSION_0031,69,0,transit,SITE_DEL_002,28.6139171,77.2089824,14.0,277.45,1.139,0.162,2.73,3.4596,-4.2332,277.4477,-0.75142,0.00168,0.04764,0.6581,0.0742,0.0175,-9.7242,0.6339,0.246,0.1697,0.235,3,12,0.84,0.69,0.39,24.549,19.83,90.3,31.7,19872.0,8079,7792,7987,7913,44.2,42.5,47.8,50.4,2.706,2.952,3.107,2.592,6.3,206.3,22.4,61.3,1016.47,-30.33,-0.05,1.65,14.0,28.5,23.6,0,no_anomaly,0.0,0,0,0,0,28.6139171,77.2089824,14.0,0.0
2024-05-02T16:06:07.000Z,MISSION_0031,70,0,transit,SITE_DEL_002,28.6139162,77.2089833,14.0,277.48,1.572,0.138,2.59,-5.9544,-2.2413,277.4794,-0.74989,0.05192,-0.01956,0.65923,-0.5633,-0.0167,-9.9035,0.1354,-1.0902,0.0647,0.1944,3,14,0.74,0.94,0.36,24.562,17.01,90.2,30.6,19851.0,7742,8013,7861,7804,46.4,47.7,45.1,47.0,2.913,2.853,3.024,2.965,6.19,214.1,22.1,61.2,1015.97,-27.61,1.92,1.17,18.9,29.1,27.0,0,no_anomaly,0.0,0,0,0,0,28.6139162,77.2089833,14.0,0.0
2024-05-02T16:06:07.100Z,MISSION_0031,71,0,transit,SITE_DEL_002,28.6139159,77.2089809,14.0,277.27,1.939,0.101,2.77,-5.1636,-1.3806,277.2726,-0.74936,0.04176,-0.02073,0.66053,0.0549,-0.0472,-9.8432,0.4143,0.598,-0.1453,0.2118,3,13,0.7,1.08,0.34,24.523,20.57,90.1,31.2,19830.0,7493,7840,7631,7583,48.5,48.0,51.4,50.3,2.856,2.801,2.725,2.969,5.09,210.2,22.3,60.6,1015.76,-36.03,1.19,1.52,15.2,26.7,21.8,0,no_anomaly,0.0,0,0,0,0,28.6139159,77.2089809,14.0,0.0
2024-05-02T16:06:07.200Z,MISSION_0031,72,0,transit,SITE_DEL_002,28.6139145,77.208985,14.0,275.92,1.747,0.004,2.33,-2.1206,-0.9358,275.9202,-0.74243,0.01921,-0.00633,0.66962,-0.3471,0.0145,-9.7789,0.4762,0.799,0.1152,0.1903,3,12,0.5,0.76,0.2,24.484,18.63,90.0,30.0,19809.0,7618,7841,7614,7576,45.8,46.0,44.1,47.1,2.53,2.852,2.747,2.602,5.73,211.3,22.4,61.4,1016.16,-29.67,0.66,1.9,17.8,30.3,24.0,0,no_anomaly,0.0,0,0,0,0,28.6139145,77.208985,14.0,0.0
2024-05-02T16:06:07.300Z,MISSION_0031,73,0,transit,SITE_DEL_002,28.6139166,77.2089896,14.0,275.82,2.014,0.123,2.18,-0.5453,-0.347,275.8187,-0.74206,0.00556,-0.00094,0.67031,0.2667,0.0092,-9.8216,-0.4806,1.1674,-0.1917,0.1858,3,16,0.58,1.03,0.22,24.525,16.34,89.9,29.8,19787.0,8064,7820,7659,7732,47.9,51.8,45.2,46.1,3.068,2.583,2.629,2.684,5.46,215.8,22.0,60.8,1016.41,-33.2,-0.24,1.87,16.1,35.9,25.1,0,no_anomaly,0.0,0,0,0,0,28.6139166,77.2089896,14.0,0.0
2024-05-02T16:06:07.400Z,MISSION_0031,74,0,transit,SITE_DEL_002,28.6139164,77.2089878,14.0,277.17,1.958,0.11,2.27,4.1706,-1.5456,277.1682,-0.74969,-0.01837,0.03418,0.66065,-0.0546,0.023,-9.8215,-0.4467,-0.5801,-0.146,0.2362,3,20,0.66,0.98,0.3,24.476,15.55,89.8,30.1,19766.0,7815,7669,7699,7832,48.5,51.0,45.4,49.4,2.836,2.706,2.848,2.946,6.12,202.4,22.4,61.0,1016.64,-26.07,0.2,1.55,18.6,35.2,22.6,0,no_anomaly,0.0,0,0,0,0,28.6139164,77.2089878,14.0,0.0
2024-05-02T16:06:07.500Z,MISSION_0031,75,0,transit,SITE_DEL_002,28.613915,77.2089893,14.0,274.06,1.974,0.054,2.05,3.4125,-3.6873,274.0637,-0.73168,0.00014,0.04382,0.68024,0.2398,0.1746,-9.8392,0.0278,0.4193,0.2629,0.1654,3,15,0.81,0.71,0.34,24.518,24.34,89.8,30.0,19745.0,8024,7706,7709,7973,51.1,46.0,52.5,49.0,2.875,2.888,2.814,2.867,6.17,203.4,22.5,60.9,1016.69,-33.05,-1.23,1.72,18.2,34.2,25.3,0,no_anomaly,0.0,0,0,0,0,28.613915,77.2089893,14.0,0.0
2024-05-02T16:06:07.600Z,MISSION_0031,76,0,transit,SITE_DEL_002,28.6139111,77.2089881,14.0,275.37,2.624,0.125,1.81,2.7419,-2.0262,275.371,-0.73942,-0.00579,0.02917,0.67259,-0.074,-0.0389,-9.8195,0.2216,-1.313,0.5363,0.195,3,20,0.64,0.88,0.26,24.545,17.89,89.7,30.2,19724.0,7852,7745,7721,7950,47.3,44.4,48.3,45.7,2.633,2.856,2.72,2.817,5.73,205.4,21.9,62.2,1016.55,-36.07,-0.37,1.27,15.6,29.5,24.7,0,no_anomaly,0.0,0,0,0,0,28.6139111,77.2089881,14.0,0.0
2024-05-02T16:06:07.700Z,MISSION_0031,77,0,transit,SITE_DEL_002,28.6139117,77.208989,14.0,272.94,2.808,0.114,1.79,-2.5622,-1.6719,272.9426,-0.72455,0.02625,-0.00482,0.68871,-0.1066,-0.031,-9.7077,-0.3496,-0.2921,-0.0626,0.1903,3,16,0.74,0.91,0.3,24.548,21.38,89.6,31.0,19703.0,7839,7864,7662,7734,48.3,45.3,46.6,46.8,2.9,2.752,2.997,2.782,5.97,205.1,22.2,62.2,1016.42,-31.01,-0.31,1.44,16.1,32.4,21.7,0,no_anomaly,0.0,0,0,0,0,28.6139117,77.208989,14.0,0.0
2024-05-02T16:06:07.800Z,MISSION_0031,78,0,transit,SITE_DEL_002,28.6139127,77.2089893,14.0,274.54,3.143,0.069,1.85,-0.6884,0.3467,274.5411,-0.73456,0.00236,-0.0063,0.67851,-0.0058,-0.0026,-9.6654,-0.2139,-0.0165,-0.1365,0.2058,3,16,0.66,1.05,0.22,24.643,20.72,89.5,30.2,19681.0,7809,7844,8049,7762,47.5,48.7,45.1,48.0,2.844,2.97,2.56,2.716,6.89,205.7,22.1,60.7,1016.29,-22.9,0.27,2.06,17.2,28.9,22.8,0,no_anomaly,0.0,0,0,0,0,28.6139127,77.2089893,14.0,0.0
2024-05-02T16:06:07.900Z,MISSION_0031,79,0,transit,SITE_DEL_002,28.6139106,77.2089886,14.0,274.39,3.302,0.102,1.73,-2.7005,-0.6319,274.3933,-0.73339,0.02103,-0.01197,0.67938,-0.0314,0.0535,-9.8144,-0.8533,-0.2971,-0.3045,0.1836,3,18,0.75,0.6,0.28,24.5,19.06,89.4,30.3,19660.0,7919,7555,8151,7842,43.6,46.5,47.7,47.2,2.725,2.77,2.818,2.718,6.08,197.5,22.5,61.4,1016.19,-27.59,0.56,1.32,20.4,32.9,26.9,0,no_anomaly,0.0,0,0,0,0,28.6139106,77.2089886,14.0,0.0
2024-05-02T16:06:08.000Z,MISSION_0031,80,0,transit,SITE_DEL_002,28.6139086,77.208986,14.0,273.04,3.607,0.162,1.83,1.195,-4.7824,273.0444,-0.72527,0.02115,0.03744,0.68712,0.2386,-0.0373,-9.7879,1.3189,-0.62,-0.4214,0.2349,3,14,0.66,0.92,0.2,24.51,21.56,89.3,30.2,19639.0,7704,7815,7582,7745,47.8,47.2,48.3,48.5,2.736,2.796,2.88,2.916,5.31,206.7,22.6,60.9,1016.32,-29.19,1.37,1.65,15.2,35.3,27.3,0,no_anomaly,0.0,0,0,0,0,28.6139086,77.208986,14.0,0.0
2024-05-02T16:06:08.100Z,MISSION_0031,81,0,transit,SITE_DEL_002,28.6139106,77.2089867,14.0,273.33,3.485,0.04,1.89,2.2138,-2.2691,273.3251,-0.72731,-0.00046,0.02765,0.68575,0.1947,0.0717,-9.8599,0.4526,-0.4801,0.0716,0.1995,3,11,0.59,0.9,0.27,24.534,20.12,89.2,30.4,19618.0,7405,7803,7929,7806,45.8,47.1,44.8,47.3,2.775,2.695,2.826,2.728,4.93,215.6,22.3,59.7,1016.5,-30.33,0.23,1.25,19.3,30.4,25.2,0,no_anomaly,0.0,0,0,0,0,28.6139106,77.2089867,14.0,0.0
2024-05-02T16:06:08.200Z,MISSION_0031,82,0,transit,SITE_DEL_002,28.6139126,77.2089868,14.0,271.83,3.268,0.127,2.03,3.0429,1.3784,271.834,-0.71781,-0.02744,0.00983,0.69563,0.2025,0.0589,-9.7392,-1.01,-0.8144,-0.2249,0.2112,3,18,0.86,0.91,0.41,24.525,20.95,89.1,31.2,19597.0,7698,7826,7800,7831,47.1,50.6,45.8,49.7,3.042,2.672,2.654,3.193,6.32,194.2,22.5,61.3,1015.99,-33.04,1.32,1.65,18.6,28.2,25.5,0,no_anomaly,0.0,0,0,0,0,28.6139126,77.2089868,14.0,0.0
2024-05-02T16:06:08.300Z,MISSION_0031,83,0,transit,SITE_DEL_002,28.6139114,77.2089828,14.0,273.96,3.035,0.108,2.29,1.3361,-3.2224,273.9606,-0.731,0.01066,0.02851,0.68169,-0.0636,-0.0273,-9.7273,-0.4614,-0.0419,-0.2685,0.2118,3,17,0.71,0.87,0.2,24.532,14.69,89.0,31.2,19576.0,7682,7794,7933,7764,49.9,49.0,49.6,46.2,2.644,2.858,2.615,2.932,6.25,208.1,22.7,61.5,1016.14,-26.37,1.72,1.72,18.4,28.6,26.2,0,no_anomaly,0.0,0,0,0,0,28.6139114,77.2089828,14.0,0.0
2024-05-02T16:06:08.400Z,MISSION_0031,84,0,transit,SITE_DEL_002,28.6139088,77.2089842,14.0,275.93,3.106,0.073,2.01,2.5337,-1.8134,275.9281,-0.74268,-0.00583,0.02655,0.66909,-0.2408,0.047,-9.7547,-0.6143,0.4383,-0.3543,0.2083,3,17,0.71,0.86,0.34,24.463,22.5,88.9,31.2,19554.0,7784,7685,7561,7598,47.0,43.5,44.1,53.5,2.877,2.709,2.736,3.035,5.5,202.3,22.0,60.4,1016.11,-33.33,-1.76,1.1,16.1,27.2,23.7,0,no_anomaly,0.0,0,0,0,0,28.6139088,77.2089842,14.0,0.0
2024-05-02T16:06:08.500Z,MISSION_0031,85,0,transit,SITE_DEL_002,28.6139112,77.2089852,14.0,277.74,3.2,0.139,2.06,-5.2043,-1.1521,277.7424,-0.75212,0.0408,-0.0223,0.65739,-0.0663,-0.0284,-9.7841,0.1229,-0.4475,-0.1547,0.1938,3,16,0.73,0.99,0.37,24.537,14.78,88.8,30.3,19533.0,7751,7772,7795,7719,50.1,47.5,43.5,49.0,2.731,2.645,2.788,2.714,5.42,199.7,22.1,61.9,1016.39,-32.33,-0.46,1.5,16.1,29.5,24.4,0,no_anomaly,0.0,0,0,0,0,28.6139112,77.2089852,14.0,0.0
2024-05-02T16:06:08.600Z,MISSION_0031,86,0,transit,SITE_DEL_002,28.6139081,77.2089885,14.0,276.36,3.483,0.091,1.56,-1.5966,-3.7764,276.3623,-0.74447,0.03235,0.01527,0.66669,0.244,0.0332,-9.8,0.2995,0.3547,0.2442,0.2254,3,12,0.54,0.9,0.2,24.498,28.04,88.7,31.3,19512.0,7940,7596,7975,7924,46.2,48.4,45.6,48.1,2.795,2.739,3.151,2.744,5.59,206.1,22.4,61.7,1016.34,-31.01,-0.99,1.57,17.1,30.4,24.0,0,no_anomaly,0.0,0,0,0,0,28.6139081,77.2089885,14.0,0.0
2024-05-02T16:06:08.700Z,MISSION_0031,87,0,transit,SITE_DEL_002,28.613906,77.2089842,14.0,280.37,3.865,0.137,1.88,0.977,-3.9553,280.3715,-0.76783,0.01555,0.03196,0.63967,0.0678,0.0165,-9.7355,-0.0963,-0.5901,-0.515,0.2466,3,14,0.58,0.84,0.21,24.605,21.25,88.6,30.7,19491.0,7780,7802,7926,7855,46.0,51.8,48.2,46.5,2.626,2.779,3.076,2.907,4.88,210.1,22.5,60.2,1016.02,-28.58,0.01,1.52,17.5,30.6,24.4,0,no_anomaly,0.0,0,0,0,0,28.613906,77.2089842,14.0,0.0
2024-05-02T16:06:08.800Z,MISSION_0031,88,0,transit,SITE_DEL_002,28.6139087,77.2089856,14.0,278.97,4.149,0.098,1.87,-3.013,-3.099,278.9659,-0.75921,0.03754,0.00348,0.64975,-0.2664,0.0493,-9.7592,0.6364,-0.4681,-0.2352,0.254,3,14,0.68,0.85,0.26,24.494,19.84,88.5,30.6,19470.0,7770,7591,7693,7616,45.4,47.6,46.5,43.1,2.957,2.888,3.079,2.732,6.11,207.4,22.3,62.3,1016.13,-26.0,1.13,1.36,19.8,35.4,25.0,0,no_anomaly,0.0,0,0,0,0,28.6139087,77.2089856,14.0,0.0
2024-05-02T16:06:08.900Z,MISSION_0031,89,0,transit,SITE_DEL_002,28.6139091,77.2089852,14.0,276.71,4.301,0.157,1.94,3.4869,-1.8472,276.7145,-0.74719,-0.01203,0.03225,0.66372,0.1235,0.0171,-9.7944,-0.2146,0.6472,0.1603,0.1912,3,12,0.8,0.96,0.45,24.603,22.09,88.4,30.8,19449.0,7999,8021,7965,7573,46.2,46.4,45.0,47.5,2.698,2.67,2.824,2.889,6.68,212.2,22.4,61.3,1016.32,-29.11,0.3,1.43,20.7,30.2,25.2,0,no_anomaly,0.0,0,0,0,0,28.6139091,77.2089852,14.0,0.0
2024-05-02T16:06:09.000Z,MISSION_0031,90,0,transit,SITE_DEL_002,28.6139143,77.2089856,14.0,276.92,4.51,0.079,2.26,1.5903,0.4056,276.9232,-0.7484,-0.01273,0.00655,0.66309,-0.2731,-0.0195,-9.718,-0.2731,-0.4966,-0.069,0.2812,3,11,0.71,0.85,0.24,24.517,18.95,88.3,31.1,19427.0,7666,8003,7556,7651,46.2,47.3,47.0,46.2,2.863,2.925,2.843,2.673,6.05,208.5,22.4,61.6,1016.47,-25.15,-0.05,1.61,15.2,28.0,25.2,0,no_anomaly,0.0,0,0,0,0,28.6139143,77.2089856,14.0,0.0
2024-05-02T16:06:09.100Z,MISSION_0031,91,0,transit,SITE_DEL_002,28.6139216,77.2089855,14.0,276.68,3.776,0.065,2.9,6.6393,-0.5317,276.6814,-0.74603,-0.04018,0.04195,0.66338,0.1096,-0.0336,-9.889,0.0387,-0.6845,0.2351,0.2346,3,20,0.63,1.02,0.2,24.508,21.37,88.2,30.1,19406.0,7492,7895,7554,7781,48.7,49.6,48.6,46.2,2.904,2.542,2.844,2.659,5.82,203.9,22.4,61.0,1015.92,-28.09,0.82,1.0,19.3,31.6,26.6,0,no_anomaly,0.0,0,0,0,0,28.6139216,77.2089855,14.0,0.0
2024-05-02T16:06:09.200Z,MISSION_0031,92,0,transit,SITE_DEL_002,28.6139203,77.2089846,14.0,277.93,3.684,-0.0,2.84,3.9764,-1.8324,277.933,-0.75414,-0.01568,0.03483,0.6556,0.0362,-0.0155,-9.9086,-0.4924,0.5915,0.057,0.1978,3,16,0.81,0.92,0.3,24.46,19.51,88.1,30.7,19385.0,7603,7816,8006,7819,50.9,46.5,48.6,46.6,2.653,2.701,2.814,2.825,5.56,205.7,22.8,60.9,1016.25,-27.76,0.15,1.58,16.2,36.2,25.0,0,no_anomaly,0.0,0,0,0,0,28.6139203,77.2089846,14.0,0.0
2024-05-02T16:06:09.300Z,MISSION_0031,93,0,transit,SITE_DEL_002,28.6139263,77.208985,14.0,277.87,3.408,-0.032,3.37,-0.331,-4.6339,277.8664,-0.75325,0.02873,0.02858,0.65649,-0.0146,0.0548,-9.7891,0.4304,0.0707,-0.1341,0.1202,3,16,0.89,0.85,0.33,24.545,23.16,88.0,31.0,19364.0,7881,7971,7716,7834,50.5,48.9,47.0,49.3,2.763,2.656,2.977,2.874,5.04,212.5,22.2,61.0,1016.03,-30.19,1.21,2.05,16.2,30.9,26.4,0,no_anomaly,0.0,0,0,0,0,28.6139263,77.208985,14.0,0.0
2024-05-02T16:06:09.400Z,MISSION_0031,94,0,transit,SITE_DEL_002,28.6139272,77.2089828,14.0,279.02,3.379,0.175,3.58,0.3771,-2.8207,279.016,-0.76031,0.01348,0.02085,0.64908,-0.165,0.0208,-9.8319,0.3822,-0.5211,0.5793,0.1729,3,11,0.59,1.09,0.26,24.417,23.22,87.9,30.8,19343.0,7979,7674,7837,7566,45.7,47.3,48.1,42.9,2.711,2.964,2.776,2.655,5.51,204.4,22.2,61.8,1016.14,-27.27,1.06,1.36,19.1,32.6,27.0,0,no_anomaly,0.0,0,0,0,0,28.6139272,77.2089828,14.0,0.0
2024-05-02T16:06:09.500Z,MISSION_0031,95,0,transit,SITE_DEL_002,28.6139335,77.2089874,14.0,277.12,3.398,0.071,3.98,-0.2536,-3.4634,277.1242,-0.74929,0.02166,0.02119,0.66155,-0.0448,0.0268,-9.7851,-0.0776,0.2682,0.1237,0.2805,3,16,0.62,0.72,0.22,24.405,23.62,87.8,29.8,19321.0,7798,7937,7840,7947,48.4,45.9,46.0,45.5,2.944,2.867,2.832,2.701,6.17,205.7,22.4,61.4,1016.23,-31.51,-0.91,1.36,15.1,31.5,24.4,0,no_anomaly,0.0,0,0,0,0,28.6139335,77.2089874,14.0,0.0
2024-05-02T16:06:09.600Z,MISSION_0031,96,0,transit,SITE_DEL_002,28.6139296,77.208987,14.0,278.65,3.634,-0.046,3.6,2.6337,-1.5958,278.6543,-0.75838,-0.00835,0.02553,0.65126,0.0349,-0.0522,-9.8203,-0.8001,-0.0855,0.0225,0.1444,3,13,0.76,1.0,0.21,24.409,21.59,87.7,30.1,19300.0,7637,7891,7779,7953,46.9,47.8,48.7,48.4,2.953,2.799,2.212,2.46,5.25,213.2,22.7,61.3,1016.25,-25.54,0.19,1.45,19.9,35.8,23.6,0,no_anomaly,0.0,0,0,0,0,28.6139296,77.208987,14.0,0.0
2024-05-02T16:06:09.700Z,MISSION_0031,97,0,transit,SITE_DEL_002,28.6139285,77.2089929,14.0,280.61,3.872,0.125,3.27,-6.9766,-4.7575,280.6136,-0.76578,0.07324,-0.00695,0.63889,0.1204,0.0294,-9.8338,-0.4725,0.6639,0.1991,0.2999,3,17,0.79,0.99,0.37,24.498,21.32,87.6,30.7,19279.0,7878,7829,7922,7760,46.4,48.6,50.2,48.8,2.805,2.59,2.981,2.621,5.41,200.4,22.2,60.6,1016.33,-32.13,-0.36,2.09,19.8,30.3,27.3,0,no_anomaly,0.0,0,0,0,0,28.6139285,77.2089929,14.0,0.0
2024-05-02T16:06:09.800Z,MISSION_0031,98,0,transit,SITE_DEL_002,28.6139288,77.2089919,14.0,281.57,3.867,0.136,3.33,-1.2149,-3.7291,281.5729,-0.77412,0.02878,0.01851,0.63211,0.0907,-0.0263,-9.7688,0.0793,-0.7003,0.3637,0.2101,3,19,0.7,0.89,0.26,24.54,20.59,87.5,30.4,19258.0,7978,7974,7885,7831,46.2,49.1,45.7,50.2,2.612,2.827,2.379,2.863,4.81,203.9,22.5,60.9,1016.31,-27.5,-1.28,1.0,19.8,29.9,24.8,0,no_anomaly,0.0,0,0,0,0,28.6139288,77.2089919,14.0,0.0
2024-05-02T16:06:09.900Z,MISSION_0031,99,1,transit,SITE_DEL_002,28.6139285,77.2089894,14.0,280.83,3.915,-0.0,3.38,-0.3949,-2.8364,280.8251,-0.77036,0.01843,0.01688,0.63712,-0.2241,-0.0859,-9.7541,0.8431,-0.3051,-0.1933,0.2123,3,16,0.78,0.78,0.37,24.534,24.35,87.4,31.3,19237.0,7591,7820,7718,7656,51.0,44.2,50.0,48.1,2.889,2.935,2.606,2.716,4.91,202.4,22.3,61.5,1016.49,-31.14,0.34,2.07,16.9,31.6,22.3,0,no_anomaly,0.0,0,0,0,0,28.6139285,77.2089894,14.0,0.0
2024-05-02T16:06:10.000Z,MISSION_0031,100,1,transit,SITE_DEL_002,28.6139248,77.2089924,14.0,279.47,4.103,0.193,2.88,2.9774,-1.302,279.4679,-0.76294,-0.01248,0.02546,0.64585,-0.0242,-0.0354,-9.7279,-0.0027,0.2631,-0.2783,0.1265,3,12,0.51,0.85,0.26,24.449,17.94,87.3,31.1,19216.0,7831,7769,7638,7837,47.9,44.7,49.1,43.3,2.862,2.741,2.955,2.776,4.58,200.5,21.8,60.5,1016.17,-27.3,0.66,1.61,16.1,31.5,22.9,0,no_anomaly,0.0,0,0,0,0,28.6139248,77.2089924,14.0,0.0
2024-05-02T16:06:10.100Z,MISSION_0031,101,1,transit,SITE_DEL_002,28.6139263,77.2089972,14.0,283.81,4.276,0.029,2.95,-0.5223,-2.3461,283.8087,-0.78675,0.01622,0.0133,0.61691,0.4433,-0.0144,-9.7518,-0.2641,-0.1589,0.157,0.1895,3,18,0.51,1.2,0.21,24.547,22.29,87.2,30.7,19194.0,7921,7786,7773,7713,47.7,45.7,52.8,47.6,2.49,2.924,2.939,2.881,5.25,204.3,22.9,61.7,1016.04,-30.55,0.16,1.0,19.5,31.2,24.6,0,no_anomaly,0.0,0,0,0,0,28.6139263,77.2089972,14.0,0.0
2024-05-02T16:06:10.200Z,MISSION_0031,102,1,transit,SITE_DEL_002,28.6139262,77.2089923,14.0,284.32,4.496,0.107,3.04,-0.8987,-3.5001,284.3248,-0.78921,0.02492,0.01931,0.61331,-0.0323,0.0048,-9.7588,-0.0684,0.2028,-0.2579,0.2256,3,14,0.7,0.87,0.2,24.513,16.38,87.2,30.2,19173.0,7769,7686,7645,8006,48.1,48.9,44.1,46.3,2.616,2.778,2.731,2.792,6.2,208.1,22.1,61.3,1016.06,-29.74,-1.58,1.51,18.9,35.3,26.5,0,no_anomaly,0.0,0,0,0,0,28.6139262,77.2089923,14.0,0.0
2024-05-02T16:06:10.300Z,MISSION_0031,103,1,transit,SITE_DEL_002,28.6139236,77.2089935,14.0,284.04,4.499,0.096,2.73,-4.7164,-2.7926,284.044,-0.78673,0.04741,-0.00612,0.61545,-0.2786,-0.064,-9.7929,-0.5174,0.6593,0.4148,0.1702,3,18,0.84,0.77,0.43,24.489,25.88,87.1,30.0,19152.0,7670,7718,7974,7770,46.5,50.5,46.1,47.5,3.024,3.085,2.751,2.569,4.93,201.4,22.2,61.1,1016.35,-35.51,0.93,1.02,18.2,33.8,27.3,0,no_anomaly,0.0,0,0,0,0,28.6139236,77.2089935,14.0,0.0
2024-05-02T16:06:10.400Z,MISSION_0031,104,1,transit,SITE_DEL_002,28.613921,77.2089891,14.0,285.45,4.45,0.026,2.64,-1.4594,-1.4362,285.448,-0.7955,0.01772,0.00226,0.60569,-0.2071,0.0449,-9.8433,-0.056,-0.68,-0.0614,0.2303,3,18,0.92,0.74,0.42,24.506,19.09,87.0,30.8,19131.0,8015,7812,7621,7946,48.7,51.7,50.6,47.5,2.982,2.813,2.712,2.805,5.33,204.8,22.6,60.5,1015.77,-24.79,1.99,1.38,16.3,29.2,27.5,0,no_anomaly,0.0,0,0,0,0,28.613921,77.2089891,14.0,0.0
2024-05-02T16:06:10.500Z,MISSION_0031,105,1,transit,SITE_DEL_002,28.6139176,77.2089882,14.0,286.97,4.491,0.163,2.36,4.7238,-2.001,286.9676,-0.80331,-0.02273,0.03854,0.59388,-0.2719,0.0273,-9.8362,0.0736,-0.6946,0.2568,0.1936,3,19,0.54,0.72,0.2,24.468,19.12,86.9,31.2,19110.0,7961,7680,7414,7717,47.7,48.6,48.1,49.9,3.042,2.844,2.833,2.642,5.29,205.3,22.1,61.5,1016.01,-30.17,-3.0,1.85,14.3,33.1,26.2,0,no_anomaly,0.0,0,0,0,0,28.6139176,77.2089882,14.0,0.0
2024-05-02T16:06:10.600Z,MISSION_0031,106,1,transit,SITE_DEL_002,28.6139188,77.2089859,14.0,288.06,4.755,0.134,2.62,-1.7047,-1.7702,288.0649,-0.80903,0.02111,0.00376,0.58738,-0.1807,0.0245,-9.8575,-0.0745,0.3516,-0.0049,0.2064,3,12,0.64,1.06,0.26,24.432,23.7,86.8,30.8,19088.0,7995,7811,7714,7713,51.2,47.3,48.0,47.1,2.857,2.506,2.886,2.556,6.23,202.5,22.5,61.8,1015.8,-34.11,0.88,1.64,16.3,34.0,24.7,0,no_anomaly,0.0,0,0,0,0,28.6139188,77.2089859,14.0,0.0
2024-05-02T16:06:10.700Z,MISSION_0031,107,1,transit,SITE_DEL_002,28.6139225,77.2089853,14.0,286.05,4.501,0.161,3.0,4.7658,-1.833,286.0471,-0.79849,-0.0236,0.03777,0.60036,0.2344,-0.0036,-9.8746,0.4727,-0.46,0.3932,0.1841,3,10,0.64,0.71,0.31,24.448,18.46,86.7,30.7,19067.0,7861,7605,7964,7945,47.5,47.0,48.6,48.7,2.76,2.775,3.038,2.735,6.09,198.5,22.4,61.5,1016.46,-31.22,-0.74,1.1,17.5,31.0,25.0,0,no_anomaly,0.0,0,0,0,0,28.6139225,77.2089853,14.0,0.0
2024-05-02T16:06:10.800Z,MISSION_0031,108,1,transit,SITE_DEL_002,28.6139167,77.2089833,14.0,285.62,4.556,0.103,2.63,4.0131,-1.0238,285.6151,-0.79628,-0.02249,0.02828,0.60385,-0.0803,0.1373,-9.8504,-0.5258,-0.5818,0.116,0.3002,3,17,0.6,1.19,0.21,24.364,20.34,86.6,30.0,19046.0,7920,7611,7719,7718,47.6,47.9,48.2,49.9,2.753,2.297,2.454,2.861,5.37,206.5,22.3,61.4,1016.02,-33.84,0.55,1.23,18.4,29.0,22.7,0,no_anomaly,0.0,0,0,0,0,28.6139167,77.2089833,14.0,0.0
2024-05-02T16:06:10.900Z,MISSION_0031,109,1,transit,SITE_DEL_002,28.6139207,77.2089878,14.0,283.13,4.505,0.07,2.67,-2.4372,-4.4433,283.1283,-0.78203,0.04074,0.01715,0.62168,-0.1273,0.03,-9.7444,0.3749,-0.6588,-0.0262,0.2694,3,17,0.7,0.89,0.48,24.439,22.47,86.5,31.0,19025.0,7878,7970,7599,7840,49.3,46.9,49.6,47.8,2.901,2.702,2.939,2.729,5.21,207.1,22.1,61.5,1015.98,-30.88,-0.19,1.2,15.9,27.2,23.3,0,no_anomaly,0.0,0,0,0,0,28.6139207,77.2089878,14.0,0.0
2024-05-02T16:06:11.000Z,MISSION_0031,110,1,transit,SITE_DEL_002,28.6139201,77.2089886,14.0,281.19,4.368,0.096,2.57,2.0938,-3.933,281.1878,-0.77248,0.00767,0.0381,0.63385,-0.1704,0.0363,-9.7623,-0.3684,-0.7035,-0.1415,0.2667,3,14,0.94,0.94,0.35,24.431,21.3,86.4,31.1,19004.0,7666,7768,8071,7681,44.8,47.5,49.7,48.7,2.753,2.73,2.583,2.562,5.53,201.3,22.4,61.4,1015.85,-31.29,-0.03,1.74,20.2,30.7,28.0,0,no_anomaly,0.0,0,0,0,0,28.6139201,77.2089886,14.0,0.0
2024-05-02T16:06:11.100Z,MISSION_0031,111,1,transit,SITE_DEL_002,28.6139227,77.208987,14.0,281.11,4.626,0.133,2.91,5.0545,-0.5058,281.1145,-0.77162,-0.03125,0.03142,0.63453,0.1633,0.0237,-9.7629,0.8284,-0.5674,-0.2264,0.1732,3,20,0.74,1.15,0.46,24.338,20.21,86.3,31.2,18983.0,7792,7727,7656,7822,48.0,47.0,46.8,49.8,2.948,2.886,2.411,2.81,5.95,196.9,22.4,61.0,1016.27,-35.21,-0.36,1.51,17.9,34.4,25.6,0,no_anomaly,0.0,0,0,0,0,28.6139227,77.208987,14.0,0.0
2024-05-02T16:06:11.200Z,MISSION_0031,112,1,transit,SITE_DEL_002,28.6139278,77.208985,14.0,281.72,4.524,0.191,3.51,-6.508,-1.5313,281.7207,-0.77381,0.05244,-0.02548,0.63073,-0.0516,0.0259,-9.8004,0.2647,-0.1138,0.1331,0.2468,3,18,0.62,0.93,0.33,24.438,24.82,86.2,31.0,18961.0,7902,7802,7839,7898,47.0,51.4,50.7,45.9,2.478,2.791,2.838,2.796,4.31,208.6,22.5,60.5,1016.26,-27.04,1.71,1.98,15.6,37.1,26.6,0,no_anomaly,0.0,0,0,0,0,28.6139278,77.208985,14.0,0.0
2024-05-02T16:06:11.300Z,MISSION_0031,113,1,transit,SITE_DEL_002,28.6139271,77.2089849,14.0,280.96,4.08,0.108,3.45,-1.2155,-4.3253,280.9553,-0.77053,0.03219,0.02236,0.6362,-0.1323,0.0087,-9.7389,-0.4087,-0.7193,-0.1189,0.2083,3,20,0.54,0.68,0.25,24.386,23.67,86.1,30.4,18940.0,7491,7651,7765,7839,44.3,50.2,45.3,48.2,2.64,2.91,2.71,2.885,6.58,199.2,22.1,61.1,1016.27,-26.99,0.2,1.82,16.8,35.0,25.6,0,no_anomaly,0.0,0,0,0,0,28.6139271,77.2089849,14.0,0.0
2024-05-02T16:06:11.400Z,MISSION_0031,114,1,transit,SITE_DEL_002,28.6139281,77.208984,14.0,281.42,4.346,0.101,3.6,4.0168,-2.7287,281.4233,-0.7738,-0.01205,0.0406,0.63201,-0.0632,0.0167,-9.8142,0.0744,-0.0637,0.3358,0.2628,3,20,0.73,1.26,0.21,24.478,17.81,86.0,31.2,18919.0,7474,7911,7771,7660,49.1,44.8,46.3,49.6,2.911,2.98,2.818,2.673,5.32,208.3,22.4,61.4,1016.19,-27.81,-0.19,1.75,15.8,29.8,24.4,0,no_anomaly,0.0,0,0,0,0,28.6139281,77.208984,14.0,0.0
2024-05-02T16:06:11.500Z,MISSION_0031,115,1,transit,SITE_DEL_002,28.613926,77.2089879,14.0,279.52,4.634,0.128,3.19,1.7229,-3.2508,279.5242,-0.76325,0.00685,0.03136,0.6453,0.0813,-0.0265,-9.7856,0.0754,-0.0839,0.8259,0.2689,3,13,0.82,0.88,0.23,24.434,17.47,85.9,30.1,18898.0,7634,7882,7937,7737,49.0,41.0,47.0,45.9,2.663,2.744,2.708,2.547,5.6,201.4,22.0,61.4,1016.45,-23.43,0.64,1.86,15.5,37.3,27.0,0,no_anomaly,0.0,0,0,0,0,28.613926,77.2089879,14.0,0.0
2024-05-02T16:06:11.600Z,MISSION_0031,116,1,transit,SITE_DEL_002,28.6139181,77.2089833,14.0,280.83,4.57,0.018,2.74,0.0569,-5.1783,280.8263,-0.76989,0.0284,0.03513,0.63658,-0.0107,0.0736,-9.7905,0.8461,0.1395,0.2348,0.2553,3,15,0.76,1.04,0.27,24.36,22.87,85.8,30.7,18877.0,7657,7977,7697,8075,44.8,46.6,48.7,45.0,2.835,2.837,2.87,2.598,5.99,213.0,22.0,61.2,1016.1,-28.74,1.62,1.59,18.8,36.6,25.6,0,no_anomaly,0.0,0,0,0,0,28.6139181,77.2089833,14.0,0.0
2024-05-02T16:06:11.700Z,MISSION_0031,117,1,transit,SITE_DEL_002,28.6139192,77.2089804,14.0,282.51,4.88,0.114,3.05,4.6862,-2.015,282.5078,-0.7796,-0.02089,0.03929,0.62469,0.1508,0.0732,-9.8115,0.2175,0.5519,0.2507,0.1809,3,10,0.51,0.74,0.26,24.485,22.68,85.7,30.8,18855.0,7726,7826,7828,7841,49.2,48.7,46.7,47.7,2.696,2.504,2.9,2.758,5.72,204.1,22.1,60.7,1016.37,-24.49,1.15,1.67,14.9,32.7,24.8,0,no_anomaly,0.0,0,0,0,0,28.6139192,77.2089804,14.0,0.0
2024-05-02T16:06:11.800Z,MISSION_0031,118,1,transit,SITE_DEL_002,28.6139251,77.2089818,14.0,280.81,5.135,0.118,3.45,2.5854,-4.4479,280.815,-0.77038,0.00735,0.04426,0.63601,0.0964,-0.0248,-9.781,-0.3013,0.3975,-0.1217,0.2279,3,12,0.71,1.18,0.22,24.43,23.96,85.6,30.7,18834.0,7756,7984,7882,7673,46.2,45.9,49.4,47.1,2.916,2.87,2.792,2.658,5.0,214.4,22.0,61.1,1016.52,-28.41,-1.04,1.26,14.0,32.0,22.1,0,no_anomaly,0.0,0,0,0,0,28.6139251,77.2089818,14.0,0.0
2024-05-02T16:06:11.900Z,MISSION_0031,119,1,orbit_base,SITE_DEL_002,28.6138272,77.2089668,14.3,283.44,5.304,0.092,8.91,-1.2459,-4.2651,283.4412,-0.78416,0.03158,0.02248,0.61935,0.0837,0.0224,-9.8393,0.0756,-0.0467,-0.5244,0.1989,3,12,0.62,0.99,0.24,24.374,24.17,85.5,30.7,18813.0,7741,7352,7447,7947,47.4,51.2,48.2,45.1,3.017,2.728,2.661,3.134,6.15,207.2,22.6,60.9,1016.46,-26.06,0.69,2.09,15.2,27.6,23.1,0,no_anomaly,0.0,0,0,0,0,28.6138272,77.2089668,14.3,0.0
2024-05-02T16:06:12.000Z,MISSION_0031,120,1,orbit_base,SITE_DEL_002,28.6138283,77.2089646,14.6,282.5,5.488,0.056,8.91,-2.0568,-2.4335,282.5045,-0.77937,0.02728,0.00533,0.62595,0.23,-0.0768,-9.8383,-0.1579,-0.107,0.2247,0.2121,3,20,0.6,1.2,0.22,24.443,20.61,85.4,31.1,18792.0,7736,7723,7564,7820,49.0,47.0,46.7,42.8,2.803,2.812,2.767,2.974,5.15,211.7,22.5,61.0,1015.99,-31.57,-0.61,1.6,18.3,30.4,23.6,0,no_anomaly,0.0,0,0,0,0,28.6138283,77.2089646,14.6,0.0
2024-05-02T16:06:12.100Z,MISSION_0031,121,1,orbit_base,SITE_DEL_002,28.6138294,77.2089625,14.9,279.91,5.56,0.161,8.91,-2.8308,-2.7086,279.9105,-0.76472,0.03411,0.0022,0.64346,0.0263,0.0358,-9.8096,-1.032,0.0727,-0.0074,0.2952,3,19,0.83,0.7,0.47,24.417,26.1,85.3,30.8,18771.0,8034,7569,7800,7474,48.5,48.9,48.4,45.4,2.883,2.804,2.742,2.86,4.16,209.4,22.2,60.0,1016.58,-27.5,0.5,1.49,14.0,35.7,24.4,0,no_anomaly,0.0,0,0,0,0,28.6138294,77.2089625,14.9,0.0
2024-05-02T16:06:12.200Z,MISSION_0031,122,1,orbit_base,SITE_DEL_002,28.6138305,77.2089604,15.2,282.22,5.629,0.099,8.91,4.0956,-2.0785,282.2171,-0.77812,-0.01643,0.03654,0.62684,-0.1486,-0.0036,-9.7715,0.2595,-0.6519,-0.0211,0.2217,3,15,0.78,0.81,0.27,24.397,20.0,85.2,30.5,18750.0,7705,7906,7818,8046,45.5,50.0,51.2,46.7,2.533,2.8,2.909,2.894,5.18,207.3,22.6,61.4,1016.39,-27.43,0.47,1.89,15.0,33.5,22.9,0,no_anomaly,0.0,0,0,0,0,28.6138305,77.2089604,15.2,0.0
2024-05-02T16:06:12.300Z,MISSION_0031,123,1,orbit_base,SITE_DEL_002,28.6138317,77.2089583,15.5,283.76,5.541,0.183,8.91,0.1263,-2.4419,283.7637,-0.78658,0.01229,0.01744,0.61713,-0.208,-0.0203,-9.8914,-0.8045,-0.7716,-0.0108,0.2058,3,11,0.76,0.73,0.28,24.372,16.84,85.1,30.6,18728.0,7740,7700,7662,7897,44.8,47.9,50.1,49.3,2.467,2.58,2.848,2.625,5.87,203.7,22.3,61.0,1016.24,-25.62,-0.28,1.91,15.0,33.5,26.3,0,no_anomaly,0.0,0,0,0,0,28.6138317,77.2089583,15.5,0.0
2024-05-02T16:06:12.400Z,MISSION_0031,124,1,orbit_base,SITE_DEL_002,28.613833,77.2089563,15.8,284.03,5.195,0.112,8.91,-1.0459,-2.8932,284.035,-0.78777,0.02273,0.01428,0.61538,-0.144,0.0281,-9.7984,-0.364,0.709,0.3665,0.1985,3,18,0.72,0.85,0.31,24.449,22.99,85.0,30.8,18707.0,7833,7837,7805,7801,46.9,47.2,43.9,45.9,2.972,2.811,2.913,2.914,5.05,207.9,22.2,60.7,1016.23,-31.6,1.07,1.81,17.3,33.1,21.6,0,no_anomaly,0.0,0,0,0,0,28.613833,77.2089563,15.8,0.0
2024-05-02T16:06:12.500Z,MISSION_0031,125,1,orbit_base,SITE_DEL_002,28.6138344,77.2089543,16.1,283.29,5.206,0.062,8.91,3.7106,-1.0962,283.2863,-0.78391,-0.01945,0.02759,0.61996,0.0655,0.0691,-9.8643,0.0529,0.0306,0.3536,0.1752,3,15,0.63,0.9,0.24,24.357,22.04,84.9,30.2,18686.0,7798,7919,7842,7743,47.5,49.0,48.8,47.0,2.916,2.431,2.63,2.582,5.88,205.7,22.3,60.5,1016.46,-30.92,0.18,1.21,15.8,35.0,23.5,0,no_anomaly,0.0,0,0,0,0,28.6138344,77.2089543,16.1,0.0
2024-05-02T16:06:12.600Z,MISSION_0031,126,1,orbit_base,SITE_DEL_002,28.6138358,77.2089523,16.4,284.37,5.299,0.137,8.91,-0.0087,-3.6277,284.3701,-0.7896,0.01947,0.02496,0.61281,-0.1181,0.0907,-9.7657,-0.4701,-0.5175,-0.4779,0.1317,3,12,0.81,1.15,0.33,24.442,19.34,84.8,30.9,18665.0,7720,8007,7864,7822,45.9,46.9,43.6,48.0,2.516,2.611,2.632,2.898,5.59,210.3,22.3,60.8,1016.2,-28.8,-0.47,1.63,18.1,36.0,27.2,0,no_anomaly,0.0,0,0,0,0,28.6138358,77.2089523,16.4,0.0
2024-05-02T16:06:12.700Z,MISSION_0031,127,1,orbit_base,SITE_DEL_002,28.6138372,77.2089504,16.7,284.36,5.555,0.12,8.91,0.3413,-5.5553,284.3602,-0.7891,0.02736,0.04011,0.61234,0.2251,-0.0359,-9.6999,-0.6368,-0.0422,0.0223,0.1956,3,10,0.75,0.85,0.34,24.393,22.54,84.7,30.6,18644.0,7815,7943,7691,7599,51.5,46.6,48.5,43.1,2.642,2.584,2.755,3.0,6.11,203.0,22.1,60.4,1016.19,-31.55,-0.14,1.29,16.3,30.1,24.4,0,no_anomaly,0.0,0,0,0,0,28.6138372,77.2089504,16.7,0.0
2024-05-02T16:06:12.800Z,MISSION_0031,128,1,orbit_base,SITE_DEL_002,28.6138387,77.2089486,17.0,284.49,5.537,0.067,8.91,-3.7672,-1.373,284.4899,-0.78991,0.03332,-0.01066,0.61222,-0.2259,-0.0455,-9.8055,-0.1488,0.4376,0.4474,0.1731,3,15,0.56,0.82,0.26,24.347,20.22,84.6,30.9,18622.0,7849,7751,8153,7976,44.9,43.8,47.9,49.8,2.563,3.26,2.986,2.954,5.69,208.3,22.4,61.5,1016.02,-30.67,0.57,1.56,16.9,32.1,25.0,0,no_anomaly,0.0,0,0,0,0,28.6138387,77.2089486,17.0,0.0
2024-05-02T16:06:12.900Z,MISSION_0031,129,1,orbit_base,SITE_DEL_002,28.6138403,77.2089467,17.3,285.58,5.571,0.071,8.91,0.0044,-1.0251,285.576,-0.79637,0.00538,0.00715,0.60474,0.0411,-0.0234,-9.7418,0.1775,0.6985,0.0003,0.2435,3,19,0.7,0.91,0.24,24.368,23.4,84.6,30.0,18601.0,7983,7843,7986,7749,49.6,49.2,47.3,47.1,2.646,2.775,2.748,3.012,4.96,210.2,22.3,61.5,1015.99,-30.58,-0.15,1.48,20.1,34.4,25.1,0,no_anomaly,0.0,0,0,0,0,28.6138403,77.2089467,17.3,0.0
