timestamp_utc,mission_id,frame_id,waypoint_id,inspection_phase,site_id,latitude_deg,longitude_deg,altitude_m,heading_deg,ground_speed_ms,vertical_speed_ms,distance_to_tower_m,roll_deg,pitch_deg,yaw_deg,quat_w,quat_x,quat_y,quat_z,accel_x_ms2,accel_y_ms2,accel_z_ms2,gyro_x_rads,gyro_y_rads,gyro_z_rads,vibration_level,gps_fix_type,gps_satellite_count,gps_hdop,gps_vdop,position_error_m,battery_voltage_v,battery_current_a,battery_remaining_pct,battery_temp_c,battery_capacity_mah,motor_fl_rpm,motor_fr_rpm,motor_rl_rpm,motor_rr_rpm,motor_fl_temp_c,motor_fr_temp_c,motor_rl_temp_c,motor_rr_temp_c,motor_fl_thrust_n,motor_fr_thrust_n,motor_rl_thrust_n,motor_rr_thrust_n,wind_speed_ms,wind_dir_deg,air_temp_c,humidity_pct,pressure_hpa,gimbal_pitch_deg,gimbal_roll_deg,zoom_factor,ir_temp_min_c,ir_temp_max_c,ir_temp_avg_c,anomaly_detected,anomaly_class,anomaly_confidence,anomaly_bbox_x,anomaly_bbox_y,anomaly_bbox_w,anomaly_bbox_h,anomaly_gps_lat,anomaly_gps_lon,anomaly_gps_alt_m,ir_temp_delta_c
2024-08-17T12:35:00.000Z,MISSION_0002,0,0,takeoff,SITE_BLR_003,12.9715994,77.594599,1.5,357.7,0.0,0.065,0.13,2.1882,-2.1486,357.6976,-0.99945,-0.01871,0.01913,0.01973,-0.0108,0.0185,-9.7404,0.5884,-0.0241,-0.1121,0.0693,3,19,0.77,0.63,0.44,24.819,15.76,99.1,41.0,21802.0,7551,7539,7429,7552,54.6,57.5,56.0,56.8,2.697,2.704,2.993,2.585,1.69,212.0,32.4,75.9,1008.8,-26.04,0.43,1.08,30.6,42.6,33.4,0,no_anomaly,0.0,0,0,0,0,12.9715994,77.594599,1.5,0.0
2024-08-17T12:35:00.100Z,MISSION_0002,1,0,takeoff,SITE_BLR_003,12.9715934,77.5945966,3.0,356.07,0.114,0.026,0.83,-0.9584,-2.2766,356.0746,-0.99918,0.00904,0.01957,0.03441,-0.0511,-0.0684,-9.8214,-0.6514,-0.916,0.1878,0.0678,3,11,0.85,1.11,0.42,24.718,24.42,99.0,39.2,21787.0,7344,7601,7590,7368,55.8,57.0,57.2,56.5,3.049,2.697,3.02,2.861,2.0,210.2,32.3,77.2,1008.51,-26.92,0.99,1.3,26.1,41.0,33.9,0,no_anomaly,0.0,0,0,0,0,12.9715934,77.5945966,3.0,0.0
2024-08-17T12:35:00.200Z,MISSION_0002,2,0,takeoff,SITE_BLR_003,12.9715926,77.5946008,4.5,353.14,0.06,0.107,0.83,-0.1285,-3.1951,353.1444,-0.99782,0.00279,0.02776,0.0598,0.1096,-0.0455,-9.8549,-1.2361,0.5554,-0.0988,0.1133,3,14,0.68,1.08,0.38,24.686,16.64,99.0,39.8,21772.0,7450,7470,7226,7539,56.5,59.0,57.5,54.0,2.892,2.599,2.615,2.752,1.34,208.9,32.5,75.9,1008.34,-30.44,-0.09,1.46,27.1,38.3,34.4,0,no_anomaly,0.0,0,0,0,0,12.9715926,77.5946008,4.5,0.0
2024-08-17T12:35:00.300Z,MISSION_0002,3,0,takeoff,SITE_BLR_003,12.9715949,77.5946056,5.0,352.89,0.0,0.169,0.84,0.3857,0.0345,352.8949,-0.99807,-0.00338,-9e-05,0.06197,-0.0678,-0.0242,-9.8355,-0.7084,0.4264,0.0783,0.0289,3,19,0.7,1.15,0.3,24.851,16.32,98.9,40.9,21756.0,7684,7476,7425,7651,58.5,59.3,58.2,57.2,2.787,2.747,2.86,2.773,1.61,213.7,32.2,76.8,1008.64,-32.55,0.58,1.62,28.9,42.9,32.7,0,no_anomaly,0.0,0,0,0,0,12.9715949,77.5946056,5.0,0.0
2024-08-17T12:35:00.400Z,MISSION_0002,4,0,takeoff,SITE_BLR_003,12.9715951,77.5946094,5.0,355.34,0.0,0.116,1.18,-4.4271,-2.7338,355.3358,-0.9981,0.03955,0.02225,0.04157,-0.0784,-0.0219,-9.719,1.3483,-0.4741,0.0673,0.1398,3,17,0.73,0.69,0.38,24.815,16.56,98.8,41.0,21741.0,7270,7233,7526,7551,57.1,59.6,56.1,59.8,2.918,3.079,2.534,2.727,1.03,221.5,32.5,75.6,1008.86,-25.28,-0.37,1.68,29.6,40.6,37.8,0,no_anomaly,0.0,0,0,0,0,12.9715951,77.5946094,5.0,0.0
2024-08-17T12:35:00.500Z,MISSION_0002,5,0,takeoff,SITE_BLR_003,12.9715942,77.5946174,5.0,354.06,0.142,0.044,2.04,1.6064,-5.7523,354.0595,-0.99734,-0.01138,0.05083,0.05104,0.1417,0.0372,-9.8847,0.1849,0.182,-0.0403,0.0999,3,13,0.69,1.03,0.33,24.768,18.76,98.8,40.4,21726.0,7341,7478,7376,7337,52.6,56.6,59.0,59.9,2.867,2.606,2.777,2.627,2.44,215.7,32.4,76.8,1008.03,-31.48,0.92,1.49,28.6,46.5,37.8,0,no_anomaly,0.0,0,0,0,0,12.9715942,77.5946174,5.0,0.0
2024-08-17T12:35:00.600Z,MISSION_0002,6,0,takeoff,SITE_BLR_003,12.9715921,77.5946155,5.0,354.14,0.049,0.131,1.94,0.5761,-2.3517,354.1423,-0.99848,-0.00397,0.02075,0.05098,0.0915,0.1055,-9.885,0.0123,0.5432,-0.2109,0.1437,3,15,0.66,0.75,0.2,24.642,18.52,98.7,40.5,21711.0,7344,7445,7270,7566,56.6,59.0,56.8,55.4,2.72,3.026,3.114,2.574,1.94,212.1,32.6,76.9,1008.36,-32.28,0.21,1.65,23.8,46.3,34.7,0,no_anomaly,0.0,0,0,0,0,12.9715921,77.5946155,5.0,0.0
2024-08-17T12:35:00.700Z,MISSION_0002,7,0,takeoff,SITE_BLR_003,12.9715908,77.5946182,5.0,356.47,0.0,0.008,2.27,0.5891,-0.8986,356.4694,-0.99948,-0.0049,0.008,0.03076,-0.1113,0.0509,-9.7043,0.3319,0.2828,-0.2254,0.1052,3,12,0.64,0.77,0.24,24.779,15.43,98.6,40.3,21695.0,7534,7169,7629,7518,57.9,59.7,59.3,58.6,2.842,2.799,2.713,2.656,1.68,219.6,32.5,77.5,1008.62,-29.58,-1.34,1.0,25.4,45.0,34.5,0,no_anomaly,0.0,0,0,0,0,12.9715908,77.5946182,5.0,0.0
2024-08-17T12:35:00.800Z,MISSION_0002,8,0,takeoff,SITE_BLR_003,12.9715895,77.594615,5.0,355.6,0.0,0.182,2.04,2.0878,-1.7896,355.6044,-0.99899,-0.0176,0.0163,0.03805,-0.0233,0.0337,-9.7362,0.1568,0.0956,-0.498,0.0616,3,16,0.55,0.87,0.2,24.737,15.46,98.5,40.0,21680.0,7208,7519,7592,7497,58.1,58.3,58.3,59.1,2.979,3.037,2.511,2.87,0.88,224.7,32.7,77.4,1008.51,-29.8,0.28,1.54,29.2,42.0,35.8,0,no_anomaly,0.0,0,0,0,0,12.9715895,77.594615,5.0,0.0
2024-08-17T12:35:00.900Z,MISSION_0002,9,0,takeoff,SITE_BLR_003,12.9715831,77.5946173,5.0,353.93,0.0,0.071,2.69,-0.1209,-1.997,353.9297,-0.99844,0.00198,0.01735,0.05296,0.0513,-0.0462,-9.7787,-0.0951,1.3011,-0.4771,0.1361,3,13,0.76,0.84,0.26,24.827,20.52,98.5,40.0,21665.0,7264,7575,7535,7572,57.2,59.1,60.6,60.5,2.677,3.175,2.899,2.586,1.7,218.8,32.3,76.3,1008.52,-30.35,-0.2,1.71,27.6,46.5,33.4,0,no_anomaly,0.0,0,0,0,0,12.9715831,77.5946173,5.0,0.0
2024-08-17T12:35:01.000Z,MISSION_0002,10,0,takeoff,SITE_BLR_003,12.9715858,77.5946209,5.0,353.61,0.33,0.21,2.81,0.8595,-1.8004,353.6083,-0.9983,-0.00661,0.0161,0.05562,0.1489,0.0165,-9.8168,0.4179,-0.6154,-0.0658,0.1428,3,14,0.77,0.94,0.21,24.714,16.87,98.4,40.6,21650.0,7292,7698,7533,7529,57.1,54.5,57.6,58.9,2.777,2.96,2.791,2.904,1.43,219.5,32.4,75.5,1008.2,-27.4,-1.08,1.69,26.9,39.6,34.3,0,no_anomaly,0.0,0,0,0,0,12.9715858,77.5946209,5.0,0.0
2024-08-17T12:35:01.100Z,MISSION_0002,11,0,takeoff,SITE_BLR_003,12.9715831,77.5946247,5.0,356.9,0.208,0.076,3.33,0.1036,-5.8719,356.9034,-0.99832,0.00048,0.05122,0.02694,0.0519,0.0067,-9.8225,-0.4818,-0.1762,-0.4036,0.0867,3,16,0.57,0.75,0.2,24.786,14.65,98.3,40.4,21635.0,7323,7329,7323,7633,57.1,55.9,55.4,54.7,2.692,2.585,2.735,2.694,1.1,223.8,32.1,76.6,1008.67,-30.73,-0.18,1.88,26.2,40.8,35.8,0,no_anomaly,0.0,0,0,0,0,12.9715831,77.5946247,5.0,0.0
2024-08-17T12:35:01.200Z,MISSION_0002,12,0,takeoff,SITE_BLR_003,12.9715759,77.5946273,5.0,357.37,0.219,0.112,4.06,-2.4165,-0.8421,357.3699,-0.99948,0.02125,0.00686,0.0231,0.1342,-0.0204,-9.8259,0.0114,-0.1997,-0.0534,0.1812,3,18,0.69,0.94,0.42,24.828,14.97,98.3,41.3,21619.0,7693,7711,7393,7518,56.6,57.7,60.9,57.7,2.542,2.744,2.702,3.068,1.08,215.6,32.4,76.6,1008.96,-31.12,1.6,1.79,29.6,44.8,34.9,0,no_anomaly,0.0,0,0,0,0,12.9715759,77.5946273,5.0,0.0
2024-08-17T12:35:01.300Z,MISSION_0002,13,0,takeoff,SITE_BLR_003,12.9715721,77.594619,5.0,358.03,0.64,0.085,3.76,0.3611,-4.9701,358.0345,-0.99891,-0.0024,0.04341,0.017,0.0595,-0.0532,-9.8742,-0.4889,-0.8043,0.061,0.0973,3,14,0.57,1.26,0.2,24.756,22.98,98.2,40.8,21604.0,7773,7382,7644,7560,59.4,59.1,55.9,63.1,2.461,2.67,2.902,2.844,1.55,221.2,32.5,76.9,1008.73,-32.53,0.84,1.46,30.9,47.5,33.9,0,no_anomaly,0.0,0,0,0,0,12.9715721,77.594619,5.0,0.0
2024-08-17T12:35:01.400Z,MISSION_0002,14,0,takeoff,SITE_BLR_003,12.9715722,77.5946181,5.0,356.87,0.785,0.123,3.7,-3.692,-1.5366,356.872,-0.99901,0.03256,0.01252,0.02771,0.0306,0.0937,-9.843,0.0939,0.0795,-0.3318,0.1295,3,17,0.57,1.04,0.26,24.773,16.48,98.1,41.2,21589.0,7324,7494,7311,7459,60.0,58.4,55.6,56.4,2.743,2.675,2.841,3.128,1.21,227.3,31.9,76.7,1008.58,-30.01,0.32,1.58,26.4,38.9,33.4,0,no_anomaly,0.0,0,0,0,0,12.9715722,77.5946181,5.0,0.0
2024-08-17T12:35:01.500Z,MISSION_0002,15,0,takeoff,SITE_BLR_003,12.9715676,77.5946183,5.0,356.43,0.739,0.14,4.15,-0.2794,-2.8836,356.4326,-0.99919,0.00322,0.02507,0.03118,0.006,0.0433,-9.8219,-0.0251,0.3246,0.6809,0.1201,3,10,0.53,0.77,0.24,24.825,15.53,98.1,40.4,21574.0,7489,7371,7717,7661,58.1,56.6,59.3,58.5,2.734,2.946,2.855,2.551,0.99,211.0,32.3,76.2,1008.49,-26.91,-0.7,1.69,32.0,44.9,36.3,0,no_anomaly,0.0,0,0,0,0,12.9715676,77.5946183,5.0,0.0
2024-08-17T12:35:01.600Z,MISSION_0002,16,0,takeoff,SITE_BLR_003,12.9715645,77.5946149,5.0,355.23,0.899,0.133,4.29,-1.0135,-2.3379,355.2252,-0.99888,0.00968,0.02001,0.04183,0.0374,0.0364,-9.9065,-0.8617,-0.193,-0.3344,0.1725,3,16,0.65,1.17,0.23,24.763,16.45,98.0,40.7,21558.0,7563,7620,7466,7677,58.0,56.1,56.2,58.9,2.99,2.632,2.913,2.577,1.18,220.1,32.1,76.6,1008.73,-32.54,1.47,1.68,25.6,42.7,32.6,0,no_anomaly,0.0,0,0,0,0,12.9715645,77.5946149,5.0,0.0
2024-08-17T12:35:01.700Z,MISSION_0002,17,0,takeoff,SITE_BLR_003,12.9715666,77.5946147,5.0,354.71,0.552,0.084,4.06,0.3553,-0.7933,354.7088,-0.99891,-0.00278,0.00706,0.04614,0.1646,-0.0228,-9.7677,0.3822,-0.2382,0.2163,0.0889,3,14,0.73,0.87,0.32,24.772,16.69,97.9,40.4,21543.0,7467,7323,7431,7400,55.2,55.8,56.9,57.5,2.613,2.98,2.892,2.787,0.88,216.6,32.6,76.6,1008.7,-30.82,-1.08,1.15,29.6,39.2,36.4,0,no_anomaly,0.0,0,0,0,0,12.9715666,77.5946147,5.0,0.0
2024-08-17T12:35:01.800Z,MISSION_0002,18,0,takeoff,SITE_BLR_003,12.9715688,77.5946161,5.0,356.48,0.582,0.106,3.91,-2.9086,-4.0028,356.4827,-0.99857,0.02642,0.03412,0.03155,-0.052,0.0371,-9.83,0.1027,0.2678,0.0493,0.0152,3,16,0.58,1.16,0.25,24.609,18.5,97.9,41.4,21528.0,7528,7493,7212,7446,54.2,55.0,54.5,60.9,2.909,3.01,2.601,2.829,0.98,213.1,32.5,76.2,1008.5,-28.59,0.18,1.59,26.4,42.9,32.4,0,no_anomaly,0.0,0,0,0,0,12.9715688,77.5946161,5.0,0.0
2024-08-17T12:35:01.900Z,MISSION_0002,19,0,takeoff,SITE_BLR_003,12.9715638,77.5946096,5.0,359.5,0.643,0.108,4.17,-0.6984,-0.8026,359.4952,-0.99995,0.00613,0.00698,0.00445,-0.0694,0.0055,-9.7547,-0.551,-0.246,-0.4142,0.1715,3,20,0.72,1.08,0.35,24.729,19.55,97.8,40.7,21513.0,7597,7706,7323,7205,55.3,58.4,58.3,56.3,2.759,2.675,2.784,2.696,2.3,224.3,32.1,76.7,1008.29,-27.83,0.03,1.84,27.0,39.5,34.2,0,no_anomaly,0.0,0,0,0,0,12.9715638,77.5946096,5.0,0.0
2024-08-17T12:35:02.000Z,MISSION_0002,20,0,takeoff,SITE_BLR_003,12.9715626,77.5946101,5.0,358.15,0.787,0.023,4.31,2.0466,-3.3257,358.1471,-0.9993,-0.01738,0.0293,0.01564,0.0094,-0.0623,-9.8683,0.155,0.3567,-0.4528,0.2322,3,12,0.65,0.93,0.23,24.726,22.95,97.7,41.2,21497.0,7239,7402,7929,7422,58.3,59.7,59.1,51.8,2.85,3.062,2.804,2.644,0.98,216.7,32.1,76.3,1008.64,-27.97,2.89,1.41,29.1,38.1,33.0,0,no_anomaly,0.0,0,0,0,0,12.9715626,77.5946101,5.0,0.0
2024-08-17T12:35:02.100Z,MISSION_0002,21,0,takeoff,SITE_BLR_003,12.9715624,77.5946102,5.0,357.74,0.778,0.237,4.34,-0.5718,-4.0245,357.7354,-0.99917,0.00568,0.03501,0.01992,-0.1189,0.068,-9.8512,-0.1203,0.595,-0.0809,0.1736,3,11,0.61,1.13,0.26,24.737,17.89,97.6,40.8,21482.0,7522,7007,7419,7535,55.5,56.4,56.7,60.6,2.89,2.849,2.625,2.697,1.91,220.9,32.3,76.7,1008.44,-34.26,1.4,1.24,30.7,38.7,33.3,0,no_anomaly,0.0,0,0,0,0,12.9715624,77.5946102,5.0,0.0
2024-08-17T12:35:02.200Z,MISSION_0002,22,0,takeoff,SITE_BLR_003,12.9715629,77.5946145,5.0,357.44,0.69,0.183,4.44,2.1474,-3.8948,357.4436,-0.99901,-0.01797,0.03439,0.02165,0.0066,-0.0364,-9.8219,-0.4437,-0.7144,-0.6626,0.1071,3,17,0.72,1.02,0.2,24.745,20.02,97.6,40.6,21467.0,7525,7162,7469,7474,58.5,60.2,56.9,56.8,2.82,2.803,2.865,2.879,1.4,220.1,32.7,77.1,1008.51,-30.66,-1.45,1.15,26.0,42.3,31.3,0,no_anomaly,0.0,0,0,0,0,12.9715629,77.5946145,5.0,0.0
2024-08-17T12:35:02.300Z,MISSION_0002,23,0,takeoff,SITE_BLR_003,12.9715658,77.5946172,5.0,355.26,0.454,0.129,4.26,1.0459,-2.7336,355.2623,-0.99883,-0.00813,0.02421,0.0411,-0.0564,0.0412,-9.8514,1.2408,0.7971,-0.064,0.1922,3,10,0.72,0.84,0.43,24.755,15.54,97.5,40.7,21452.0,7738,7487,7518,7442,58.2,55.5,55.9,56.8,2.825,2.967,2.778,2.924,1.27,220.6,31.8,75.8,1008.67,-26.4,-0.12,1.61,29.7,37.7,36.5,0,no_anomaly,0.0,0,0,0,0,12.9715658,77.5946172,5.0,0.0
2024-08-17T12:35:02.400Z,MISSION_0002,24,0,takeoff,SITE_BLR_003,12.9715609,77.5946158,5.0,357.37,0.713,0.125,4.69,4.6602,-1.8869,357.3674,-0.99879,-0.04026,0.01738,0.02228,-0.0066,0.0005,-9.8562,-0.1066,-0.6303,0.3519,0.1666,3,20,0.58,0.8,0.25,24.747,15.21,97.4,40.5,21437.0,7572,7577,7739,7524,55.0,55.3,60.0,60.7,2.795,2.857,2.814,2.755,0.74,220.0,32.6,76.8,1008.18,-24.65,0.17,1.41,24.6,39.1,35.0,0,no_anomaly,0.0,0,0,0,0,12.9715609,77.5946158,5.0,0.0
2024-08-17T12:35:02.500Z,MISSION_0002,25,0,takeoff,SITE_BLR_003,12.9715661,77.5946183,5.0,357.1,0.554,0.006,4.28,-0.8693,-0.706,357.0972,-0.99963,0.00774,0.00597,0.02537,-0.1575,0.0257,-9.796,0.1333,-0.5814,-0.5112,0.2419,3,11,0.71,1.19,0.35,24.737,18.97,97.4,41.0,21421.0,7665,7558,7650,7658,58.1,56.2,58.4,56.0,2.743,2.86,2.788,2.997,1.16,207.0,32.2,76.9,1008.51,-26.07,0.05,1.53,25.4,37.8,35.9,0,no_anomaly,0.0,0,0,0,0,12.9715661,77.5946183,5.0,0.0
2024-08-17T12:35:02.600Z,MISSION_0002,26,0,takeoff,SITE_BLR_003,12.9715651,77.5946132,5.0,359.81,0.537,0.049,4.15,4.5571,-1.4498,359.8142,-0.99913,-0.03973,0.01271,0.00112,0.1237,-0.0359,-9.8857,-0.0932,0.28,0.2006,0.1495,3,12,0.93,0.96,0.34,24.718,15.85,97.3,40.6,21406.0,7649,7698,7442,7479,56.2,59.4,55.0,56.0,2.176,2.623,2.711,2.723,0.84,212.0,32.4,76.8,1008.28,-26.22,-0.78,1.0,27.1,44.0,34.6,0,no_anomaly,0.0,0,0,0,0,12.9715651,77.5946132,5.0,0.0
2024-08-17T12:35:02.700Z,MISSION_0002,27,0,takeoff,SITE_BLR_003,12.971566,77.5946174,5.0,1.34,0.71,0.167,4.25,0.7934,-2.4753,1.3382,0.99967,0.00717,-0.02152,0.01182,0.1131,0.0215,-9.8502,-0.0754,-0.3378,-0.0417,0.1905,3,12,0.68,0.78,0.34,24.792,16.0,97.2,41.2,21391.0,7631,7404,7669,7302,56.5,55.3,55.5,59.2,2.798,2.633,2.712,2.7,1.61,229.0,32.3,76.4,1008.49,-29.38,0.27,1.96,24.5,43.8,33.1,0,no_anomaly,0.0,0,0,0,0,12.971566,77.5946174,5.0,0.0
2024-08-17T12:35:02.800Z,MISSION_0002,28,0,takeoff,SITE_BLR_003,12.9715657,77.5946168,5.0,1.88,0.583,0.15,4.25,0.1955,-4.4175,1.8756,0.99912,0.00234,-0.03851,0.01642,0.0624,0.0566,-9.7989,0.3739,-0.4187,0.4553,0.1392,3,17,0.54,1.08,0.25,24.82,23.28,97.2,41.2,21376.0,7558,7593,7325,7445,63.4,54.0,58.1,57.4,2.928,2.83,2.982,2.802,1.87,219.5,32.7,76.3,1008.5,-30.87,-0.43,1.88,27.1,38.8,35.3,0,no_anomaly,0.0,0,0,0,0,12.9715657,77.5946168,5.0,0.0
2024-08-17T12:35:02.900Z,MISSION_0002,29,0,takeoff,SITE_BLR_003,12.9715647,77.5946199,5.0,2.01,0.638,0.144,4.51,-2.0524,-0.7639,2.0119,0.99967,-0.01779,-0.00698,0.01743,0.0683,0.0281,-9.8019,0.5216,-0.0245,0.4259,0.1655,3,14,0.57,0.88,0.25,24.69,21.56,97.1,39.5,21360.0,7607,7590,7188,7502,56.6,60.3,55.8,59.1,2.95,2.741,2.995,2.738,2.15,230.7,32.3,77.3,1008.57,-27.21,0.61,1.36,27.6,46.2,37.6,0,no_anomaly,0.0,0,0,0,0,12.9715647,77.5946199,5.0,0.0
2024-08-17T12:35:03.000Z,MISSION_0002,30,0,takeoff,SITE_BLR_003,12.9715667,77.5946187,5.0,0.6,0.372,0.109,4.25,-0.7421,-1.2302,0.604,0.99991,-0.00642,-0.01077,0.0052,-0.0238,-0.0396,-9.8576,0.6332,-0.0612,-0.5873,0.1293,3,15,0.66,0.93,0.23,24.787,17.73,97.0,40.4,21345.0,7439,7558,7546,7428,57.5,57.0,59.2,54.9,2.749,2.771,3.009,2.976,1.68,212.7,32.2,76.2,1008.39,-29.83,1.88,1.46,29.0,45.3,33.9,0,no_anomaly,0.0,0,0,0,0,12.9715667,77.5946187,5.0,0.0
2024-08-17T12:35:03.100Z,MISSION_0002,31,0,takeoff,SITE_BLR_003,12.9715658,77.59462,5.0,0.86,0.524,0.129,4.41,4.2039,1.8923,0.8589,0.99917,0.03655,0.01678,0.00688,0.0075,0.0462,-9.777,0.5385,0.5208,-0.1585,0.2288,3,10,0.85,1.04,0.4,24.741,18.88,97.0,40.9,21330.0,7525,7543,7490,7466,61.3,57.9,56.9,58.0,2.638,2.96,2.821,2.77,1.33,210.4,32.6,76.9,1008.49,-24.15,0.32,2.08,28.0,40.6,32.6,0,no_anomaly,0.0,0,0,0,0,12.9715658,77.59462,5.0,0.0
2024-08-17T12:35:03.200Z,MISSION_0002,32,0,takeoff,SITE_BLR_003,12.9715609,77.5946272,5.0,359.96,1.325,0.075,5.3,-0.9149,0.2679,359.9632,-0.99997,0.00798,-0.00234,0.0003,0.0573,0.0382,-9.8348,-0.1367,-0.1296,0.0824,0.1255,3,14,0.66,0.78,0.22,24.746,16.56,96.9,39.9,21315.0,7508,7159,7486,7498,58.6,58.1,54.9,57.1,2.898,2.863,2.683,2.862,1.94,212.8,32.4,77.1,1008.25,-35.88,1.77,1.59,28.9,37.6,36.8,0,no_anomaly,0.0,0,0,0,0,12.9715609,77.5946272,5.0,0.0
2024-08-17T12:35:03.300Z,MISSION_0002,33,0,takeoff,SITE_BLR_003,12.9715597,77.5946322,5.0,1.2,1.547,0.063,5.74,0.7933,-1.5343,1.2002,0.99983,0.00706,-0.01332,0.01056,-0.0373,-0.0279,-9.7697,-0.2698,0.1419,0.0455,0.2393,3,13,0.68,1.08,0.32,24.711,15.04,96.8,40.5,21299.0,7621,7303,7612,7688,57.7,59.3,57.7,58.6,3.024,2.567,2.685,2.988,2.2,210.6,32.3,76.3,1008.51,-25.31,-2.57,1.69,27.0,39.4,35.1,0,no_anomaly,0.0,0,0,0,0,12.9715597,77.5946322,5.0,0.0
2024-08-17T12:35:03.400Z,MISSION_0002,34,0,takeoff,SITE_BLR_003,12.9715657,77.5946346,5.0,3.35,1.451,0.138,5.43,0.4481,-3.6074,3.3518,0.99907,0.00483,-0.03135,0.02935,-0.0222,-0.0276,-9.7856,-0.3534,-0.4184,0.1189,0.1271,3,12,0.63,0.77,0.21,24.756,19.98,96.7,40.1,21284.0,7379,7314,7428,7505,55.7,61.8,58.7,57.4,2.813,2.591,2.62,2.998,2.3,206.6,32.5,76.5,1008.57,-28.59,1.38,1.4,28.7,43.2,37.0,0,no_anomaly,0.0,0,0,0,0,12.9715657,77.5946346,5.0,0.0
2024-08-17T12:35:03.500Z,MISSION_0002,35,0,takeoff,SITE_BLR_003,12.9715643,77.5946355,5.0,3.73,1.32,0.124,5.6,-3.7887,-2.2925,3.731,0.99875,-0.03238,-0.02106,0.03187,-0.0812,-0.056,-9.8445,0.4134,-0.5556,-0.2662,0.1651,3,11,0.62,0.73,0.3,24.707,18.86,96.7,40.4,21269.0,7550,7589,7468,7262,58.1,56.8,59.2,55.7,2.753,2.578,2.917,2.984,1.24,216.7,32.4,76.9,1008.47,-32.43,-0.71,1.71,24.4,44.1,32.4,0,no_anomaly,0.0,0,0,0,0,12.9715643,77.5946355,5.0,0.0
2024-08-17T12:35:03.600Z,MISSION_0002,36,0,takeoff,SITE_BLR_003,12.9715676,77.5946411,5.0,1.18,1.293,0.162,5.83,-0.1805,-3.0736,1.1804,0.99959,-0.0013,-0.02683,0.01026,0.0325,0.056,-9.9087,-1.0248,0.8287,-0.0719,0.1342,3,11,0.59,0.91,0.32,24.737,19.22,96.6,39.6,21254.0,7598,7488,7395,7583,55.8,58.6,59.9,57.8,2.736,2.714,2.857,2.735,2.67,210.6,32.5,76.9,1008.42,-30.39,0.27,1.55,29.4,44.1,35.7,0,no_anomaly,0.0,0,0,0,0,12.9715676,77.5946411,5.0,0.0
2024-08-17T12:35:03.700Z,MISSION_0002,37,0,takeoff,SITE_BLR_003,12.9715664,77.5946426,5.0,359.53,1.492,0.11,6.04,-0.1964,-0.4031,359.5297,-0.99998,0.00173,0.00351,0.00411,-0.0341,0.0907,-9.7895,0.2602,-0.3463,0.076,0.1023,3,10,0.55,0.87,0.28,24.707,17.86,96.5,40.4,21238.0,7823,7578,7248,7405,56.7,56.0,57.6,56.3,2.723,2.823,2.569,2.477,2.11,221.8,32.9,77.6,1008.64,-28.89,0.3,1.44,28.0,41.9,38.6,0,no_anomaly,0.0,0,0,0,0,12.9715664,77.5946426,5.0,0.0
2024-08-17T12:35:03.800Z,MISSION_0002,38,0,takeoff,SITE_BLR_003,12.9715657,77.5946426,5.0,358.93,1.631,0.169,6.09,1.3111,-3.8363,358.9284,-0.99933,-0.01112,0.03357,0.00896,0.2084,-0.039,-9.9443,-0.0409,-0.5742,-0.016,0.1333,3,10,0.74,1.05,0.22,24.69,20.85,96.5,40.2,21223.0,7205,7579,7402,7392,57.7,57.5,59.5,55.0,3.139,2.588,2.742,2.67,1.51,217.7,32.1,75.5,1008.58,-29.5,0.26,1.89,26.6,40.2,36.1,0,no_anomaly,0.0,0,0,0,0,12.9715657,77.5946426,5.0,0.0
2024-08-17T12:35:03.900Z,MISSION_0002,39,0,takeoff,SITE_BLR_003,12.9715667,77.594641,5.0,358.91,1.953,0.182,5.88,1.3044,-2.4949,358.9132,-0.99966,-0.01117,0.02188,0.00923,0.0158,0.0379,-9.8715,-0.4025,0.4617,-0.5189,0.0752,3,16,0.58,1.04,0.2,24.746,17.92,96.4,41.4,21208.0,7506,7647,7556,7419,57.5,57.5,56.6,59.3,3.177,2.817,2.907,2.879,0.18,220.1,32.3,76.4,1009.01,-28.68,-1.25,1.0,27.4,43.0,37.5,0,no_anomaly,0.0,0,0,0,0,12.9715667,77.594641,5.0,0.0
2024-08-17T12:35:04.000Z,MISSION_0002,40,0,takeoff,SITE_BLR_003,12.9715694,77.5946374,5.0,357.84,2.607,0.057,5.38,-1.2902,-2.7999,357.8437,-0.99946,0.01171,0.02421,0.01908,0.0535,-0.0132,-9.7878,0.1439,-0.0726,0.3628,0.066,3,17,0.71,0.81,0.4,24.696,25.07,96.3,40.3,21193.0,7503,7650,7343,7713,57.5,58.3,58.6,57.3,2.679,2.814,2.498,2.603,1.42,225.4,32.4,77.1,1008.68,-25.45,0.98,1.04,27.8,41.7,36.3,0,no_anomaly,0.0,0,0,0,0,12.9715694,77.5946374,5.0,0.0
2024-08-17T12:35:04.100Z,MISSION_0002,41,0,takeoff,SITE_BLR_003,12.9715733,77.5946332,5.0,356.31,3.059,0.214,4.74,2.9612,-2.0243,356.3095,-0.99901,-0.02525,0.01848,0.03173,-0.0019,0.0586,-9.7834,0.3032,-0.4624,0.3448,0.1197,3,11,0.56,0.78,0.2,24.777,17.44,96.3,40.7,21178.0,7170,7627,7368,7545,58.3,58.8,58.1,61.3,2.831,3.137,2.896,2.841,1.93,218.6,32.5,77.2,1008.79,-28.65,0.35,1.57,29.3,39.6,39.3,0,no_anomaly,0.0,0,0,0,0,12.9715733,77.5946332,5.0,0.0
2024-08-17T12:35:04.200Z,MISSION_0002,42,0,transit,SITE_BLR_003,12.9715765,77.5946348,5.5,357.3,3.23,0.089,4.67,-1.3982,-2.098,357.3046,-0.99948,0.01263,0.01801,0.02374,-0.0954,0.0288,-9.7884,0.3497,-0.3874,0.2893,0.1533,3,17,0.92,1.02,0.31,24.633,20.27,96.2,40.0,21162.0,7379,7344,7402,7707,55.6,56.6,54.6,54.1,2.758,2.831,2.627,2.572,0.55,218.4,32.4,76.8,1008.46,-27.2,-1.43,1.31,30.8,43.8,38.4,0,no_anomaly,0.0,0,0,0,0,12.9715765,77.5946348,5.5,0.0
2024-08-17T12:35:04.300Z,MISSION_0002,43,0,transit,SITE_BLR_003,12.9715742,77.5946357,6.0,355.23,2.747,0.095,4.91,-1.3466,-0.9319,355.2327,-0.99903,0.01208,0.00764,0.04168,0.0927,-0.0237,-9.7685,0.6909,0.0189,0.1909,0.2231,3,15,0.63,0.86,0.35,24.652,19.84,96.1,40.2,21147.0,7696,7314,7481,7334,54.6,53.7,57.2,58.5,2.803,2.835,2.735,2.948,1.85,218.3,32.4,76.4,1008.49,-29.38,-0.47,2.08,27.1,42.2,36.4,0,no_anomaly,0.0,0,0,0,0,12.9715742,77.5946357,6.0,0.0
2024-08-17T12:35:04.400Z,MISSION_0002,44,0,transit,SITE_BLR_003,12.9715749,77.5946306,6.5,354.86,2.707,0.094,4.4,-0.0162,-1.7381,354.8591,-0.99888,0.00082,0.01515,0.04485,0.0025,0.0203,-9.8167,0.494,0.3289,0.6738,0.1648,3,20,0.63,0.88,0.22,24.698,22.65,96.1,40.4,21132.0,7409,7571,7372,7363,58.3,53.9,56.5,59.2,2.525,2.536,2.585,2.39,2.43,218.2,32.6,76.8,1008.45,-32.01,-1.29,2.16,30.5,43.4,37.9,0,no_anomaly,0.0,0,0,0,0,12.9715749,77.5946306,6.5,0.0
2024-08-17T12:35:04.500Z,MISSION_0002,45,0,transit,SITE_BLR_003,12.9715731,77.5946288,7.0,353.34,3.041,0.203,4.39,-1.0079,0.0298,353.335,-0.99827,0.00877,-0.00077,0.05813,-0.0661,-0.03,-9.8326,-0.4495,-0.2932,0.1652,0.1898,3,11,0.73,0.72,0.25,24.667,24.62,96.0,41.0,21117.0,7679,7390,7305,7583,56.6,58.1,58.3,56.7,2.951,2.581,2.816,2.902,2.34,218.3,32.6,75.8,1008.56,-26.23,1.19,2.2,25.7,45.3,34.2,0,no_anomaly,0.0,0,0,0,0,12.9715731,77.5946288,7.0,0.0
2024-08-17T12:35:04.600Z,MISSION_0002,46,0,transit,SITE_BLR_003,12.9715704,77.5946334,7.5,353.59,2.645,0.156,4.97,1.7178,-0.0177,353.5879,-0.99832,-0.01496,0.00099,0.05592,-0.0321,-0.0224,-9.7999,-0.9053,0.3549,0.5074,0.0972,3,13,0.88,1.05,0.35,24.726,24.12,95.9,40.6,21101.0,7558,7419,7481,7604,57.1,56.5,59.8,58.5,2.728,3.063,3.117,2.952,0.89,219.7,32.3,76.8,1008.66,-28.23,-1.58,1.86,29.6,38.0,34.5,0,no_anomaly,0.0,0,0,0,0,12.9715704,77.5946334,7.5,0.0
2024-08-17T12:35:04.700Z,MISSION_0002,47,0,transit,SITE_BLR_003,12.9715709,77.5946349,8.0,353.38,2.29,0.045,5.06,-3.9729,-2.926,353.3822,-0.99736,0.03607,0.02347,0.05855,0.063,-0.0519,-9.757,0.6956,0.2364,-0.0498,0.181,3,13,0.82,0.87,0.33,24.651,20.0,95.8,39.5,21086.0,7458,7374,7488,7382,53.7,56.2,56.5,59.6,2.704,2.673,2.621,2.971,1.37,219.0,32.3,76.6,1008.43,-34.63,-1.75,1.23,30.2,42.9,34.6,0,no_anomaly,0.0,0,0,0,0,12.9715709,77.5946349,8.0,0.0
2024-08-17T12:35:04.800Z,MISSION_0002,48,0,transit,SITE_BLR_003,12.9715724,77.5946324,8.5,351.73,3.105,0.103,4.74,-1.8228,-0.8073,351.7307,-0.99724,0.01637,0.00588,0.0722,-0.0751,-0.077,-9.8145,-0.6705,-0.1966,-0.2388,0.1923,3,15,0.55,1.0,0.24,24.679,17.28,95.8,40.6,21071.0,7538,7563,7464,7332,59.3,57.5,56.3,55.5,2.938,3.008,2.886,2.896,2.07,215.8,32.7,76.5,1008.64,-23.6,-1.06,1.43,26.7,45.5,33.8,0,no_anomaly,0.0,0,0,0,0,12.9715724,77.5946324,8.5,0.0
2024-08-17T12:35:04.900Z,MISSION_0002,49,0,transit,SITE_BLR_003,12.9715637,77.5946337,9.0,353.23,3.142,0.068,5.52,-2.0749,-3.8007,353.2284,-0.99751,0.02002,0.03203,0.05962,-0.0442,-0.0604,-9.7312,0.2338,0.7223,-0.0867,0.0915,3,13,0.63,0.83,0.22,24.749,22.31,95.7,40.7,21056.0,7258,7551,7460,7717,59.3,57.8,53.3,57.2,2.702,2.861,2.629,2.839,0.38,210.7,32.3,76.9,1008.51,-32.64,-0.55,1.62,27.9,37.7,34.3,0,no_anomaly,0.0,0,0,0,0,12.9715637,77.5946337,9.0,0.0
2024-08-17T12:35:05.000Z,MISSION_0002,50,0,transit,SITE_BLR_003,12.9715608,77.5946305,9.5,352.4,2.648,0.128,5.53,3.1638,-2.0065,352.3992,-0.9973,-0.02638,0.01929,0.06576,-0.0728,-0.0527,-9.8704,0.1856,-0.8267,-0.0534,0.1584,3,19,0.64,0.75,0.31,24.63,18.49,95.6,40.6,21040.0,7418,7329,7425,7560,56.0,58.4,57.0,56.3,2.691,2.835,2.969,2.818,1.0,223.1,32.3,76.8,1008.57,-32.66,1.73,1.45,28.1,40.4,35.5,0,no_anomaly,0.0,0,0,0,0,12.9715608,77.5946305,9.5,0.0
2024-08-17T12:35:05.100Z,MISSION_0002,51,0,transit,SITE_BLR_003,12.9715566,77.5946303,10.0,353.15,2.681,0.193,5.89,2.4437,-1.5322,353.1514,-0.99792,-0.02049,0.01462,0.05943,-0.0193,0.0105,-9.8346,0.1802,0.1796,-0.3716,0.1684,3,20,0.92,0.98,0.2,24.663,15.5,95.6,40.4,21025.0,7614,7404,7794,7079,57.0,58.3,55.1,55.3,2.913,3.089,3.107,2.748,2.16,217.3,32.3,77.0,1008.52,-27.25,-0.21,1.16,30.2,44.3,38.2,0,no_anomaly,0.0,0,0,0,0,12.9715566,77.5946303,10.0,0.0
2024-08-17T12:35:05.200Z,MISSION_0002,52,0,transit,SITE_BLR_003,12.9715632,77.5946258,10.5,352.88,2.247,0.122,5.01,-3.0875,-2.1738,352.8839,-0.9975,0.02806,0.01725,0.06254,-0.0359,-0.0506,-9.7681,0.6494,0.2564,-0.563,0.1467,3,17,0.73,0.77,0.32,24.658,16.66,95.5,40.0,21010.0,7639,7708,7493,7662,60.6,57.8,57.4,58.4,2.674,2.882,2.823,2.604,0.84,212.7,32.3,76.1,1008.61,-28.46,-0.34,1.49,26.0,38.9,35.5,0,no_anomaly,0.0,0,0,0,0,12.9715632,77.5946258,10.5,0.0
2024-08-17T12:35:05.300Z,MISSION_0002,53,0,transit,SITE_BLR_003,12.9715602,77.5946295,11.0,353.25,2.286,0.036,5.51,-1.8583,-1.0709,353.2526,-0.99808,0.01674,0.00837,0.05899,0.09,-0.0068,-9.7636,-0.2024,-0.0311,0.6258,0.1112,3,15,0.75,0.84,0.32,24.716,16.44,95.4,40.2,20995.0,7602,7541,7692,7557,61.2,58.9,61.3,60.9,2.704,3.022,2.941,2.931,2.08,216.1,32.2,76.5,1008.54,-29.01,-0.42,2.19,24.9,37.1,32.2,0,no_anomaly,0.0,0,0,0,0,12.9715602,77.5946295,11.0,0.0
2024-08-17T12:35:05.400Z,MISSION_0002,54,0,transit,SITE_BLR_003,12.9715629,77.5946296,11.5,352.51,2.431,0.001,5.28,2.2666,-1.6893,352.5104,-0.99758,-0.01877,0.016,0.065,0.0693,0.0042,-9.823,0.3492,0.1143,0.3013,0.2068,3,20,0.69,1.0,0.35,24.7,20.75,95.4,40.6,20980.0,7557,7597,7428,7264,57.3,57.2,60.8,58.1,2.884,2.738,2.711,2.675,0.86,221.3,32.8,76.6,1008.13,-29.08,1.48,1.66,26.6,42.2,36.0,0,no_anomaly,0.0,0,0,0,0,12.9715629,77.5946296,11.5,0.0
2024-08-17T12:35:05.500Z,MISSION_0002,55,0,transit,SITE_BLR_003,12.9715636,77.5946272,12.0,351.24,2.511,0.153,5.06,-1.1432,-0.46,351.2405,-0.99702,0.01025,0.00324,0.0764,-0.0092,0.02,-9.7817,0.1259,0.1072,0.0425,0.2044,3,18,0.78,0.8,0.23,24.638,20.54,95.3,40.0,20964.0,7424,7320,7661,7621,59.3,56.6,54.0,55.8,2.598,2.596,2.971,2.763,1.63,223.2,32.2,77.0,1008.6,-33.06,0.61,1.06,29.8,43.4,37.3,0,no_anomaly,0.0,0,0,0,0,12.9715636,77.5946272,12.0,0.0
2024-08-17T12:35:05.600Z,MISSION_0002,56,0,transit,SITE_BLR_003,12.9715622,77.5946236,12.5,351.6,2.659,0.026,4.96,-0.6177,-3.4715,351.6032,-0.99683,0.00759,0.02981,0.07334,0.0608,0.0592,-9.7623,0.7945,-0.3258,-0.4246,0.1503,3,10,0.66,1.05,0.2,24.628,19.53,95.2,40.7,20949.0,7625,7509,7236,8042,57.6,63.3,57.3,55.4,2.752,2.965,2.893,2.846,1.46,218.3,32.2,76.4,1008.6,-30.45,1.2,1.77,25.0,41.3,31.6,0,no_anomaly,0.0,0,0,0,0,12.9715622,77.5946236,12.5,0.0
2024-08-17T12:35:05.700Z,MISSION_0002,57,0,transit,SITE_BLR_003,12.9715621,77.5946255,13.0,351.58,3.138,0.163,5.09,0.9901,-1.9731,351.5814,-0.99713,-0.00735,0.0178,0.07324,-0.1205,0.0175,-9.785,-0.3568,-0.5781,0.3284,0.0813,3,19,0.72,0.9,0.32,24.626,19.21,95.2,40.1,20934.0,7538,7602,7661,7751,57.0,57.0,60.1,58.7,2.986,3.093,2.673,2.921,1.19,225.5,32.3,75.8,1008.5,-33.56,0.92,1.33,30.7,45.0,33.6,0,no_anomaly,0.0,0,0,0,0,12.9715621,77.5946255,13.0,0.0
2024-08-17T12:35:05.800Z,MISSION_0002,58,0,transit,SITE_BLR_003,12.9715609,77.5946216,13.5,348.57,3.503,0.078,4.97,2.9025,-2.9028,348.5672,-0.99445,-0.02267,0.02772,0.0989,-0.0233,0.0404,-9.7688,0.8896,0.3108,-0.3076,0.1693,3,12,0.63,0.89,0.32,24.627,19.53,95.1,40.0,20919.0,7381,7447,7774,7534,62.8,59.4,59.5,55.3,2.777,2.629,2.754,2.731,1.47,221.8,32.5,77.0,1008.26,-30.79,0.84,1.06,27.1,46.9,37.0,0,no_anomaly,0.0,0,0,0,0,12.9715609,77.5946216,13.5,0.0
2024-08-17T12:35:05.900Z,MISSION_0002,59,0,transit,SITE_BLR_003,12.9715653,77.594621,14.0,351.36,3.524,0.038,4.52,2.5703,-1.9104,351.3601,-0.9968,-0.02111,0.01831,0.07492,0.0213,0.0058,-9.821,-0.1287,0.1128,0.1645,0.1414,3,11,0.75,0.67,0.37,24.633,14.82,95.0,41.5,20903.0,7743,7530,7692,7482,56.6,56.3,56.2,57.0,2.693,2.373,2.772,2.655,1.63,216.4,32.2,76.2,1008.74,-28.1,0.01,1.12,26.4,37.8,34.1,0,no_anomaly,0.0,0,0,0,0,12.9715653,77.594621,14.0,0.0
2024-08-17T12:35:06.000Z,MISSION_0002,60,0,transit,SITE_BLR_003,12.9715659,77.5946155,14.5,350.05,3.513,0.087,4.17,-1.9542,-1.8785,350.0467,-0.99593,0.01841,0.01485,0.087,-0.0669,-0.0067,-9.8385,0.0561,0.7204,0.2679,0.0757,3,11,0.95,1.08,0.31,24.625,20.78,94.9,40.9,20888.0,7799,7610,7434,7458,58.8,54.8,60.5,56.4,2.944,2.98,3.258,2.754,1.35,216.0,32.3,76.4,1008.46,-29.48,-0.64,1.86,30.7,44.4,36.5,0,no_anomaly,0.0,0,0,0,0,12.9715659,77.5946155,14.5,0.0
2024-08-17T12:35:06.100Z,MISSION_0002,61,0,transit,SITE_BLR_003,12.9715674,77.594616,15.0,351.28,3.959,0.091,4.05,0.5812,-1.1104,351.2796,-0.99705,-0.00432,0.01005,0.07597,0.1958,0.0285,-9.8345,-0.0342,-0.8329,0.1636,0.1023,3,11,0.61,0.77,0.31,24.654,22.27,94.9,40.8,20873.0,7567,7479,7611,7473,57.8,59.7,60.2,56.7,2.856,2.888,2.836,2.915,1.87,226.8,32.5,76.5,1008.54,-23.53,-0.16,2.0,26.0,42.1,36.9,0,no_anomaly,0.0,0,0,0,0,12.9715674,77.594616,15.0,0.0
2024-08-17T12:35:06.200Z,MISSION_0002,62,0,transit,SITE_BLR_003,12.9715641,77.5946163,15.5,352.68,4.175,0.19,4.39,0.7077,0.6051,352.6786,-0.99792,-0.0065,-0.00488,0.06388,0.1701,0.0249,-9.7301,0.1746,0.044,0.2883,0.1262,3,20,0.5,0.86,0.2,24.646,18.45,94.8,40.3,20858.0,7381,7359,7442,7483,56.9,58.0,58.9,55.5,2.669,3.05,2.914,2.684,0.86,215.2,32.4,76.6,1008.44,-30.76,0.68,1.0,27.0,37.6,34.9,0,no_anomaly,0.0,0,0,0,0,12.9715641,77.5946163,15.5,0.0
2024-08-17T12:35:06.300Z,MISSION_0002,63,0,transit,SITE_BLR_003,12.9715664,77.5946109,16.0,352.04,3.551,0.101,3.93,-0.0386,-2.6691,352.0411,-0.99732,0.00195,0.02321,0.06939,-0.1299,0.0505,-9.7755,0.5149,-0.7533,-0.3011,0.1898,3,18,0.78,1.11,0.29,24.658,21.62,94.7,39.9,20842.0,7571,7922,7488,7301,58.4,55.7,57.3,59.7,2.884,2.727,2.926,2.55,1.58,215.7,32.3,77.0,1008.61,-37.08,-1.21,1.5,30.3,46.5,37.1,0,no_anomaly,0.0,0,0,0,0,12.9715664,77.5946109,16.0,0.0
2024-08-17T12:35:06.400Z,MISSION_0002,64,0,transit,SITE_BLR_003,12.9715694,77.5946126,16.5,350.97,3.752,0.181,3.68,1.8699,0.1003,350.9731,-0.99676,-0.01634,0.00041,0.0787,-0.042,-0.0182,-9.766,0.4208,-0.2552,-0.2017,0.1081,3,10,0.71,0.77,0.31,24.575,17.38,94.7,40.7,20827.0,7406,7481,7525,7862,54.9,58.0,55.5,55.4,2.669,2.777,3.015,2.976,1.26,216.3,32.6,77.3,1008.52,-28.23,0.06,1.31,27.5,41.4,33.7,0,no_anomaly,0.0,0,0,0,0,12.9715694,77.5946126,16.5,0.0
2024-08-17T12:35:06.500Z,MISSION_0002,65,0,transit,SITE_BLR_003,12.9715662,77.5946066,17.0,347.87,3.691,0.176,3.84,0.9862,-0.7354,347.8651,-0.99435,-0.00788,0.00729,0.10564,0.0194,-0.0361,-9.7773,-0.5991,-0.5519,0.1839,0.0681,3,12,0.62,0.75,0.26,24.689,21.69,94.6,40.3,20812.0,7521,7657,7467,7410,56.2,56.3,57.6,57.5,2.775,2.68,2.66,2.897,1.66,215.5,32.6,76.3,1008.77,-30.17,1.21,1.48,25.9,39.1,34.2,0,no_anomaly,0.0,0,0,0,0,12.9715662,77.5946066,17.0,0.0
2024-08-17T12:35:06.600Z,MISSION_0002,66,0,transit,SITE_BLR_003,12.9715657,77.5946034,17.5,349.82,3.478,0.112,3.84,-0.9923,-2.572,349.8214,-0.99575,0.01061,0.02159,0.08888,0.1624,-0.0476,-9.8401,-0.1711,0.2636,-0.0208,0.0964,3,12,0.76,1.1,0.2,24.624,21.28,94.5,40.0,20797.0,7526,7740,7642,7627,59.0,58.2,56.9,59.5,2.729,2.776,2.552,2.728,1.53,217.8,32.7,75.4,1008.45,-27.23,-0.44,1.38,27.2,46.1,32.1,0,no_anomaly,0.0,0,0,0,0,12.9715657,77.5946034,17.5,0.0
2024-08-17T12:35:06.700Z,MISSION_0002,67,0,transit,SITE_BLR_003,12.9715646,77.594597,18.0,349.64,3.372,0.101,3.95,-0.854,-3.655,349.6353,-0.99536,0.0103,0.03109,0.09051,-0.007,-0.0583,-9.8521,-0.0997,0.5108,0.1231,0.1604,3,11,0.9,0.97,0.27,24.628,17.11,94.5,40.5,20782.0,7490,7410,7690,7701,57.9,55.5,57.8,56.3,2.993,2.621,2.899,2.895,1.93,218.6,32.5,76.7,1008.33,-30.99,2.39,1.24,26.4,44.4,35.0,0,no_anomaly,0.0,0,0,0,0,12.9715646,77.594597,18.0,0.0
2024-08-17T12:35:06.800Z,MISSION_0002,68,0,transit,SITE_BLR_003,12.9715606,77.5945932,18.5,348.97,3.447,0.078,4.45,-1.3375,-4.1546,348.9662,-0.99461,0.01509,0.03496,0.09649,0.0732,-0.0769,-9.786,-0.3757,0.6088,-0.1577,0.0417,3,12,0.7,0.77,0.34,24.671,17.84,94.4,40.1,20766.0,7389,7466,7759,7532,59.4,54.6,53.7,55.6,2.899,2.757,2.933,2.99,1.01,221.8,32.3,77.0,1008.36,-25.84,1.03,1.02,28.5,40.4,30.6,0,no_anomaly,0.0,0,0,0,0,12.9715606,77.5945932,18.5,0.0
2024-08-17T12:35:06.900Z,MISSION_0002,69,0,transit,SITE_BLR_003,12.9715618,77.59459,19.0,349.48,3.31,0.205,4.39,0.6976,-2.5457,349.4838,-0.99554,-0.00402,0.02268,0.09148,-0.176,0.0254,-9.7515,-0.4179,0.4048,-0.184,0.0622,3,12,0.64,0.87,0.2,24.72,15.06,94.3,40.3,20751.0,7418,7760,7330,7680,57.9,55.0,56.8,57.2,2.888,2.703,2.895,2.807,1.71,213.2,32.5,76.9,1008.6,-30.72,0.11,1.52,24.8,44.4,35.3,0,no_anomaly,0.0,0,0,0,0,12.9715618,77.59459,19.0,0.0
2024-08-17T12:35:07.000Z,MISSION_0002,70,0,transit,SITE_BLR_003,12.9715634,77.5945906,19.5,352.21,3.292,0.047,4.2,1.6177,1.128,352.2105,-0.99753,-0.01475,-0.00886,0.06805,0.0521,-0.0142,-9.8467,-0.2478,0.1959,0.5353,0.1599,3,14,0.66,0.85,0.25,24.584,18.27,94.3,40.4,20736.0,7976,7698,7398,7324,54.9,60.4,54.8,60.8,2.836,2.763,2.628,2.99,1.76,222.1,32.5,77.0,1008.89,-30.82,0.67,1.94,28.5,46.1,36.9,0,no_anomaly,0.0,0,0,0,0,12.9715634,77.5945906,19.5,0.0
2024-08-17T12:35:07.100Z,MISSION_0002,71,0,transit,SITE_BLR_003,12.9715652,77.5945939,20.0,353.13,2.885,0.161,3.94,1.6139,-1.82,353.1349,-0.99799,-0.01311,0.0167,0.05964,0.1592,-0.072,-9.8666,0.3627,0.7558,-0.0361,0.124,3,12,0.72,0.83,0.36,24.625,21.54,94.2,40.0,20721.0,7819,7243,7402,7900,57.7,56.2,55.0,56.7,2.843,2.873,2.848,2.532,1.56,219.3,32.2,76.2,1008.49,-28.95,0.03,1.13,28.2,42.9,34.1,0,no_anomaly,0.0,0,0,0,0,12.9715652,77.5945939,20.0,0.0
2024-08-17T12:35:07.200Z,MISSION_0002,72,0,transit,SITE_BLR_003,12.9715615,77.5945958,20.5,351.23,3.21,0.104,4.31,-2.6168,-2.4194,351.2323,-0.99656,0.02438,0.0193,0.07688,0.0274,0.0395,-9.8213,-0.3514,0.7095,0.0544,0.1212,3,16,0.52,0.93,0.21,24.579,17.26,94.1,40.7,20705.0,7634,7411,7413,7581,55.9,57.1,61.1,57.5,2.953,2.613,2.685,2.682,0.93,208.8,32.4,77.1,1008.78,-29.42,0.39,1.22,28.2,38.4,35.1,0,no_anomaly,0.0,0,0,0,0,12.9715615,77.5945958,20.5,0.0
2024-08-17T12:35:07.300Z,MISSION_0002,73,0,transit,SITE_BLR_003,12.9715595,77.5945956,21.0,349.73,3.661,0.058,4.53,0.5182,-0.5094,349.731,-0.99597,-0.00411,0.00483,0.08947,-0.029,0.051,-9.7728,0.6395,-0.6719,0.0224,0.1846,3,19,0.61,0.98,0.28,24.68,20.83,94.0,40.9,20690.0,7631,7744,7459,7618,60.0,56.0,56.2,58.6,3.007,2.78,2.814,2.855,1.24,228.6,32.1,76.9,1008.21,-32.77,0.09,1.53,27.1,40.2,35.0,0,no_anomaly,0.0,0,0,0,0,12.9715595,77.5945956,21.0,0.0
2024-08-17T12:35:07.400Z,MISSION_0002,74,0,transit,SITE_BLR_003,12.9715624,77.594592,21.5,351.17,3.242,0.089,4.28,0.8251,-0.5973,351.1733,-0.997,-0.00678,0.00575,0.07691,0.0457,-0.0611,-9.7535,0.2729,-1.1789,0.0332,0.2714,3,20,0.81,0.83,0.37,24.624,22.66,94.0,40.2,20675.0,7750,7707,7665,7880,59.6,59.6,59.8,59.0,2.87,2.698,2.7,2.865,1.79,217.7,32.6,76.5,1008.42,-31.44,-0.14,1.48,25.7,40.7,34.8,0,no_anomaly,0.0,0,0,0,0,12.9715624,77.594592,21.5,0.0
2024-08-17T12:35:07.500Z,MISSION_0002,75,0,transit,SITE_BLR_003,12.9715621,77.5945887,22.0,354.19,3.439,0.052,4.4,-0.0246,0.1247,354.1933,-0.99872,0.00016,-0.0011,0.05065,-0.0163,-0.0017,-9.8452,-0.4703,0.1054,0.3192,0.0858,3,18,0.68,0.87,0.32,24.62,21.98,93.9,41.0,20660.0,7472,7528,7584,7506,55.8,60.5,54.0,58.0,3.005,2.679,2.804,2.935,0.0,217.4,32.5,76.1,1008.5,-34.72,0.96,1.26,30.8,40.4,36.8,0,no_anomaly,0.0,0,0,0,0,12.9715621,77.5945887,22.0,0.0
2024-08-17T12:35:07.600Z,MISSION_0002,76,0,transit,SITE_BLR_003,12.9715621,77.5945888,22.0,356.68,3.867,0.109,4.4,-1.4582,-1.9357,356.6756,-0.99935,0.01321,0.01651,0.02922,-0.0928,-0.0696,-9.8433,0.8417,-0.8438,0.1729,0.1527,3,11,0.63,1.0,0.29,24.638,19.48,93.8,40.5,20644.0,7445,7596,7496,7596,56.3,56.2,56.5,60.1,2.593,3.066,2.915,2.566,1.2,209.5,32.6,76.7,1008.55,-28.06,1.28,1.57,27.9,47.2,38.6,0,no_anomaly,0.0,0,0,0,0,12.9715621,77.5945888,22.0,0.0
2024-08-17T12:35:07.700Z,MISSION_0002,77,0,transit,SITE_BLR_003,12.9715644,77.5945883,22.0,358.86,3.772,0.101,4.17,1.1036,-3.06,358.861,-0.99955,-0.00936,0.02679,0.00968,-0.1254,0.0179,-9.9002,1.0746,-0.1771,-0.0233,0.1142,3,18,0.71,0.95,0.22,24.51,16.58,93.8,40.4,20629.0,7614,7599,7684,7325,55.8,56.7,60.6,63.0,2.598,2.964,2.813,2.883,0.82,224.4,32.3,76.4,1008.51,-36.66,-1.31,1.42,28.5,44.5,35.1,0,no_anomaly,0.0,0,0,0,0,12.9715644,77.5945883,22.0,0.0
2024-08-17T12:35:07.800Z,MISSION_0002,78,0,transit,SITE_BLR_003,12.9715638,77.5945888,22.0,0.21,3.546,0.165,4.22,2.6225,-1.9262,0.2051,0.99959,0.02291,-0.01676,0.00217,0.1005,-0.0171,-9.8533,0.0401,1.282,-0.4095,0.1636,3,14,0.72,0.96,0.2,24.659,20.66,93.7,39.9,20614.0,7591,7535,7518,7565,59.7,58.5,55.5,58.6,2.793,2.708,2.614,2.921,1.2,222.2,32.3,76.3,1008.79,-33.23,1.99,2.29,30.6,39.1,33.7,0,no_anomaly,0.0,0,0,0,0,12.9715638,77.5945888,22.0,0.0
2024-08-17T12:35:07.900Z,MISSION_0002,79,0,transit,SITE_BLR_003,12.9715642,77.5945847,22.0,0.32,3.18,0.132,4.34,-0.3603,-0.4268,0.321,0.99998,-0.00313,-0.00373,0.00279,0.1164,0.0138,-9.7431,-0.23,0.8503,-0.2169,0.0893,3,17,0.65,0.79,0.29,24.697,19.64,93.6,40.8,20599.0,7364,7586,7837,7783,55.4,56.7,64.4,58.4,3.027,3.039,2.633,2.909,1.58,226.4,31.9,77.1,1008.12,-24.11,-0.83,2.53,27.6,39.2,37.2,0,no_anomaly,0.0,0,0,0,0,12.9715642,77.5945847,22.0,0.0
2024-08-17T12:35:08.000Z,MISSION_0002,80,0,transit,SITE_BLR_003,12.9715638,77.594583,22.0,1.02,3.234,0.074,4.45,1.1421,-0.1311,1.0202,0.99991,0.00998,-0.00106,0.00891,-0.08,-0.0102,-9.8523,-0.4604,0.9663,-0.3807,0.0886,3,10,0.92,0.88,0.36,24.653,16.0,93.6,40.2,20584.0,7479,7728,7672,7477,57.3,59.1,52.8,58.2,2.914,2.662,2.898,2.802,2.39,215.0,32.6,77.0,1008.58,-28.23,-1.47,1.52,27.3,41.1,35.4,0,no_anomaly,0.0,0,0,0,0,12.9715638,77.594583,22.0,0.0
2024-08-17T12:35:08.100Z,MISSION_0002,81,0,transit,SITE_BLR_003,12.971563,77.5945738,22.0,0.05,3.564,0.073,5.05,-0.532,-1.3222,0.0473,0.99992,-0.00464,-0.01154,0.00036,-0.037,-0.0713,-9.7726,-0.6142,-0.1311,0.1093,0.0958,3,15,0.86,1.2,0.27,24.592,18.47,93.5,41.2,20568.0,7644,7684,7769,7436,58.6,57.7,58.4,59.9,2.777,2.695,2.642,3.063,1.47,210.8,32.5,75.6,1008.62,-25.85,-1.71,1.04,26.4,46.0,34.4,0,no_anomaly,0.0,0,0,0,0,12.971563,77.5945738,22.0,0.0
2024-08-17T12:35:08.200Z,MISSION_0002,82,0,transit,SITE_BLR_003,12.9715668,77.5945708,22.0,359.48,3.323,0.131,4.92,0.6234,-3.6132,359.4797,-0.99948,-0.00529,0.03155,0.00437,-0.0957,-0.0076,-9.7931,0.0752,-0.2198,0.2005,0.1412,3,11,0.58,0.6,0.26,24.616,16.33,93.4,41.5,20553.0,7814,7763,7605,7097,59.9,55.7,56.4,59.4,3.105,3.031,2.826,2.911,0.93,209.5,32.6,76.9,1008.48,-26.76,0.32,1.07,25.9,46.6,33.2,0,no_anomaly,0.0,0,0,0,0,12.9715668,77.5945708,22.0,0.0
2024-08-17T12:35:08.300Z,MISSION_0002,83,1,transit,SITE_BLR_003,12.9715642,77.5945712,22.0,0.68,3.595,0.129,5.11,3.0752,-1.9475,0.6829,0.99948,0.02693,-0.01683,0.00641,-0.0885,0.0543,-9.8059,-0.6413,0.3119,0.4236,0.1489,3,10,0.84,0.83,0.27,24.67,18.74,93.4,41.3,20538.0,7597,7754,7666,7436,53.6,59.1,58.7,55.5,2.92,3.009,2.694,2.51,1.97,224.0,32.3,76.0,1008.63,-32.2,0.77,1.6,27.4,38.5,36.8,0,no_anomaly,0.0,0,0,0,0,12.9715642,77.5945712,22.0,0.0
2024-08-17T12:35:08.400Z,MISSION_0002,84,1,transit,SITE_BLR_003,12.9715651,77.5945635,22.0,358.91,3.393,0.132,5.62,1.0214,-4.2839,358.9112,-0.99922,-0.00855,0.03746,0.00916,-0.0255,0.0969,-9.8067,0.0645,-0.0305,0.2946,0.1318,3,17,0.68,0.92,0.36,24.646,19.87,93.3,41.2,20523.0,7493,7091,7639,7637,56.3,57.0,60.1,58.5,3.021,2.84,2.777,2.906,1.67,219.8,31.9,76.2,1008.23,-30.69,-0.57,1.34,27.4,41.2,33.9,0,no_anomaly,0.0,0,0,0,0,12.9715651,77.5945635,22.0,0.0
2024-08-17T12:35:08.500Z,MISSION_0002,85,1,transit,SITE_BLR_003,12.9715636,77.5945617,22.0,359.13,3.449,0.236,5.88,4.1455,-1.4407,359.1334,-0.99924,-0.03607,0.01284,0.0071,0.0509,-0.0711,-9.8267,-0.5417,0.2993,0.0156,0.1126,3,20,0.8,0.86,0.43,24.69,17.82,93.2,41.2,20507.0,7588,7512,7631,7333,56.5,58.4,57.0,59.7,2.74,2.818,2.782,2.571,1.68,219.2,32.0,77.4,1008.78,-35.8,-2.47,1.36,26.2,40.9,34.2,0,no_anomaly,0.0,0,0,0,0,12.9715636,77.5945617,22.0,0.0
2024-08-17T12:35:08.600Z,MISSION_0002,86,1,transit,SITE_BLR_003,12.9715618,77.5945674,22.0,359.83,3.381,0.198,5.59,-3.4646,-1.8469,359.8332,-0.99941,0.03025,0.01606,0.00194,0.0033,0.1119,-9.8573,-0.443,-0.2553,0.7969,0.0722,3,13,0.83,0.67,0.37,24.627,17.59,93.1,41.0,20492.0,7451,7329,7525,7434,58.1,57.0,60.7,56.9,2.841,2.626,2.736,2.663,2.08,213.9,32.2,77.0,1008.38,-31.95,0.3,1.29,31.2,46.2,38.2,0,no_anomaly,0.0,0,0,0,0,12.9715618,77.5945674,22.0,0.0
2024-08-17T12:35:08.700Z,MISSION_0002,87,1,transit,SITE_BLR_003,12.9715607,77.5945694,22.0,0.04,3.431,0.138,5.54,2.1372,-0.363,0.043,0.99982,0.01865,-0.00316,0.00043,0.0041,-0.0317,-9.81,-0.5044,0.393,-0.0565,0.0744,3,16,0.83,0.9,0.27,24.677,23.49,93.1,39.7,20477.0,7738,7595,7717,7561,58.3,57.0,59.6,56.2,2.954,2.827,2.914,2.649,1.7,220.3,32.3,76.3,1008.38,-24.44,0.7,1.32,24.4,37.5,34.7,0,no_anomaly,0.0,0,0,0,0,12.9715607,77.5945694,22.0,0.0
2024-08-17T12:35:08.800Z,MISSION_0002,88,1,transit,SITE_BLR_003,12.9715611,77.5945701,22.0,359.55,3.939,0.065,5.46,1.1113,0.6374,359.5537,-0.99993,-0.00972,-0.00552,0.00395,0.0104,-0.0366,-9.8597,-0.0615,0.3766,-0.0891,0.1726,3,10,0.84,0.78,0.24,24.666,20.78,93.0,40.8,20462.0,7676,7343,7638,7599,58.5,55.7,57.7,56.6,2.957,2.787,2.71,2.651,1.92,222.6,32.3,76.8,1008.77,-24.23,-0.32,1.2,24.9,38.7,36.9,0,no_anomaly,0.0,0,0,0,0,12.9715611,77.5945701,22.0,0.0
2024-08-17T12:35:08.900Z,MISSION_0002,89,1,transit,SITE_BLR_003,12.9715624,77.5945704,22.0,0.78,3.871,0.184,5.33,2.8214,2.4986,0.7845,0.99944,0.02446,0.02196,0.00631,-0.0502,0.0605,-9.7495,0.2636,0.6432,0.1064,0.1622,3,17,0.71,0.92,0.33,24.637,16.79,92.9,40.9,20446.0,7535,7488,7717,7431,57.0,55.4,56.8,62.4,2.685,2.777,3.009,2.866,1.42,214.2,32.6,77.0,1008.52,-27.98,-0.32,2.15,29.1,40.9,34.4,0,no_anomaly,0.0,0,0,0,0,12.9715624,77.5945704,22.0,0.0
2024-08-17T12:35:09.000Z,MISSION_0002,90,1,transit,SITE_BLR_003,12.971561,77.5945696,22.0,2.35,4.028,0.113,5.5,-3.631,-3.9328,2.3527,0.99872,-0.03095,-0.03494,0.01942,-0.0108,0.0268,-9.8215,-0.2514,-0.4921,0.2739,0.1347,3,13,0.87,0.71,0.41,24.642,22.56,92.9,41.1,20431.0,7495,7544,7596,7421,59.6,52.6,55.3,54.2,2.965,2.832,2.72,2.814,1.62,211.4,32.6,76.9,1008.33,-29.56,1.39,1.97,27.5,48.0,34.3,0,no_anomaly,0.0,0,0,0,0,12.971561,77.5945696,22.0,0.0
2024-08-17T12:35:09.100Z,MISSION_0002,91,1,transit,SITE_BLR_003,12.9715583,77.5945715,22.0,1.35,3.721,0.062,5.62,2.509,-1.9059,1.3499,0.99955,0.02208,-0.01637,0.01214,-0.0052,-0.0601,-9.8324,-0.1717,-0.4526,-0.3646,0.2171,3,12,0.84,0.88,0.22,24.527,18.51,92.8,39.5,20416.0,7504,7268,7557,7601,57.2,61.9,57.2,61.0,2.844,3.102,2.537,2.638,1.34,225.7,32.3,77.4,1008.8,-30.72,-0.68,1.68,31.1,44.0,34.7,0,no_anomaly,0.0,0,0,0,0,12.9715583,77.5945715,22.0,0.0
2024-08-17T12:35:09.200Z,MISSION_0002,92,1,transit,SITE_BLR_003,12.9715628,77.5945744,22.0,0.07,3.711,0.086,5.03,-2.0655,-0.5363,0.0695,0.99983,-0.01802,-0.00469,0.00052,-0.0433,-0.0856,-9.8043,0.5626,-0.6885,-0.0375,0.102,3,11,0.8,0.6,0.41,24.576,19.38,92.7,41.1,20401.0,7793,7579,7463,7492,59.9,55.8,58.2,57.6,2.914,2.805,2.735,2.724,1.22,210.7,32.3,76.5,1008.53,-28.48,0.21,1.06,24.9,41.6,32.9,0,no_anomaly,0.0,0,0,0,0,12.9715628,77.5945744,22.0,0.0
2024-08-17T12:35:09.300Z,MISSION_0002,93,1,transit,SITE_BLR_003,12.9715655,77.5945744,22.0,0.96,3.294,0.106,4.79,-2.0657,-4.0607,0.96,0.99918,-0.01772,-0.03557,0.00773,-0.0316,0.0028,-9.7266,-0.4148,0.4247,-0.2497,0.1309,3,15,0.68,0.76,0.21,24.689,18.05,92.7,41.2,20386.0,7673,7480,7571,7590,58.6,56.8,54.6,56.2,2.975,2.795,2.737,2.579,2.1,216.6,32.4,77.4,1008.72,-26.74,0.68,1.74,30.7,42.0,34.8,0,no_anomaly,0.0,0,0,0,0,12.9715655,77.5945744,22.0,0.0
2024-08-17T12:35:09.400Z,MISSION_0002,94,1,transit,SITE_BLR_003,12.9715634,77.5945775,22.0,3.23,2.604,0.06,4.79,-2.4217,-3.2151,3.2325,0.999,-0.02032,-0.02863,0.02759,0.0576,0.0394,-9.784,0.4382,-0.5541,-0.3618,0.1924,3,20,0.71,1.08,0.23,24.555,15.49,92.6,41.1,20370.0,7741,7653,7499,7667,58.8,53.5,56.9,58.1,2.966,2.787,2.822,2.79,1.62,210.8,32.4,76.8,1009.1,-31.82,-2.23,1.37,25.2,47.0,35.8,0,no_anomaly,0.0,0,0,0,0,12.9715634,77.5945775,22.0,0.0
2024-08-17T12:35:09.500Z,MISSION_0002,95,1,transit,SITE_BLR_003,12.9715631,77.5945796,22.0,2.95,2.71,0.061,4.69,-0.0552,-2.633,2.9522,0.9994,0.00011,-0.02298,0.02574,-0.0161,0.0624,-9.7955,-0.5985,-0.2121,-0.2676,0.1761,3,18,0.62,1.03,0.31,24.613,20.99,92.5,40.4,20355.0,7699,7386,7502,7525,59.6,61.0,56.7,57.4,2.623,2.788,2.965,2.531,1.5,221.2,32.0,76.7,1008.6,-29.83,-0.19,1.76,24.5,37.5,35.9,0,no_anomaly,0.0,0,0,0,0,12.9715631,77.5945796,22.0,0.0
2024-08-17T12:35:09.600Z,MISSION_0002,96,1,transit,SITE_BLR_003,12.9715614,77.594577,22.0,2.88,2.739,0.112,5.0,-2.3303,-4.919,2.8811,0.99858,-0.01923,-0.0434,0.02424,-0.1376,-0.0727,-9.8703,-0.042,0.0424,-0.0504,0.1477,3,17,0.74,0.95,0.3,24.551,15.36,92.5,40.4,20340.0,7742,7923,7655,7625,59.7,60.6,55.8,63.4,3.038,2.595,2.65,3.223,2.0,214.7,32.5,76.4,1008.37,-29.76,0.75,1.77,26.6,40.9,36.1,0,no_anomaly,0.0,0,0,0,0,12.9715614,77.594577,22.0,0.0
2024-08-17T12:35:09.700Z,MISSION_0002,97,1,transit,SITE_BLR_003,12.9715585,77.5945765,22.0,3.4,2.303,0.098,5.31,3.9819,-3.0435,3.3974,0.99858,0.0355,-0.0255,0.03054,-0.0683,-0.0014,-9.9285,0.1809,-0.4951,-0.5766,0.1369,3,17,0.71,1.19,0.3,24.611,19.28,92.4,39.4,20325.0,7583,7564,7550,7446,58.7,55.6,59.0,58.4,3.01,2.73,3.001,2.832,1.45,213.4,32.5,77.3,1008.66,-28.81,-0.48,1.49,29.5,45.5,36.9,0,no_anomaly,0.0,0,0,0,0,12.9715585,77.5945765,22.0,0.0
2024-08-17T12:35:09.800Z,MISSION_0002,98,1,transit,SITE_BLR_003,12.9715564,77.5945753,22.0,3.61,2.939,0.066,5.57,-2.5972,-1.7148,3.6084,0.99915,-0.02218,-0.01567,0.03113,0.1088,0.0307,-9.8166,-0.8598,0.7557,-0.142,0.0821,3,13,0.73,1.11,0.32,24.582,20.21,92.3,40.8,20309.0,7501,7582,7448,7423,58.7,56.8,57.5,56.1,2.715,2.727,2.712,2.739,1.59,224.6,32.2,76.6,1008.88,-27.72,-0.33,1.31,27.1,40.0,31.7,0,no_anomaly,0.0,0,0,0,0,12.9715564,77.5945753,22.0,0.0
2024-08-17T12:35:09.900Z,MISSION_0002,99,1,transit,SITE_BLR_003,12.9715553,77.594571,22.0,3.31,2.807,0.087,5.94,2.454,-4.8272,3.3144,0.99844,0.0226,-0.04147,0.02979,-0.0791,0.038,-9.8885,0.2869,-0.3327,0.3079,0.1273,3,19,0.68,0.99,0.27,24.537,17.84,92.2,39.9,20294.0,7442,7251,7922,7568,58.7,55.9,58.7,59.1,2.94,2.788,2.952,2.709,1.67,217.9,32.6,77.3,1008.68,-33.53,-1.83,1.41,24.4,46.2,36.6,0,no_anomaly,0.0,0,0,0,0,12.9715553,77.594571,22.0,0.0
2024-08-17T12:35:10.000Z,MISSION_0002,100,1,orbit_base,SITE_BLR_003,12.9715208,77.5946113,22.3,3.58,2.936,0.132,8.91,0.2725,-1.1112,3.5793,0.99946,0.00268,-0.00962,0.03125,0.0037,-0.0248,-9.7969,-0.118,0.7262,-0.1282,0.2727,3,16,0.86,0.73,0.45,24.59,21.16,92.2,41.5,20279.0,7457,7503,7686,7518,53.2,59.5,58.3,57.6,2.819,3.136,2.952,2.671,1.55,223.6,32.2,77.4,1008.81,-26.51,-1.5,1.35,23.4,36.7,33.6,0,no_anomaly,0.0,0,0,0,0,12.9715208,77.5946113,22.3,0.0
2024-08-17T12:35:10.100Z,MISSION_0002,101,1,orbit_base,SITE_BLR_003,12.9715205,77.5946089,22.6,2.4,3.071,0.115,8.91,1.6583,-2.0577,2.3958,0.99951,0.01484,-0.01765,0.02116,-0.2047,0.034,-9.911,-1.0596,0.4991,-0.3558,0.1423,3,18,0.71,0.78,0.3,24.567,19.68,92.1,40.5,20264.0,7499,7476,7440,7702,56.7,55.3,56.8,56.5,2.741,2.907,2.706,2.743,1.81,219.9,32.4,76.0,1008.27,-32.06,0.97,1.77,31.0,43.6,35.6,0,no_anomaly,0.0,0,0,0,0,12.9715205,77.5946089,22.6,0.0
2024-08-17T12:35:10.200Z,MISSION_0002,102,1,orbit_base,SITE_BLR_003,12.9715203,77.5946065,22.9,2.0,3.038,0.034,8.91,2.6535,0.441,2.004,0.99957,0.02308,0.00425,0.01739,-0.0882,0.0144,-9.8074,0.3375,0.8668,0.6564,0.1657,3,11,0.7,0.85,0.45,24.555,21.99,92.0,40.6,20248.0,7375,7833,7315,7254,59.0,57.0,58.5,57.6,2.89,2.756,2.935,2.94,2.26,224.0,32.6,76.9,1008.92,-30.32,0.7,1.63,28.1,40.2,35.6,0,no_anomaly,0.0,0,0,0,0,12.9715203,77.5946065,22.9,0.0
2024-08-17T12:35:10.300Z,MISSION_0002,103,1,orbit_base,SITE_BLR_003,12.9715201,77.5946041,23.2,1.85,2.736,0.059,8.91,3.5371,-3.5981,1.8514,0.99888,0.03135,-0.03088,0.01711,-0.149,0.045,-9.8057,0.1322,0.0933,-0.3174,0.1482,3,10,0.67,0.83,0.36,24.631,12.47,92.0,40.8,20233.0,7737,7391,7448,7728,56.7,53.7,60.0,57.3,2.856,2.793,2.968,2.635,1.82,224.2,32.2,76.7,1008.62,-34.05,-0.74,1.99,27.3,42.6,34.6,0,no_anomaly,0.0,0,0,0,0,12.9715201,77.5946041,23.2,0.0
2024-08-17T12:35:10.400Z,MISSION_0002,104,1,orbit_base,SITE_BLR_003,12.97152,77.5946017,23.5,2.82,2.484,0.054,8.91,2.0581,-1.9127,2.8215,0.99939,0.01836,-0.01624,0.02491,-0.054,0.0451,-9.7362,0.1079,-0.4886,0.0339,0.0819,3,15,0.72,1.01,0.2,24.625,18.12,91.9,40.4,20218.0,7380,7418,7844,7706,60.2,55.9,61.2,57.5,2.682,2.638,2.643,2.688,1.04,222.2,32.1,77.0,1008.94,-22.2,-0.25,1.43,26.8,42.0,31.0,0,no_anomaly,0.0,0,0,0,0,12.97152,77.5946017,23.5,0.0
2024-08-17T12:35:10.500Z,MISSION_0002,105,1,orbit_base,SITE_BLR_003,12.97152,77.5945993,23.8,2.45,2.689,0.001,8.91,0.2049,1.1717,2.4488,0.99972,0.00157,0.01026,0.02135,-0.0597,0.045,-9.8398,-0.8009,0.7133,0.562,0.1502,3,17,0.64,0.73,0.29,24.481,21.96,91.8,40.5,20203.0,7515,7420,7365,7572,58.0,57.4,59.8,57.7,2.907,2.58,2.734,3.023,1.97,219.3,32.8,77.2,1008.79,-31.14,-0.94,1.34,27.0,39.7,35.3,0,no_anomaly,0.0,0,0,0,0,12.97152,77.5945993,23.8,0.0
2024-08-17T12:35:10.600Z,MISSION_0002,106,1,orbit_base,SITE_BLR_003,12.9715201,77.5945969,24.1,3.02,2.58,0.136,8.91,4.121,-2.2077,3.0155,0.9988,0.03644,-0.0183,0.02698,-0.0379,-0.0133,-9.8462,0.4045,-0.2595,-0.0378,0.1965,3,19,0.81,0.75,0.42,24.515,14.79,91.8,40.6,20188.0,7626,7548,7648,7526,53.5,57.2,54.6,57.6,2.612,2.878,3.003,2.541,0.47,216.1,32.7,75.6,1008.61,-26.61,0.16,1.37,24.8,36.6,33.6,0,no_anomaly,0.0,0,0,0,0,12.9715201,77.5945969,24.1,0.0
2024-08-17T12:35:10.700Z,MISSION_0002,107,1,orbit_base,SITE_BLR_003,12.9715202,77.5945945,24.4,2.73,2.569,0.205,8.91,-0.7949,-0.3544,2.7294,0.99969,-0.00686,-0.00326,0.02379,0.1436,-0.0852,-9.8567,0.6231,0.3002,0.131,0.1646,3,12,0.71,0.97,0.26,24.573,19.0,91.7,40.5,20172.0,7654,7628,7304,7553,57.7,60.7,57.0,57.8,2.788,2.998,2.621,2.682,1.06,217.7,32.3,77.0,1008.67,-34.48,1.47,1.62,25.7,42.0,36.9,0,no_anomaly,0.0,0,0,0,0,12.9715202,77.5945945,24.4,0.0
2024-08-17T12:35:10.800Z,MISSION_0002,108,1,orbit_base,SITE_BLR_003,12.9715204,77.5945921,24.7,1.97,2.696,0.089,8.91,-1.2586,-2.7007,1.9657,0.99952,-0.01057,-0.02375,0.01689,-0.0011,-0.0093,-9.8547,-1.1347,0.1482,0.1103,0.1479,3,15,0.89,0.67,0.49,24.707,24.64,91.6,40.6,20157.0,7653,7469,7484,7843,59.0,59.1,55.4,54.7,2.958,2.863,2.755,3.06,1.78,213.4,32.7,77.0,1008.53,-35.81,0.6,1.36,26.5,44.3,32.3,0,no_anomaly,0.0,0,0,0,0,12.9715204,77.5945921,24.7,0.0
2024-08-17T12:35:10.900Z,MISSION_0002,109,1,orbit_base,SITE_BLR_003,12.9715207,77.5945898,25.0,3.94,2.721,0.047,8.91,-1.1181,-3.8073,3.9427,0.99882,-0.0086,-0.03353,0.03406,-0.0068,-0.0599,-9.7929,0.2265,0.5954,-0.0628,0.1813,3,20,0.86,0.91,0.54,24.652,17.92,91.6,42.2,20142.0,7576,7796,7681,7632,60.2,57.9,57.5,57.5,2.628,2.96,2.701,2.832,1.5,220.7,32.4,77.2,1009.04,-30.04,-0.27,1.62,30.3,46.7,34.4,0,no_anomaly,0.0,0,0,0,0,12.9715207,77.5945898,25.0,0.0
2024-08-17T12:35:11.000Z,MISSION_0002,110,1,orbit_base,SITE_BLR_003,12.971521,77.5945874,25.3,4.1,2.544,0.13,8.91,-0.8328,-3.4096,4.1014,0.9989,-0.0062,-0.02999,0.03555,-0.1086,0.0193,-9.7208,0.1763,0.0858,-0.1871,0.0832,3,10,0.7,0.75,0.36,24.55,16.74,91.5,41.9,20127.0,7783,7409,7456,7559,57.3,56.7,60.3,58.0,2.794,2.709,2.642,2.706,1.05,211.3,32.2,75.8,1008.61,-26.77,0.93,1.39,29.9,46.2,37.2,0,no_anomaly,0.0,0,0,0,0,12.971521,77.5945874,25.3,0.0
2024-08-17T12:35:11.100Z,MISSION_0002,111,1,orbit_base,SITE_BLR_003,12.9715214,77.594585,25.6,3.31,2.8,0.098,8.91,3.0568,-1.8734,3.3129,0.99908,0.02713,-0.01556,0.02933,0.0045,-0.0226,-9.7356,0.2779,-0.4205,0.2346,0.0947,3,19,0.6,0.83,0.2,24.532,15.2,91.4,40.4,20111.0,7510,7387,7671,7325,56.9,58.9,59.9,56.5,2.952,2.745,3.138,2.581,0.98,218.5,32.4,75.3,1008.58,-33.78,-0.71,1.64,27.3,45.5,36.5,0,no_anomaly,0.0,0,0,0,0,12.9715214,77.594585,25.6,0.0
2024-08-17T12:35:11.200Z,MISSION_0002,112,1,orbit_base,SITE_BLR_003,12.9715219,77.5945827,25.9,0.93,3.002,0.153,8.91,1.0738,-3.7473,0.9277,0.99939,0.00963,-0.03262,0.0084,0.0143,0.0823,-9.803,-1.0071,-0.2852,0.0381,0.2355,3,11,0.58,0.88,0.2,24.619,18.4,91.3,39.4,20096.0,7532,7574,7649,7618,58.9,57.4,57.8,57.7,2.738,2.885,2.927,2.793,1.24,212.2,32.7,75.1,1008.51,-28.94,-1.0,1.55,26.8,40.9,37.2,0,no_anomaly,0.0,0,0,0,0,12.9715219,77.5945827,25.9,0.0
2024-08-17T12:35:11.300Z,MISSION_0002,113,1,orbit_base,SITE_BLR_003,12.9715225,77.5945803,26.2,0.89,3.347,0.003,8.91,0.5024,-4.0254,0.8929,0.99934,0.00465,-0.03509,0.00794,-0.0771,-0.0067,-9.7815,0.0284,0.0888,-0.1072,0.1862,3,18,0.71,0.91,0.3,24.552,18.62,91.3,41.0,20081.0,7709,7725,7563,7611,56.4,59.2,55.7,58.1,2.932,2.819,2.845,2.759,0.56,214.3,32.5,76.4,1008.62,-29.87,-0.69,1.65,23.3,42.7,35.4,0,no_anomaly,0.0,0,0,0,0,12.9715225,77.5945803,26.2,0.0
2024-08-17T12:35:11.400Z,MISSION_0002,114,1,orbit_base,SITE_BLR_003,12.9715231,77.594578,26.5,2.93,3.776,0.205,8.91,-1.2609,-2.6329,2.929,0.99936,-0.01041,-0.02325,0.0253,0.0136,0.0935,-9.8676,-0.5729,0.4345,-0.1997,0.1627,3,11,0.64,0.95,0.22,24.521,20.33,91.2,40.1,20066.0,7662,7559,7390,7639,58.2,52.9,57.5,57.7,2.814,2.527,2.853,2.877,1.02,210.7,32.4,76.4,1008.42,-32.94,0.13,1.13,26.8,40.7,31.3,0,no_anomaly,0.0,0,0,0,0,12.9715231,77.594578,26.5,0.0
2024-08-17T12:35:11.500Z,MISSION_0002,115,1,orbit_base,SITE_BLR_003,12.9715238,77.5945757,26.8,4.15,4.492,0.159,8.91,0.7627,-3.4344,4.1534,0.99887,0.00773,-0.0297,0.03642,0.0216,0.0274,-9.7793,-0.2211,0.9019,-0.3809,0.1467,3,15,0.67,0.78,0.28,24.632,21.46,91.1,40.9,20050.0,7293,7734,7535,7676,59.5,58.0,53.6,60.5,3.071,2.922,2.691,2.984,1.35,217.3,32.1,77.1,1008.22,-26.41,0.65,1.0,29.6,43.2,32.9,0,no_anomaly,0.0,0,0,0,0,12.9715238,77.5945757,26.8,0.0
2024-08-17T12:35:11.600Z,MISSION_0002,116,1,orbit_base,SITE_BLR_003,12.9715245,77.5945734,27.1,3.77,4.845,0.063,8.91,-2.7528,-0.7771,3.7737,0.99915,-0.02378,-0.00757,0.03275,0.0042,-0.0426,-9.7881,-0.0352,0.7398,0.175,0.1504,3,13,0.63,0.92,0.22,24.565,24.16,91.1,40.6,20035.0,7380,7671,7715,7835,59.4,57.1,58.2,58.4,2.865,2.429,2.714,2.872,2.04,214.5,32.6,77.3,1008.47,-31.24,-0.24,1.46,30.4,41.6,36.0,0,no_anomaly,0.0,0,0,0,0,12.9715245,77.5945734,27.1,0.0
2024-08-17T12:35:11.700Z,MISSION_0002,117,1,orbit_base,SITE_BLR_003,12.9715254,77.5945712,27.4,2.89,4.818,0.095,8.91,-2.8598,-0.7164,2.894,0.99935,-0.02479,-0.00688,0.02509,0.1326,-0.0337,-9.8923,0.4604,-0.2092,-0.2004,0.1236,3,20,0.58,0.97,0.2,24.507,16.82,91.0,40.8,20020.0,7326,7912,7542,7281,55.5,58.8,60.3,58.0,2.813,2.57,3.023,2.883,1.65,217.7,32.3,75.5,1008.2,-28.41,-0.8,1.78,28.3,47.6,36.1,0,no_anomaly,0.0,0,0,0,0,12.9715254,77.5945712,27.4,0.0
2024-08-17T12:35:11.800Z,MISSION_0002,118,1,orbit_base,SITE_BLR_003,12.9715263,77.594569,27.7,4.5,4.414,0.078,8.91,4.4628,-0.4996,4.4991,0.99846,0.03908,-0.00282,0.03939,-0.0457,0.0082,-9.8949,-0.3085,0.2691,0.0188,0.2169,3,13,0.55,0.88,0.2,24.641,21.0,90.9,40.8,20005.0,7580,7468,7780,7626,58.1,58.8,55.9,61.6,3.035,2.795,2.755,2.896,2.05,226.4,32.5,75.4,1008.59,-28.07,0.14,1.54,24.0,43.1,32.1,0,no_anomaly,0.0,0,0,0,0,12.9715263,77.594569,27.7,0.0
2024-08-17T12:35:11.900Z,MISSION_0002,119,1,orbit_base,SITE_BLR_003,12.9715272,77.5945668,28.0,4.07,4.335,0.11,8.91,-0.2674,-2.007,4.0721,0.99921,-0.00171,-0.01759,0.03548,0.0632,-0.0172,-9.8088,0.3994,0.0043,0.1966,0.1074,3,14,0.74,1.1,0.34,24.469,21.83,90.9,40.2,19989.0,7463,7675,7456,7435,57.6,56.4,54.4,58.8,2.948,2.936,2.665,2.862,1.24,211.3,32.5,75.7,1008.72,-32.24,-2.82,1.18,25.9,40.2,31.2,0,no_anomaly,0.0,0,0,0,0,12.9715272,77.5945668,28.0,0.0
2024-08-17T12:35:12.000Z,MISSION_0002,120,1,orbit_base,SITE_BLR_003,12.9715283,77.5945646,28.3,1.39,4.095,0.082,8.91,-0.2709,-0.5063,1.3866,0.99991,-0.00231,-0.00445,0.01209,-0.0084,-0.0157,-9.781,0.07,-0.7525,-0.131,0.101,3,15,0.69,0.83,0.22,24.634,19.91,90.8,41.0,19974.0,7585,7725,7589,7749,51.9,57.8,58.2,58.3,2.637,2.692,2.644,2.873,1.94,209.4,32.4,77.2,1008.56,-29.38,-0.86,2.02,28.9,42.8,35.6,0,no_anomaly,0.0,0,0,0,0,12.9715283,77.5945646,28.3,0.0
2024-08-17T12:35:12.100Z,MISSION_0002,121,1,orbit_base,SITE_BLR_003,12.9715294,77.5945625,28.6,2.61,3.934,0.051,8.91,1.1689,-2.9202,2.6058,0.99936,0.01077,-0.02524,0.02299,-0.051,-0.0061,-9.78,0.2352,0.4692,0.1424,0.2024,3,11,0.87,0.95,0.32,24.55,14.19,90.7,40.8,19959.0,7512,7499,7599,7290,57.3,58.1,54.6,60.4,2.866,2.994,2.865,2.854,2.25,224.2,32.5,77.9,1008.85,-24.18,-0.12,1.26,26.4,41.6,35.4,0,no_anomaly,0.0,0,0,0,0,12.9715294,77.5945625,28.6,0.0
2024-08-17T12:35:12.200Z,MISSION_0002,122,1,orbit_base,SITE_BLR_003,12.9715305,77.5945604,28.9,1.78,3.786,-0.007,8.91,-2.0129,-3.4517,1.7757,0.99928,-0.01709,-0.03038,0.01496,0.0443,0.0741,-9.7579,0.7288,0.3919,-0.0103,0.1035,3,14,0.76,0.65,0.26,24.518,23.63,90.7,40.1,19944.0,7745,7664,7666,7536,54.7,58.6,59.4,58.6,2.778,2.629,2.707,2.868,1.09,212.8,32.6,77.1,1008.79,-34.34,0.54,1.65,28.8,42.2,36.9,0,no_anomaly,0.0,0,0,0,0,12.9715305,77.5945604,28.9,0.0
2024-08-17T12:35:12.300Z,MISSION_0002,123,1,orbit_base,SITE_BLR_003,12.9715317,77.5945583,29.2,2.1,3.513,0.157,8.91,-1.6939,-1.6614,2.1014,0.99962,-0.01451,-0.01476,0.01812,-0.0199,0.0358,-9.8278,-0.7343,-0.711,-0.2284,0.166,3,11,0.65,0.94,0.2,24.563,19.87,90.6,41.4,19929.0,7631,7722,7899,7613,60.7,57.9,56.6,57.4,2.724,2.729,2.714,2.754,1.84,209.1,32.2,76.3,1008.63,-29.14,0.12,1.92,28.9,45.9,32.5,0,no_anomaly,0.0,0,0,0,0,12.9715317,77.5945583,29.2,0.0
2024-08-17T12:35:12.400Z,MISSION_0002,124,1,orbit_base,SITE_BLR_003,12.971533,77.5945563,29.5,2.44,3.463,0.196,8.91,1.5399,-2.2199,2.4357,0.99949,0.01384,-0.01908,0.02151,-0.0178,0.0496,-9.7995,0.3342,1.2493,-0.5956,0.0784,3,16,0.61,0.77,0.33,24.42,21.18,90.5,40.0,19913.0,7613,7648,7745,7569,57.3,53.6,62.2,58.3,2.866,2.961,2.79,2.864,1.84,210.3,32.2,76.3,1008.37,-28.41,2.08,2.02,26.5,41.8,38.7,0,no_anomaly,0.0,0,0,0,0,12.971533,77.5945563,29.5,0.0
2024-08-17T12:35:12.500Z,MISSION_0002,125,1,orbit_base,SITE_BLR_003,12.9715344,77.5945543,29.8,0.31,3.133,0.074,8.91,0.2084,-4.0444,0.3143,0.99937,0.00191,-0.03528,0.0028,0.149,0.0395,-9.7943,-0.5268,-0.6605,0.1048,0.1366,3,11,0.57,0.89,0.23,24.588,25.89,90.4,39.7,19898.0,7731,7506,7674,7630,58.7,55.2,59.6,57.7,3.009,3.039,2.836,2.948,1.94,224.3,32.3,76.9,1008.51,-26.2,-1.16,1.58,28.0,37.1,31.8,0,no_anomaly,0.0,0,0,0,0,12.9715344,77.5945543,29.8,0.0
2024-08-17T12:35:12.600Z,MISSION_0002,126,1,orbit_base,SITE_BLR_003,12.9715358,77.5945523,30.1,1.63,3.216,0.159,8.91,1.4578,-1.0311,1.6334,0.99978,0.01285,-0.00881,0.01437,0.1567,-0.0104,-9.8476,0.1019,-0.4752,-0.1104,0.1522,3,12,0.65,0.87,0.24,24.528,16.32,90.4,41.3,19883.0,7818,7755,7753,7550,58.0,56.1,57.4,57.6,2.592,2.82,2.72,2.84,1.37,219.4,32.7,76.6,1008.63,-27.91,-1.25,1.4,24.5,42.0,34.9,0,no_anomaly,0.0,0,0,0,0,12.9715358,77.5945523,30.1,0.0
2024-08-17T12:35:12.700Z,MISSION_0002,127,1,orbit_base,SITE_BLR_003,12.9715372,77.5945504,30.4,1.25,3.623,0.089,8.91,-0.4427,-3.2309,1.2453,0.99954,-0.00355,-0.02823,0.01075,-0.1071,0.0091,-9.8372,0.6086,0.3166,-0.0303,0.1611,3,14,0.87,0.73,0.29,24.645,17.55,90.3,41.1,19868.0,7792,7611,7717,7569,61.3,56.8,55.7,59.4,2.906,2.822,2.805,2.726,1.12,214.6,32.5,76.7,1008.9,-29.06,-0.21,1.05,27.5,43.8,36.6,0,no_anomaly,0.0,0,0,0,0,12.9715372,77.5945504,30.4,0.0
2024-08-17T12:35:12.800Z,MISSION_0002,128,1,orbit_base,SITE_BLR_003,12.9715387,77.5945486,30.7,2.2,3.707,0.054,8.91,-0.5782,-3.0253,2.1975,0.99946,-0.00454,-0.02649,0.01904,-0.0033,-0.0894,-9.8562,-0.4874,0.2519,0.1876,0.0761,3,17,0.57,0.68,0.28,24.592,21.8,90.2,41.5,19852.0,7882,7466,7556,7732,52.1,57.2,59.6,57.0,2.91,2.5,2.843,2.731,1.37,212.9,32.4,76.2,1008.41,-25.2,0.07,1.54,30.4,43.9,37.7,0,no_anomaly,0.0,0,0,0,0,12.9715387,77.5945486,30.7,0.0
2024-08-17T12:35:12.900Z,MISSION_0002,129,1,orbit_base,SITE_BLR_003,12.9715403,77.5945467,31.0,5.16,4.242,0.186,8.91,-0.3162,-4.3115,5.1648,0.99828,-0.00106,-0.0377,0.04492,-0.0232,0.0524,-9.8543,0.8023,0.2906,-0.3513,0.0967,3,14,0.65,0.78,0.2,24.516,18.98,90.2,41.4,19837.0,7682,7691,7669,7497,60.0,56.8,57.0,58.4,3.175,2.715,2.556,2.843,1.83,215.5,32.5,76.4,1008.63,-31.78,-1.27,1.6,31.2,39.6,38.4,0,no_anomaly,0.0,0,0,0,0,12.9715403,77.5945467,31.0,0.0
