timestamp_utc,mission_id,frame_id,waypoint_id,inspection_phase,site_id,latitude_deg,longitude_deg,altitude_m,heading_deg,ground_speed_ms,vertical_speed_ms,distance_to_tower_m,roll_deg,pitch_deg,yaw_deg,quat_w,quat_x,quat_y,quat_z,accel_x_ms2,accel_y_ms2,accel_z_ms2,gyro_x_rads,gyro_y_rads,gyro_z_rads,vibration_level,gps_fix_type,gps_satellite_count,gps_hdop,gps_vdop,position_error_m,battery_voltage_v,battery_current_a,battery_remaining_pct,battery_temp_c,battery_capacity_mah,motor_fl_rpm,motor_fr_rpm,motor_rl_rpm,motor_rr_rpm,motor_fl_temp_c,motor_fr_temp_c,motor_rl_temp_c,motor_rr_temp_c,motor_fl_thrust_n,motor_fr_thrust_n,motor_rl_thrust_n,motor_rr_thrust_n,wind_speed_ms,wind_dir_deg,air_temp_c,humidity_pct,pressure_hpa,gimbal_pitch_deg,gimbal_roll_deg,zoom_factor,ir_temp_min_c,ir_temp_max_c,ir_temp_avg_c,anomaly_detected,anomaly_class,anomaly_confidence,anomaly_bbox_x,anomaly_bbox_y,anomaly_bbox_w,anomaly_bbox_h,anomaly_gps_lat,anomaly_gps_lon,anomaly_gps_alt_m,ir_temp_delta_c
2024-10-22T18:47:00.000Z,MISSION_0027,0,0,takeoff,SITE_AMD_008,23.0224942,72.5714001,1.5,40.48,0.0,0.067,0.65,-1.3923,-1.6236,40.4811,0.93814,-0.0065,-0.0175,0.34574,-0.0317,0.0246,-9.7797,0.0245,-1.1228,0.086,0.1937,3,12,0.72,0.89,0.3,24.732,17.88,95.5,46.2,20999.0,8306,8187,7837,7877,60.9,58.3,62.6,58.0,2.953,2.662,2.713,2.798,7.51,59.4,38.0,75.6,1015.12,-31.26,0.62,1.28,29.6,50.2,40.8,0,no_anomaly,0.0,0,0,0,0,23.0224942,72.5714001,1.5,0.0
2024-10-22T18:47:00.100Z,MISSION_0027,1,0,takeoff,SITE_AMD_008,23.0224894,72.5714004,3.0,39.71,0.347,0.07,1.18,4.3389,-5.3416,39.7129,0.93825,0.05138,-0.03095,0.34071,0.1079,-0.0334,-9.899,-0.0085,-0.5309,0.3416,0.2159,3,20,0.8,0.63,0.2,24.719,11.8,95.4,45.3,20980.0,7878,8029,8158,8104,61.5,66.0,62.0,64.3,2.892,2.818,2.729,3.058,7.07,69.8,37.9,76.2,1015.01,-28.33,0.96,1.2,32.4,52.0,39.0,0,no_anomaly,0.0,0,0,0,0,23.0224894,72.5714004,3.0,0.0
2024-10-22T18:47:00.200Z,MISSION_0027,2,0,takeoff,SITE_AMD_008,23.0224879,72.5713995,4.5,39.71,0.457,0.054,1.35,8.11,-4.4234,39.7147,0.93656,0.07954,-0.0122,0.34114,-0.29,0.0419,-9.8575,0.2556,0.153,-0.2653,0.2364,3,15,0.89,1.05,0.43,24.553,12.09,95.3,46.2,20960.0,8129,8063,8033,8183,62.6,61.7,64.3,64.3,2.781,2.961,2.743,2.847,8.15,59.8,37.8,75.9,1014.51,-32.08,0.89,1.2,34.2,45.9,38.8,0,no_anomaly,0.0,0,0,0,0,23.0224879,72.5713995,4.5,0.0
2024-10-22T18:47:00.300Z,MISSION_0027,3,0,takeoff,SITE_AMD_008,23.0224864,72.5714052,5.0,39.16,0.575,0.103,1.62,-1.0121,-1.9742,39.1554,0.94206,-0.00255,-0.01919,0.33488,-0.1792,-0.0385,-9.8308,-0.219,-0.6667,-0.0338,0.2477,3,16,0.67,0.95,0.28,24.683,16.27,95.2,45.8,20941.0,7895,7950,8170,8166,60.6,60.8,64.3,62.4,2.747,2.784,2.967,2.551,7.39,63.6,38.0,76.4,1014.76,-25.94,0.52,1.28,35.3,49.1,42.5,0,no_anomaly,0.0,0,0,0,0,23.0224864,72.5714052,5.0,0.0
2024-10-22T18:47:00.400Z,MISSION_0027,4,0,takeoff,SITE_AMD_008,23.0224898,72.5714092,5.0,39.85,0.683,0.078,1.53,9.7323,-3.6712,39.8519,0.93534,0.09059,-0.00111,0.34196,-0.4211,-0.0373,-9.8115,1.0328,0.1826,0.0066,0.1925,3,15,0.62,0.83,0.29,24.678,16.71,95.1,47.5,20922.0,7854,8087,8110,7844,62.4,62.6,65.4,60.7,2.71,2.574,2.937,2.824,8.4,67.8,37.9,76.2,1015.07,-29.09,3.46,1.51,30.2,50.4,39.4,0,no_anomaly,0.0,0,0,0,0,23.0224898,72.5714092,5.0,0.0
2024-10-22T18:47:00.500Z,MISSION_0027,5,0,takeoff,SITE_AMD_008,23.0224909,72.5714095,5.0,39.38,1.007,0.116,1.46,3.1053,0.2102,39.3823,0.94119,0.02489,0.01086,0.33678,0.0455,0.0126,-9.8124,0.4063,0.2169,-0.3063,0.2798,3,13,0.77,0.86,0.21,24.672,18.02,95.0,45.9,20902.0,8281,8109,7880,7881,61.1,60.9,63.7,57.4,2.781,2.645,2.606,2.978,7.07,55.4,38.1,75.6,1014.53,-27.59,-0.04,1.65,33.4,46.2,41.2,0,no_anomaly,0.0,0,0,0,0,23.0224909,72.5714095,5.0,0.0
2024-10-22T18:47:00.600Z,MISSION_0027,6,0,takeoff,SITE_AMD_008,23.022489,72.5714107,5.0,39.02,1.028,0.049,1.71,-4.907,-2.3382,39.0197,0.94182,-0.03353,-0.03351,0.33277,-0.1735,-0.0261,-9.8356,0.5574,0.4802,-0.0269,0.2894,3,20,0.69,0.83,0.42,24.672,15.37,94.9,46.4,20883.0,7839,8255,7820,7769,62.4,63.4,63.3,63.0,2.791,2.903,2.72,2.685,7.94,60.9,38.1,76.2,1014.69,-30.97,1.73,1.0,31.6,46.6,44.1,0,no_anomaly,0.0,0,0,0,0,23.022489,72.5714107,5.0,0.0
2024-10-22T18:47:00.700Z,MISSION_0027,7,0,takeoff,SITE_AMD_008,23.0224918,72.5714109,5.0,37.82,1.356,0.078,1.52,-1.8483,-0.7116,37.8241,0.94591,-0.01325,-0.0111,0.32397,-0.2361,0.0267,-9.8741,-0.5175,-0.5448,0.1968,0.255,3,11,0.8,0.7,0.34,24.734,14.27,94.8,46.8,20863.0,8128,8088,8210,8137,61.9,60.7,62.9,66.2,2.878,2.919,2.542,2.885,7.34,66.7,38.2,76.8,1014.81,-31.96,-0.36,1.64,34.5,50.6,38.6,0,no_anomaly,0.0,0,0,0,0,23.0224918,72.5714109,5.0,0.0
2024-10-22T18:47:00.800Z,MISSION_0027,8,0,takeoff,SITE_AMD_008,23.0224934,72.5714114,5.0,35.37,1.355,0.07,1.46,0.6402,-3.4243,35.3748,0.95224,0.0144,-0.02677,0.30384,-0.0676,0.0187,-9.773,0.4258,0.2322,0.4155,0.3432,3,17,0.85,0.92,0.35,24.633,18.64,94.7,46.1,20844.0,8075,8176,7935,8044,60.6,61.6,61.4,63.5,2.842,2.573,2.598,2.795,7.63,64.0,37.9,76.2,1014.98,-28.34,-0.84,1.0,34.3,48.3,42.4,0,no_anomaly,0.0,0,0,0,0,23.0224934,72.5714114,5.0,0.0
2024-10-22T18:47:00.900Z,MISSION_0027,9,0,takeoff,SITE_AMD_008,23.0224959,72.5714139,5.0,35.85,1.516,0.051,1.62,2.234,-1.0213,35.8509,0.95119,0.02129,-0.00248,0.30787,-0.0379,-0.0579,-9.7508,-0.2482,0.0896,-0.2122,0.2424,3,20,0.61,1.06,0.22,24.663,14.21,94.7,46.9,20824.0,7949,8262,8155,8145,62.0,59.5,64.7,60.8,2.768,2.545,2.686,2.631,6.55,59.1,38.3,75.7,1015.03,-28.25,1.12,1.89,33.3,46.8,40.4,0,no_anomaly,0.0,0,0,0,0,23.0224959,72.5714139,5.0,0.0
2024-10-22T18:47:01.000Z,MISSION_0027,10,0,takeoff,SITE_AMD_008,23.0224958,72.5714134,5.0,37.95,1.281,0.014,1.57,3.2641,-3.0973,37.9524,0.94467,0.03571,-0.01629,0.32565,0.0785,-0.0472,-9.7672,-0.1898,0.2419,-0.2013,0.1963,3,14,0.59,0.99,0.22,24.663,20.49,94.6,46.0,20805.0,8289,7994,8019,7931,59.9,59.0,63.2,61.7,2.779,2.831,2.864,2.706,7.95,62.9,38.2,76.5,1014.96,-31.4,1.5,1.66,36.8,45.3,40.7,0,no_anomaly,0.0,0,0,0,0,23.0224958,72.5714134,5.0,0.0
2024-10-22T18:47:01.100Z,MISSION_0027,11,0,takeoff,SITE_AMD_008,23.0225022,72.5714134,5.0,36.93,1.398,0.036,1.52,-2.9161,-6.4274,36.9259,0.94718,-0.00635,-0.0612,0.31474,-0.2863,0.0194,-9.7685,-0.0449,-0.1367,0.4224,0.3039,3,10,0.68,0.84,0.2,24.587,14.09,94.5,46.0,20785.0,7804,7942,8119,7924,63.0,63.2,62.3,62.9,2.517,2.784,2.981,2.786,7.27,64.7,37.7,75.2,1014.83,-28.82,-0.1,1.43,30.8,42.5,40.1,0,no_anomaly,0.0,0,0,0,0,23.0225022,72.5714134,5.0,0.0
2024-10-22T18:47:01.200Z,MISSION_0027,12,0,takeoff,SITE_AMD_008,23.0225006,72.5714098,5.0,37.37,1.505,0.112,1.09,-2.8423,-3.098,37.3664,0.94688,-0.01483,-0.03354,0.31948,-0.1012,-0.0167,-9.7582,0.469,0.1532,0.4918,0.2373,3,14,0.67,0.8,0.31,24.597,18.61,94.4,46.6,20766.0,7996,8131,8143,8214,62.8,67.1,64.7,63.4,2.536,2.78,2.565,2.653,7.84,71.0,38.1,76.1,1014.99,-36.02,-0.06,1.46,34.2,43.8,38.5,0,no_anomaly,0.0,0,0,0,0,23.0225006,72.5714098,5.0,0.0
2024-10-22T18:47:01.300Z,MISSION_0027,13,0,takeoff,SITE_AMD_008,23.0224979,72.5714155,5.0,38.42,1.337,0.084,1.74,-4.5596,-2.1749,38.4207,0.94365,-0.03132,-0.03099,0.328,-0.0105,-0.0048,-9.7483,0.2403,-0.2394,0.2384,0.2244,3,20,0.59,0.9,0.24,24.689,15.57,94.3,46.2,20747.0,8088,8111,7790,8536,63.0,62.3,62.1,63.3,2.817,2.817,2.665,2.738,7.35,59.8,38.2,76.3,1014.98,-35.17,1.18,1.92,35.6,50.1,41.3,0,no_anomaly,0.0,0,0,0,0,23.0224979,72.5714155,5.0,0.0
2024-10-22T18:47:01.400Z,MISSION_0027,14,0,takeoff,SITE_AMD_008,23.0225008,72.5714173,5.0,40.09,1.452,0.063,1.93,0.9342,-0.5003,40.0933,0.93936,0.00916,-0.00131,0.3428,0.1698,-0.0771,-9.8867,-0.0915,-0.0468,0.1031,0.2252,3,13,0.79,1.08,0.2,24.642,23.79,94.2,45.3,20727.0,8168,8107,7980,8080,57.8,63.6,60.9,65.1,2.634,3.021,2.56,2.696,7.31,63.5,38.1,74.8,1014.55,-29.56,0.97,1.92,31.9,45.3,43.2,0,no_anomaly,0.0,0,0,0,0,23.0225008,72.5714173,5.0,0.0
2024-10-22T18:47:01.500Z,MISSION_0027,15,0,takeoff,SITE_AMD_008,23.022504,72.5714173,5.0,37.81,1.647,0.062,1.98,0.0262,-3.9324,37.8055,0.94551,0.01133,-0.03239,0.32378,0.0024,0.0404,-9.8521,0.2658,0.2753,-0.1702,0.2465,3,14,0.7,0.78,0.32,24.717,27.12,94.1,45.3,20708.0,8256,7858,7710,8036,64.2,63.4,63.3,64.9,2.829,2.706,2.624,2.949,7.13,57.0,37.7,77.0,1014.87,-30.77,-0.52,2.08,31.9,52.0,43.0,0,no_anomaly,0.0,0,0,0,0,23.022504,72.5714173,5.0,0.0
2024-10-22T18:47:01.600Z,MISSION_0027,16,0,takeoff,SITE_AMD_008,23.0225028,72.5714166,5.0,36.02,1.553,0.174,1.87,-2.4563,-0.8451,36.0183,0.95081,-0.0181,-0.01364,0.30894,-0.5456,-0.0408,-9.8213,-0.2987,0.6843,0.0044,0.2673,3,15,0.67,0.83,0.2,24.695,17.04,94.0,46.3,20688.0,7897,7736,8091,7716,63.2,64.7,58.8,65.2,2.62,2.669,3.087,2.651,7.69,61.6,37.9,76.5,1014.65,-30.81,0.63,1.61,35.1,50.6,39.7,0,no_anomaly,0.0,0,0,0,0,23.0225028,72.5714166,5.0,0.0
2024-10-22T18:47:01.700Z,MISSION_0027,17,0,takeoff,SITE_AMD_008,23.022508,72.5714179,5.0,38.57,1.764,0.083,2.18,-4.5457,-0.5139,38.5732,0.94318,-0.03595,-0.01733,0.32986,-0.1029,0.0017,-9.8329,0.0712,0.222,0.0605,0.2462,3,18,0.8,1.15,0.2,24.585,16.77,93.9,47.1,20669.0,8110,7795,8050,8013,62.8,65.0,63.5,62.9,2.835,2.815,2.53,2.886,7.09,64.4,38.1,76.7,1014.8,-34.62,0.8,1.68,30.4,46.7,41.1,0,no_anomaly,0.0,0,0,0,0,23.022508,72.5714179,5.0,0.0
2024-10-22T18:47:01.800Z,MISSION_0027,18,0,takeoff,SITE_AMD_008,23.0225136,72.5714193,5.0,36.08,2.198,0.135,2.63,-10.0728,0.0607,36.0802,0.94715,-0.08364,-0.02668,0.30853,0.0989,0.0128,-9.8545,0.1163,0.0011,-0.6386,0.2137,3,13,0.68,1.07,0.36,24.713,21.26,93.9,45.6,20649.0,7974,7816,8122,7959,59.9,63.6,64.0,67.0,2.756,2.799,2.896,2.854,8.77,68.9,38.2,77.1,1014.87,-28.88,0.08,1.55,33.4,49.5,44.3,0,no_anomaly,0.0,0,0,0,0,23.0225136,72.5714193,5.0,0.0
2024-10-22T18:47:01.900Z,MISSION_0027,19,0,takeoff,SITE_AMD_008,23.0225107,72.5714216,5.0,37.71,2.296,0.025,2.68,-5.8858,-0.8734,37.7079,0.9452,-0.04613,-0.02379,0.32235,-0.2419,0.0281,-9.8404,-0.3957,-0.1341,0.0857,0.3018,3,15,0.75,0.82,0.37,24.517,13.19,93.8,45.2,20630.0,7953,7987,8180,8075,61.8,63.6,62.9,63.1,2.916,2.873,2.884,2.954,7.44,64.2,38.1,76.3,1014.66,-23.4,0.2,2.03,34.8,52.6,41.0,0,no_anomaly,0.0,0,0,0,0,23.0225107,72.5714216,5.0,0.0
2024-10-22T18:47:02.000Z,MISSION_0027,20,0,takeoff,SITE_AMD_008,23.0225077,72.571428,5.0,38.34,2.199,-0.008,3.23,-3.1337,-4.252,38.3433,0.94387,-0.01363,-0.044,0.32709,0.1216,-0.0299,-9.7824,0.0415,-0.5116,0.4517,0.2177,3,12,0.93,0.71,0.38,24.551,17.72,93.7,45.4,20610.0,7951,8040,7773,8119,62.6,64.2,60.7,60.7,2.667,3.101,2.939,2.709,7.6,69.8,38.1,76.5,1014.5,-26.16,-0.24,1.52,32.0,43.0,38.3,0,no_anomaly,0.0,0,0,0,0,23.0225077,72.571428,5.0,0.0
2024-10-22T18:47:02.100Z,MISSION_0027,21,0,takeoff,SITE_AMD_008,23.0225082,72.571425,5.0,38.11,1.79,0.134,2.93,3.1326,-1.4417,38.1142,0.94465,0.02994,-0.00296,0.32669,-0.1957,-0.0229,-9.7839,-0.7227,0.4513,-0.1533,0.2575,3,19,0.77,0.86,0.57,24.641,18.52,93.6,46.2,20591.0,7818,8162,7900,8251,64.0,62.8,59.4,62.2,2.829,2.776,2.761,2.87,7.6,65.1,38.4,75.9,1014.85,-36.56,-0.13,1.46,35.2,52.9,44.3,0,no_anomaly,0.0,0,0,0,0,23.0225082,72.571425,5.0,0.0
2024-10-22T18:47:02.200Z,MISSION_0027,22,0,takeoff,SITE_AMD_008,23.0225048,72.5714236,5.0,37.66,1.28,0.117,2.68,0.1048,-2.0332,37.6644,0.94631,0.00659,-0.0165,0.32276,-0.0183,0.0022,-9.8245,-0.0672,-0.2474,0.1331,0.2495,3,17,0.79,0.76,0.3,24.65,19.62,93.5,47.1,20572.0,8185,8281,8161,8073,64.5,66.0,58.4,64.3,2.697,2.63,2.856,2.823,7.23,58.0,38.2,76.0,1014.87,-29.14,-1.01,1.0,32.4,46.6,40.2,0,no_anomaly,0.0,0,0,0,0,23.0225048,72.5714236,5.0,0.0
2024-10-22T18:47:02.300Z,MISSION_0027,23,0,takeoff,SITE_AMD_008,23.0225076,72.5714239,5.0,37.88,1.45,0.116,2.79,-3.4272,-2.1099,37.8764,0.94546,-0.02231,-0.02711,0.32383,-0.246,-0.0333,-9.8314,-0.187,-0.1054,-0.1444,0.2548,3,14,0.8,0.76,0.3,24.591,23.73,93.4,46.7,20552.0,8088,8130,7965,7847,66.6,63.5,63.9,64.4,2.883,2.749,2.938,2.721,8.08,61.0,38.1,75.4,1014.79,-31.48,1.02,1.94,31.7,52.6,42.8,0,no_anomaly,0.0,0,0,0,0,23.0225076,72.5714239,5.0,0.0
2024-10-22T18:47:02.400Z,MISSION_0027,24,0,takeoff,SITE_AMD_008,23.0225092,72.5714224,5.0,36.94,1.208,0.107,2.69,0.1946,-2.1331,36.9365,0.94832,0.00751,-0.01712,0.31675,-0.181,0.0292,-9.7784,0.1609,0.0402,0.046,0.1986,3,12,0.69,0.94,0.21,24.559,19.11,93.3,45.9,20533.0,7772,7659,7935,7972,62.6,63.6,60.5,60.8,2.723,2.751,2.857,2.68,7.73,58.5,38.2,76.5,1015.0,-31.79,1.05,1.85,33.4,48.5,38.5,0,no_anomaly,0.0,0,0,0,0,23.0225092,72.5714224,5.0,0.0
2024-10-22T18:47:02.500Z,MISSION_0027,25,0,takeoff,SITE_AMD_008,23.0225069,72.571423,5.0,36.25,1.124,0.081,2.67,-3.4394,-0.534,36.2503,0.94998,-0.02707,-0.01376,0.31082,0.1595,-0.0167,-9.8623,1.3764,-0.1361,-0.0087,0.2413,3,16,0.64,0.73,0.21,24.642,16.0,93.2,46.9,20513.0,7949,7861,8247,8221,63.9,61.6,66.1,62.3,2.834,2.861,2.823,2.8,7.91,58.2,37.7,76.6,1014.87,-29.19,-0.88,1.89,29.3,43.8,41.0,0,no_anomaly,0.0,0,0,0,0,23.0225069,72.571423,5.0,0.0
2024-10-22T18:47:02.600Z,MISSION_0027,26,0,takeoff,SITE_AMD_008,23.0225052,72.5714227,5.0,38.63,0.817,0.112,2.59,3.1476,0.6957,38.6272,0.9434,0.02391,0.01481,0.33045,0.1261,0.0432,-9.8451,0.3095,-0.0681,0.6359,0.1679,3,18,0.56,0.78,0.29,24.592,19.65,93.2,47.2,20494.0,8198,7924,8012,7778,63.9,63.6,61.6,63.3,2.752,2.625,2.896,2.584,7.24,61.0,38.0,75.8,1014.75,-30.01,1.46,1.57,37.2,51.0,41.0,0,no_anomaly,0.0,0,0,0,0,23.0225052,72.5714227,5.0,0.0
2024-10-22T18:47:02.700Z,MISSION_0027,27,0,takeoff,SITE_AMD_008,23.0225049,72.5714196,5.0,37.33,1.199,0.084,2.26,5.5502,-1.4212,37.3324,0.94602,0.04983,0.00376,0.32022,0.0997,0.0732,-9.6831,-0.1768,-0.055,-0.4552,0.2513,3,20,0.78,1.06,0.22,24.532,20.68,93.1,46.7,20474.0,8010,7998,7996,7772,62.9,61.8,61.5,65.4,2.914,2.785,2.648,2.71,8.57,55.1,38.1,76.0,1015.09,-32.85,-0.34,1.18,33.5,52.4,39.1,0,no_anomaly,0.0,0,0,0,0,23.0225049,72.5714196,5.0,0.0
2024-10-22T18:47:02.800Z,MISSION_0027,28,0,takeoff,SITE_AMD_008,23.0225032,72.5714184,5.0,37.88,0.737,0.093,2.08,4.0392,-2.8809,37.877,0.94469,0.04148,-0.01233,0.32509,-0.2388,-0.0803,-9.8104,0.001,-1.2289,-0.413,0.28,3,15,0.62,0.98,0.2,24.645,17.61,93.0,45.8,20455.0,8017,8010,7972,7910,65.3,62.6,65.1,63.7,2.46,2.933,2.966,2.673,8.26,62.2,38.2,76.3,1014.99,-27.64,0.63,1.34,35.0,45.2,41.8,0,no_anomaly,0.0,0,0,0,0,23.0225032,72.5714184,5.0,0.0
2024-10-22T18:47:02.900Z,MISSION_0027,29,0,takeoff,SITE_AMD_008,23.0225076,72.5714206,5.0,36.62,0.938,0.014,2.45,-8.4969,-1.2988,36.6212,0.94696,-0.06677,-0.034,0.31249,0.358,0.0521,-9.8592,0.0783,0.1244,0.0843,0.2856,3,18,0.69,0.6,0.24,24.692,20.04,92.9,45.8,20435.0,8296,8119,7870,8218,64.8,62.1,63.4,63.8,2.881,2.783,2.958,2.711,7.92,60.7,38.2,75.4,1015.01,-31.32,1.35,2.02,30.5,48.0,41.3,0,no_anomaly,0.0,0,0,0,0,23.0225076,72.5714206,5.0,0.0
2024-10-22T18:47:03.000Z,MISSION_0027,30,0,takeoff,SITE_AMD_008,23.0225058,72.5714197,5.0,38.36,0.819,0.032,2.28,-1.4703,-2.9485,38.3575,0.94422,-0.00366,-0.02851,0.32807,-0.0395,-0.0589,-9.9283,0.9734,-0.3206,0.034,0.3154,3,13,0.64,0.92,0.28,24.649,23.34,92.8,46.0,20416.0,8115,8152,8045,8041,65.3,64.7,64.4,64.4,2.729,2.803,2.877,2.989,7.75,64.4,38.2,75.3,1014.64,-25.13,0.83,1.6,30.3,46.6,41.1,0,no_anomaly,0.0,0,0,0,0,23.0225058,72.5714197,5.0,0.0
2024-10-22T18:47:03.100Z,MISSION_0027,31,0,takeoff,SITE_AMD_008,23.0225089,72.5714133,5.0,35.93,0.752,0.067,1.78,3.7005,-2.0284,35.9333,0.95042,0.03617,-0.00687,0.3088,-0.0527,-0.0319,-9.8696,0.1228,0.5757,0.1854,0.2714,3,12,0.83,0.94,0.22,24.539,19.29,92.7,46.3,20396.0,8352,7969,8128,7759,63.7,61.0,63.6,66.0,2.856,2.657,2.771,2.883,8.68,55.6,38.4,74.8,1014.79,-28.66,0.29,1.86,33.2,47.8,38.7,0,no_anomaly,0.0,0,0,0,0,23.0225089,72.5714133,5.0,0.0
2024-10-22T18:47:03.200Z,MISSION_0027,32,0,takeoff,SITE_AMD_008,23.0225075,72.5714147,5.0,36.41,0.444,0.118,1.84,7.2959,-2.1221,36.4103,0.94749,0.0662,0.00232,0.31285,0.0144,0.0298,-9.797,0.1334,1.0791,-0.2849,0.3555,3,20,0.82,0.87,0.31,24.578,18.71,92.6,46.8,20377.0,8005,7954,8380,7817,61.4,63.8,61.6,61.9,2.809,2.926,2.782,2.938,7.84,59.5,37.8,75.3,1014.9,-27.25,0.86,1.67,31.5,49.3,41.7,0,no_anomaly,0.0,0,0,0,0,23.0225075,72.5714147,5.0,0.0
2024-10-22T18:47:03.300Z,MISSION_0027,33,0,takeoff,SITE_AMD_008,23.0225081,72.5714151,5.0,37.19,0.5,0.087,1.91,-0.9625,-2.4068,37.1885,0.94761,-0.00126,-0.02258,0.31862,-0.0841,0.0011,-9.8504,-0.2523,-0.5067,-0.4157,0.3031,3,20,0.66,0.69,0.28,24.564,19.96,92.5,45.8,20358.0,7817,8151,8201,7833,62.1,57.4,63.6,62.8,2.766,2.865,3.006,2.994,7.71,56.4,38.3,76.3,1014.77,-26.54,0.75,1.11,31.0,52.7,38.9,0,no_anomaly,0.0,0,0,0,0,23.0225081,72.5714151,5.0,0.0
2024-10-22T18:47:03.400Z,MISSION_0027,34,0,takeoff,SITE_AMD_008,23.022506,72.5714192,5.0,37.23,0.064,0.108,2.24,-2.8391,-2.3822,37.2333,0.94734,-0.01684,-0.0276,0.31858,0.0738,-0.0624,-9.8119,-0.264,-0.9022,0.6506,0.3485,3,13,0.58,0.95,0.2,24.622,12.58,92.4,46.4,20338.0,7944,7894,8049,8035,67.4,63.1,63.0,62.6,2.723,2.661,2.934,2.873,7.37,73.9,38.3,75.1,1014.74,-27.03,-0.09,1.97,33.7,51.3,40.5,0,no_anomaly,0.0,0,0,0,0,23.022506,72.5714192,5.0,0.0
2024-10-22T18:47:03.500Z,MISSION_0027,35,0,takeoff,SITE_AMD_008,23.0225041,72.5714168,5.0,34.49,0.0,0.081,1.93,-2.1624,-4.1189,34.491,0.95446,-0.00736,-0.03991,0.29557,-0.3039,-0.0218,-9.8622,0.905,0.387,0.2055,0.2885,3,18,0.7,1.13,0.3,24.615,16.9,92.4,46.7,20319.0,8006,8100,7789,8113,59.4,60.8,64.4,65.3,2.918,3.005,2.717,2.454,6.9,69.4,37.9,75.6,1014.62,-29.71,-0.53,1.22,29.4,49.8,41.1,0,no_anomaly,0.0,0,0,0,0,23.0225041,72.5714168,5.0,0.0
2024-10-22T18:47:03.600Z,MISSION_0027,36,0,takeoff,SITE_AMD_008,23.0225034,72.5714091,5.0,35.57,0.116,0.157,1.08,0.2914,-2.9782,35.5724,0.95186,0.01036,-0.02397,0.30542,-0.3675,0.0305,-9.882,0.2744,-0.4275,-0.5724,0.2396,3,16,0.66,1.15,0.23,24.727,16.02,92.3,46.6,20299.0,8229,8300,8272,8024,63.4,60.6,66.0,62.5,3.064,2.914,2.639,2.787,8.62,68.1,38.1,76.5,1015.02,-25.83,0.67,2.03,32.0,49.5,37.9,0,no_anomaly,0.0,0,0,0,0,23.0225034,72.5714091,5.0,0.0
2024-10-22T18:47:03.700Z,MISSION_0027,37,0,takeoff,SITE_AMD_008,23.0225018,72.5714084,5.0,35.58,0.338,0.063,0.95,5.5922,-2.8509,35.5821,0.95038,0.05403,-0.00876,0.30624,-0.0076,0.0026,-9.8149,0.3921,0.8157,0.1991,0.19,3,11,0.65,0.83,0.35,24.605,18.78,92.2,45.6,20280.0,8287,8172,8132,8084,61.3,61.9,61.4,62.7,2.752,2.931,2.719,2.575,7.42,62.2,38.1,75.6,1014.76,-28.79,-0.15,1.56,31.4,47.3,42.0,0,no_anomaly,0.0,0,0,0,0,23.0225018,72.5714084,5.0,0.0
2024-10-22T18:47:03.800Z,MISSION_0027,38,0,takeoff,SITE_AMD_008,23.022503,72.5714085,5.0,35.79,0.586,0.094,1.01,2.108,-3.5627,35.7894,0.95083,0.02705,-0.02393,0.30761,-0.3173,0.0811,-9.8468,-0.2039,0.1563,-0.2437,0.1881,3,15,0.61,1.09,0.32,24.64,23.41,92.1,46.3,20260.0,8112,7896,8147,8051,62.6,62.3,67.7,63.6,2.563,3.019,2.537,2.65,7.43,57.5,38.1,76.4,1015.19,-30.64,-2.12,1.26,34.9,44.6,39.9,0,no_anomaly,0.0,0,0,0,0,23.022503,72.5714085,5.0,0.0
2024-10-22T18:47:03.900Z,MISSION_0027,39,0,takeoff,SITE_AMD_008,23.022503,72.571411,5.0,37.26,0.151,0.109,1.27,1.4382,-3.3046,37.2596,0.94702,0.0211,-0.02331,0.31964,0.3763,-0.0414,-9.7913,1.0255,0.0357,-0.0766,0.1816,3,19,0.9,0.8,0.3,24.648,20.47,92.0,46.1,20241.0,8027,7844,7952,8252,62.5,59.9,63.4,67.2,2.695,2.796,2.896,2.673,8.02,58.8,38.0,75.0,1015.15,-31.21,2.65,1.62,33.9,50.4,38.8,0,no_anomaly,0.0,0,0,0,0,23.022503,72.571411,5.0,0.0
2024-10-22T18:47:04.000Z,MISSION_0027,40,0,takeoff,SITE_AMD_008,23.0225033,72.5714067,5.0,33.59,0.0,0.056,0.83,-2.5118,-1.691,33.5889,0.95711,-0.01672,-0.02046,0.28853,-0.589,0.0269,-9.8532,-0.6922,-0.6766,-0.0846,0.2405,3,17,0.77,1.02,0.53,24.504,17.8,91.9,46.2,20221.0,8247,8164,7946,8106,61.7,61.7,64.0,64.3,2.849,2.755,2.688,2.785,6.74,65.0,37.9,75.5,1014.87,-31.01,0.2,1.94,33.5,47.6,40.7,0,no_anomaly,0.0,0,0,0,0,23.0225033,72.5714067,5.0,0.0
2024-10-22T18:47:04.100Z,MISSION_0027,41,0,takeoff,SITE_AMD_008,23.0225065,72.5714081,5.0,30.59,0.137,0.116,1.16,-3.3218,-1.7849,30.5937,0.96417,-0.02385,-0.02266,0.26324,-0.1207,0.0682,-9.8335,0.41,0.6509,-0.2703,0.2762,3,17,0.84,1.09,0.34,24.544,17.5,91.8,46.1,20202.0,8252,7906,7802,8566,64.5,62.1,63.4,61.0,2.896,2.728,2.867,2.782,6.69,71.2,38.0,76.1,1014.64,-29.03,-0.62,1.06,35.3,43.3,41.1,0,no_anomaly,0.0,0,0,0,0,23.0225065,72.5714081,5.0,0.0
2024-10-22T18:47:04.200Z,MISSION_0027,42,0,takeoff,SITE_AMD_008,23.0225042,72.571404,5.0,29.79,0.0,0.063,0.65,-7.0798,-1.0141,29.7921,0.96465,-0.0574,-0.02441,0.25604,-0.0071,0.0698,-9.766,0.0327,-0.3957,0.072,0.2364,3,19,0.63,0.87,0.29,24.645,15.66,91.7,46.2,20183.0,8361,7959,8167,7953,63.5,60.8,62.8,65.3,2.967,2.769,2.619,2.467,7.82,60.7,37.8,76.2,1014.78,-35.48,0.07,1.32,29.7,43.4,40.3,0,no_anomaly,0.0,0,0,0,0,23.0225042,72.571404,5.0,0.0
2024-10-22T18:47:04.300Z,MISSION_0027,43,0,takeoff,SITE_AMD_008,23.0225091,72.5714003,5.0,27.82,0.489,0.128,1.01,-0.6795,-2.892,27.8229,0.97038,0.00031,-0.02592,0.2402,0.2099,0.0221,-9.9455,-0.0631,0.218,-0.1277,0.1948,3,20,0.73,0.69,0.44,24.601,14.29,91.7,46.3,20163.0,7922,7830,8059,8061,63.3,60.8,63.1,63.7,3.071,2.729,2.735,2.949,7.82,66.9,38.3,76.1,1014.68,-28.92,0.61,1.47,36.3,47.4,42.6,0,no_anomaly,0.0,0,0,0,0,23.0225091,72.5714003,5.0,0.0
2024-10-22T18:47:04.400Z,MISSION_0027,44,0,takeoff,SITE_AMD_008,23.0225093,72.5714023,5.0,27.89,0.707,0.159,1.06,5.7025,-2.838,27.889,0.96873,0.05422,-0.01202,0.2418,0.0687,0.0412,-9.889,0.3883,-0.8169,-0.6675,0.2614,3,12,0.76,0.83,0.35,24.653,18.66,91.6,46.7,20144.0,7808,7777,7983,8006,60.7,65.8,61.4,61.2,2.834,3.007,3.014,2.761,7.86,63.9,37.8,76.1,1015.12,-27.27,-0.06,1.49,32.0,44.8,42.7,0,no_anomaly,0.0,0,0,0,0,23.0225093,72.5714023,5.0,0.0
2024-10-22T18:47:04.500Z,MISSION_0027,45,0,takeoff,SITE_AMD_008,23.0225068,72.5714014,5.0,26.04,0.803,0.104,0.78,-6.2531,-1.8034,26.0415,0.97291,-0.04959,-0.0276,0.2241,0.1605,-0.0218,-9.8284,0.1827,0.9281,0.098,0.1951,3,10,0.59,0.67,0.3,24.572,14.8,91.5,45.9,20124.0,7982,7813,8189,7885,68.3,65.0,61.0,62.3,2.823,2.359,2.809,3.122,7.02,56.0,38.1,75.7,1015.13,-28.1,1.26,1.21,34.9,50.6,40.9,0,no_anomaly,0.0,0,0,0,0,23.0225068,72.5714014,5.0,0.0
2024-10-22T18:47:04.600Z,MISSION_0027,46,0,takeoff,SITE_AMD_008,23.0225028,72.5714024,5.0,25.06,0.926,0.095,0.41,2.4004,-3.5961,25.0637,0.97534,0.02724,-0.02608,0.21747,-0.1172,-0.0225,-9.7686,0.3592,1.2591,-0.2467,0.2915,3,12,0.86,0.86,0.33,24.523,17.14,91.4,46.0,20105.0,7966,8106,8004,7716,63.6,65.8,60.4,61.8,2.842,2.728,2.665,2.542,7.33,65.0,38.2,76.9,1014.92,-29.75,-1.53,1.07,31.3,48.5,38.2,0,no_anomaly,0.0,0,0,0,0,23.0225028,72.5714024,5.0,0.0
2024-10-22T18:47:04.700Z,MISSION_0027,47,0,takeoff,SITE_AMD_008,23.0225035,72.571397,5.0,24.06,1.159,0.074,0.51,4.3146,-4.2815,24.0634,0.97636,0.04457,-0.02867,0.20953,-0.0058,-0.0939,-9.789,-0.6133,-0.5764,-0.3603,0.332,3,13,0.61,1.08,0.33,24.583,14.95,91.3,45.0,20085.0,7682,8089,7820,8036,61.9,62.7,66.1,62.0,2.816,3.0,2.787,3.106,7.3,62.0,38.1,75.7,1014.63,-30.72,-0.85,1.43,33.6,49.6,39.3,0,no_anomaly,0.0,0,0,0,0,23.0225035,72.571397,5.0,0.0
2024-10-22T18:47:04.800Z,MISSION_0027,48,0,takeoff,SITE_AMD_008,23.0225049,72.571398,5.0,22.55,1.254,0.142,0.59,-5.8476,-3.813,22.549,0.97921,-0.0435,-0.04255,0.19348,0.0683,-0.0483,-9.9048,-0.7288,-0.3338,0.1653,0.248,3,15,0.73,0.81,0.36,24.515,21.08,91.2,46.2,20066.0,8123,8180,8024,8030,57.8,60.6,63.1,61.9,2.976,2.952,2.89,2.824,7.9,66.6,38.1,76.5,1015.02,-29.77,0.54,2.17,33.1,49.6,38.5,0,no_anomaly,0.0,0,0,0,0,23.0225049,72.571398,5.0,0.0
2024-10-22T18:47:04.900Z,MISSION_0027,49,0,takeoff,SITE_AMD_008,23.0225076,72.5713966,5.0,22.43,0.933,0.048,0.93,4.4277,-3.7579,22.4284,0.9794,0.04424,-0.02463,0.19547,0.1121,0.0778,-9.7842,0.2781,-0.2922,0.3548,0.2101,3,11,0.71,0.96,0.22,24.619,16.36,91.1,46.0,20046.0,8317,8076,8116,7682,66.2,60.3,62.5,64.5,2.754,2.368,2.978,2.833,7.84,68.9,37.8,75.7,1015.04,-29.68,-0.71,2.02,32.5,45.9,40.3,0,no_anomaly,0.0,0,0,0,0,23.0225076,72.5713966,5.0,0.0
2024-10-22T18:47:05.000Z,MISSION_0027,50,0,takeoff,SITE_AMD_008,23.0225097,72.5713938,5.0,22.24,0.721,0.14,1.28,-0.3388,-2.6188,22.2395,0.98098,0.00151,-0.02299,0.19274,-0.0983,0.0019,-9.8457,0.5418,-0.084,0.2989,0.2661,3,12,0.59,0.96,0.2,24.671,16.0,91.0,46.0,20027.0,7814,8149,7944,8045,62.3,60.4,65.0,62.1,2.898,2.865,2.873,2.889,7.34,56.2,38.2,76.5,1014.93,-31.11,0.67,1.8,30.5,42.9,38.2,0,no_anomaly,0.0,0,0,0,0,23.0225097,72.5713938,5.0,0.0
2024-10-22T18:47:05.100Z,MISSION_0027,51,0,takeoff,SITE_AMD_008,23.0225099,72.5713881,5.0,21.64,0.64,0.163,1.72,3.7624,-1.7784,21.6401,0.98148,0.03515,-0.00907,0.1881,0.12,-0.1028,-9.7803,-0.2137,-0.0574,0.2703,0.2537,3,12,0.76,0.8,0.24,24.652,17.94,90.9,46.0,20008.0,7889,8109,7867,8022,59.6,62.8,64.2,64.2,2.85,2.7,2.863,2.671,8.92,55.4,38.0,76.3,1014.99,-30.94,1.85,1.52,32.3,51.9,38.0,0,no_anomaly,0.0,0,0,0,0,23.0225099,72.5713881,5.0,0.0
2024-10-22T18:47:05.200Z,MISSION_0027,52,0,transit,SITE_AMD_008,23.0225092,72.5713844,5.5,19.98,0.811,0.073,2.02,10.2943,-2.9131,19.9777,0.98016,0.09272,-0.00938,0.17495,0.3439,0.0043,-9.8858,0.5043,0.3034,0.0443,0.195,3,11,0.59,0.81,0.25,24.566,16.44,90.9,45.3,19988.0,7959,8139,8385,7751,64.0,63.1,64.1,60.3,2.703,2.776,3.146,2.89,7.24,67.2,38.2,76.2,1014.71,-30.68,-0.31,1.41,30.4,50.5,38.1,0,no_anomaly,0.0,0,0,0,0,23.0225092,72.5713844,5.5,0.0
2024-10-22T18:47:05.300Z,MISSION_0027,53,0,transit,SITE_AMD_008,23.0225141,72.5713878,6.0,19.08,1.033,0.107,2.08,3.909,-3.4473,19.0821,0.98498,0.0386,-0.02399,0.16659,0.238,-0.0279,-9.6968,0.0696,0.0147,-0.0892,0.2683,3,11,0.68,0.93,0.2,24.605,16.36,90.8,46.1,19969.0,7688,7954,8352,7775,62.9,64.8,60.4,63.7,2.687,2.801,2.743,2.705,7.96,64.1,38.3,75.7,1014.93,-29.33,0.25,1.17,32.1,53.7,40.1,0,no_anomaly,0.0,0,0,0,0,23.0225141,72.5713878,6.0,0.0
2024-10-22T18:47:05.400Z,MISSION_0027,54,0,transit,SITE_AMD_008,23.0225211,72.5713849,6.5,18.5,0.783,0.104,2.89,-2.7891,-1.952,18.5044,0.98662,-0.02128,-0.02072,0.1603,0.1702,-0.0196,-9.78,-0.5593,0.9871,-0.1442,0.2248,3,14,0.59,1.08,0.2,24.596,22.86,90.7,45.4,19949.0,7930,7932,8221,8276,61.5,65.3,62.6,66.6,2.784,2.636,2.692,3.035,8.32,69.4,37.9,75.7,1014.71,-31.99,-0.02,1.26,31.6,45.8,43.2,0,no_anomaly,0.0,0,0,0,0,23.0225211,72.5713849,6.5,0.0
2024-10-22T18:47:05.500Z,MISSION_0027,55,0,transit,SITE_AMD_008,23.0225203,72.5713846,7.0,16.79,0.457,0.047,2.84,-3.9096,-2.8806,16.7898,0.98852,-0.03007,-0.02983,0.14502,-0.046,-0.0971,-9.7879,-0.1112,-0.4208,0.3588,0.176,3,15,0.62,0.93,0.26,24.597,13.63,90.6,45.8,19930.0,7887,8178,7825,8024,62.7,59.9,61.2,65.8,2.619,3.114,3.105,2.815,8.46,71.8,37.6,76.3,1015.04,-30.51,-1.95,1.52,32.3,52.2,38.4,0,no_anomaly,0.0,0,0,0,0,23.0225203,72.5713846,7.0,0.0
2024-10-22T18:47:05.600Z,MISSION_0027,56,0,transit,SITE_AMD_008,23.022521,72.5713865,7.5,15.25,0.419,0.09,2.77,-3.1097,-2.2452,15.2548,0.99067,-0.02429,-0.02301,0.13213,-0.0216,0.1082,-9.8909,-0.3034,-0.5778,-0.0674,0.3122,3,18,0.71,0.75,0.21,24.535,16.34,90.5,46.0,19910.0,7961,8019,8095,7867,62.7,61.0,64.7,66.3,2.801,2.702,2.801,2.889,7.06,63.0,38.1,75.6,1015.07,-27.27,-0.3,1.64,35.9,49.3,43.5,0,no_anomaly,0.0,0,0,0,0,23.022521,72.5713865,7.5,0.0
2024-10-22T18:47:05.700Z,MISSION_0027,57,0,transit,SITE_AMD_008,23.0225231,72.5713876,8.0,14.85,0.195,0.087,2.92,-4.3891,-2.2826,14.8463,0.99079,-0.03539,-0.02468,0.12832,-0.0136,0.0547,-9.8809,0.2848,0.5314,0.1102,0.378,3,20,0.72,0.87,0.25,24.472,22.12,90.4,46.4,19891.0,8021,7874,8214,8285,60.9,65.9,63.8,60.4,2.87,2.876,2.871,2.668,8.24,58.9,38.0,75.7,1014.83,-31.81,0.11,1.02,32.2,50.3,42.6,0,no_anomaly,0.0,0,0,0,0,23.0225231,72.5713876,8.0,0.0
2024-10-22T18:47:05.800Z,MISSION_0027,58,0,transit,SITE_AMD_008,23.0225224,72.5713903,8.5,17.33,0.185,0.165,2.71,0.7982,-1.9991,17.3338,0.98839,0.00951,-0.0162,0.15078,-0.1355,0.0037,-9.7901,0.0079,-0.3992,-0.3952,0.1833,3,14,0.69,0.97,0.34,24.509,18.02,90.3,45.7,19871.0,8126,8038,8124,7906,65.9,61.7,65.1,61.5,2.894,2.977,2.622,2.859,7.78,61.9,38.0,76.2,1014.56,-27.49,1.51,1.58,33.8,50.7,42.3,0,no_anomaly,0.0,0,0,0,0,23.0225224,72.5713903,8.5,0.0
2024-10-22T18:47:05.900Z,MISSION_0027,59,0,transit,SITE_AMD_008,23.0225219,72.5713889,9.0,18.32,0.0,0.109,2.74,-1.587,-2.7329,18.3247,0.98692,-0.00987,-0.02574,0.15885,-0.125,-0.0762,-9.8741,-0.0791,-0.1386,0.0628,0.3001,3,12,0.67,1.1,0.27,24.536,13.18,90.2,45.8,19852.0,8092,7983,8404,8124,64.3,62.8,59.3,65.0,2.771,2.754,2.818,2.82,7.26,57.4,38.5,76.5,1014.83,-31.66,-0.1,1.22,35.6,44.7,39.5,0,no_anomaly,0.0,0,0,0,0,23.0225219,72.5713889,9.0,0.0
2024-10-22T18:47:06.000Z,MISSION_0027,60,0,transit,SITE_AMD_008,23.0225214,72.5713848,9.5,19.21,0.0,0.171,2.92,2.9625,-1.5534,19.2086,0.9855,0.02775,-0.00905,0.16712,-0.1574,0.0097,-9.7677,0.0913,0.0047,0.0628,0.2348,3,20,0.84,0.69,0.38,24.591,19.87,90.1,46.3,19833.0,8116,7968,7894,7991,63.5,64.2,63.8,62.3,2.801,3.014,2.486,3.023,7.26,57.3,38.0,75.5,1014.88,-26.79,2.26,1.09,32.6,47.7,38.0,0,no_anomaly,0.0,0,0,0,0,23.0225214,72.5713848,9.5,0.0
2024-10-22T18:47:06.100Z,MISSION_0027,61,0,transit,SITE_AMD_008,23.02252,72.5713857,10.0,19.86,0.043,0.124,2.74,3.1277,0.2213,19.8602,0.98466,0.02655,0.00661,0.17233,0.1897,0.0352,-9.7486,0.0708,-0.5811,0.3328,0.2692,3,17,0.66,0.6,0.29,24.446,11.47,90.1,47.0,19813.0,7784,8069,8114,7840,60.6,61.4,61.7,64.1,2.876,2.743,2.781,2.814,7.0,71.7,37.9,75.4,1014.89,-32.32,0.2,1.41,30.3,43.9,42.3,0,no_anomaly,0.0,0,0,0,0,23.02252,72.5713857,10.0,0.0
2024-10-22T18:47:06.200Z,MISSION_0027,62,0,transit,SITE_AMD_008,23.0225217,72.5713816,10.5,20.11,0.0,0.004,3.16,2.9601,-1.3505,20.1103,0.98419,0.02749,-0.00709,0.17483,0.0817,-0.0325,-9.7654,-0.6278,-0.3548,-0.2071,0.3369,3,18,0.78,0.75,0.28,24.572,15.37,90.0,46.2,19794.0,7945,8083,8137,7839,63.3,61.9,61.5,64.2,2.658,2.954,2.404,3.007,7.75,59.5,38.1,76.1,1014.88,-28.72,-0.58,1.9,35.3,49.4,41.2,0,no_anomaly,0.0,0,0,0,0,23.0225217,72.5713816,10.5,0.0
2024-10-22T18:47:06.300Z,MISSION_0027,63,0,transit,SITE_AMD_008,23.0225259,72.5713828,11.0,21.36,0.0,0.038,3.46,-0.0291,-0.7571,21.3557,0.98266,0.00097,-0.00654,0.18528,-0.2527,0.0139,-9.8203,0.2445,-0.3095,0.1999,0.3048,3,18,0.93,0.9,0.36,24.51,19.09,89.9,46.3,19774.0,7953,8169,8151,8017,63.4,59.1,63.0,63.6,2.655,2.771,2.649,2.826,7.05,61.1,38.2,76.7,1014.83,-26.51,-0.09,1.04,31.7,48.3,39.2,0,no_anomaly,0.0,0,0,0,0,23.0225259,72.5713828,11.0,0.0
2024-10-22T18:47:06.400Z,MISSION_0027,64,0,transit,SITE_AMD_008,23.0225295,72.5713822,11.5,19.43,0.0,0.103,3.83,-4.1011,-5.0439,19.4311,0.98434,-0.02781,-0.04938,0.16693,-0.2706,-0.0986,-9.7606,-0.8588,-0.3304,0.1173,0.3153,3,20,0.62,0.83,0.27,24.514,21.12,89.8,46.1,19755.0,8292,8011,8164,7758,60.6,62.1,62.3,59.9,2.93,2.899,2.664,2.835,7.39,68.9,37.8,75.8,1014.81,-34.18,-0.37,1.18,34.0,48.1,38.3,0,no_anomaly,0.0,0,0,0,0,23.0225295,72.5713822,11.5,0.0
2024-10-22T18:47:06.500Z,MISSION_0027,65,0,transit,SITE_AMD_008,23.0225297,72.5713774,12.0,19.96,0.0,0.085,4.16,5.7418,-2.4896,19.955,0.98322,0.05308,-0.01269,0.17407,-0.0819,-0.0703,-9.8437,0.2518,-0.7083,0.0693,0.1524,3,10,0.69,0.94,0.33,24.457,18.62,89.7,45.9,19735.0,8364,8093,7912,8061,64.3,62.7,66.4,64.0,2.79,2.773,2.837,3.062,7.59,54.1,38.0,75.7,1014.55,-30.87,0.68,1.88,34.1,43.8,42.0,0,no_anomaly,0.0,0,0,0,0,23.0225297,72.5713774,12.0,0.0
2024-10-22T18:47:06.600Z,MISSION_0027,66,0,transit,SITE_AMD_008,23.0225309,72.5713704,12.5,18.8,0.206,0.023,4.77,1.8777,-2.1112,18.802,0.98622,0.01917,-0.0155,0.16359,0.5488,0.118,-9.8173,0.5626,-0.3874,-0.1761,0.385,3,18,0.61,0.82,0.26,24.567,19.68,89.6,46.2,19716.0,8111,8181,8240,8297,65.4,62.1,61.7,64.7,2.857,2.575,2.98,2.743,7.98,64.6,37.9,76.3,1014.67,-27.64,-1.71,1.73,37.1,50.0,40.4,0,no_anomaly,0.0,0,0,0,0,23.0225309,72.5713704,12.5,0.0
2024-10-22T18:47:06.700Z,MISSION_0027,67,0,transit,SITE_AMD_008,23.0225367,72.5713679,13.0,20.27,0.586,0.096,5.42,0.1372,-0.4396,20.2738,0.98438,0.00185,-0.00357,0.176,-0.0131,0.0704,-9.7703,0.5452,-0.2635,-0.368,0.2782,3,15,0.73,1.01,0.42,24.504,17.09,89.5,45.8,19696.0,8105,8262,7911,8189,60.9,65.1,63.0,63.5,2.781,2.849,3.027,2.797,7.46,64.6,38.2,75.1,1015.0,-21.26,-0.02,1.88,30.4,48.0,39.3,0,no_anomaly,0.0,0,0,0,0,23.0225367,72.5713679,13.0,0.0
2024-10-22T18:47:06.800Z,MISSION_0027,68,0,transit,SITE_AMD_008,23.022534,72.571373,13.5,19.99,0.533,0.103,4.84,-3.0418,-2.5633,19.9933,0.98433,-0.02225,-0.02663,0.1729,0.0292,-0.0187,-9.8077,-0.0163,-0.1449,0.0708,0.2829,3,12,0.61,0.76,0.27,24.51,23.04,89.4,46.2,19677.0,7919,8245,8407,8051,63.8,63.4,64.0,65.0,2.807,3.069,2.752,2.863,7.4,69.7,38.0,74.9,1015.03,-27.41,-2.28,1.44,35.2,52.5,42.5,0,no_anomaly,0.0,0,0,0,0,23.022534,72.571373,13.5,0.0
2024-10-22T18:47:06.900Z,MISSION_0027,69,0,transit,SITE_AMD_008,23.0225342,72.5713705,14.0,19.84,0.484,0.058,5.03,2.2808,-3.9391,19.8396,0.98416,0.02551,-0.03042,0.17281,0.1282,-0.0215,-9.7798,-0.5248,0.207,-0.1103,0.2546,3,17,0.59,1.06,0.24,24.562,18.94,89.4,46.1,19658.0,8126,8022,8041,8279,66.3,64.1,62.0,60.3,2.913,2.729,2.814,2.76,7.81,61.8,37.9,75.3,1015.13,-28.84,0.03,1.22,30.4,51.2,40.3,0,no_anomaly,0.0,0,0,0,0,23.0225342,72.5713705,14.0,0.0
2024-10-22T18:47:07.000Z,MISSION_0027,70,0,transit,SITE_AMD_008,23.0225351,72.5713716,14.5,20.37,0.425,0.043,5.02,-0.1261,-0.6591,20.3706,0.98423,-7e-05,-0.00586,0.17682,-0.5365,0.0014,-9.7745,0.5133,0.0495,0.4814,0.1997,3,11,0.7,0.73,0.34,24.53,19.41,89.3,46.3,19638.0,7822,8234,7892,8184,59.7,62.6,63.9,63.6,3.062,2.624,2.639,3.043,7.95,79.0,37.7,75.4,1014.97,-31.88,-1.15,1.31,33.8,50.1,40.3,0,no_anomaly,0.0,0,0,0,0,23.0225351,72.5713716,14.5,0.0
2024-10-22T18:47:07.100Z,MISSION_0027,71,0,transit,SITE_AMD_008,23.0225374,72.5713723,15.0,22.4,0.433,0.019,5.18,-8.2736,1.0426,22.4045,0.97822,-0.07252,-0.00511,0.1944,-0.0213,0.0449,-9.7846,0.0089,-0.275,0.7715,0.167,3,14,0.66,0.74,0.27,24.471,15.16,89.2,46.1,19619.0,7926,7790,8026,8312,62.5,61.1,63.9,64.5,2.739,2.726,2.916,3.003,7.36,74.8,37.7,76.4,1015.12,-27.72,-1.01,1.37,31.8,46.1,42.7,0,no_anomaly,0.0,0,0,0,0,23.0225374,72.5713723,15.0,0.0
2024-10-22T18:47:07.200Z,MISSION_0027,72,0,transit,SITE_AMD_008,23.0225391,72.5713726,15.5,23.33,0.749,0.143,5.32,-5.6043,-1.0465,23.3263,0.97823,-0.04603,-0.01882,0.20147,-0.1821,0.0117,-9.8397,-0.5989,-0.5093,-0.1235,0.2247,3,10,0.66,0.94,0.24,24.501,17.19,89.1,46.8,19599.0,8156,8082,7978,8006,59.5,63.6,61.5,62.5,2.809,2.74,3.134,2.729,7.39,63.3,38.3,76.2,1014.91,-31.32,-0.18,1.41,34.5,44.6,42.0,0,no_anomaly,0.0,0,0,0,0,23.0225391,72.5713726,15.5,0.0
2024-10-22T18:47:07.300Z,MISSION_0027,73,0,transit,SITE_AMD_008,23.0225399,72.5713745,16.0,26.62,0.674,-0.026,5.28,-1.0771,-5.7657,26.6192,0.97197,0.00244,-0.0511,0.22945,-0.2183,-0.0429,-9.8203,0.0326,0.5115,0.2805,0.2679,3,12,0.74,0.8,0.34,24.532,19.56,89.0,46.0,19580.0,8137,8362,7989,8043,68.3,61.9,62.0,60.2,2.767,2.952,3.247,2.936,6.76,59.0,38.1,75.5,1014.32,-34.99,-1.13,1.0,34.2,43.9,40.8,0,no_anomaly,0.0,0,0,0,0,23.0225399,72.5713745,16.0,0.0
2024-10-22T18:47:07.400Z,MISSION_0027,74,0,transit,SITE_AMD_008,23.0225379,72.5713756,16.5,28.05,0.0,0.022,5.01,-3.5323,-3.6667,28.0495,0.96947,-0.02214,-0.03849,0.24115,0.0528,-0.0953,-9.8907,0.1734,0.9649,0.21,0.242,3,11,0.78,0.79,0.24,24.607,20.8,88.9,46.3,19560.0,7955,8040,8226,7712,61.8,60.2,64.5,63.1,2.799,2.793,2.675,2.938,7.6,49.8,37.9,76.5,1014.41,-27.93,-0.5,1.76,30.0,43.4,41.1,0,no_anomaly,0.0,0,0,0,0,23.0225379,72.5713756,16.5,0.0
2024-10-22T18:47:07.500Z,MISSION_0027,75,0,transit,SITE_AMD_008,23.0225342,72.571376,17.0,27.84,0.0,0.106,4.65,2.2022,-2.8375,27.8361,0.97005,0.0246,-0.01941,0.24088,-0.1448,0.0372,-9.7782,-0.3817,0.1381,-0.1558,0.2084,3,19,0.73,0.68,0.35,24.56,19.75,88.8,46.2,19541.0,8232,8452,8208,8330,65.0,65.7,64.6,60.9,2.811,2.893,2.809,2.724,7.54,63.0,38.0,76.5,1014.45,-27.89,0.24,1.47,34.8,45.3,42.8,0,no_anomaly,0.0,0,0,0,0,23.0225342,72.571376,17.0,0.0
2024-10-22T18:47:07.600Z,MISSION_0027,76,0,transit,SITE_AMD_008,23.0225324,72.5713768,17.5,27.5,0.207,0.083,4.44,-1.0812,-6.2615,27.496,0.96998,0.00383,-0.05529,0.23679,0.0627,0.0007,-9.7923,-0.5145,-1.1216,-0.0014,0.187,3,16,0.81,0.88,0.2,24.453,21.24,88.7,46.3,19521.0,8154,8040,7991,8159,64.2,63.2,62.2,66.1,2.774,2.776,2.68,2.688,6.9,63.6,38.0,76.5,1014.83,-27.1,-1.64,1.01,33.6,44.5,42.7,0,no_anomaly,0.0,0,0,0,0,23.0225324,72.5713768,17.5,0.0
2024-10-22T18:47:07.700Z,MISSION_0027,77,0,transit,SITE_AMD_008,23.0225347,72.5713788,18.0,26.77,0.488,0.181,4.53,1.3169,-1.4905,26.773,0.97265,0.01419,-0.00999,0.23163,0.1892,-0.0439,-9.7967,-0.1561,-0.3789,-0.1254,0.2326,3,10,0.62,0.76,0.3,24.502,21.11,88.6,45.5,19502.0,8168,8370,8046,8415,59.6,64.3,63.6,65.2,2.908,2.853,2.666,2.827,7.77,65.2,37.9,76.4,1014.55,-25.35,0.03,1.66,32.1,49.0,39.6,0,no_anomaly,0.0,0,0,0,0,23.0225347,72.5713788,18.0,0.0
2024-10-22T18:47:07.800Z,MISSION_0027,78,0,transit,SITE_AMD_008,23.0225359,72.5713712,18.0,27.18,0.19,0.124,5.12,-1.2895,-0.1247,27.184,0.97193,-0.01068,-0.0037,0.23498,-0.1268,0.0068,-9.8109,0.4534,-0.0806,0.4462,0.2511,3,19,0.74,0.78,0.32,24.446,14.1,88.6,46.1,19483.0,8048,8364,7994,8158,64.9,62.1,63.8,62.8,3.012,2.712,2.781,2.705,7.16,63.3,37.9,75.9,1014.77,-25.4,1.38,1.32,32.2,46.6,40.6,0,no_anomaly,0.0,0,0,0,0,23.0225359,72.5713712,18.0,0.0
2024-10-22T18:47:07.900Z,MISSION_0027,79,0,transit,SITE_AMD_008,23.0225387,72.5713774,18.0,26.59,0.161,0.15,4.99,4.2887,-1.5791,26.5946,0.9723,0.03958,-0.0048,0.23032,-0.0868,0.0975,-9.8009,1.0091,-0.1119,0.2203,0.1747,3,18,0.73,0.99,0.31,24.565,21.0,88.5,46.2,19463.0,7985,7979,8373,8155,62.6,64.7,63.9,61.8,2.891,2.958,2.905,2.628,6.81,62.1,38.1,77.0,1014.56,-24.99,0.31,1.36,29.9,46.4,37.9,0,no_anomaly,0.0,0,0,0,0,23.0225387,72.5713774,18.0,0.0
2024-10-22T18:47:08.000Z,MISSION_0027,80,0,transit,SITE_AMD_008,23.0225385,72.5713808,18.0,24.54,0.321,0.09,4.79,-3.3508,-2.4735,24.5364,0.97665,-0.02398,-0.02729,0.21173,-0.0783,-0.026,-9.8304,-0.3752,0.7185,-0.1151,0.3335,3,12,0.64,0.61,0.35,24.489,18.77,88.4,46.7,19444.0,7969,8255,8224,8106,66.4,63.9,66.2,64.6,2.681,2.85,2.608,2.626,7.21,61.0,38.1,76.3,1014.8,-23.12,-1.51,1.72,35.4,52.6,42.4,0,no_anomaly,0.0,0,0,0,0,23.0225385,72.5713808,18.0,0.0
2024-10-22T18:47:08.100Z,MISSION_0027,81,0,transit,SITE_AMD_008,23.022534,72.571387,18.0,25.0,0.0,0.13,4.05,-5.2893,-3.2534,24.9956,0.97515,-0.03889,-0.03767,0.21481,-0.1271,0.0531,-9.8533,0.5737,-0.607,0.0885,0.1645,3,19,0.76,0.93,0.24,24.498,24.08,88.3,47.0,19424.0,7895,8133,8175,7933,62.0,64.2,64.7,61.1,2.731,2.672,2.649,2.357,7.41,54.0,38.0,75.4,1014.81,-28.81,-0.51,1.11,34.1,49.1,38.8,0,no_anomaly,0.0,0,0,0,0,23.022534,72.571387,18.0,0.0
2024-10-22T18:47:08.200Z,MISSION_0027,82,0,transit,SITE_AMD_008,23.0225297,72.5713777,18.0,22.9,0.123,0.08,4.13,-4.5469,-4.1287,22.896,0.97898,-0.03171,-0.04315,0.19679,-0.1888,-0.0016,-9.7755,-0.0505,1.8253,0.136,0.3585,3,17,0.66,0.81,0.32,24.517,20.07,88.2,46.0,19405.0,8445,8027,7911,8062,63.1,61.1,65.0,61.6,2.903,2.838,3.218,2.885,7.48,62.0,38.2,75.8,1014.77,-31.58,-0.11,1.8,34.7,47.0,43.4,0,no_anomaly,0.0,0,0,0,0,23.0225297,72.5713777,18.0,0.0
2024-10-22T18:47:08.300Z,MISSION_0027,83,0,transit,SITE_AMD_008,23.0225338,72.5713774,18.0,21.18,0.281,0.131,4.52,7.8591,-4.6753,21.1796,0.97933,0.07479,-0.02742,0.18594,0.3391,-0.011,-9.7854,-0.4918,-0.4607,-0.2071,0.2913,3,12,0.63,1.02,0.25,24.442,21.37,88.1,46.3,19385.0,8057,8030,8007,8082,63.1,59.6,63.7,65.2,2.979,2.908,2.755,2.79,7.62,60.4,37.9,76.3,1014.71,-28.56,-0.13,1.64,37.2,48.5,44.7,0,no_anomaly,0.0,0,0,0,0,23.0225338,72.5713774,18.0,0.0
2024-10-22T18:47:08.400Z,MISSION_0027,84,0,transit,SITE_AMD_008,23.0225298,72.5713777,18.0,22.69,0.344,0.074,4.15,-4.0828,0.1305,22.6856,0.97984,-0.03515,-0.00589,0.19659,0.2714,0.0226,-9.7664,-0.0218,-0.3862,-0.0825,0.2553,3,17,0.78,0.72,0.36,24.494,18.79,88.0,46.6,19366.0,8262,7883,7989,8234,65.8,66.3,63.0,59.9,3.059,2.613,3.007,2.657,8.41,64.7,37.8,75.9,1014.96,-26.15,0.7,1.68,32.5,44.9,39.3,0,no_anomaly,0.0,0,0,0,0,23.0225298,72.5713777,18.0,0.0
2024-10-22T18:47:08.500Z,MISSION_0027,85,0,transit,SITE_AMD_008,23.0225382,72.5713747,18.0,23.05,0.534,0.117,5.1,2.0384,-2.0432,23.0504,0.97946,0.02099,-0.01391,0.20005,-0.2964,0.0558,-9.8106,-0.1105,0.5877,-0.0255,0.2748,3,15,0.87,0.84,0.38,24.555,18.96,87.9,46.9,19346.0,8274,8318,8248,8098,61.6,63.8,57.5,62.5,2.768,2.579,2.897,2.97,7.65,59.6,38.2,76.2,1014.86,-30.91,1.11,1.66,35.5,46.5,39.7,0,no_anomaly,0.0,0,0,0,0,23.0225382,72.5713747,18.0,0.0
2024-10-22T18:47:08.600Z,MISSION_0027,86,0,transit,SITE_AMD_008,23.0225396,72.5713697,18.0,19.39,0.803,0.088,5.55,-1.9304,-3.1514,19.3876,0.98529,-0.01197,-0.02994,0.16784,-0.1593,-0.0298,-9.8282,-0.3295,0.386,-0.3262,0.1771,3,16,0.56,1.13,0.2,24.426,18.24,87.8,46.6,19327.0,8184,8178,7853,7967,63.1,63.8,69.2,62.3,3.032,2.74,3.076,2.802,7.1,55.2,37.9,76.3,1014.82,-28.9,0.29,1.29,32.7,46.2,41.0,0,no_anomaly,0.0,0,0,0,0,23.0225396,72.5713697,18.0,0.0
2024-10-22T18:47:08.700Z,MISSION_0027,87,0,transit,SITE_AMD_008,23.0225387,72.5713691,18.0,20.96,1.094,0.224,5.51,-0.1518,-3.592,20.9561,0.98285,0.0044,-0.03106,0.18173,0.211,-0.0305,-9.7793,0.3308,1.3084,0.0808,0.3219,3,14,0.5,0.75,0.2,24.468,17.41,87.8,46.0,19307.0,8243,8157,8231,8248,62.2,63.6,62.7,61.4,2.806,2.738,2.748,2.872,7.17,65.7,37.6,76.1,1014.7,-22.02,0.36,1.74,35.3,51.3,40.7,0,no_anomaly,0.0,0,0,0,0,23.0225387,72.5713691,18.0,0.0
2024-10-22T18:47:08.800Z,MISSION_0027,88,0,transit,SITE_AMD_008,23.0225356,72.5713685,18.0,19.35,0.917,0.11,5.29,3.4019,-5.4048,19.3505,0.98401,0.03715,-0.04147,0.16918,-0.0211,0.0027,-9.8164,0.2901,-0.9849,0.3769,0.2373,3,13,0.68,0.92,0.24,24.479,15.86,87.7,46.2,19288.0,8053,8189,8084,8257,65.5,65.3,65.4,67.0,2.876,2.896,2.728,2.902,8.03,68.6,37.9,76.0,1014.77,-33.19,0.92,1.45,32.5,50.1,40.3,0,no_anomaly,0.0,0,0,0,0,23.0225356,72.5713685,18.0,0.0
2024-10-22T18:47:08.900Z,MISSION_0027,89,0,transit,SITE_AMD_008,23.022536,72.5713664,18.0,17.46,1.114,0.164,5.48,1.9785,-3.6021,17.4606,0.9877,0.02183,-0.02844,0.15222,-0.1841,-0.028,-9.8261,1.171,0.6711,-0.0201,0.2776,3,11,0.56,0.9,0.31,24.349,22.11,87.6,47.0,19269.0,7910,8063,8031,8242,63.6,65.4,63.1,61.0,2.547,2.733,2.45,2.684,7.01,61.4,37.7,75.3,1014.52,-25.86,0.45,1.0,32.0,48.4,39.0,0,no_anomaly,0.0,0,0,0,0,23.022536,72.5713664,18.0,0.0
2024-10-22T18:47:09.000Z,MISSION_0027,90,0,transit,SITE_AMD_008,23.0225394,72.5713691,18.0,16.11,1.202,0.098,5.57,-2.0527,-2.8749,16.1086,0.98973,-0.01422,-0.02734,0.1396,0.1552,-0.0663,-9.8134,-0.573,-0.7381,-0.2021,0.3118,3,12,0.86,1.07,0.35,24.358,20.66,87.5,45.7,19249.0,8264,8089,8259,8026,62.5,63.4,62.5,61.8,2.892,2.918,2.904,2.884,6.59,65.5,37.9,75.8,1014.85,-31.23,-0.49,1.16,36.4,51.6,39.9,0,no_anomaly,0.0,0,0,0,0,23.0225394,72.5713691,18.0,0.0
2024-10-22T18:47:09.100Z,MISSION_0027,91,0,transit,SITE_AMD_008,23.022538,72.5713701,18.0,14.76,1.504,0.067,5.38,-1.0437,-4.5413,14.7568,0.99095,-0.00394,-0.04046,0.12796,-0.0359,-0.0078,-9.8173,-0.4672,-0.3604,0.2787,0.272,3,19,0.83,1.11,0.31,24.42,18.17,87.4,46.5,19230.0,8004,7813,8373,8045,68.0,64.7,67.6,62.5,2.871,2.491,2.912,2.626,7.19,65.3,38.0,75.9,1014.93,-29.51,0.93,1.77,30.5,52.2,39.1,0,no_anomaly,0.0,0,0,0,0,23.022538,72.5713701,18.0,0.0
2024-10-22T18:47:09.200Z,MISSION_0027,92,0,transit,SITE_AMD_008,23.0225343,72.5713735,18.0,14.91,1.404,0.111,4.82,2.5045,-4.428,14.9142,0.99046,0.02667,-0.03546,0.13049,-0.0179,-0.0342,-9.7677,-0.2078,-0.8145,-0.1447,0.3075,3,10,0.55,1.12,0.32,24.429,20.94,87.3,46.2,19210.0,8143,7956,8154,8258,63.2,64.0,65.7,61.3,2.863,2.968,2.818,3.056,7.95,59.0,38.2,76.3,1014.39,-24.93,0.25,1.54,36.2,45.7,39.9,0,no_anomaly,0.0,0,0,0,0,23.0225343,72.5713735,18.0,0.0
2024-10-22T18:47:09.300Z,MISSION_0027,93,0,transit,SITE_AMD_008,23.0225371,72.571376,18.0,12.71,1.335,0.207,4.92,1.249,-2.75,12.7054,0.99349,0.01348,-0.02264,0.11087,-0.3049,0.032,-9.8626,-0.3817,-0.4682,-0.6369,0.2478,3,14,0.73,0.87,0.25,24.441,17.12,87.2,46.5,19191.0,8048,7887,8139,7977,67.6,60.5,65.1,64.2,2.618,2.87,2.663,2.849,7.95,57.5,37.9,76.2,1014.61,-29.76,-0.01,1.4,33.2,46.3,43.3,0,no_anomaly,0.0,0,0,0,0,23.0225371,72.571376,18.0,0.0
2024-10-22T18:47:09.400Z,MISSION_0027,94,0,transit,SITE_AMD_008,23.0225348,72.5713762,18.0,16.57,1.132,0.115,4.69,-6.0388,-3.1035,16.5687,0.98803,-0.04821,-0.03435,0.14242,-0.2107,0.0567,-9.8558,0.4353,0.0378,0.4471,0.3127,3,18,0.66,0.85,0.2,24.442,22.08,87.1,46.3,19171.0,8236,8394,8180,8130,64.9,64.3,63.0,62.9,2.98,2.846,2.814,2.566,7.71,61.4,38.2,76.4,1014.91,-31.62,0.19,1.44,33.0,44.7,41.4,0,no_anomaly,0.0,0,0,0,0,23.0225348,72.5713762,18.0,0.0
2024-10-22T18:47:09.500Z,MISSION_0027,95,0,transit,SITE_AMD_008,23.0225329,72.5713707,18.0,15.57,0.879,0.045,4.9,2.0036,-2.3632,15.5732,0.99037,0.02011,-0.01806,0.13579,0.3917,0.0118,-9.7026,0.7725,-0.9332,0.1824,0.2372,3,12,0.61,0.83,0.2,24.385,21.21,87.1,46.6,19152.0,7993,8120,8297,7851,64.9,63.8,61.3,65.7,2.955,2.776,2.914,2.922,8.02,64.6,37.8,76.0,1014.98,-29.43,-0.1,1.33,32.6,51.7,39.0,0,no_anomaly,0.0,0,0,0,0,23.0225329,72.5713707,18.0,0.0
2024-10-22T18:47:09.600Z,MISSION_0027,96,0,transit,SITE_AMD_008,23.0225317,72.5713726,18.0,17.33,0.849,0.054,4.66,-6.0588,-3.7815,17.3329,0.98693,-0.04725,-0.04053,0.14867,0.1301,-0.0137,-9.8302,0.0193,-0.5136,0.3618,0.2938,3,19,0.72,0.73,0.23,24.467,14.26,87.0,46.8,19132.0,8035,8115,8146,8237,64.5,64.0,61.8,63.7,2.73,2.539,2.739,2.815,7.42,67.0,37.9,74.9,1014.87,-32.28,-0.11,1.76,30.0,47.7,42.6,0,no_anomaly,0.0,0,0,0,0,23.0225317,72.5713726,18.0,0.0
2024-10-22T18:47:09.700Z,MISSION_0027,97,0,transit,SITE_AMD_008,23.022527,72.5713755,18.0,16.03,0.995,0.066,4.06,-6.0074,-4.269,16.0319,0.98845,-0.04667,-0.04413,0.13723,-0.0147,0.0806,-9.7459,-0.1552,0.0685,-0.2819,0.2917,3,13,0.64,1.09,0.28,24.439,17.83,86.9,46.6,19113.0,8098,8381,8030,8150,62.3,63.9,62.5,66.4,2.846,2.815,2.797,2.699,7.8,51.0,38.1,75.3,1014.83,-33.1,-3.02,1.52,36.9,50.3,42.5,0,no_anomaly,0.0,0,0,0,0,23.022527,72.5713755,18.0,0.0
2024-10-22T18:47:09.800Z,MISSION_0027,98,0,transit,SITE_AMD_008,23.0225212,72.5713752,18.0,15.5,0.575,0.086,3.63,2.5443,-1.6335,15.5022,0.99048,0.02392,-0.01113,0.13514,0.055,0.0291,-9.7957,-1.0809,0.6931,0.2647,0.1694,3,14,0.66,0.89,0.24,24.424,22.56,86.8,45.9,19094.0,8070,8349,8228,8332,64.7,59.7,60.6,64.5,2.838,2.569,2.62,2.563,7.49,72.6,37.8,75.4,1014.83,-33.23,-0.83,1.39,34.3,47.3,43.7,0,no_anomaly,0.0,0,0,0,0,23.0225212,72.5713752,18.0,0.0
2024-10-22T18:47:09.900Z,MISSION_0027,99,0,transit,SITE_AMD_008,23.0225215,72.5713726,18.0,15.46,0.722,0.12,3.88,2.6762,-0.4885,15.461,0.99062,0.02371,-0.00108,0.13457,0.0123,0.0428,-9.7363,-0.6567,0.1848,-0.1276,0.298,3,16,0.6,0.7,0.3,24.439,16.47,86.7,47.3,19074.0,8122,8280,7878,8121,62.8,60.3,62.3,66.1,2.739,2.754,3.03,2.777,7.42,53.1,38.0,76.1,1014.86,-26.95,-0.4,1.65,31.3,44.3,37.8,0,no_anomaly,0.0,0,0,0,0,23.0225215,72.5713726,18.0,0.0
2024-10-22T18:47:10.000Z,MISSION_0027,100,0,transit,SITE_AMD_008,23.0225183,72.5713742,18.0,17.37,0.301,0.057,3.52,2.8269,-4.8455,17.3689,0.98719,0.03074,-0.03805,0.15184,-0.3133,-0.0093,-9.7136,0.7916,-0.6495,-0.5925,0.3041,3,12,0.5,0.88,0.21,24.401,14.95,86.6,46.9,19055.0,7957,7981,8108,8025,63.6,60.7,62.9,63.8,2.681,2.758,2.839,2.868,6.56,56.2,38.1,76.0,1015.44,-36.55,-0.18,1.37,32.5,44.4,40.7,0,no_anomaly,0.0,0,0,0,0,23.0225183,72.5713742,18.0,0.0
2024-10-22T18:47:10.100Z,MISSION_0027,101,0,transit,SITE_AMD_008,23.0225144,72.5713736,18.0,15.13,0.522,0.134,3.35,-6.884,-3.5226,15.1278,0.98929,-0.05545,-0.03831,0.1295,0.0802,-0.0349,-9.8847,0.6009,0.8183,-0.1077,0.2597,3,12,0.58,0.89,0.22,24.395,12.95,86.5,45.8,19035.0,8179,8309,8133,7958,63.5,63.8,60.8,67.2,2.888,2.995,2.577,2.865,8.0,69.6,37.8,74.8,1014.91,-28.83,-0.11,1.65,30.9,44.6,40.3,0,no_anomaly,0.0,0,0,0,0,23.0225144,72.5713736,18.0,0.0
2024-10-22T18:47:10.200Z,MISSION_0027,102,0,transit,SITE_AMD_008,23.0225171,72.5713695,18.0,16.45,0.655,0.085,3.89,3.7453,-2.6171,16.4478,0.98882,0.0356,-0.01792,0.14367,0.2286,0.0288,-9.7413,-0.0749,0.3559,-0.2145,0.2296,3,16,0.65,0.65,0.3,24.409,18.03,86.4,46.2,19016.0,7838,8044,8426,8356,64.2,61.9,60.0,65.9,2.668,2.655,2.712,2.836,7.06,59.2,37.9,75.6,1015.32,-26.73,-1.5,1.45,34.3,44.9,41.1,0,no_anomaly,0.0,0,0,0,0,23.0225171,72.5713695,18.0,0.0
2024-10-22T18:47:10.300Z,MISSION_0027,103,1,transit,SITE_AMD_008,23.0225217,72.5713705,18.0,18.39,0.198,0.013,4.08,-3.0519,-1.726,18.3851,0.98676,-0.02388,-0.01912,0.15928,0.0712,-0.0339,-9.7542,-0.4201,0.0406,-0.2362,0.2618,3,13,0.67,1.01,0.2,24.485,17.85,86.3,46.4,18996.0,8180,8089,8209,8061,61.5,65.5,62.9,63.7,2.825,2.796,2.585,2.407,6.96,56.4,38.0,75.0,1014.98,-29.83,-0.18,1.37,29.9,44.5,39.7,0,no_anomaly,0.0,0,0,0,0,23.0225217,72.5713705,18.0,0.0
2024-10-22T18:47:10.400Z,MISSION_0027,104,1,transit,SITE_AMD_008,23.022521,72.5713686,18.0,20.54,0.457,0.112,4.2,6.9889,-2.5965,20.5419,0.98165,0.06399,-0.01139,0.17928,0.2342,-0.0187,-9.7263,0.7768,0.4285,-0.2849,0.0922,3,14,0.64,0.63,0.2,24.45,16.19,86.3,46.0,18977.0,8154,8004,8198,8071,62.8,66.9,62.4,61.6,2.979,2.853,2.579,2.703,7.39,59.9,38.0,75.0,1014.99,-30.71,-0.21,1.35,32.3,52.2,41.5,0,no_anomaly,0.0,0,0,0,0,23.022521,72.5713686,18.0,0.0
2024-10-22T18:47:10.500Z,MISSION_0027,105,1,transit,SITE_AMD_008,23.0225183,72.5713639,18.0,21.23,0.262,0.098,4.5,-0.6454,-2.3384,21.2286,0.98269,-0.00178,-0.02109,0.18404,0.0098,-0.0171,-9.8231,-0.1839,0.31,-0.7,0.2629,3,14,0.78,0.87,0.34,24.471,24.02,86.2,46.7,18957.0,8261,8014,8002,8147,62.6,62.3,64.3,67.9,2.867,2.593,2.66,2.653,7.36,52.3,38.1,75.5,1014.78,-34.35,-1.0,1.64,29.7,44.2,39.2,0,no_anomaly,0.0,0,0,0,0,23.0225183,72.5713639,18.0,0.0
2024-10-22T18:47:10.600Z,MISSION_0027,106,1,transit,SITE_AMD_008,23.0225229,72.5713626,18.0,19.58,0.473,0.15,4.88,6.3612,-2.2968,19.5763,0.98354,0.05807,-0.01029,0.17081,0.1106,-0.0333,-9.8667,-0.5312,0.4333,-0.0857,0.1761,3,13,0.65,1.29,0.26,24.485,15.39,86.1,46.3,18938.0,8164,8370,8080,7993,62.2,63.3,61.3,65.3,2.723,2.878,2.82,3.004,7.02,63.8,37.7,75.6,1014.94,-25.35,0.57,1.78,32.5,48.4,41.7,0,no_anomaly,0.0,0,0,0,0,23.0225229,72.5713626,18.0,0.0
2024-10-22T18:47:10.700Z,MISSION_0027,107,1,transit,SITE_AMD_008,23.0225219,72.5713684,18.0,21.16,0.255,0.104,4.28,1.6148,-0.114,21.1624,0.98289,0.01403,0.00161,0.18362,0.0273,-0.0845,-9.8326,-0.0439,1.1338,0.2519,0.3216,3,10,0.86,0.65,0.24,24.432,19.3,86.0,46.8,18919.0,8000,8050,8062,8092,63.5,61.0,66.1,59.6,2.624,2.616,3.086,2.837,7.47,69.3,37.7,75.6,1014.64,-26.44,-1.31,1.65,36.3,50.0,41.3,0,no_anomaly,0.0,0,0,0,0,23.0225219,72.5713684,18.0,0.0
2024-10-22T18:47:10.800Z,MISSION_0027,108,1,transit,SITE_AMD_008,23.0225224,72.5713766,18.0,18.65,0.0,0.108,3.6,4.1007,0.3875,18.6532,0.98616,0.03476,0.00913,0.16184,-0.0612,0.0068,-9.7526,-0.0461,-0.2675,0.454,0.2453,3,15,0.68,1.03,0.2,24.399,20.64,85.9,47.3,18899.0,8307,8060,7973,8096,66.5,62.9,63.4,66.1,2.916,2.808,2.951,2.764,8.06,60.5,38.1,75.6,1014.88,-34.81,0.62,1.39,33.5,47.1,40.7,0,no_anomaly,0.0,0,0,0,0,23.0225224,72.5713766,18.0,0.0
2024-10-22T18:47:10.900Z,MISSION_0027,109,1,transit,SITE_AMD_008,23.0225255,72.571376,18.0,17.69,0.117,0.154,3.9,-0.6829,-2.5623,17.6948,0.98786,-0.00245,-0.02301,0.15363,0.0222,0.0335,-9.8028,-0.1016,0.0232,0.271,0.2965,3,13,0.57,0.96,0.2,24.445,17.74,85.8,46.0,18880.0,7966,8274,7964,8034,68.4,60.8,62.4,61.5,2.716,2.998,2.507,2.922,6.96,52.0,38.1,75.5,1014.95,-29.99,-1.31,1.24,32.1,48.5,39.7,0,no_anomaly,0.0,0,0,0,0,23.0225255,72.571376,18.0,0.0
2024-10-22T18:47:11.000Z,MISSION_0027,110,1,transit,SITE_AMD_008,23.0225273,72.5713802,18.0,18.26,0.322,0.179,3.75,-1.6778,-1.9679,18.2575,0.98712,-0.01173,-0.01928,0.15837,0.4008,0.0878,-9.7515,-0.6029,-0.5015,0.0303,0.3174,3,17,0.5,1.04,0.2,24.476,20.89,85.7,46.4,18860.0,8019,8227,7959,8095,61.4,61.3,63.8,64.5,2.776,2.971,2.813,2.822,8.04,64.7,38.3,76.0,1014.87,-22.56,-0.59,1.32,31.4,52.4,39.6,0,no_anomaly,0.0,0,0,0,0,23.0225273,72.5713802,18.0,0.0
2024-10-22T18:47:11.100Z,MISSION_0027,111,1,transit,SITE_AMD_008,23.0225271,72.5713865,18.0,18.04,0.558,0.037,3.37,-4.5347,-0.906,18.0438,0.98687,-0.03783,-0.01401,0.15638,0.4268,-0.018,-9.8801,-0.0785,0.3506,0.0805,0.2096,3,13,0.83,0.96,0.38,24.46,22.49,85.6,46.1,18841.0,8131,7805,8030,8337,66.4,62.6,63.2,65.5,2.832,2.828,3.063,2.772,6.96,63.8,38.0,75.4,1014.64,-32.44,1.47,1.49,31.9,42.5,37.5,0,no_anomaly,0.0,0,0,0,0,23.0225271,72.5713865,18.0,0.0
2024-10-22T18:47:11.200Z,MISSION_0027,112,1,transit,SITE_AMD_008,23.0225271,72.5713816,18.0,16.36,0.181,0.005,3.64,-2.0184,-3.6052,16.3566,0.98927,-0.01295,-0.03364,0.14161,0.2064,0.0017,-9.8934,0.5279,0.3337,0.2228,0.1533,3,18,0.76,1.25,0.27,24.421,22.61,85.6,46.7,18821.0,8124,7971,8047,8369,60.4,59.0,59.3,61.9,2.748,2.708,2.479,2.666,7.77,63.3,37.9,76.0,1014.85,-29.77,-0.3,1.39,31.4,44.2,42.4,0,no_anomaly,0.0,0,0,0,0,23.0225271,72.5713816,18.0,0.0
2024-10-22T18:47:11.300Z,MISSION_0027,113,1,transit,SITE_AMD_008,23.0225285,72.5713811,18.0,17.36,0.0,0.056,3.81,-2.6919,-2.272,17.3629,0.98815,-0.02022,-0.02314,0.15041,0.0119,0.0672,-9.8683,-0.0324,0.3799,-0.0448,0.2685,3,14,0.77,0.65,0.31,24.432,17.38,85.5,46.9,18802.0,8023,8238,8135,8177,64.5,62.5,63.9,64.6,2.85,2.856,2.537,2.859,7.79,66.2,38.1,76.4,1014.96,-30.29,1.18,1.4,31.6,51.2,40.3,0,no_anomaly,0.0,0,0,0,0,23.0225285,72.5713811,18.0,0.0
2024-10-22T18:47:11.400Z,MISSION_0027,114,1,transit,SITE_AMD_008,23.0225266,72.5713847,18.0,18.9,0.181,0.05,3.42,-2.4638,-1.272,18.9039,0.98617,-0.01938,-0.01448,0.16394,0.0675,-0.1026,-9.7333,1.0904,0.7977,-0.5031,0.3216,3,12,0.73,0.79,0.43,24.494,15.19,85.4,46.9,18782.0,8073,7890,8153,8071,61.3,61.0,64.4,61.3,3.085,2.679,2.904,2.911,7.82,70.0,38.4,75.5,1014.78,-31.88,-1.67,1.29,34.6,45.2,39.5,0,no_anomaly,0.0,0,0,0,0,23.0225266,72.5713847,18.0,0.0
2024-10-22T18:47:11.500Z,MISSION_0027,115,1,transit,SITE_AMD_008,23.0225315,72.5713837,18.0,18.11,0.271,0.128,3.94,-3.4941,-0.9362,18.1052,0.98709,-0.02882,-0.01286,0.15702,0.1318,-0.0405,-9.8689,0.0372,-0.852,-0.5126,0.274,3,17,0.63,1.02,0.4,24.384,19.23,85.3,46.6,18763.0,8098,7806,8549,8057,64.9,63.6,65.2,62.5,2.999,2.796,2.868,2.961,8.02,67.5,38.2,75.9,1014.44,-27.18,-1.13,1.3,30.2,48.5,38.2,0,no_anomaly,0.0,0,0,0,0,23.0225315,72.5713837,18.0,0.0
2024-10-22T18:47:11.600Z,MISSION_0027,116,1,transit,SITE_AMD_008,23.0225311,72.5713856,18.0,19.51,0.0,0.155,3.81,-3.9008,-2.8289,19.5136,0.98481,-0.02935,-0.03008,0.16849,-0.2959,-0.0852,-9.8472,0.4048,0.3928,-0.1637,0.3264,3,12,0.83,1.11,0.49,24.316,17.91,85.2,46.4,18744.0,8188,8043,8209,8052,61.6,63.3,62.3,66.1,2.688,2.701,3.053,2.805,7.21,58.6,38.3,76.4,1014.9,-32.58,-0.93,1.43,33.9,49.4,38.8,0,no_anomaly,0.0,0,0,0,0,23.0225311,72.5713856,18.0,0.0
2024-10-22T18:47:11.700Z,MISSION_0027,117,1,transit,SITE_AMD_008,23.022531,72.5713847,18.0,19.15,0.254,0.303,3.85,1.5638,-2.3503,19.1473,0.98573,0.01686,-0.01795,0.16654,-0.0816,0.022,-9.8353,0.2845,0.6363,-0.0245,0.1971,3,13,0.83,0.68,0.31,24.427,20.93,85.1,46.0,18724.0,8143,8179,7625,8299,63.9,64.5,64.7,62.4,2.935,2.853,2.77,2.971,7.85,71.5,38.3,75.9,1015.14,-32.19,-1.75,1.54,32.9,47.3,40.6,0,no_anomaly,0.0,0,0,0,0,23.022531,72.5713847,18.0,0.0
2024-10-22T18:47:11.800Z,MISSION_0027,118,1,transit,SITE_AMD_008,23.0225271,72.5713822,18.0,21.78,0.094,0.079,3.61,-2.2273,-2.4127,21.7796,0.98167,-0.0151,-0.02434,0.18844,0.2205,-0.0366,-9.8279,-0.2848,0.1068,0.1996,0.2852,3,14,0.73,0.67,0.29,24.412,18.14,85.0,46.4,18705.0,7993,7981,8278,8100,67.1,64.0,60.7,64.9,2.748,2.818,2.726,2.981,7.63,77.1,38.1,75.9,1014.83,-33.17,-0.29,1.61,32.7,44.9,44.1,0,no_anomaly,0.0,0,0,0,0,23.0225271,72.5713822,18.0,0.0
2024-10-22T18:47:11.900Z,MISSION_0027,119,1,transit,SITE_AMD_008,23.0225238,72.571383,18.0,22.17,0.0,0.126,3.25,-5.1733,-0.7864,22.1731,0.98037,-0.04297,-0.01541,0.19179,-0.2834,-0.0344,-9.856,0.3731,-0.3038,0.2355,0.3305,3,12,0.53,0.6,0.24,24.358,14.6,84.9,45.8,18685.0,8019,8209,7739,8205,65.2,61.6,63.2,59.3,2.981,2.698,2.832,2.769,7.56,65.1,38.2,76.6,1014.46,-27.57,0.33,1.31,34.2,45.7,40.4,0,no_anomaly,0.0,0,0,0,0,23.0225238,72.571383,18.0,0.0
2024-10-22T18:47:12.000Z,MISSION_0027,120,1,transit,SITE_AMD_008,23.0225266,72.5713842,18.0,20.18,0.0,0.152,3.45,3.3976,-1.1726,20.1778,0.984,0.03098,-0.00488,0.17539,-0.1831,-0.0162,-9.8433,-0.053,0.6789,0.4435,0.3069,3,15,0.77,0.82,0.39,24.472,17.5,84.8,46.4,18666.0,8036,7811,8027,7978,65.9,64.1,64.0,63.4,2.959,2.691,2.989,2.67,8.03,66.9,38.1,75.9,1014.72,-28.38,1.34,1.48,28.7,47.4,40.2,0,no_anomaly,0.0,0,0,0,0,23.0225266,72.5713842,18.0,0.0
2024-10-22T18:47:12.100Z,MISSION_0027,121,1,transit,SITE_AMD_008,23.0225259,72.571384,18.0,22.13,0.0,0.114,3.39,-2.6748,-0.3047,22.1338,0.98114,-0.0224,-0.00709,0.19184,0.1849,-0.0446,-9.8065,-0.4636,1.0638,-0.0656,0.2335,3,16,0.8,0.95,0.34,24.451,17.62,84.8,45.3,18646.0,8303,7978,8037,8235,63.7,67.1,62.1,64.2,3.054,2.899,2.916,2.846,8.19,62.2,38.0,76.0,1014.97,-32.28,-1.88,1.65,31.0,43.0,37.8,0,no_anomaly,0.0,0,0,0,0,23.0225259,72.571384,18.0,0.0
2024-10-22T18:47:12.200Z,MISSION_0027,122,1,transit,SITE_AMD_008,23.022529,72.5713827,18.0,20.21,0.629,0.253,3.76,0.5305,-0.6024,20.2132,0.98445,0.00548,-0.00436,0.1755,-0.3526,-0.0207,-9.7497,0.1956,-0.9401,-0.0445,0.233,3,18,0.71,0.6,0.25,24.398,21.53,84.7,45.7,18627.0,8210,8278,8069,8050,63.0,63.8,64.0,62.0,2.978,2.526,2.761,2.645,7.64,68.3,38.2,75.3,1014.99,-24.62,-0.57,1.24,32.0,46.9,43.5,0,no_anomaly,0.0,0,0,0,0,23.022529,72.5713827,18.0,0.0
2024-10-22T18:47:12.300Z,MISSION_0027,123,1,orbit_base,SITE_AMD_008,23.0224317,72.5713583,18.3,20.33,0.66,0.103,8.91,-2.8422,-1.6524,20.3336,0.98396,-0.02186,-0.01857,0.17609,0.2939,0.0345,-9.7957,-0.3795,-0.3248,0.0126,0.1203,3,17,0.59,0.71,0.2,24.313,18.25,84.6,46.4,18607.0,8128,8416,8044,8110,65.3,63.5,63.0,62.1,2.746,2.821,2.85,2.71,8.14,69.8,37.8,75.3,1014.66,-28.97,0.71,1.58,36.4,45.8,41.3,0,no_anomaly,0.0,0,0,0,0,23.0224317,72.5713583,18.3,0.0
2024-10-22T18:47:12.400Z,MISSION_0027,124,1,orbit_base,SITE_AMD_008,23.022433,72.5713563,18.6,21.97,0.538,0.11,8.91,4.8364,-1.0334,21.9726,0.98069,0.04314,-0.0008,0.19077,0.3626,0.0282,-9.8958,1.3632,0.1535,-0.0523,0.2672,3,11,0.74,0.94,0.37,24.411,19.39,84.5,45.4,18588.0,7908,7951,8060,8063,59.7,63.8,64.6,62.0,2.741,2.973,2.885,2.732,7.49,65.8,38.0,76.3,1014.64,-36.69,1.04,1.45,32.7,43.4,40.0,0,no_anomaly,0.0,0,0,0,0,23.022433,72.5713563,18.6,0.0
2024-10-22T18:47:12.500Z,MISSION_0027,125,1,orbit_base,SITE_AMD_008,23.0224344,72.5713543,18.9,19.53,0.247,0.159,8.91,1.811,-4.2093,19.5302,0.98463,0.02179,-0.03351,0.17005,0.0668,0.0219,-9.8425,0.2969,0.652,-0.1093,0.2522,3,18,0.52,1.02,0.28,24.422,18.93,84.4,46.0,18569.0,8041,7920,8042,8154,65.2,55.7,62.6,65.0,2.909,2.965,2.513,3.188,6.83,58.1,38.1,77.3,1015.0,-28.81,0.34,1.5,36.0,52.9,42.8,0,no_anomaly,0.0,0,0,0,0,23.0224344,72.5713543,18.9,0.0
2024-10-22T18:47:12.600Z,MISSION_0027,126,1,orbit_base,SITE_AMD_008,23.0224358,72.5713523,19.2,17.86,0.511,0.094,8.91,-0.8519,-2.8036,17.858,0.98759,-0.00355,-0.02532,0.15498,-0.0042,0.0085,-9.8205,0.0547,-0.9082,-0.1933,0.259,3,10,0.73,0.69,0.23,24.368,19.88,84.3,46.3,18549.0,8119,8168,8169,8154,64.8,62.6,65.8,65.6,2.925,2.782,2.812,2.536,6.98,69.7,38.2,75.8,1014.85,-32.66,-0.83,1.63,33.3,52.7,39.7,0,no_anomaly,0.0,0,0,0,0,23.0224358,72.5713523,19.2,0.0
2024-10-22T18:47:12.700Z,MISSION_0027,127,1,orbit_base,SITE_AMD_008,23.0224372,72.5713504,19.5,17.5,0.229,0.007,8.91,1.2284,-2.9005,17.5005,0.98795,0.01444,-0.02338,0.15234,-0.1995,-0.0867,-9.8904,1.181,-0.6643,0.4668,0.2964,3,13,0.66,1.06,0.44,24.351,17.54,84.2,48.1,18530.0,8043,8012,8172,8238,62.7,62.7,65.9,62.9,2.663,3.049,2.974,2.865,7.69,60.8,37.9,76.9,1014.96,-27.89,-0.31,1.74,35.7,50.4,39.4,0,no_anomaly,0.0,0,0,0,0,23.0224372,72.5713504,19.5,0.0
2024-10-22T18:47:12.800Z,MISSION_0027,128,1,orbit_base,SITE_AMD_008,23.0224387,72.5713486,19.8,17.78,0.0,0.147,8.91,2.8367,-2.3255,17.7842,0.9874,0.02759,-0.01622,0.15499,-0.0589,0.0486,-9.7944,-0.1352,-0.3715,-0.3657,0.2496,3,16,0.66,1.06,0.21,24.407,14.87,84.1,45.9,18510.0,8053,8257,8269,8198,60.1,65.8,61.7,65.4,3.061,2.766,3.055,2.696,7.25,56.2,37.9,76.6,1015.04,-27.75,-0.55,1.29,33.6,49.9,42.6,0,no_anomaly,0.0,0,0,0,0,23.0224387,72.5713486,19.8,0.0
2024-10-22T18:47:12.900Z,MISSION_0027,129,1,orbit_base,SITE_AMD_008,23.0224403,72.5713467,20.1,17.64,0.0,0.075,8.91,2.0732,-5.7703,17.6387,0.98662,0.02557,-0.04696,0.154,-0.3307,0.0012,-9.7951,-0.2639,-0.0257,-0.0378,0.2199,3,10,0.56,0.82,0.2,24.365,17.52,84.0,47.7,18491.0,8116,7999,8130,8195,60.5,60.2,60.5,63.1,2.73,2.665,2.827,2.923,6.14,59.0,38.2,75.8,1014.92,-29.53,0.26,1.56,35.0,47.1,38.6,0,no_anomaly,0.0,0,0,0,0,23.0224403,72.5713467,20.1,0.0
2024-10-22T18:47:13.000Z,MISSION_0027,130,1,orbit_base,SITE_AMD_008,23.0224419,72.571345,20.4,16.76,0.0,0.035,8.91,-0.1078,-5.6544,16.7617,0.98812,0.00626,-0.04893,0.14553,0.1521,-0.0471,-9.8232,0.6383,-0.0031,-0.254,0.3356,3,19,0.74,1.18,0.25,24.399,18.72,84.0,46.3,18471.0,7846,8067,8469,8229,68.6,61.2,65.4,63.7,2.62,2.848,2.752,2.805,7.69,54.0,38.0,76.0,1015.11,-30.11,0.92,1.29,34.1,46.9,41.5,0,no_anomaly,0.0,0,0,0,0,23.0224419,72.571345,20.4,0.0
