timestamp_utc,mission_id,frame_id,waypoint_id,inspection_phase,site_id,latitude_deg,longitude_deg,altitude_m,heading_deg,ground_speed_ms,vertical_speed_ms,distance_to_tower_m,roll_deg,pitch_deg,yaw_deg,quat_w,quat_x,quat_y,quat_z,accel_x_ms2,accel_y_ms2,accel_z_ms2,gyro_x_rads,gyro_y_rads,gyro_z_rads,vibration_level,gps_fix_type,gps_satellite_count,gps_hdop,gps_vdop,position_error_m,battery_voltage_v,battery_current_a,battery_remaining_pct,battery_temp_c,battery_capacity_mah,motor_fl_rpm,motor_fr_rpm,motor_rl_rpm,motor_rr_rpm,motor_fl_temp_c,motor_fr_temp_c,motor_rl_temp_c,motor_rr_temp_c,motor_fl_thrust_n,motor_fr_thrust_n,motor_rl_thrust_n,motor_rr_thrust_n,wind_speed_ms,wind_dir_deg,air_temp_c,humidity_pct,pressure_hpa,gimbal_pitch_deg,gimbal_roll_deg,zoom_factor,ir_temp_min_c,ir_temp_max_c,ir_temp_avg_c,anomaly_detected,anomaly_class,anomaly_confidence,anomaly_bbox_x,anomaly_bbox_y,anomaly_bbox_w,anomaly_bbox_h,anomaly_gps_lat,anomaly_gps_lon,anomaly_gps_alt_m,ir_temp_delta_c
2024-02-18T18:02:00.000Z,MISSION_0019,0,0,takeoff,SITE_LKN_010,26.8466968,80.9461984,1.5,64.31,0.0,0.075,0.4,-2.4184,-0.9038,64.3088,0.84649,-0.01367,-0.01791,0.53193,-0.0392,0.0271,-9.8322,0.3988,0.2151,-0.3801,0.1006,3,11,0.68,0.73,0.33,24.761,12.41,99.1,30.4,21793.0,8746,8929,8752,8865,49.7,49.5,47.1,44.2,2.982,2.849,2.672,2.779,5.15,229.1,22.5,65.7,1005.39,-33.23,-1.27,1.52,17.5,35.0,23.1,0,no_anomaly,0.0,0,0,0,0,26.8466968,80.9461984,1.5,0.0
2024-02-18T18:02:00.100Z,MISSION_0019,1,0,takeoff,SITE_LKN_010,26.8466933,80.9461963,3.0,65.65,0.0,0.128,0.86,-5.5168,-1.1849,65.6545,0.83956,-0.03484,-0.03477,0.54103,0.0542,0.0217,-9.7656,-0.9692,0.3954,-0.1849,0.3195,3,17,0.6,0.72,0.27,24.793,17.13,99.0,29.9,21780.0,9215,8854,8828,8958,46.8,48.2,45.1,44.2,3.086,2.966,2.89,2.655,5.31,225.9,22.8,64.9,1005.47,-33.73,-0.46,1.48,18.8,30.5,23.2,0,no_anomaly,0.0,0,0,0,0,26.8466933,80.9461963,3.0,0.0
2024-02-18T18:02:00.200Z,MISSION_0019,2,0,takeoff,SITE_LKN_010,26.84669,80.9461982,4.5,68.29,0.063,0.089,1.14,-1.5755,-0.7412,68.2941,0.82755,-0.00775,-0.01307,0.56118,-0.1783,0.0236,-9.8074,-1.0114,-0.2762,0.5327,0.212,3,20,0.79,0.88,0.33,24.808,21.03,98.9,31.0,21766.0,9006,8878,8864,9021,45.3,48.0,46.4,46.5,2.694,2.806,2.749,3.032,4.77,231.9,22.8,65.6,1005.18,-31.3,0.78,1.01,17.5,30.3,26.1,0,no_anomaly,0.0,0,0,0,0,26.84669,80.9461982,4.5,0.0
2024-02-18T18:02:00.300Z,MISSION_0019,3,0,takeoff,SITE_LKN_010,26.8466918,80.9462019,5.0,68.89,0.0,0.023,0.93,0.3568,-1.2687,68.8884,0.8246,0.00883,-0.00737,0.56559,-0.037,-0.0367,-9.8292,-0.1861,0.4315,-0.1491,0.2682,3,14,0.55,0.64,0.2,24.768,12.86,98.9,31.0,21752.0,9202,8898,9013,8726,48.3,44.2,49.1,51.1,2.803,3.082,3.014,2.898,4.74,225.2,22.7,65.9,1005.02,-32.33,-0.0,1.16,18.8,28.0,24.7,0,no_anomaly,0.0,0,0,0,0,26.8466918,80.9462019,5.0,0.0
2024-02-18T18:02:00.400Z,MISSION_0019,4,0,takeoff,SITE_LKN_010,26.8466905,80.9461982,5.0,67.9,0.001,0.079,1.08,-7.4686,-4.4519,67.9049,0.82853,-0.03234,-0.0685,0.5548,0.0116,0.0486,-9.8215,-0.4765,0.3803,0.0279,0.1895,3,12,0.66,1.0,0.2,24.773,21.66,98.8,29.9,21739.0,9182,8851,9113,8802,45.6,49.1,48.6,46.6,2.743,3.018,2.777,2.872,5.49,239.8,22.6,65.8,1005.02,-28.15,0.5,2.19,17.8,35.8,27.3,0,no_anomaly,0.0,0,0,0,0,26.8466905,80.9461982,5.0,0.0
2024-02-18T18:02:00.500Z,MISSION_0019,5,0,takeoff,SITE_LKN_010,26.8466939,80.9462031,5.0,68.39,0.019,0.104,0.76,0.1801,-2.6908,68.3944,0.82686,0.0145,-0.01854,0.56192,-0.1041,-0.022,-9.8406,0.7453,-0.6032,0.0225,0.2037,3,15,0.66,1.07,0.24,24.781,17.55,98.8,31.1,21725.0,8902,8883,8839,8591,49.2,45.4,46.6,48.8,2.939,2.791,2.564,3.06,4.96,234.1,22.6,65.8,1005.34,-25.58,0.08,1.1,19.7,36.9,25.9,0,no_anomaly,0.0,0,0,0,0,26.8466939,80.9462031,5.0,0.0
2024-02-18T18:02:00.600Z,MISSION_0019,6,0,takeoff,SITE_LKN_010,26.8466916,80.9462029,5.0,69.65,0.0,0.104,0.99,-5.462,-0.5264,69.6487,0.82009,-0.03649,-0.03098,0.57023,-0.1032,-0.0028,-9.7932,0.3563,-0.2336,0.0766,0.2059,3,12,0.61,0.64,0.34,24.692,16.27,98.7,30.6,21712.0,8704,8832,8986,8808,52.5,49.6,45.9,47.3,2.886,3.237,2.79,3.047,5.31,229.4,22.7,65.0,1004.98,-28.17,0.38,1.69,15.6,35.5,27.0,0,no_anomaly,0.0,0,0,0,0,26.8466916,80.9462029,5.0,0.0
2024-02-18T18:02:00.700Z,MISSION_0019,7,0,takeoff,SITE_LKN_010,26.8466902,80.9462007,5.0,72.58,0.0,0.196,1.09,-0.306,-2.243,72.5837,0.80589,0.00943,-0.01736,0.59174,0.1178,-0.0121,-9.7916,-0.0874,-0.3526,0.455,0.3117,3,20,0.87,0.6,0.45,24.751,17.17,98.6,30.9,21698.0,8777,9047,9015,8991,49.2,52.3,48.1,42.4,2.789,2.843,2.81,2.533,5.48,232.9,22.4,65.1,1005.26,-32.71,-0.82,1.3,12.3,30.0,22.2,0,no_anomaly,0.0,0,0,0,0,26.8466902,80.9462007,5.0,0.0
2024-02-18T18:02:00.800Z,MISSION_0019,8,0,takeoff,SITE_LKN_010,26.8466931,80.9461981,5.0,72.09,0.399,0.161,0.79,-0.1738,-3.5411,72.0857,0.80822,0.01695,-0.02587,0.58807,-0.1932,0.0419,-9.8192,0.0071,0.5707,-0.1584,0.1747,3,14,0.92,0.78,0.25,24.679,16.64,98.6,30.2,21685.0,8948,8747,8854,8848,50.9,45.0,45.8,47.3,2.757,3.213,2.614,2.791,5.52,241.5,23.0,64.6,1005.03,-23.7,-0.35,1.63,17.8,34.0,26.1,0,no_anomaly,0.0,0,0,0,0,26.8466931,80.9461981,5.0,0.0
2024-02-18T18:02:00.900Z,MISSION_0019,9,0,takeoff,SITE_LKN_010,26.8466931,80.9461993,5.0,71.97,0.0,0.088,0.78,3.3743,-3.8925,71.9665,0.80778,0.04376,-0.01018,0.58776,0.1863,0.0351,-9.7353,-0.5179,-0.6357,0.5013,0.2328,3,18,0.78,0.6,0.22,24.659,15.59,98.5,31.2,21671.0,8974,8992,8882,8825,49.7,45.8,51.1,46.9,2.676,2.745,2.719,2.78,5.82,235.3,22.6,64.8,1005.09,-32.26,-0.55,1.64,18.3,34.2,26.0,0,no_anomaly,0.0,0,0,0,0,26.8466931,80.9461993,5.0,0.0
2024-02-18T18:02:01.000Z,MISSION_0019,10,0,takeoff,SITE_LKN_010,26.8466938,80.9462021,5.0,70.07,0.0,0.253,0.72,0.6744,-1.3961,70.0693,0.81869,0.01181,-0.0066,0.57408,0.0217,-0.0813,-9.7871,0.5039,-0.0481,0.4786,0.142,3,16,0.83,1.06,0.49,24.842,13.59,98.4,30.3,21658.0,8801,9137,8458,8867,45.0,47.4,49.5,50.0,2.396,2.855,2.759,3.059,5.91,233.7,23.0,65.7,1005.18,-27.13,0.07,1.9,20.8,36.9,25.6,0,no_anomaly,0.0,0,0,0,0,26.8466938,80.9462021,5.0,0.0
2024-02-18T18:02:01.100Z,MISSION_0019,11,0,takeoff,SITE_LKN_010,26.8466966,80.9462014,5.0,69.15,0.0,0.002,0.41,-2.2683,-1.6573,69.1515,0.82329,-0.00809,-0.02314,0.56709,0.1041,-0.0012,-9.8428,0.1271,0.4667,-0.5915,0.1738,3,19,0.85,0.87,0.25,24.725,16.05,98.4,31.1,21644.0,9141,8767,8750,8858,50.7,49.7,46.9,46.0,2.807,2.852,2.849,2.977,5.76,226.7,22.8,65.3,1005.28,-32.46,-0.18,1.0,13.4,33.4,21.3,0,no_anomaly,0.0,0,0,0,0,26.8466966,80.9462014,5.0,0.0
2024-02-18T18:02:01.200Z,MISSION_0019,12,0,takeoff,SITE_LKN_010,26.8466922,80.9462027,5.0,69.24,0.0,0.129,0.91,-5.068,-5.2181,69.2401,0.82242,-0.01051,-0.06252,0.56533,-0.1085,0.015,-9.7742,0.0355,-0.2661,-0.3263,0.1988,3,16,0.74,1.1,0.38,24.734,17.22,98.3,31.2,21630.0,9107,9012,8814,8854,47.2,43.7,50.9,47.6,2.635,2.904,2.887,2.886,6.1,228.8,22.9,64.7,1005.42,-32.25,1.31,2.03,17.1,31.7,24.7,0,no_anomaly,0.0,0,0,0,0,26.8466922,80.9462027,5.0,0.0
2024-02-18T18:02:01.300Z,MISSION_0019,13,0,takeoff,SITE_LKN_010,26.8466938,80.9461969,5.0,66.12,0.514,0.09,0.77,-0.1602,-2.5092,66.1248,0.83789,0.01077,-0.01911,0.5454,-0.056,-0.018,-9.8828,0.3478,-0.158,-0.1901,0.2443,3,15,0.74,1.0,0.34,24.754,17.07,98.3,31.1,21617.0,8802,9051,8805,8944,47.7,46.5,46.9,48.3,2.88,2.572,2.634,2.653,5.02,238.7,22.7,64.6,1004.9,-29.53,-2.11,1.07,18.1,34.5,26.3,0,no_anomaly,0.0,0,0,0,0,26.8466938,80.9461969,5.0,0.0
2024-02-18T18:02:01.400Z,MISSION_0019,14,0,takeoff,SITE_LKN_010,26.8467001,80.9461984,5.0,66.37,0.466,0.036,0.17,0.0802,-0.1687,66.3717,0.8369,0.00139,-0.00085,0.54736,0.1665,0.0127,-9.7898,0.0858,0.1168,-0.2402,0.2193,3,11,0.77,0.82,0.34,24.732,17.19,98.2,31.1,21603.0,8989,9104,8852,8971,49.6,45.2,47.8,47.7,2.69,3.016,2.982,2.886,4.62,219.0,23.0,65.3,1005.33,-30.93,-1.38,1.24,19.2,29.7,25.7,0,no_anomaly,0.0,0,0,0,0,26.8467001,80.9461984,5.0,0.0
2024-02-18T18:02:01.500Z,MISSION_0019,15,0,takeoff,SITE_LKN_010,26.846701,80.9461988,5.0,66.11,0.18,0.101,0.18,-1.4762,-3.9654,66.1146,0.8378,0.00808,-0.03602,0.54473,-0.1301,0.04,-9.825,-1.2317,0.1851,0.1094,0.1346,3,16,0.5,0.75,0.2,24.722,19.03,98.1,30.6,21590.0,8898,8737,8980,9064,47.6,48.6,46.6,47.4,2.987,3.045,2.81,2.816,6.19,230.0,22.8,65.7,1005.22,-30.44,-0.06,1.54,20.6,33.1,24.9,0,no_anomaly,0.0,0,0,0,0,26.846701,80.9461988,5.0,0.0
2024-02-18T18:02:01.600Z,MISSION_0019,16,0,takeoff,SITE_LKN_010,26.8467017,80.9461977,5.0,67.14,0.24,-0.001,0.32,4.7589,-2.7717,67.1355,0.83172,0.04794,0.00281,0.55312,-0.0893,-0.0408,-9.8736,-0.4942,-0.6845,0.0709,0.233,3,14,0.54,0.9,0.2,24.783,18.81,98.1,30.6,21576.0,9056,8801,9052,8827,49.2,46.3,48.1,47.9,2.777,2.628,2.972,3.011,5.59,225.6,22.9,65.3,1005.24,-29.38,-1.18,1.19,15.2,33.4,21.4,0,no_anomaly,0.0,0,0,0,0,26.8467017,80.9461977,5.0,0.0
2024-02-18T18:02:01.700Z,MISSION_0019,17,0,takeoff,SITE_LKN_010,26.8467045,80.9461996,5.0,66.3,0.2,0.052,0.5,-4.3989,-1.8366,66.2953,0.83688,-0.02337,-0.03439,0.54581,0.0327,0.0201,-9.6966,0.7505,0.1069,0.8147,0.1715,3,11,0.75,0.89,0.32,24.787,14.85,98.0,31.1,21563.0,8852,8927,9024,8833,49.6,46.7,49.3,44.1,2.848,2.973,2.591,2.935,6.09,232.1,22.8,65.9,1005.55,-24.67,1.0,1.72,18.5,29.2,27.4,0,no_anomaly,0.0,0,0,0,0,26.8467045,80.9461996,5.0,0.0
2024-02-18T18:02:01.800Z,MISSION_0019,18,0,takeoff,SITE_LKN_010,26.846708,80.9461928,5.0,65.86,0.0,0.019,1.2,2.8394,-0.6368,65.8555,0.83901,0.02381,0.0088,0.54352,0.0059,0.0401,-9.8179,0.7816,0.4356,-0.4439,0.1234,3,12,0.61,0.86,0.21,24.776,22.29,97.9,30.9,21549.0,8910,8945,8759,8961,48.4,49.2,48.8,44.2,2.631,2.799,2.828,2.961,5.36,231.6,22.6,65.8,1005.42,-33.15,-0.57,1.51,17.6,33.2,28.6,0,no_anomaly,0.0,0,0,0,0,26.846708,80.9461928,5.0,0.0
2024-02-18T18:02:01.900Z,MISSION_0019,19,0,takeoff,SITE_LKN_010,26.8467076,80.9461953,5.0,64.46,0.0,0.176,1.0,1.553,-0.7387,64.4596,0.84577,0.0149,0.00177,0.53333,-0.2003,-0.0677,-9.7821,0.4292,0.0085,0.7475,0.2058,3,20,0.66,0.71,0.22,24.692,24.21,97.9,31.0,21535.0,9199,8974,9012,9188,47.9,47.6,46.2,52.4,2.782,2.787,2.549,2.842,6.11,235.9,22.9,65.4,1005.28,-30.57,1.87,1.33,19.5,35.6,25.9,0,no_anomaly,0.0,0,0,0,0,26.8467076,80.9461953,5.0,0.0
2024-02-18T18:02:02.000Z,MISSION_0019,20,0,takeoff,SITE_LKN_010,26.8467087,80.9461911,5.0,63.22,0.575,0.068,1.38,-3.2196,0.5509,63.2183,0.85123,-0.02644,-0.01063,0.52402,-0.09,-0.0956,-9.8068,-0.477,0.0794,0.4466,0.1355,3,10,0.76,1.19,0.35,24.757,17.68,97.8,29.7,21522.0,8789,9077,8784,9045,47.5,47.9,48.9,46.8,2.733,2.711,2.879,2.887,5.61,236.1,22.9,65.6,1004.92,-31.69,-0.53,2.17,19.3,34.7,25.1,0,no_anomaly,0.0,0,0,0,0,26.8467087,80.9461911,5.0,0.0
2024-02-18T18:02:02.100Z,MISSION_0019,21,0,takeoff,SITE_LKN_010,26.8467069,80.9461945,5.0,61.6,0.369,0.239,0.99,5.5474,-2.4225,61.5954,0.85726,0.05237,0.00663,0.51217,0.0129,-0.0791,-9.8483,0.8481,0.2349,-0.1087,0.1718,3,15,0.64,0.6,0.2,24.72,13.4,97.8,30.1,21508.0,8874,8687,8818,8976,45.9,45.2,47.1,49.2,2.892,2.888,2.879,2.778,5.77,234.5,22.6,65.4,1005.21,-30.9,0.74,1.47,18.0,35.2,24.4,0,no_anomaly,0.0,0,0,0,0,26.8467069,80.9461945,5.0,0.0
2024-02-18T18:02:02.200Z,MISSION_0019,22,0,takeoff,SITE_LKN_010,26.8467074,80.9461875,5.0,61.29,0.702,0.052,1.62,-2.2257,-1.4733,61.2855,0.86026,-0.01016,-0.02096,0.50933,0.0493,-0.0311,-9.7653,0.0001,-0.6556,-0.1253,0.1033,3,12,0.65,0.95,0.32,24.667,19.91,97.7,30.9,21495.0,8700,8752,8851,8980,48.5,49.6,49.6,43.5,2.893,2.888,2.879,2.924,4.92,233.7,22.8,65.2,1005.18,-28.84,0.57,1.82,21.8,30.7,25.4,0,no_anomaly,0.0,0,0,0,0,26.8467074,80.9461875,5.0,0.0
2024-02-18T18:02:02.300Z,MISSION_0019,23,0,takeoff,SITE_LKN_010,26.8467043,80.9461889,5.0,60.42,0.752,0.148,1.33,2.1263,-4.2792,60.4158,0.86311,0.0348,-0.02293,0.5033,-0.4912,-0.0508,-9.8289,-0.43,0.0234,-0.1969,0.2324,3,14,0.85,0.92,0.35,24.767,17.26,97.6,31.4,21481.0,8967,8786,8730,9011,46.9,46.9,48.2,46.9,2.676,2.716,3.083,2.879,4.94,234.6,22.7,65.7,1005.49,-32.56,0.97,1.6,16.3,34.5,23.8,0,no_anomaly,0.0,0,0,0,0,26.8467043,80.9461889,5.0,0.0
2024-02-18T18:02:02.400Z,MISSION_0019,24,0,takeoff,SITE_LKN_010,26.8467052,80.9461868,5.0,62.88,0.703,0.158,1.58,-1.0208,-3.3947,62.8804,0.85291,0.00785,-0.02992,0.52113,-0.1304,0.0441,-9.8846,0.4538,0.5344,-0.2077,0.2969,3,17,0.62,1.05,0.29,24.795,15.78,97.6,30.4,21468.0,9122,8832,9051,8915,50.5,46.0,45.7,49.3,3.054,2.661,2.875,2.661,5.55,231.4,22.6,65.0,1005.59,-25.92,0.38,1.17,17.8,35.0,25.7,0,no_anomaly,0.0,0,0,0,0,26.8467052,80.9461868,5.0,0.0
2024-02-18T18:02:02.500Z,MISSION_0019,25,0,takeoff,SITE_LKN_010,26.8467039,80.9461828,5.0,60.04,1.112,0.047,1.96,6.0708,-1.1097,60.0382,0.86435,0.05069,0.01812,0.50001,0.1865,0.036,-9.7611,0.3477,0.2383,0.5573,0.153,3,16,0.75,0.79,0.47,24.663,13.96,97.5,30.7,21454.0,8918,9010,8986,9188,47.0,50.9,49.0,50.3,2.837,2.921,3.03,2.697,5.74,236.4,22.7,64.9,1005.65,-28.95,-0.34,1.2,20.5,37.5,25.1,0,no_anomaly,0.0,0,0,0,0,26.8467039,80.9461828,5.0,0.0
2024-02-18T18:02:02.600Z,MISSION_0019,26,0,takeoff,SITE_LKN_010,26.8467115,80.9461825,5.0,58.52,1.267,0.168,2.33,2.4424,0.6013,58.523,0.87224,0.01603,0.01499,0.48858,-0.2287,0.0313,-9.7933,-0.606,-0.2247,0.1377,0.2166,3,19,0.72,0.6,0.23,24.749,13.96,97.5,31.0,21440.0,8957,8855,8789,9028,48.3,47.3,48.9,47.4,2.89,2.905,2.909,2.754,4.79,232.2,22.8,65.4,1005.18,-31.37,-1.14,1.53,16.7,30.7,26.0,0,no_anomaly,0.0,0,0,0,0,26.8467115,80.9461825,5.0,0.0
2024-02-18T18:02:02.700Z,MISSION_0019,27,0,takeoff,SITE_LKN_010,26.8467132,80.9461833,5.0,58.25,0.978,0.086,2.37,4.4771,-3.079,58.2533,0.87205,0.04718,-0.00445,0.48711,-0.0286,-0.0735,-9.7762,-0.2752,0.4779,0.1513,0.2644,3,15,0.91,0.88,0.4,24.79,22.87,97.4,30.3,21427.0,9104,8874,8955,9063,48.5,46.6,50.2,46.9,2.75,2.55,2.415,2.809,5.0,229.9,22.6,64.4,1005.31,-31.19,-0.2,1.43,14.6,28.0,22.5,0,no_anomaly,0.0,0,0,0,0,26.8467132,80.9461833,5.0,0.0
2024-02-18T18:02:02.800Z,MISSION_0019,28,0,takeoff,SITE_LKN_010,26.84671,80.9461799,5.0,56.68,1.356,0.162,2.5,3.5117,-2.8309,56.6819,0.8791,0.03868,-0.00719,0.47502,-0.0086,0.0101,-9.8734,-0.2097,0.1835,0.0185,0.1794,3,13,0.82,0.7,0.36,24.788,19.48,97.3,31.0,21413.0,8961,9058,9188,9226,49.1,50.3,48.1,50.0,2.725,2.69,2.801,2.919,6.27,230.5,22.5,64.9,1005.24,-30.26,-1.85,1.3,19.6,32.4,22.5,0,no_anomaly,0.0,0,0,0,0,26.84671,80.9461799,5.0,0.0
2024-02-18T18:02:02.900Z,MISSION_0019,29,0,takeoff,SITE_LKN_010,26.8467142,80.9461806,5.0,53.83,1.973,0.057,2.68,4.1358,-2.9655,53.8306,0.89037,0.04387,-0.00673,0.45306,-0.208,0.0065,-9.7467,-0.089,0.0884,-0.3117,0.196,3,14,0.59,0.95,0.2,24.76,20.46,97.3,30.6,21400.0,8899,8897,8973,9049,50.8,46.5,45.8,48.0,2.845,2.777,2.645,2.923,5.16,230.0,22.4,65.3,1005.36,-29.68,0.89,2.2,15.9,28.9,22.4,0,no_anomaly,0.0,0,0,0,0,26.8467142,80.9461806,5.0,0.0
2024-02-18T18:02:03.000Z,MISSION_0019,30,0,takeoff,SITE_LKN_010,26.8467095,80.946181,5.0,53.69,1.92,0.073,2.36,3.1271,-0.7969,53.6902,0.89179,0.02748,0.00612,0.45157,0.0407,-0.0445,-9.8978,-0.1642,0.6789,0.1026,0.2453,3,20,0.77,0.98,0.29,24.634,19.48,97.2,31.5,21386.0,9029,8759,8996,8728,47.8,49.4,50.6,45.8,3.014,2.913,2.926,2.709,5.49,232.4,22.6,64.9,1005.33,-32.72,0.32,1.78,20.0,34.3,26.9,0,no_anomaly,0.0,0,0,0,0,26.8467095,80.946181,5.0,0.0
2024-02-18T18:02:03.100Z,MISSION_0019,31,0,transit,SITE_LKN_010,26.8467139,80.9461795,5.5,56.02,2.057,0.007,2.75,2.9346,-3.2582,56.0215,0.88187,0.03594,-0.01307,0.46994,-0.025,0.0155,-9.854,0.0453,-0.4667,-1.0277,0.1247,3,20,0.58,1.0,0.22,24.75,22.04,97.1,31.4,21373.0,8764,9008,8902,8809,51.3,42.6,50.6,50.1,2.489,3.152,2.846,2.863,5.38,225.5,22.8,66.2,1005.26,-33.24,-1.49,1.58,19.9,32.1,26.5,0,no_anomaly,0.0,0,0,0,0,26.8467139,80.9461795,5.5,0.0
2024-02-18T18:02:03.200Z,MISSION_0019,32,0,transit,SITE_LKN_010,26.8467097,80.9461738,6.0,57.23,1.968,0.193,3.11,3.5186,2.6468,57.2339,0.87753,0.01589,0.03496,0.47798,-0.121,-0.0149,-9.8014,0.9214,-0.2,0.0955,0.1278,3,14,0.7,1.11,0.28,24.762,18.44,97.1,31.2,21359.0,8919,8903,8707,8844,48.9,50.0,45.4,46.9,2.902,2.766,2.892,3.014,4.89,230.0,22.6,64.4,1005.59,-22.8,-1.08,1.96,21.1,36.4,27.5,0,no_anomaly,0.0,0,0,0,0,26.8467097,80.9461738,6.0,0.0
2024-02-18T18:02:03.300Z,MISSION_0019,33,0,transit,SITE_LKN_010,26.8467087,80.9461752,6.5,57.62,1.98,0.107,2.93,-1.8278,-1.6407,57.6192,0.87613,-0.00708,-0.02023,0.48159,-0.0747,0.0171,-9.7924,-0.4636,-0.0209,0.5522,0.1586,3,15,0.74,0.98,0.37,24.717,18.94,97.0,31.0,21345.0,8880,8840,8967,9058,47.3,46.5,45.3,45.3,2.829,2.723,2.786,2.719,5.83,231.5,22.6,65.1,1005.12,-28.28,-0.85,1.45,19.2,30.6,26.1,0,no_anomaly,0.0,0,0,0,0,26.8467087,80.9461752,6.5,0.0
2024-02-18T18:02:03.400Z,MISSION_0019,34,0,transit,SITE_LKN_010,26.846707,80.9461729,7.0,57.52,2.253,0.156,3.12,4.2813,-2.6373,57.5164,0.8754,0.0438,-0.00219,0.4814,-0.0612,0.0126,-9.8816,0.8683,0.7168,-0.4611,0.2093,3,14,0.75,0.69,0.34,24.781,19.97,97.0,31.1,21332.0,8985,8995,8855,8882,45.1,48.1,45.5,47.8,2.881,2.809,2.821,2.754,4.68,223.1,22.9,65.2,1005.12,-31.68,0.71,1.5,21.2,33.5,26.0,0,no_anomaly,0.0,0,0,0,0,26.846707,80.9461729,7.0,0.0
2024-02-18T18:02:03.500Z,MISSION_0019,35,0,transit,SITE_LKN_010,26.8467029,80.9461763,7.5,55.66,2.093,0.137,2.66,2.8867,-0.8983,55.6618,0.88393,0.02593,0.00483,0.46688,0.0602,-0.1022,-9.8538,-0.8509,0.1522,-0.0068,0.2377,3,18,0.78,0.83,0.32,24.645,16.84,96.9,31.1,21318.0,9011,8826,8791,8773,46.6,43.7,50.9,47.5,2.686,2.623,2.603,3.221,5.02,230.6,22.7,65.9,1005.23,-33.67,1.76,1.74,16.9,29.5,26.6,0,no_anomaly,0.0,0,0,0,0,26.8467029,80.9461763,7.5,0.0
2024-02-18T18:02:03.600Z,MISSION_0019,36,0,transit,SITE_LKN_010,26.846701,80.9461771,8.0,54.65,2.372,0.086,2.55,-1.0478,-2.7004,54.6516,0.88823,0.0027,-0.02513,0.45871,0.0813,-0.035,-9.8353,0.5325,-0.0912,-0.1146,0.2191,3,18,0.55,0.97,0.2,24.676,18.31,96.8,31.5,21305.0,9094,8929,9101,8778,44.3,45.0,47.2,47.8,2.765,2.533,2.638,2.936,5.87,221.7,22.8,65.9,1004.89,-31.4,1.71,1.43,15.6,33.8,23.6,0,no_anomaly,0.0,0,0,0,0,26.846701,80.9461771,8.0,0.0
2024-02-18T18:02:03.700Z,MISSION_0019,37,0,transit,SITE_LKN_010,26.8466985,80.946181,8.5,55.32,2.208,0.19,2.13,-5.1334,-1.5868,55.322,0.88502,-0.03324,-0.03304,0.46318,-0.1967,0.0146,-9.7581,0.7818,0.6081,-0.2349,0.1953,3,12,0.69,0.76,0.36,24.734,22.84,96.8,31.2,21291.0,9079,9034,9023,9018,47.7,49.4,50.4,48.4,2.545,2.682,2.924,2.914,5.08,240.5,22.8,65.2,1005.19,-34.75,0.28,1.84,16.1,30.5,23.8,0,no_anomaly,0.0,0,0,0,0,26.8466985,80.946181,8.5,0.0
2024-02-18T18:02:03.800Z,MISSION_0019,38,0,transit,SITE_LKN_010,26.8466974,80.9461819,9.0,54.39,2.801,0.032,2.03,-2.3005,-1.631,54.3883,0.88932,-0.01135,-0.02183,0.45661,0.0935,-0.0099,-9.7579,-0.0472,0.0397,0.0336,0.2416,3,14,0.62,0.83,0.2,24.671,17.94,96.7,30.5,21278.0,8756,8950,8513,9072,44.8,47.2,53.2,44.2,2.669,2.66,2.796,2.869,4.62,231.7,22.9,66.5,1005.56,-29.31,1.78,1.54,19.2,37.9,24.8,0,no_anomaly,0.0,0,0,0,0,26.8466974,80.9461819,9.0,0.0
2024-02-18T18:02:03.900Z,MISSION_0019,39,0,transit,SITE_LKN_010,26.8467013,80.9461855,9.5,54.94,2.985,0.124,1.62,-3.7352,-2.3601,54.9419,0.8869,-0.01941,-0.03329,0.46036,-0.1374,0.0574,-9.7332,0.6052,-0.1888,0.2134,0.2622,3,20,0.77,0.77,0.27,24.685,15.73,96.7,31.1,21264.0,8939,9117,8848,9186,45.3,50.1,48.7,46.7,2.969,2.854,2.592,2.644,5.66,230.9,22.8,65.8,1005.43,-26.48,0.17,1.3,20.2,37.9,25.3,0,no_anomaly,0.0,0,0,0,0,26.8467013,80.9461855,9.5,0.0
2024-02-18T18:02:04.000Z,MISSION_0019,40,0,transit,SITE_LKN_010,26.8466976,80.9461813,10.0,54.49,2.946,0.101,2.1,-2.8096,-3.8396,54.4925,0.88866,-0.00645,-0.04099,0.45669,0.0579,-0.0157,-9.8532,0.0437,-0.1897,-0.0391,0.2024,3,15,0.75,0.75,0.41,24.75,24.22,96.6,31.2,21250.0,8920,8990,9083,9244,46.3,51.6,45.8,46.2,2.992,2.697,2.708,2.454,5.16,229.6,22.5,65.2,1005.35,-29.07,-0.84,1.81,16.1,30.5,28.5,0,no_anomaly,0.0,0,0,0,0,26.8466976,80.9461813,10.0,0.0
2024-02-18T18:02:04.100Z,MISSION_0019,41,0,transit,SITE_LKN_010,26.8467015,80.9461734,10.5,53.38,2.576,0.144,2.96,-0.6166,-3.2172,53.3831,0.89314,0.0078,-0.0275,0.44887,0.1949,0.0628,-9.7915,-0.0553,0.15,-0.2583,0.0574,3,13,0.51,0.95,0.2,24.609,19.73,96.5,30.8,21237.0,8933,9114,8883,8732,45.9,44.9,45.8,51.2,2.581,2.578,2.844,2.63,5.46,226.1,22.7,64.6,1005.34,-28.99,1.17,1.76,16.4,35.7,26.1,0,no_anomaly,0.0,0,0,0,0,26.8467015,80.9461734,10.5,0.0
2024-02-18T18:02:04.200Z,MISSION_0019,42,0,transit,SITE_LKN_010,26.8467021,80.9461719,11.0,50.96,2.864,0.176,3.13,-8.4829,0.8271,50.9596,0.90001,-0.06986,-0.02532,0.42949,0.1362,0.0529,-9.7732,-0.8557,0.3104,0.1446,0.2139,3,19,0.74,0.9,0.26,24.611,18.29,96.5,30.5,21223.0,9080,8908,9051,8797,43.6,46.4,48.0,44.6,2.735,2.755,2.914,2.84,5.98,220.8,22.7,65.8,1005.26,-28.5,1.26,1.53,17.8,32.3,23.3,0,no_anomaly,0.0,0,0,0,0,26.8467021,80.9461719,11.0,0.0
2024-02-18T18:02:04.300Z,MISSION_0019,43,0,transit,SITE_LKN_010,26.8466998,80.9461691,11.5,51.45,2.85,0.027,3.44,5.9767,-3.7773,51.4466,0.89844,0.06123,-0.00704,0.43475,0.077,-0.0652,-9.7946,-0.5053,-0.2144,0.1202,0.1926,3,10,0.76,0.88,0.42,24.711,16.98,96.4,30.8,21210.0,8757,8742,8922,8798,45.8,47.7,46.7,46.8,2.627,2.919,2.716,2.785,5.7,233.2,22.7,65.3,1005.51,-26.74,0.14,1.36,16.8,36.8,25.7,0,no_anomaly,0.0,0,0,0,0,26.8466998,80.9461691,11.5,0.0
2024-02-18T18:02:04.400Z,MISSION_0019,44,0,transit,SITE_LKN_010,26.846702,80.9461763,12.0,51.34,3.105,0.105,2.65,-1.7398,-1.1192,51.3355,0.90124,-0.00945,-0.01538,0.43295,-0.0471,0.0228,-9.7647,0.0488,0.0572,0.1335,0.2225,3,12,0.63,1.13,0.2,24.77,23.97,96.3,31.0,21196.0,9283,8793,8809,9113,49.2,52.0,50.2,48.4,2.686,2.911,2.884,2.728,5.19,231.5,23.1,64.0,1005.49,-22.25,-0.12,1.74,18.0,30.2,28.1,0,no_anomaly,0.0,0,0,0,0,26.846702,80.9461763,12.0,0.0
2024-02-18T18:02:04.500Z,MISSION_0019,45,0,transit,SITE_LKN_010,26.8467017,80.9461824,12.5,48.57,3.07,0.168,1.97,0.8908,-1.6413,48.5665,0.91136,0.01298,-0.00986,0.41129,-0.1156,-0.0409,-9.7927,0.7332,-0.9307,-0.1193,0.1429,3,19,0.74,0.6,0.31,24.695,18.68,96.3,31.5,21183.0,8814,8753,8930,9145,45.7,46.6,47.5,49.6,2.848,2.974,2.938,2.726,5.01,227.5,22.5,65.1,1005.36,-36.28,0.65,1.83,18.3,35.5,23.3,0,no_anomaly,0.0,0,0,0,0,26.8467017,80.9461824,12.5,0.0
2024-02-18T18:02:04.600Z,MISSION_0019,46,0,transit,SITE_LKN_010,26.8467002,80.9461807,13.0,48.4,3.511,0.103,2.15,-0.4896,-2.3652,48.3965,0.91197,0.00456,-0.02058,0.40972,0.1901,-0.0817,-9.7087,-0.1715,-0.4746,-0.5713,0.3011,3,20,0.68,0.93,0.2,24.705,17.64,96.2,31.5,21169.0,8792,8725,8869,8853,48.8,50.6,51.7,48.3,2.641,2.929,2.901,2.802,5.25,242.3,22.6,65.7,1005.16,-26.64,1.52,1.96,19.5,33.4,25.1,0,no_anomaly,0.0,0,0,0,0,26.8467002,80.9461807,13.0,0.0
2024-02-18T18:02:04.700Z,MISSION_0019,47,0,transit,SITE_LKN_010,26.8467006,80.9461841,13.5,48.69,3.346,0.216,1.77,-0.8262,-0.2404,48.6867,0.91107,-0.0057,-0.00488,0.41218,0.3034,0.0687,-9.8172,-0.0101,-0.2671,0.3329,0.2655,3,11,0.82,0.95,0.38,24.736,13.84,96.2,31.7,21155.0,8931,9089,8975,8788,48.6,47.6,44.0,47.9,2.643,2.888,2.737,2.746,5.18,225.9,22.8,65.0,1005.32,-32.74,-1.52,1.13,16.8,29.1,23.3,0,no_anomaly,0.0,0,0,0,0,26.8467006,80.9461841,13.5,0.0
2024-02-18T18:02:04.800Z,MISSION_0019,48,0,transit,SITE_LKN_010,26.8466999,80.9461797,14.0,49.92,3.417,0.152,2.26,-3.5845,-2.7757,49.9167,0.90623,-0.01813,-0.03514,0.42094,0.1486,-0.0324,-9.727,-0.1358,-0.1271,-0.0697,0.2757,3,12,0.56,0.99,0.25,24.701,16.48,96.1,30.8,21142.0,9022,8743,9056,9082,49.6,45.7,47.3,46.3,2.631,2.676,2.917,2.847,5.01,232.3,22.4,65.8,1005.22,-28.0,-2.02,1.61,17.5,34.0,23.7,0,no_anomaly,0.0,0,0,0,0,26.8466999,80.9461797,14.0,0.0
2024-02-18T18:02:04.900Z,MISSION_0019,49,0,transit,SITE_LKN_010,26.8467011,80.946178,14.5,51.42,3.501,0.139,2.45,-3.3782,-1.0005,51.4249,0.90067,-0.02277,-0.02065,0.43342,-0.2089,0.0332,-9.7947,-0.0864,-0.3602,-0.3255,0.2769,3,15,0.69,1.14,0.2,24.719,21.38,96.0,29.6,21128.0,9137,9147,8957,8816,44.1,45.0,49.0,47.5,2.835,2.943,2.357,2.946,5.41,226.0,22.7,65.5,1005.23,-29.67,-2.25,1.45,16.9,36.8,25.5,0,no_anomaly,0.0,0,0,0,0,26.8467011,80.946178,14.5,0.0
2024-02-18T18:02:05.000Z,MISSION_0019,50,0,transit,SITE_LKN_010,26.8466994,80.9461783,15.0,48.79,4.09,0.006,2.41,-0.6166,-3.7833,48.7889,0.91029,0.00874,-0.03228,0.41262,-0.0607,0.0364,-9.8387,-0.5133,-0.0039,0.6634,0.1719,3,11,0.76,0.9,0.34,24.692,19.85,96.0,30.6,21115.0,8920,8873,9209,9153,50.1,48.6,49.4,48.7,2.914,2.702,2.954,2.749,5.67,236.5,22.8,65.0,1005.18,-22.0,-0.91,1.01,16.2,31.7,24.6,0,no_anomaly,0.0,0,0,0,0,26.8466994,80.9461783,15.0,0.0
2024-02-18T18:02:05.100Z,MISSION_0019,51,0,transit,SITE_LKN_010,26.8467019,80.9461773,15.5,50.11,4.313,0.103,2.54,-0.1058,-2.3363,50.1083,0.90573,0.0078,-0.01886,0.42337,-0.1076,0.0346,-9.8239,-0.4388,-0.26,0.3743,0.3087,3,16,0.59,0.91,0.23,24.602,17.66,95.9,30.7,21101.0,9045,8794,9263,8945,45.7,46.8,48.1,48.2,2.73,2.658,2.881,2.88,5.17,235.1,22.6,65.6,1005.46,-33.6,0.71,1.96,17.5,30.0,22.3,0,no_anomaly,0.0,0,0,0,0,26.8467019,80.9461773,15.5,0.0
2024-02-18T18:02:05.200Z,MISSION_0019,52,0,transit,SITE_LKN_010,26.8467029,80.9461814,16.0,48.83,4.074,0.08,2.09,1.8061,-1.0306,48.8282,0.91037,0.01807,-0.00167,0.41339,0.2619,-0.0218,-9.7686,0.5748,0.1082,0.2259,0.3002,3,13,0.73,1.11,0.29,24.612,18.1,95.9,31.0,21088.0,8679,8998,8793,9088,49.1,49.0,47.4,49.9,3.131,2.735,2.756,2.883,4.57,232.3,22.5,65.1,1005.06,-30.8,-0.52,2.1,18.9,30.2,26.8,0,no_anomaly,0.0,0,0,0,0,26.8467029,80.9461814,16.0,0.0
2024-02-18T18:02:05.300Z,MISSION_0019,53,0,transit,SITE_LKN_010,26.8467007,80.9461819,16.5,50.27,4.094,0.152,2.02,-6.7993,-1.9346,50.268,0.90402,-0.04652,-0.04044,0.42302,0.0835,0.0448,-9.7419,-0.9091,0.1247,0.0577,0.213,3,11,0.64,0.97,0.29,24.723,19.21,95.8,31.7,21074.0,8828,9179,9183,9126,47.2,48.3,49.8,49.0,2.86,3.017,2.603,2.888,5.68,228.9,22.7,65.3,1005.44,-28.45,1.8,1.54,19.2,30.7,26.7,0,no_anomaly,0.0,0,0,0,0,26.8467007,80.9461819,16.5,0.0
2024-02-18T18:02:05.400Z,MISSION_0019,54,0,transit,SITE_LKN_010,26.8466943,80.9461827,17.0,50.13,3.541,0.097,2.03,-1.2589,-1.3005,50.1276,0.90578,-0.00514,-0.01493,0.42346,0.1929,0.069,-9.8885,0.7337,-0.3479,-0.3549,0.25,3,16,0.59,0.92,0.24,24.622,22.05,95.7,30.1,21060.0,9102,9099,8733,9090,47.4,51.9,47.3,47.1,2.669,2.612,3.236,2.607,5.73,242.4,22.6,65.3,1005.46,-31.71,-0.4,1.29,16.1,31.8,25.9,0,no_anomaly,0.0,0,0,0,0,26.8466943,80.9461827,17.0,0.0
2024-02-18T18:02:05.500Z,MISSION_0019,55,0,transit,SITE_LKN_010,26.8466947,80.9461817,17.5,49.22,3.657,0.048,2.12,-1.0964,-0.7981,49.2208,0.90912,-0.0058,-0.01032,0.41636,-0.0659,0.0415,-9.8316,-0.4476,0.9449,0.7502,0.1659,3,20,0.64,0.67,0.2,24.676,20.38,95.7,30.5,21047.0,8972,8720,8829,9165,46.0,49.2,50.4,49.2,2.621,2.797,2.953,2.947,5.68,230.0,23.1,65.3,1004.87,-26.91,0.93,1.0,20.4,38.6,24.9,0,no_anomaly,0.0,0,0,0,0,26.8466947,80.9461817,17.5,0.0
2024-02-18T18:02:05.600Z,MISSION_0019,56,0,transit,SITE_LKN_010,26.8466947,80.9461815,18.0,48.11,3.318,0.065,2.14,-2.5444,-3.3514,48.1124,0.9128,-0.00835,-0.03574,0.40677,-0.1097,0.0128,-9.8356,-0.5999,0.0194,0.2856,0.2752,3,11,0.75,0.89,0.4,24.59,19.85,95.6,31.0,21033.0,8961,8828,9098,9019,46.6,46.3,48.8,45.0,2.758,2.735,2.758,2.637,4.84,230.8,22.5,65.2,1005.33,-24.49,0.23,1.39,17.5,29.9,24.9,0,no_anomaly,0.0,0,0,0,0,26.8466947,80.9461815,18.0,0.0
2024-02-18T18:02:05.700Z,MISSION_0019,57,0,transit,SITE_LKN_010,26.8466985,80.9461797,18.5,50.56,2.836,0.041,2.27,3.5846,-3.5732,50.5569,0.90295,0.04157,-0.01483,0.42748,-0.1406,0.0664,-9.8323,-0.3853,-0.6351,0.091,0.2412,3,13,0.66,1.12,0.2,24.676,18.57,95.5,30.4,21020.0,9071,8927,8911,8955,48.1,51.5,44.4,47.6,2.724,2.775,2.838,2.555,6.55,238.3,22.9,65.5,1005.35,-32.56,0.93,1.54,18.6,30.5,27.5,0,no_anomaly,0.0,0,0,0,0,26.8466985,80.9461797,18.5,0.0
2024-02-18T18:02:05.800Z,MISSION_0019,58,0,transit,SITE_LKN_010,26.8466944,80.9461756,19.0,50.43,3.015,0.098,2.79,2.7296,-4.452,50.4308,0.90338,0.03807,-0.02499,0.42642,0.2406,0.0023,-9.8245,0.0877,-0.0591,0.0294,0.2674,3,20,0.66,0.82,0.44,24.618,21.97,95.5,31.1,21006.0,8800,8891,8996,8960,49.3,49.3,48.1,49.4,2.608,2.54,2.979,2.792,5.88,224.8,22.5,65.0,1004.89,-28.27,-0.65,1.63,16.1,33.1,26.0,0,no_anomaly,0.0,0,0,0,0,26.8466944,80.9461756,19.0,0.0
2024-02-18T18:02:05.900Z,MISSION_0019,59,0,transit,SITE_LKN_010,26.8466948,80.9461754,19.5,48.91,3.275,0.15,2.8,-1.9197,-4.3372,48.9073,0.90978,0.00042,-0.04137,0.41303,-0.1623,0.0081,-9.7906,0.0719,0.3952,0.2241,0.1881,3,13,0.61,0.8,0.34,24.75,14.32,95.4,31.5,20993.0,9239,9087,8770,9026,47.9,48.8,48.7,50.5,2.873,2.646,2.755,3.008,4.44,230.6,22.8,64.9,1005.4,-26.89,1.62,2.11,18.4,37.4,25.4,0,no_anomaly,0.0,0,0,0,0,26.8466948,80.9461754,19.5,0.0
2024-02-18T18:02:06.000Z,MISSION_0019,60,0,transit,SITE_LKN_010,26.8466995,80.946176,20.0,51.74,3.612,0.113,2.67,-2.651,-0.8276,51.7406,0.89959,-0.01766,-0.01659,0.43606,0.1134,0.0098,-9.8271,0.0355,-0.2052,-0.0634,0.1827,3,16,0.76,0.93,0.3,24.63,21.28,95.4,31.4,20979.0,9206,9036,8922,9019,47.5,48.5,47.5,48.8,2.922,3.038,2.798,2.912,6.11,229.7,22.6,65.8,1005.28,-25.49,-0.47,1.85,17.8,27.2,21.4,0,no_anomaly,0.0,0,0,0,0,26.8466995,80.946176,20.0,0.0
2024-02-18T18:02:06.100Z,MISSION_0019,61,0,transit,SITE_LKN_010,26.8466993,80.9461796,20.5,53.03,3.242,0.132,2.27,4.5633,-2.4293,53.0286,0.89354,0.04507,-0.00118,0.44672,-0.1817,0.0007,-9.8315,-0.8033,0.2281,0.1245,0.2461,3,18,0.78,0.6,0.37,24.672,12.92,95.3,30.8,20965.0,8922,9088,8846,9040,48.5,43.6,49.1,43.2,2.565,2.813,2.81,2.872,4.61,230.9,22.6,65.7,1005.0,-28.47,2.53,1.43,14.2,34.2,24.9,0,no_anomaly,0.0,0,0,0,0,26.8466993,80.9461796,20.5,0.0
2024-02-18T18:02:06.200Z,MISSION_0019,62,1,transit,SITE_LKN_010,26.8466971,80.9461783,20.8,53.45,3.352,0.006,2.44,4.7223,-1.8902,53.4503,0.89199,0.0442,0.00381,0.44988,0.1521,-0.0576,-9.7605,0.7314,-0.1812,-0.018,0.2032,3,14,0.64,0.91,0.28,24.775,19.58,95.2,31.0,20952.0,8957,8996,8910,9074,47.9,44.5,47.3,50.3,3.096,2.774,2.774,2.739,5.59,232.5,22.8,65.5,1005.48,-33.64,0.52,1.27,15.9,35.7,28.5,0,no_anomaly,0.0,0,0,0,0,26.8466971,80.9461783,20.8,0.0
2024-02-18T18:02:06.300Z,MISSION_0019,63,1,transit,SITE_LKN_010,26.8466948,80.9461818,20.8,54.54,3.444,0.121,2.1,3.4523,-2.341,54.543,0.88797,0.03612,-0.00435,0.45845,0.1523,0.039,-9.8914,-0.2819,1.0456,0.1068,0.2036,3,13,0.65,0.73,0.34,24.689,21.76,95.2,31.4,20938.0,8795,9085,8893,9179,49.5,49.3,51.5,47.8,2.68,2.599,2.83,2.681,5.29,226.5,22.5,65.2,1005.39,-29.71,1.23,1.27,19.9,29.2,24.4,0,no_anomaly,0.0,0,0,0,0,26.8466948,80.9461818,20.8,0.0
2024-02-18T18:02:06.400Z,MISSION_0019,64,1,transit,SITE_LKN_010,26.8466909,80.9461816,20.8,53.41,3.826,0.166,2.28,-0.4064,-2.6778,53.4062,0.89313,0.00733,-0.02247,0.44917,0.1672,0.0254,-9.8913,0.5181,0.0791,0.0252,0.1319,3,16,0.72,0.79,0.29,24.69,17.84,95.1,31.3,20925.0,8776,8978,9213,8964,48.6,49.3,49.1,47.8,2.78,2.945,2.579,2.736,5.82,230.3,22.8,65.6,1005.11,-23.05,1.17,1.0,19.9,32.6,24.5,0,no_anomaly,0.0,0,0,0,0,26.8466909,80.9461816,20.8,0.0
2024-02-18T18:02:06.500Z,MISSION_0019,65,1,transit,SITE_LKN_010,26.8466932,80.946184,20.8,51.49,4.191,0.173,1.93,1.4013,-1.7248,51.4909,0.90048,0.01755,-0.00824,0.43446,-0.0426,0.0657,-9.9082,0.2017,0.0767,0.6532,0.3038,3,11,0.64,0.67,0.28,24.714,18.65,95.1,31.8,20911.0,8873,8890,8805,8901,51.7,48.5,47.5,48.6,2.816,3.022,2.755,2.598,5.68,232.9,22.8,65.7,1005.13,-31.65,-0.18,1.39,19.6,36.9,25.0,0,no_anomaly,0.0,0,0,0,0,26.8466932,80.946184,20.8,0.0
2024-02-18T18:02:06.600Z,MISSION_0019,66,1,transit,SITE_LKN_010,26.8466921,80.9461854,20.8,51.1,4.188,0.142,1.85,1.3837,-1.3552,51.0976,0.90203,0.01599,-0.00546,0.43135,-0.4832,0.0796,-9.7856,-0.0942,0.5916,-0.5017,0.1655,3,10,0.77,0.92,0.3,24.729,17.9,95.0,30.2,20898.0,8914,8735,9041,9388,45.9,47.6,48.2,46.2,2.749,2.678,2.491,2.735,5.54,236.3,22.7,65.6,1005.01,-33.18,-0.6,1.5,17.6,31.5,23.7,0,no_anomaly,0.0,0,0,0,0,26.8466921,80.9461854,20.8,0.0
2024-02-18T18:02:06.700Z,MISSION_0019,67,1,transit,SITE_LKN_010,26.8466898,80.9461908,20.8,50.68,3.659,0.031,1.53,0.98,-0.6207,50.6787,0.90372,0.01005,-0.00124,0.428,-0.1369,-0.0298,-9.7914,-0.3317,0.1737,0.1269,0.2395,3,19,0.58,0.68,0.2,24.676,19.57,94.9,31.5,20884.0,9267,9220,8850,9007,51.1,48.7,46.0,47.2,2.637,2.761,2.751,2.664,5.73,222.8,22.7,65.0,1005.39,-33.44,-0.01,1.44,19.8,32.7,22.1,0,no_anomaly,0.0,0,0,0,0,26.8466898,80.9461908,20.8,0.0
2024-02-18T18:02:06.800Z,MISSION_0019,68,1,transit,SITE_LKN_010,26.8466867,80.9461864,20.8,49.78,4.054,0.227,2.12,-0.4214,0.1632,49.775,0.90713,-0.00394,-0.00026,0.42084,-0.0488,-0.0454,-9.7985,-0.6493,-0.0956,-0.1662,0.196,3,18,0.87,0.85,0.37,24.728,22.5,94.9,30.3,20870.0,8874,8806,9095,8704,48.2,46.8,45.2,47.1,2.852,2.908,2.853,2.83,5.33,236.4,22.5,65.3,1005.16,-31.83,0.72,1.0,15.6,29.7,24.0,0,no_anomaly,0.0,0,0,0,0,26.8466867,80.9461864,20.8,0.0
2024-02-18T18:02:06.900Z,MISSION_0019,69,1,transit,SITE_LKN_010,26.8466918,80.9461893,20.8,46.59,4.108,0.039,1.5,1.7157,-4.0328,46.5864,0.91761,0.02765,-0.0264,0.39563,-0.2248,-0.0483,-9.8322,-0.9674,0.8337,0.4541,0.2948,3,16,0.75,0.86,0.3,24.677,17.47,94.8,30.6,20857.0,8676,8883,8966,9126,45.6,46.8,46.9,47.0,2.771,2.757,2.633,2.87,5.11,233.5,22.7,64.0,1005.15,-29.55,-1.15,1.33,15.1,29.1,24.9,0,no_anomaly,0.0,0,0,0,0,26.8466918,80.9461893,20.8,0.0
2024-02-18T18:02:07.000Z,MISSION_0019,70,1,transit,SITE_LKN_010,26.8466912,80.9461877,20.8,49.45,3.949,0.137,1.68,-0.7459,3.2632,49.4505,0.90786,-0.01782,0.02314,0.41826,-0.1653,0.0715,-9.9025,-0.608,-0.3803,-0.2108,0.1404,3,16,0.77,0.82,0.32,24.69,20.27,94.7,31.2,20843.0,8868,8818,8786,8955,45.6,45.5,47.9,48.8,2.915,2.971,2.462,2.747,4.89,237.6,22.8,65.2,1005.13,-34.39,-0.72,1.18,16.5,37.8,23.9,0,no_anomaly,0.0,0,0,0,0,26.8466912,80.9461877,20.8,0.0
2024-02-18T18:02:07.100Z,MISSION_0019,71,1,transit,SITE_LKN_010,26.8466924,80.9461895,20.8,49.74,3.902,0.087,1.45,-4.1993,-3.207,49.736,0.90675,-0.02147,-0.04077,0.41915,0.1009,0.0355,-9.8543,-0.1907,0.9853,-0.2475,0.2167,3,12,0.76,0.65,0.3,24.66,12.11,94.7,31.1,20830.0,8801,9082,8684,9187,49.6,48.4,51.5,50.4,2.701,2.639,3.041,2.893,5.3,234.5,22.7,65.3,1005.17,-28.96,-1.65,1.57,17.8,35.1,26.5,0,no_anomaly,0.0,0,0,0,0,26.8466924,80.9461895,20.8,0.0
2024-02-18T18:02:07.200Z,MISSION_0019,72,1,transit,SITE_LKN_010,26.8466902,80.9461843,20.8,47.63,3.921,0.032,2.06,6.1961,-3.5512,47.6275,0.91241,0.06191,-0.00649,0.40451,0.0973,-0.0489,-9.7505,-0.0747,-0.8163,0.3943,0.2055,3,16,0.6,0.8,0.2,24.682,18.81,94.6,31.2,20816.0,9164,8901,9064,8863,45.8,45.9,45.9,47.4,2.68,2.828,2.936,2.771,6.21,228.2,22.9,66.2,1005.34,-27.94,0.37,1.48,16.4,37.5,23.9,0,no_anomaly,0.0,0,0,0,0,26.8466902,80.9461843,20.8,0.0
2024-02-18T18:02:07.300Z,MISSION_0019,73,1,transit,SITE_LKN_010,26.8466921,80.9461867,20.8,48.69,4.072,0.124,1.73,2.3845,-3.6309,48.6873,0.91016,0.032,-0.02028,0.41251,-0.0499,0.0057,-9.8026,0.1441,-0.4006,-0.0131,0.2072,3,14,0.67,1.04,0.2,24.627,27.27,94.6,30.5,20803.0,8707,9173,8680,8818,48.5,48.1,46.4,47.9,2.878,2.82,2.963,2.941,4.67,231.6,22.8,65.2,1005.12,-28.35,0.43,1.73,19.4,36.1,26.1,0,no_anomaly,0.0,0,0,0,0,26.8466921,80.9461867,20.8,0.0
2024-02-18T18:02:07.400Z,MISSION_0019,74,1,transit,SITE_LKN_010,26.8466876,80.9461835,20.8,48.49,4.075,0.092,2.3,4.5243,-2.3878,48.4926,0.91054,0.04453,-0.00278,0.411,-0.1722,-0.021,-9.7958,0.3568,0.3174,0.0027,0.1317,3,18,0.66,1.06,0.26,24.664,16.48,94.5,31.6,20789.0,9194,9173,9089,8871,43.9,50.5,46.9,50.9,2.785,3.016,3.069,2.833,5.28,226.0,22.5,65.9,1005.55,-26.65,-1.36,1.29,17.1,36.2,26.5,0,no_anomaly,0.0,0,0,0,0,26.8466876,80.9461835,20.8,0.0
2024-02-18T18:02:07.500Z,MISSION_0019,75,1,orbit_base,SITE_LKN_010,26.8466497,80.9462622,21.1,48.89,4.088,0.047,8.91,-3.0241,-1.4157,48.8928,0.9101,-0.01891,-0.02216,0.41337,0.027,-0.0613,-9.8624,-0.8146,0.3593,0.0343,0.2299,3,16,0.68,0.74,0.36,24.711,20.31,94.4,30.4,20775.0,8763,8941,8903,9067,49.2,47.9,49.2,47.2,3.145,2.928,2.609,2.646,4.62,230.1,22.6,65.3,1004.86,-28.02,0.12,1.62,19.8,32.1,26.8,0,no_anomaly,0.0,0,0,0,0,26.8466497,80.9462622,21.1,0.0
2024-02-18T18:02:07.600Z,MISSION_0019,76,1,orbit_base,SITE_LKN_010,26.8466479,80.9462607,21.4,48.01,4.436,0.123,8.91,-1.198,-1.5075,48.0063,0.91345,-0.0042,-0.01627,0.4066,0.0638,0.0039,-9.7447,0.1897,0.5303,-0.4709,0.2251,3,15,0.72,0.98,0.36,24.695,20.52,94.4,30.6,20762.0,8814,9150,8970,8729,51.1,45.3,45.4,47.9,2.871,2.708,2.759,2.638,5.03,230.0,22.6,65.8,1005.19,-31.34,-0.6,1.47,20.2,37.6,25.6,0,no_anomaly,0.0,0,0,0,0,26.8466479,80.9462607,21.4,0.0
2024-02-18T18:02:07.700Z,MISSION_0019,77,1,orbit_base,SITE_LKN_010,26.8466461,80.9462591,21.7,47.16,4.921,0.122,8.91,-2.9443,-1.8796,47.1624,0.91624,-0.01698,-0.0253,0.39948,-0.1028,-0.0233,-9.7847,0.1769,-0.4737,0.2483,0.2342,3,19,0.76,0.98,0.32,24.61,18.93,94.3,30.8,20748.0,9029,8856,9032,8833,46.6,47.2,49.6,47.4,2.803,3.014,2.769,2.688,5.73,223.5,22.5,65.8,1005.38,-33.53,-1.13,1.11,18.5,38.4,26.6,0,no_anomaly,0.0,0,0,0,0,26.8466461,80.9462591,21.7,0.0
2024-02-18T18:02:07.800Z,MISSION_0019,78,1,orbit_base,SITE_LKN_010,26.8466444,80.9462575,22.0,49.46,4.882,0.001,8.91,-4.2629,-1.0725,49.4567,0.90778,-0.02987,-0.02405,0.41769,0.0855,-0.0326,-9.7465,-0.1981,-0.0284,-0.5214,0.293,3,20,0.86,0.86,0.27,24.615,22.84,94.2,31.3,20735.0,8993,9219,8970,8988,49.8,49.2,45.6,49.8,2.785,2.685,2.686,2.651,5.22,229.1,22.6,65.6,1005.23,-28.24,1.03,2.0,19.0,31.3,24.6,0,no_anomaly,0.0,0,0,0,0,26.8466444,80.9462575,22.0,0.0
2024-02-18T18:02:07.900Z,MISSION_0019,79,1,orbit_base,SITE_LKN_010,26.8466427,80.9462558,22.3,49.95,4.172,0.086,8.91,1.8006,-3.5554,49.9541,0.90572,0.02733,-0.02149,0.42244,-0.0092,0.0289,-9.735,0.1513,0.1121,0.3336,0.1164,3,12,0.8,0.65,0.3,24.725,23.35,94.2,30.8,20721.0,8885,9037,9045,9028,46.5,46.6,44.6,51.7,2.908,2.539,2.824,2.798,5.14,233.1,22.7,65.0,1005.36,-31.65,-1.9,1.83,19.7,33.5,25.4,0,no_anomaly,0.0,0,0,0,0,26.8466427,80.9462558,22.3,0.0
2024-02-18T18:02:08.000Z,MISSION_0019,80,1,orbit_base,SITE_LKN_010,26.846641,80.946254,22.6,49.69,4.6,0.129,8.91,-0.1023,-2.1478,49.6874,0.9073,0.00706,-0.01738,0.42005,0.1877,0.0088,-9.9051,0.2109,-0.0256,0.2026,0.2352,3,10,0.58,0.78,0.22,24.581,18.95,94.1,31.8,20708.0,8845,8934,8763,8837,44.9,50.2,50.2,47.3,2.711,2.614,2.843,2.688,6.01,228.8,22.8,65.2,1005.1,-34.96,0.16,1.28,17.4,27.9,25.8,0,no_anomaly,0.0,0,0,0,0,26.846641,80.946254,22.6,0.0
2024-02-18T18:02:08.100Z,MISSION_0019,81,1,orbit_base,SITE_LKN_010,26.8466394,80.9462522,22.9,50.66,4.906,0.088,8.91,-1.7444,-1.9138,50.6644,0.90372,-0.00661,-0.02161,0.42753,-0.1193,0.0257,-9.8099,0.4622,0.0729,0.0597,0.1741,3,20,0.83,0.79,0.33,24.634,22.08,94.1,30.9,20694.0,9063,8800,9148,9183,48.5,51.6,48.5,47.4,2.843,2.797,3.008,2.689,5.74,231.7,23.0,65.5,1004.91,-24.38,-0.05,1.3,19.2,30.8,25.5,0,no_anomaly,0.0,0,0,0,0,26.8466394,80.9462522,22.9,0.0
2024-02-18T18:02:08.200Z,MISSION_0019,82,1,orbit_base,SITE_LKN_010,26.8466379,80.9462504,23.2,48.75,4.779,0.201,8.91,0.5577,-1.576,48.7459,0.91075,0.01011,-0.01052,0.41269,-0.0383,-0.0525,-9.8147,-0.5252,0.0694,-0.0373,0.2034,3,14,0.5,1.21,0.2,24.569,21.21,94.0,31.4,20680.0,9015,9094,9018,9295,50.2,47.1,50.0,45.6,2.996,2.667,2.66,2.7,5.61,227.5,22.8,64.7,1005.29,-29.81,-2.05,2.16,16.4,29.6,26.5,0,no_anomaly,0.0,0,0,0,0,26.8466379,80.9462504,23.2,0.0
2024-02-18T18:02:08.300Z,MISSION_0019,83,1,orbit_base,SITE_LKN_010,26.8466364,80.9462485,23.5,50.89,5.048,0.031,8.91,5.4004,-4.2342,50.8901,0.90063,0.05837,-0.01309,0.43045,-0.0007,-0.0589,-9.8522,0.2615,0.3788,-0.1179,0.1923,3,11,0.65,0.79,0.32,24.593,18.1,93.9,31.2,20667.0,8832,9023,9340,9100,49.7,45.3,48.1,47.3,2.847,2.987,2.763,2.735,4.95,221.9,22.7,65.7,1005.25,-31.67,-0.13,2.11,15.9,35.0,23.0,0,no_anomaly,0.0,0,0,0,0,26.8466364,80.9462485,23.5,0.0
2024-02-18T18:02:08.400Z,MISSION_0019,84,1,orbit_base,SITE_LKN_010,26.846635,80.9462466,23.8,53.34,5.17,0.073,8.91,-1.1753,-2.6332,53.3374,0.89344,0.00115,-0.02513,0.44848,-0.0356,0.0157,-9.8394,-0.2646,0.5947,-0.1099,0.1331,3,10,0.59,1.16,0.31,24.656,17.92,93.9,31.2,20653.0,9208,9286,8915,8873,49.6,51.8,49.6,51.4,2.958,2.805,2.832,2.633,5.99,231.5,22.4,65.6,1005.29,-32.36,0.98,1.64,17.0,32.3,23.6,0,no_anomaly,0.0,0,0,0,0,26.846635,80.9462466,23.8,0.0
2024-02-18T18:02:08.500Z,MISSION_0019,85,1,orbit_base,SITE_LKN_010,26.8466336,80.9462446,24.1,53.02,5.308,0.082,8.91,-1.7646,-2.5542,53.0221,0.89467,-0.00383,-0.02681,0.4459,0.0424,0.0628,-9.8654,0.749,-0.2234,0.2413,0.161,3,17,0.73,1.01,0.31,24.711,23.12,93.8,31.4,20640.0,8974,8967,8820,9074,47.0,49.0,50.1,48.9,2.93,2.889,2.794,2.82,6.09,230.0,23.1,65.5,1005.35,-31.6,0.26,1.37,18.0,36.2,24.5,0,no_anomaly,0.0,0,0,0,0,26.8466336,80.9462446,24.1,0.0
2024-02-18T18:02:08.600Z,MISSION_0019,86,1,orbit_base,SITE_LKN_010,26.8466323,80.9462426,24.4,53.15,5.739,0.133,8.91,-3.3966,-1.4917,53.1457,0.89407,-0.02068,-0.02489,0.44676,0.0546,-0.0058,-9.7555,-0.0066,-0.2947,0.0413,0.2991,3,15,0.68,0.86,0.31,24.662,17.1,93.8,30.6,20626.0,8797,9028,8977,9230,50.8,49.3,49.0,48.0,3.085,2.814,3.119,2.721,4.67,231.9,22.7,64.3,1005.29,-37.23,-0.79,1.33,23.4,38.5,26.3,0,no_anomaly,0.0,0,0,0,0,26.8466323,80.9462426,24.4,0.0
2024-02-18T18:02:08.700Z,MISSION_0019,87,1,orbit_base,SITE_LKN_010,26.846631,80.9462406,24.7,54.48,5.611,0.074,8.91,-1.2108,-4.7419,54.477,0.8885,0.00955,-0.04161,0.45689,0.1224,0.0841,-9.8116,-0.4239,0.4228,-0.0052,0.2141,3,10,0.83,0.94,0.29,24.675,24.23,93.7,30.7,20613.0,8794,8995,8927,8940,48.4,50.1,48.6,48.0,2.735,2.817,2.743,2.67,5.51,237.4,22.8,64.7,1005.19,-28.24,-0.6,1.31,18.0,34.9,26.0,0,no_anomaly,0.0,0,0,0,0,26.846631,80.9462406,24.7,0.0
2024-02-18T18:02:08.800Z,MISSION_0019,88,1,orbit_base,SITE_LKN_010,26.8466299,80.9462385,25.0,54.7,5.413,0.034,8.91,3.8953,0.2504,54.7031,0.88772,0.02918,0.01755,0.45912,-0.0917,-0.0525,-9.8362,0.62,1.2927,-0.1353,0.3034,3,13,0.63,0.8,0.2,24.58,15.21,93.6,31.1,20599.0,8937,9285,8940,8962,44.5,48.0,46.1,50.2,3.0,2.871,3.033,2.832,5.39,226.2,22.5,65.8,1005.27,-26.42,0.31,1.0,17.2,36.0,27.8,0,no_anomaly,0.0,0,0,0,0,26.8466299,80.9462385,25.0,0.0
2024-02-18T18:02:08.900Z,MISSION_0019,89,1,orbit_base,SITE_LKN_010,26.8466287,80.9462363,25.3,54.96,5.47,0.057,8.91,-0.1857,-2.7595,54.9555,0.88695,0.00967,-0.02211,0.46124,-0.1906,-0.0254,-9.7678,-0.3972,-0.2946,-0.0486,0.1293,3,18,0.67,0.92,0.27,24.591,24.0,93.6,31.5,20585.0,8820,8997,9213,8959,49.1,48.1,47.6,47.6,2.967,2.907,2.726,2.581,4.87,227.3,22.9,64.9,1005.41,-26.94,-0.46,1.05,21.4,33.2,25.9,0,no_anomaly,0.0,0,0,0,0,26.8466287,80.9462363,25.3,0.0
2024-02-18T18:02:09.000Z,MISSION_0019,90,1,orbit_base,SITE_LKN_010,26.8466277,80.9462342,25.6,56.76,5.467,0.09,8.91,1.7574,-0.1962,56.7595,0.8797,0.01431,0.00578,0.47528,-0.2261,0.0019,-9.7926,0.0881,-0.3471,-0.4246,0.3313,3,17,0.71,0.93,0.37,24.532,25.11,93.5,31.5,20572.0,9162,8838,8964,8832,45.1,48.7,49.4,45.7,2.662,2.956,2.672,2.823,5.72,222.4,22.7,64.8,1005.34,-29.76,-0.03,1.17,18.0,28.1,25.1,0,no_anomaly,0.0,0,0,0,0,26.8466277,80.9462342,25.6,0.0
2024-02-18T18:02:09.100Z,MISSION_0019,91,1,orbit_base,SITE_LKN_010,26.8466267,80.946232,25.9,55.7,5.547,0.081,8.91,4.1125,-3.972,55.6974,0.8825,0.04788,-0.01387,0.46766,0.0708,-0.0014,-9.8599,-0.4174,-0.5447,-0.727,0.2106,3,13,0.6,0.97,0.21,24.574,20.52,93.4,31.1,20558.0,8918,8876,9117,9155,46.1,46.7,46.2,50.3,2.814,2.708,2.993,2.746,4.63,235.6,22.9,64.8,1005.35,-28.51,0.22,1.34,18.3,31.6,26.3,0,no_anomaly,0.0,0,0,0,0,26.8466267,80.946232,25.9,0.0
2024-02-18T18:02:09.200Z,MISSION_0019,92,1,orbit_base,SITE_LKN_010,26.8466258,80.9462298,26.2,55.92,5.395,0.105,8.91,0.4562,1.1893,55.9153,0.88326,-0.00135,0.01103,0.46875,0.1516,0.0876,-9.8424,0.6709,-0.0526,0.2717,0.1362,3,17,0.56,0.66,0.23,24.753,19.6,93.4,30.9,20545.0,9330,9293,9143,9105,50.0,47.0,49.2,50.0,2.518,2.859,2.785,2.785,5.44,233.9,22.8,64.8,1005.18,-33.62,0.42,1.38,16.0,34.4,25.9,0,no_anomaly,0.0,0,0,0,0,26.8466258,80.9462298,26.2,0.0
2024-02-18T18:02:09.300Z,MISSION_0019,93,1,orbit_base,SITE_LKN_010,26.8466249,80.9462276,26.5,57.36,5.421,0.105,8.91,-0.1344,-3.4586,57.3642,0.87691,0.01345,-0.02704,0.4797,0.0114,-0.0213,-9.7912,0.7562,0.2592,-0.2394,0.2368,3,20,0.77,1.04,0.35,24.535,15.7,93.3,30.8,20531.0,8972,9050,8992,8852,48.2,47.5,48.4,45.1,2.744,2.854,2.849,2.928,5.19,237.0,22.8,65.4,1005.06,-28.87,-1.27,1.57,16.0,34.0,25.8,0,no_anomaly,0.0,0,0,0,0,26.8466249,80.9462276,26.5,0.0
2024-02-18T18:02:09.400Z,MISSION_0019,94,1,orbit_base,SITE_LKN_010,26.8466241,80.9462253,26.8,57.48,4.852,0.07,8.91,3.9125,-3.117,57.4836,0.87551,0.04299,-0.00742,0.48122,0.0407,-0.0783,-9.879,0.1087,0.5619,0.0489,0.1332,3,13,0.5,0.98,0.22,24.62,23.13,93.3,31.9,20518.0,8831,8927,8807,9229,48.4,46.2,52.1,43.0,2.748,2.901,2.638,2.74,5.93,226.6,23.0,66.0,1004.94,-25.07,-0.92,1.92,19.1,37.6,27.0,0,no_anomaly,0.0,0,0,0,0,26.8466241,80.9462253,26.8,0.0
2024-02-18T18:02:09.500Z,MISSION_0019,95,1,orbit_base,SITE_LKN_010,26.8466234,80.946223,27.1,57.08,5.091,0.032,8.91,-0.7008,-0.9158,57.0789,0.87847,-0.00155,-0.00994,0.4777,0.2291,-0.0202,-9.8748,0.0734,-0.0771,0.0098,0.2646,3,16,0.68,1.03,0.27,24.656,23.76,93.2,30.8,20504.0,9194,9157,8923,8828,49.7,50.2,51.3,50.6,3.029,2.83,2.524,2.923,5.69,226.6,22.8,64.8,1005.42,-29.14,1.41,1.45,17.2,35.4,25.7,0,no_anomaly,0.0,0,0,0,0,26.8466234,80.946223,27.1,0.0
2024-02-18T18:02:09.600Z,MISSION_0019,96,1,orbit_base,SITE_LKN_010,26.8466227,80.9462207,27.4,57.79,5.307,0.063,8.91,-4.5236,-3.4512,57.7916,0.875,-0.02,-0.04541,0.48158,-0.2162,0.0357,-9.785,-0.098,-0.9471,-0.0832,0.2235,3,20,0.63,0.69,0.27,24.611,16.67,93.1,31.0,20490.0,9067,9254,8978,9004,50.7,46.6,46.7,47.2,2.823,2.863,2.904,2.916,5.64,232.0,22.5,65.6,1005.08,-25.16,-0.11,1.36,19.1,34.5,22.7,0,no_anomaly,0.0,0,0,0,0,26.8466227,80.9462207,27.4,0.0
2024-02-18T18:02:09.700Z,MISSION_0019,97,1,orbit_base,SITE_LKN_010,26.8466221,80.9462184,27.7,59.59,5.366,0.04,8.91,2.9747,-4.5338,59.5942,0.86631,0.04216,-0.02143,0.49726,-0.1396,0.0456,-9.8468,0.5157,0.2247,0.2107,0.2021,3,11,0.67,0.98,0.37,24.612,23.31,93.1,31.1,20477.0,9061,8926,9256,9220,46.3,47.1,49.0,46.8,2.853,2.945,2.821,2.929,5.54,233.1,22.6,65.5,1005.16,-31.31,0.17,1.51,13.9,35.6,23.7,0,no_anomaly,0.0,0,0,0,0,26.8466221,80.9462184,27.7,0.0
2024-02-18T18:02:09.800Z,MISSION_0019,98,1,orbit_base,SITE_LKN_010,26.8466216,80.946216,28.0,56.53,5.626,0.134,8.91,1.2223,-3.3101,56.5321,0.88019,0.02307,-0.02039,0.47361,0.0978,-0.0074,-9.7971,0.1472,0.8259,0.0068,0.2063,3,10,0.67,1.04,0.22,24.545,22.13,93.0,30.0,20463.0,9061,8993,9091,9035,50.1,44.1,43.2,46.7,3.002,2.786,2.867,2.835,4.84,234.3,23.1,65.0,1005.63,-31.6,0.17,2.0,19.7,33.7,24.6,0,no_anomaly,0.0,0,0,0,0,26.8466216,80.946216,28.0,0.0
2024-02-18T18:02:09.900Z,MISSION_0019,99,1,orbit_base,SITE_LKN_010,26.8466212,80.9462137,28.3,55.77,5.719,0.139,8.91,-1.2017,-0.1779,55.7685,0.88385,-0.00854,-0.00628,0.46765,0.1129,0.0755,-9.7949,-0.6348,-0.1736,-0.3762,0.2124,3,18,0.61,0.92,0.28,24.622,28.93,93.0,31.2,20450.0,8837,9085,8941,9067,46.7,45.0,49.9,48.2,2.73,2.48,2.721,2.957,5.65,228.6,22.9,64.9,1005.39,-31.46,-0.7,1.57,20.4,32.2,27.7,0,no_anomaly,0.0,0,0,0,0,26.8466212,80.9462137,28.3,0.0
2024-02-18T18:02:10.000Z,MISSION_0019,100,1,orbit_base,SITE_LKN_010,26.8466208,80.9462113,28.6,55.13,5.931,0.133,8.91,-3.8385,-1.8947,55.1313,0.88612,-0.02204,-0.03014,0.46195,0.1875,-0.061,-9.7896,0.3213,0.9451,0.2411,0.1869,3,11,0.57,0.96,0.2,24.624,19.17,92.9,30.9,20436.0,8617,8909,9345,8931,44.0,49.5,47.5,46.5,2.858,2.803,2.593,2.783,4.83,220.4,23.1,64.9,1005.07,-29.58,0.58,1.75,17.3,32.6,22.5,0,no_anomaly,0.0,0,0,0,0,26.8466208,80.9462113,28.6,0.0
2024-02-18T18:02:10.100Z,MISSION_0019,101,1,orbit_base,SITE_LKN_010,26.8466205,80.9462089,28.9,56.28,5.759,0.11,8.91,1.7966,-0.7281,56.2777,0.88163,0.01682,0.00179,0.47163,0.1421,0.1034,-9.7831,0.746,0.3652,-0.0932,0.2085,3,19,0.74,0.6,0.2,24.636,25.74,92.8,31.0,20423.0,8898,9186,8890,9024,45.7,45.9,49.2,48.1,2.808,2.835,2.432,2.792,4.81,234.9,22.4,65.0,1005.5,-29.39,1.16,1.8,17.5,29.9,24.8,0,no_anomaly,0.0,0,0,0,0,26.8466205,80.9462089,28.9,0.0
2024-02-18T18:02:10.200Z,MISSION_0019,102,1,orbit_base,SITE_LKN_010,26.8466203,80.9462065,29.2,54.3,5.378,0.143,8.91,1.7639,-0.368,54.2975,0.88969,0.01516,0.00417,0.45629,0.0725,-0.0258,-9.7469,1.0381,-0.1799,0.1053,0.2231,3,20,0.7,0.9,0.26,24.611,18.71,92.8,31.2,20409.0,8883,9069,9218,8850,47.9,47.5,48.2,46.9,2.767,2.992,2.683,2.855,6.19,224.0,22.8,65.5,1005.11,-29.96,0.58,1.99,19.8,33.5,26.4,0,no_anomaly,0.0,0,0,0,0,26.8466203,80.9462065,29.2,0.0
2024-02-18T18:02:10.300Z,MISSION_0019,103,1,orbit_base,SITE_LKN_010,26.8466201,80.9462041,29.5,56.48,5.459,0.099,8.91,-3.2032,-1.2813,56.4758,0.88074,-0.01933,-0.02307,0.47264,0.0352,-0.083,-9.8048,0.614,-0.3603,0.0409,0.2607,3,18,0.6,0.93,0.2,24.761,17.23,92.7,30.5,20395.0,9063,8996,8712,9069,45.9,46.4,44.3,53.2,2.764,2.663,2.753,2.7,5.1,228.5,22.4,65.0,1005.31,-26.08,-1.0,1.0,14.2,35.8,22.4,0,no_anomaly,0.0,0,0,0,0,26.8466201,80.9462041,29.5,0.0
2024-02-18T18:02:10.400Z,MISSION_0019,104,1,orbit_base,SITE_LKN_010,26.84662,80.9462017,29.8,55.01,5.709,0.031,8.91,2.1166,-1.6174,55.0068,0.88662,0.0229,-0.00399,0.46191,0.0221,-0.0413,-9.8112,-0.6264,0.4315,-0.0274,0.2517,3,10,0.68,0.8,0.2,24.603,20.44,92.6,30.4,20382.0,9136,8863,9228,9019,47.1,50.2,48.4,44.8,3.197,2.745,2.72,2.681,5.25,222.8,22.6,64.8,1005.16,-29.69,0.56,1.59,16.2,36.3,26.3,0,no_anomaly,0.0,0,0,0,0,26.84662,80.9462017,29.8,0.0
2024-02-18T18:02:10.500Z,MISSION_0019,105,1,orbit_base,SITE_LKN_010,26.84662,80.9461993,30.1,55.07,6.09,0.101,8.91,-2.3734,-1.4942,55.0663,0.8866,-0.01234,-0.02113,0.46188,0.2472,-0.0051,-9.6613,0.2205,-0.4906,0.4452,0.2684,3,20,0.82,0.96,0.27,24.65,23.2,92.6,30.8,20368.0,9108,9273,8929,9371,45.9,47.6,48.8,48.0,2.559,2.854,2.852,2.72,5.58,232.8,22.7,65.4,1005.33,-29.19,0.22,1.11,19.6,38.3,25.7,0,no_anomaly,0.0,0,0,0,0,26.84662,80.9461993,30.1,0.0
2024-02-18T18:02:10.600Z,MISSION_0019,106,1,orbit_base,SITE_LKN_010,26.8466201,80.9461969,30.4,55.96,6.073,0.156,8.91,1.388,-4.207,55.9579,0.88225,0.02791,-0.02673,0.46919,-0.2092,-0.0584,-9.9117,0.1389,0.4809,-0.3926,0.2314,3,17,0.61,0.88,0.23,24.594,21.54,92.5,31.4,20355.0,9041,9181,9000,8933,48.0,49.5,45.5,47.5,2.882,2.661,2.766,2.482,5.42,223.9,22.7,64.6,1004.72,-34.08,1.65,2.16,17.6,29.0,24.3,0,no_anomaly,0.0,0,0,0,0,26.8466201,80.9461969,30.4,0.0
2024-02-18T18:02:10.700Z,MISSION_0019,107,1,orbit_base,SITE_LKN_010,26.8466202,80.9461945,30.7,54.8,6.097,0.109,8.91,1.6067,-3.0635,54.7969,0.88725,0.02474,-0.01728,0.4603,-0.12,0.0345,-9.7311,-0.0611,-1.1759,-0.0287,0.1448,3,11,0.78,0.85,0.27,24.586,24.46,92.5,30.3,20341.0,9053,8987,8817,9029,51.6,50.5,43.5,50.0,2.863,2.843,2.987,2.72,4.78,236.4,22.4,64.7,1005.36,-27.14,0.59,1.69,19.5,31.4,25.3,0,no_anomaly,0.0,0,0,0,0,26.8466202,80.9461945,30.7,0.0
2024-02-18T18:02:10.800Z,MISSION_0019,108,1,orbit_base,SITE_LKN_010,26.8466204,80.9461921,31.0,50.89,6.733,0.135,8.91,-0.5485,1.2886,50.8947,0.90289,-0.00915,0.0081,0.4297,0.0483,-0.0105,-9.8787,0.1536,-0.527,0.0869,0.1874,3,11,0.5,1.15,0.2,24.672,20.68,92.4,31.2,20328.0,8885,9093,9048,9091,47.9,48.6,47.6,45.1,2.595,2.839,3.069,2.492,4.93,227.6,22.7,64.2,1005.08,-24.31,-0.42,1.63,17.0,35.6,23.7,0,no_anomaly,0.0,0,0,0,0,26.8466204,80.9461921,31.0,0.0
2024-02-18T18:02:10.900Z,MISSION_0019,109,1,orbit_base,SITE_LKN_010,26.8466207,80.9461898,31.3,53.01,7.078,0.161,8.91,0.3338,-2.9807,53.0081,0.89456,0.01421,-0.02197,0.44618,0.0589,-0.0179,-9.8006,0.8795,0.3381,-0.5293,0.2377,3,17,0.7,0.88,0.21,24.697,21.6,92.3,31.9,20314.0,9200,9240,9129,8903,51.6,50.3,47.4,48.2,2.756,2.706,2.753,2.727,5.38,228.7,23.3,66.3,1005.45,-33.98,-2.86,1.31,18.6,38.6,30.0,0,no_anomaly,0.0,0,0,0,0,26.8466207,80.9461898,31.3,0.0
2024-02-18T18:02:11.000Z,MISSION_0019,110,1,orbit_base,SITE_LKN_010,26.846621,80.9461874,31.6,53.16,7.214,0.092,8.91,2.9492,-1.7955,53.1643,0.89371,0.03002,-0.00249,0.44764,-0.1198,-0.0632,-9.7901,0.9993,0.062,-0.3235,0.2245,3,12,0.71,0.68,0.27,24.548,24.22,92.3,30.8,20300.0,8961,8997,9114,8993,50.5,46.7,49.4,46.6,2.923,2.672,2.931,2.824,5.55,236.5,22.9,66.3,1005.44,-26.91,-1.82,1.23,16.5,30.7,23.8,0,no_anomaly,0.0,0,0,0,0,26.846621,80.9461874,31.6,0.0
2024-02-18T18:02:11.100Z,MISSION_0019,111,1,orbit_base,SITE_LKN_010,26.8466214,80.946185,31.9,52.82,7.119,0.125,8.91,-4.0429,-1.6576,52.8209,0.89521,-0.02516,-0.02864,0.44402,0.0186,-0.0052,-9.8031,-0.5295,-0.7972,0.2427,0.2113,3,18,0.69,0.96,0.26,24.64,20.43,92.2,31.3,20287.0,8936,9004,8962,9036,50.1,49.0,49.6,47.8,2.717,2.799,3.012,2.868,7.37,243.4,22.8,65.5,1005.39,-29.7,-0.31,1.58,17.5,35.5,23.0,0,no_anomaly,0.0,0,0,0,0,26.8466214,80.946185,31.9,0.0
2024-02-18T18:02:11.200Z,MISSION_0019,112,1,orbit_base,SITE_LKN_010,26.8466219,80.9461827,32.2,54.08,6.801,0.092,8.91,-2.5989,-2.9791,54.0805,0.89043,-0.00838,-0.03345,0.45382,-0.058,-0.0118,-9.8054,0.5125,0.0826,-0.4099,0.147,3,12,0.58,0.86,0.23,24.586,16.36,92.2,30.9,20273.0,8620,9069,8726,9203,47.6,48.8,47.6,47.2,2.714,2.672,2.769,3.167,4.94,227.6,22.8,65.2,1005.16,-32.02,-0.91,1.32,16.2,38.2,28.5,0,no_anomaly,0.0,0,0,0,0,26.8466219,80.9461827,32.2,0.0
2024-02-18T18:02:11.300Z,MISSION_0019,113,1,orbit_base,SITE_LKN_010,26.8466225,80.9461803,32.5,53.5,6.754,0.107,8.91,-2.0318,-0.4692,53.4969,0.89288,-0.01399,-0.01164,0.44993,0.0747,-0.036,-9.7631,0.7561,-0.1647,0.274,0.1771,3,10,0.5,0.9,0.2,24.633,24.39,92.1,30.6,20260.0,9172,9194,9098,8928,47.8,49.6,46.8,44.6,2.803,2.84,2.987,2.547,6.28,230.5,22.9,65.6,1005.29,-33.33,-0.19,1.29,15.4,36.0,21.7,0,no_anomaly,0.0,0,0,0,0,26.8466225,80.9461803,32.5,0.0
2024-02-18T18:02:11.400Z,MISSION_0019,114,1,orbit_base,SITE_LKN_010,26.8466231,80.946178,32.8,52.69,6.686,0.07,8.91,-0.8365,-1.7986,52.6941,0.89604,0.00042,-0.0173,0.44364,-0.0238,-0.0925,-9.814,-0.5627,-0.1532,-0.1602,0.2672,3,15,0.71,1.03,0.2,24.552,25.63,92.0,31.6,20246.0,9158,9247,9225,9133,45.6,49.8,46.5,45.6,2.784,2.761,2.642,2.728,6.03,231.5,23.0,64.7,1004.97,-25.42,0.09,1.4,18.1,33.4,24.2,0,no_anomaly,0.0,0,0,0,0,26.8466231,80.946178,32.8,0.0
2024-02-18T18:02:11.500Z,MISSION_0019,115,1,orbit_base,SITE_LKN_010,26.8466238,80.9461757,33.1,51.82,7.043,0.096,8.91,-0.1462,-3.4616,51.8171,0.8991,0.01205,-0.02772,0.4367,0.069,0.034,-9.7586,-0.6124,-0.0759,0.1743,0.1403,3,19,0.77,0.89,0.33,24.601,21.06,92.0,31.3,20233.0,9080,9087,8818,9061,47.4,49.1,50.2,49.4,3.002,2.617,2.885,2.682,5.77,240.7,22.6,65.1,1005.03,-28.15,0.96,1.53,15.9,32.7,22.1,0,no_anomaly,0.0,0,0,0,0,26.8466238,80.9461757,33.1,0.0
2024-02-18T18:02:11.600Z,MISSION_0019,116,1,orbit_base,SITE_LKN_010,26.8466245,80.9461734,33.4,53.74,7.215,0.071,8.91,5.7068,-2.4261,53.7355,0.89027,0.05395,0.00363,0.45221,0.0655,-0.0755,-9.7993,0.1393,0.4784,0.067,0.2214,3,16,0.69,1.2,0.3,24.609,21.28,91.9,31.3,20219.0,9112,9232,9093,9065,47.1,49.3,46.4,45.0,2.519,2.997,2.737,2.779,5.28,229.2,22.8,65.7,1005.13,-30.5,-1.52,1.27,18.1,32.3,24.3,0,no_anomaly,0.0,0,0,0,0,26.8466245,80.9461734,33.4,0.0
2024-02-18T18:02:11.700Z,MISSION_0019,117,1,orbit_base,SITE_LKN_010,26.8466254,80.9461712,33.7,51.59,6.926,0.095,8.91,-7.6949,-0.0199,51.5915,0.89833,-0.06034,-0.02936,0.43417,0.055,-0.056,-9.8205,0.435,0.0168,0.2156,0.2111,3,19,0.62,1.05,0.2,24.602,24.43,91.8,31.5,20205.0,9168,8916,9053,8932,49.3,45.9,48.8,46.1,2.706,2.532,2.793,2.795,6.14,222.3,22.8,64.3,1005.11,-34.33,0.67,1.77,17.5,30.9,26.9,0,no_anomaly,0.0,0,0,0,0,26.8466254,80.9461712,33.7,0.0
2024-02-18T18:02:11.800Z,MISSION_0019,118,1,orbit_base,SITE_LKN_010,26.8466263,80.946169,34.0,52.44,7.128,0.025,8.91,-0.1362,-3.5184,52.4354,0.89671,0.0125,-0.02807,0.44154,0.2524,0.0293,-9.8329,0.9682,-0.0646,-0.2556,0.2353,3,12,0.76,1.11,0.27,24.611,23.17,91.8,30.9,20192.0,9005,9282,8999,9099,47.5,50.3,47.5,46.0,2.732,2.725,2.762,2.713,5.9,233.7,22.8,65.8,1004.9,-28.1,-0.05,1.85,19.0,33.7,27.9,0,no_anomaly,0.0,0,0,0,0,26.8466263,80.946169,34.0,0.0
2024-02-18T18:02:11.900Z,MISSION_0019,119,1,orbit_base,SITE_LKN_010,26.8466272,80.9461668,34.3,51.33,7.269,0.006,8.91,0.8769,-0.3875,51.3318,0.90129,0.00836,0.00027,0.43313,0.0558,0.1228,-9.7948,-0.0643,0.8226,-0.1266,0.1667,3,16,0.77,0.99,0.26,24.602,23.48,91.7,31.7,20178.0,9263,9334,9246,9096,44.7,47.3,46.1,48.5,2.909,2.851,2.795,2.589,5.53,220.5,22.7,65.5,1005.04,-33.17,-0.02,1.61,19.7,30.1,26.6,0,no_anomaly,0.0,0,0,0,0,26.8466272,80.9461668,34.3,0.0
2024-02-18T18:02:12.000Z,MISSION_0019,120,1,orbit_base,SITE_LKN_010,26.8466283,80.9461646,34.6,51.43,7.347,0.207,8.91,-1.3998,-4.5379,51.434,0.90038,0.00618,-0.04096,0.43312,-0.17,-0.0433,-9.8966,0.2645,0.1577,-0.291,0.2305,3,16,0.58,0.81,0.2,24.646,21.87,91.7,30.4,20165.0,9136,9115,9042,9167,49.7,47.8,49.5,48.9,2.86,2.831,2.967,2.617,5.44,232.4,23.0,66.1,1005.06,-26.17,0.01,1.48,16.7,33.3,26.4,0,no_anomaly,0.0,0,0,0,0,26.8466283,80.9461646,34.6,0.0
2024-02-18T18:02:12.100Z,MISSION_0019,121,1,orbit_base,SITE_LKN_010,26.8466294,80.9461625,34.9,49.88,7.134,0.114,8.91,-3.3532,-2.3555,49.8767,0.90644,-0.01786,-0.03096,0.42083,-0.0705,-0.0105,-9.7934,-0.1691,-0.2269,-0.0813,0.2285,3,17,0.68,0.91,0.33,24.619,18.95,91.6,31.2,20151.0,9128,9138,8809,9000,50.9,46.9,50.1,44.3,2.857,2.666,2.69,2.818,5.97,225.3,22.5,66.1,1005.22,-33.41,-1.63,1.23,13.4,34.2,21.5,0,no_anomaly,0.0,0,0,0,0,26.8466294,80.9461625,34.9,0.0
2024-02-18T18:02:12.200Z,MISSION_0019,122,1,orbit_base,SITE_LKN_010,26.8466305,80.9461604,35.2,49.89,7.318,0.038,8.91,1.2139,-1.6951,49.8902,0.9065,0.01584,-0.00894,0.42182,0.2375,-0.0323,-9.7815,-0.029,0.2973,0.4772,0.1677,3,11,0.77,0.99,0.28,24.664,24.25,91.5,29.7,20138.0,8907,9084,9015,9030,46.9,49.1,47.3,47.5,2.779,2.46,2.663,2.886,5.24,230.1,22.7,65.1,1005.54,-27.44,-0.48,1.98,19.6,37.0,25.4,0,no_anomaly,0.0,0,0,0,0,26.8466305,80.9461604,35.2,0.0
2024-02-18T18:02:12.300Z,MISSION_0019,123,1,orbit_base,SITE_LKN_010,26.8466317,80.9461583,35.5,48.88,8.06,0.059,8.91,2.3607,-2.1408,48.878,0.90989,0.02648,-0.00848,0.41391,-0.0484,0.0198,-9.8296,0.3016,0.3234,-0.0368,0.212,3,11,0.64,0.9,0.27,24.568,17.73,91.5,32.5,20124.0,9405,9152,8690,9286,47.6,44.4,46.0,49.1,2.901,3.186,2.69,2.784,5.33,236.7,23.0,65.9,1005.1,-31.88,-0.62,1.62,20.0,36.6,24.4,0,no_anomaly,0.0,0,0,0,0,26.8466317,80.9461583,35.5,0.0
2024-02-18T18:02:12.400Z,MISSION_0019,124,2,climb_tower,SITE_LKN_010,26.8466321,80.9461628,35.8,47.87,8.652,0.133,8.62,-0.069,-3.6439,47.8731,0.91354,0.01235,-0.0293,0.4055,0.2115,-0.055,-9.8267,-0.8417,0.5176,0.3714,0.1443,3,16,0.86,0.85,0.42,24.619,23.69,91.4,30.6,20110.0,8675,8994,9020,8857,47.4,48.3,47.8,48.2,2.716,2.71,2.788,2.66,4.93,233.0,22.9,65.6,1005.14,-30.81,-0.19,1.34,16.8,32.1,24.6,0,no_anomaly,0.0,0,0,0,0,26.8466321,80.9461628,35.8,0.0
2024-02-18T18:02:12.500Z,MISSION_0019,125,2,climb_tower,SITE_LKN_010,26.8466335,80.9461567,36.1,46.01,8.262,0.021,8.83,6.2899,1.2425,46.0134,0.91925,0.04626,0.03141,0.38968,0.0156,-0.0642,-9.8096,-0.0222,1.0891,-0.1619,0.1715,3,16,0.51,0.93,0.21,24.54,19.76,91.3,31.6,20097.0,9050,9128,8999,9341,49.9,45.1,50.6,48.9,2.872,2.889,2.613,2.749,5.23,229.0,22.9,64.9,1005.06,-29.93,0.48,1.0,15.4,36.0,26.2,0,no_anomaly,0.0,0,0,0,0,26.8466335,80.9461567,36.1,0.0
2024-02-18T18:02:12.600Z,MISSION_0019,126,2,climb_tower,SITE_LKN_010,26.8466331,80.9461577,36.4,43.59,8.371,0.178,8.8,-3.0479,-4.1676,43.5919,0.92793,-0.01118,-0.04362,0.37003,0.0645,0.0389,-9.796,-1.444,-0.5037,0.3873,0.1748,3,19,0.69,1.14,0.28,24.59,21.6,91.3,31.0,20083.0,9117,9047,9090,9036,49.0,51.3,49.2,45.7,3.058,3.003,2.656,2.959,6.0,230.9,22.9,65.5,1005.11,-32.03,0.26,1.71,15.4,30.9,24.1,0,no_anomaly,0.0,0,0,0,0,26.8466331,80.9461577,36.4,0.0
2024-02-18T18:02:12.700Z,MISSION_0019,127,2,climb_tower,SITE_LKN_010,26.846637,80.9461558,36.7,43.75,8.504,0.071,8.57,-0.1363,-2.8706,43.7494,0.92772,0.00823,-0.02369,0.37243,0.1356,-0.1172,-9.8447,0.383,0.2941,-0.1716,0.1823,3,17,0.6,0.86,0.2,24.525,19.88,91.2,31.8,20070.0,9041,9071,9168,9085,47.1,46.7,50.2,48.7,2.897,2.589,2.705,2.905,5.31,226.8,22.8,65.7,1005.47,-36.06,-0.45,1.23,18.1,33.1,26.7,0,no_anomaly,0.0,0,0,0,0,26.846637,80.9461558,36.7,0.0
2024-02-18T18:02:12.800Z,MISSION_0019,128,2,climb_tower,SITE_LKN_010,26.8466389,80.9461549,37.0,42.69,8.707,0.139,8.45,-1.4578,-2.0336,42.6927,0.93126,-0.00539,-0.02116,0.36371,0.1234,-0.0069,-9.8451,0.6695,0.7735,0.0526,0.2128,3,20,0.84,1.01,0.4,24.563,20.71,91.2,31.5,20056.0,8905,9411,9043,9136,49.2,46.5,47.7,48.7,2.896,2.793,2.77,3.082,3.95,229.3,22.6,65.2,1005.41,-27.85,-0.65,1.4,18.9,30.0,26.3,0,no_anomaly,0.0,0,0,0,0,26.8466389,80.9461549,37.0,0.0
2024-02-18T18:02:12.900Z,MISSION_0019,129,2,climb_tower,SITE_LKN_010,26.8466406,80.9461529,37.3,44.2,8.353,0.138,8.45,-3.9411,-2.7989,44.2027,0.92601,-0.02267,-0.03555,0.37513,-0.0017,-0.0347,-9.8244,-0.3971,0.3527,-0.0233,0.2416,3,12,0.65,0.94,0.3,24.581,24.41,91.1,31.9,20043.0,8995,9166,8779,9145,48.5,46.0,45.5,49.1,2.81,2.653,2.604,2.715,5.11,220.8,23.1,65.0,1005.38,-30.71,1.13,1.79,19.3,37.4,28.4,0,no_anomaly,0.0,0,0,0,0,26.8466406,80.9461529,37.3,0.0
