timestamp_utc,mission_id,frame_id,waypoint_id,inspection_phase,site_id,latitude_deg,longitude_deg,altitude_m,heading_deg,ground_speed_ms,vertical_speed_ms,distance_to_tower_m,roll_deg,pitch_deg,yaw_deg,quat_w,quat_x,quat_y,quat_z,accel_x_ms2,accel_y_ms2,accel_z_ms2,gyro_x_rads,gyro_y_rads,gyro_z_rads,vibration_level,gps_fix_type,gps_satellite_count,gps_hdop,gps_vdop,position_error_m,battery_voltage_v,battery_current_a,battery_remaining_pct,battery_temp_c,battery_capacity_mah,motor_fl_rpm,motor_fr_rpm,motor_rl_rpm,motor_rr_rpm,motor_fl_temp_c,motor_fr_temp_c,motor_rl_temp_c,motor_rr_temp_c,motor_fl_thrust_n,motor_fr_thrust_n,motor_rl_thrust_n,motor_rr_thrust_n,wind_speed_ms,wind_dir_deg,air_temp_c,humidity_pct,pressure_hpa,gimbal_pitch_deg,gimbal_roll_deg,zoom_factor,ir_temp_min_c,ir_temp_max_c,ir_temp_avg_c,anomaly_detected,anomaly_class,anomaly_confidence,anomaly_bbox_x,anomaly_bbox_y,anomaly_bbox_w,anomaly_bbox_h,anomaly_gps_lat,anomaly_gps_lon,anomaly_gps_alt_m,ir_temp_delta_c
2024-09-26T09:28:00.000Z,MISSION_0009,0,0,takeoff,SITE_LKN_010,26.8466997,80.9461951,1.5,121.69,0.0,0.095,0.54,4.7867,-0.9003,121.6855,0.48648,0.0272,0.03264,0.87266,-0.4494,-0.1396,-9.8539,-1.4451,0.6086,-0.6969,0.2508,3,15,0.62,0.85,0.2,24.717,19.6,96.2,33.2,21171.0,7603,7584,7346,7567,48.9,52.9,46.6,49.5,3.074,2.745,2.965,2.756,5.8,108.0,24.8,55.5,1011.16,-33.13,1.41,1.01,21.1,35.9,28.7,0,no_anomaly,0.0,0,0,0,0,26.8466997,80.9461951,1.5,0.0
2024-09-26T09:28:00.100Z,MISSION_0009,1,0,takeoff,SITE_LKN_010,26.8467026,80.9462027,3.0,121.01,0.0,0.145,0.42,0.5854,-0.2042,121.0118,0.49232,0.00407,0.00357,0.8704,-0.3152,0.0802,-9.8573,0.2796,0.0407,-0.4698,0.2284,3,18,0.72,1.01,0.29,24.688,17.24,96.2,33.4,21156.0,7672,7565,7923,8000,51.7,49.2,49.6,49.5,2.701,2.761,2.798,2.697,6.46,111.6,25.6,56.0,1011.15,-31.7,-0.17,1.44,18.1,37.0,28.1,0,no_anomaly,0.0,0,0,0,0,26.8467026,80.9462027,3.0,0.0
2024-09-26T09:28:00.200Z,MISSION_0009,2,0,takeoff,SITE_LKN_010,26.8467028,80.9462007,4.5,119.01,0.138,0.043,0.33,3.3935,-2.0153,119.0149,0.50668,0.03017,0.01659,0.86145,-0.099,-0.0136,-9.7664,0.0077,0.9715,-0.0576,0.2144,3,12,0.87,0.82,0.43,24.683,14.75,96.1,33.0,21141.0,7629,7993,7824,7598,52.8,49.7,52.1,52.2,2.601,3.14,2.843,2.637,5.45,115.7,25.2,56.2,1011.61,-30.29,-0.02,1.58,19.3,34.8,27.8,0,no_anomaly,0.0,0,0,0,0,26.8467028,80.9462007,4.5,0.0
2024-09-26T09:28:00.300Z,MISSION_0009,3,0,takeoff,SITE_LKN_010,26.846705,80.9461989,5.0,120.95,0.282,0.037,0.57,6.2197,-0.4562,120.9529,0.49186,0.03019,0.04525,0.86897,-0.176,-0.0582,-9.8574,0.0375,-0.2299,0.051,0.2757,3,12,0.7,0.77,0.36,24.704,19.66,96.0,32.9,21125.0,7840,7383,7360,7582,49.4,49.3,48.2,48.9,2.974,3.039,2.682,2.667,6.0,103.1,25.3,56.9,1011.28,-32.96,0.14,1.64,21.8,33.2,26.3,0,no_anomaly,0.0,0,0,0,0,26.846705,80.9461989,5.0,0.0
2024-09-26T09:28:00.400Z,MISSION_0009,4,0,takeoff,SITE_LKN_010,26.8467038,80.9461937,5.0,120.27,0.742,0.145,0.81,3.8613,-1.288,120.2712,0.49731,0.02652,0.02362,0.86685,-0.1465,0.0321,-9.7946,0.4228,0.1798,-0.3843,0.2664,3,20,0.68,0.97,0.2,24.761,18.7,96.0,32.4,21110.0,7903,7662,7810,7667,49.9,47.3,51.3,48.0,2.728,2.847,2.808,2.922,5.44,118.7,25.0,55.9,1011.12,-30.34,0.41,1.61,21.6,35.9,27.1,0,no_anomaly,0.0,0,0,0,0,26.8467038,80.9461937,5.0,0.0
2024-09-26T09:28:00.500Z,MISSION_0009,5,0,takeoff,SITE_LKN_010,26.8467049,80.9461928,5.0,122.07,1.478,0.004,0.97,-0.9692,-2.0748,122.0711,0.4843,0.01174,-0.01617,0.87467,-0.1337,-0.0314,-9.8218,-0.6257,0.4591,-0.3301,0.2051,3,11,0.74,0.78,0.38,24.777,19.81,95.9,33.2,21095.0,7676,7720,7757,7496,52.8,51.1,52.1,48.9,2.948,2.824,2.861,3.057,6.47,99.6,25.1,56.7,1011.34,-29.84,-1.16,1.37,19.1,33.0,27.5,0,no_anomaly,0.0,0,0,0,0,26.8467049,80.9461928,5.0,0.0
2024-09-26T09:28:00.600Z,MISSION_0009,6,0,takeoff,SITE_LKN_010,26.846706,80.9461905,5.0,126.19,2.336,0.101,1.25,0.1386,-1.1088,126.1893,0.45249,0.00918,-0.0033,0.89172,0.2005,0.0014,-9.8413,-0.8905,-0.3754,-0.0137,0.2066,3,12,0.72,0.7,0.23,24.686,20.47,95.8,33.4,21079.0,7988,7951,7805,7704,49.5,50.6,53.9,51.5,2.561,2.815,2.919,2.643,4.98,118.9,25.0,56.1,1011.26,-26.9,0.16,1.55,22.3,34.4,31.4,0,no_anomaly,0.0,0,0,0,0,26.846706,80.9461905,5.0,0.0
2024-09-26T09:28:00.700Z,MISSION_0009,7,0,takeoff,SITE_LKN_010,26.8467067,80.9461888,5.0,125.86,2.015,0.045,1.46,-7.0778,-3.6033,125.8589,0.45572,-0.00014,-0.06922,0.88743,0.1033,-0.0044,-9.7936,-0.4191,-0.3395,-0.3393,0.1132,3,12,0.67,1.07,0.2,24.678,21.85,95.7,34.2,21064.0,7614,7739,7750,7652,51.5,50.0,49.3,48.2,2.686,2.639,2.665,2.929,5.53,111.9,25.2,55.9,1011.44,-35.57,-1.41,1.77,19.8,38.7,26.7,0,no_anomaly,0.0,0,0,0,0,26.8467067,80.9461888,5.0,0.0
2024-09-26T09:28:00.800Z,MISSION_0009,8,0,takeoff,SITE_LKN_010,26.8467067,80.9461864,5.0,126.23,1.96,0.078,1.69,-1.0583,-1.1886,126.2271,0.45227,0.00507,-0.01293,0.89178,-0.1083,-0.0134,-9.8362,-0.1747,-0.307,-0.0712,0.1567,3,14,0.73,0.88,0.25,24.756,17.71,95.7,33.3,21049.0,7706,7523,7587,7575,52.4,48.3,53.5,54.9,2.692,3.03,2.904,2.403,6.08,110.4,25.3,56.1,1010.95,-32.45,0.48,1.96,24.8,40.6,34.0,0,no_anomaly,0.0,0,0,0,0,26.8467067,80.9461864,5.0,0.0
2024-09-26T09:28:00.900Z,MISSION_0009,9,0,takeoff,SITE_LKN_010,26.8467066,80.9461928,5.0,126.68,2.325,0.034,1.08,-0.303,-4.5964,126.6785,0.44844,0.03465,-0.02035,0.89291,0.2744,0.0291,-9.7401,0.8809,-0.0876,-0.0188,0.1193,3,18,0.69,0.92,0.34,24.685,21.7,95.6,32.0,21033.0,7860,7431,7561,7834,51.7,48.3,55.1,47.0,2.762,2.887,2.698,2.837,5.54,110.3,25.0,55.8,1011.2,-26.41,-0.02,1.66,19.3,37.3,30.7,0,no_anomaly,0.0,0,0,0,0,26.8467066,80.9461928,5.0,0.0
2024-09-26T09:28:01.000Z,MISSION_0009,10,0,takeoff,SITE_LKN_010,26.8467092,80.9461985,5.0,127.83,2.637,0.082,1.04,-6.0202,-4.4431,127.8259,0.44063,0.01169,-0.06415,0.89532,-0.4294,0.0785,-9.8121,0.4116,-0.0401,-0.4441,0.2705,3,16,0.73,0.79,0.32,24.594,22.32,95.5,33.5,21018.0,7379,7638,7704,7706,50.6,47.0,53.3,49.6,2.867,2.836,2.842,2.727,5.43,109.9,25.2,54.8,1011.47,-32.14,-1.02,1.38,20.1,34.8,28.8,0,no_anomaly,0.0,0,0,0,0,26.8467092,80.9461985,5.0,0.0
2024-09-26T09:28:01.100Z,MISSION_0009,11,0,takeoff,SITE_LKN_010,26.8467072,80.9461934,5.0,128.79,2.299,0.086,1.09,-4.8586,-1.9773,128.7943,0.43234,-0.00277,-0.04567,0.90055,-0.2526,0.0204,-9.7927,-0.0628,-0.6098,-0.1068,0.1371,3,14,0.61,0.78,0.25,24.702,18.35,95.5,32.7,21003.0,7577,7694,7645,7831,51.6,47.3,50.3,49.3,2.715,2.652,2.84,3.022,6.14,109.1,25.0,56.6,1011.09,-25.74,0.96,1.46,19.6,31.6,28.0,0,no_anomaly,0.0,0,0,0,0,26.8467072,80.9461934,5.0,0.0
2024-09-26T09:28:01.200Z,MISSION_0009,12,0,takeoff,SITE_LKN_010,26.8467078,80.9461916,5.0,128.32,2.281,0.067,1.27,1.4836,-1.5114,128.3194,0.43564,0.01751,0.0059,0.89993,0.1419,-0.0653,-9.7877,0.7604,0.1144,-0.2869,0.2849,3,14,0.62,0.86,0.21,24.628,24.24,95.4,33.4,20987.0,7657,7400,7666,7587,49.5,53.7,52.3,52.1,2.739,2.937,2.918,2.735,6.11,115.5,25.1,56.4,1011.53,-27.65,0.95,1.61,18.4,31.0,24.4,0,no_anomaly,0.0,0,0,0,0,26.8467078,80.9461916,5.0,0.0
2024-09-26T09:28:01.300Z,MISSION_0009,13,0,takeoff,SITE_LKN_010,26.8467093,80.9461879,5.0,128.81,2.531,0.113,1.69,0.1634,-6.306,128.8057,0.43132,0.05022,-0.02248,0.90052,-0.053,-0.026,-9.8679,-0.0488,0.6214,-0.0682,0.2756,3,16,0.64,0.72,0.2,24.725,18.3,95.3,33.8,20972.0,7741,7722,7731,7544,49.0,50.4,51.7,49.2,2.655,2.682,2.971,2.908,5.55,107.1,25.5,56.5,1011.52,-29.29,-0.35,1.52,20.4,36.7,27.8,0,no_anomaly,0.0,0,0,0,0,26.8467093,80.9461879,5.0,0.0
2024-09-26T09:28:01.400Z,MISSION_0009,14,0,takeoff,SITE_LKN_010,26.8467081,80.9461883,5.0,128.07,2.393,0.111,1.58,-0.8894,-3.7405,128.0738,0.43777,0.02595,-0.02126,0.89846,0.0254,-0.007,-9.7964,-0.2103,0.2499,-0.0862,0.2565,3,16,0.73,0.77,0.22,24.657,22.26,95.3,32.7,20957.0,7905,7776,7736,7507,49.2,52.3,51.1,47.4,2.883,2.987,3.003,2.776,5.18,121.2,25.4,55.9,1011.22,-32.75,0.41,1.11,21.8,33.9,30.4,0,no_anomaly,0.0,0,0,0,0,26.8467081,80.9461883,5.0,0.0
2024-09-26T09:28:01.500Z,MISSION_0009,15,0,takeoff,SITE_LKN_010,26.8467012,80.946191,5.0,127.13,2.701,0.113,1.02,-3.249,-2.5017,127.132,0.44544,0.00692,-0.03509,0.8946,0.0601,0.0535,-9.8453,-0.772,0.5614,0.3309,0.1521,3,10,0.67,0.82,0.22,24.721,16.81,95.2,32.6,20941.0,7611,7464,7901,7854,48.3,51.0,48.7,49.8,2.765,2.7,2.646,2.751,5.36,120.8,24.7,56.8,1010.98,-32.95,1.07,1.33,16.0,31.8,25.5,0,no_anomaly,0.0,0,0,0,0,26.8467012,80.946191,5.0,0.0
2024-09-26T09:28:01.600Z,MISSION_0009,16,0,takeoff,SITE_LKN_010,26.8467046,80.9461934,5.0,125.92,2.806,0.078,0.9,-4.8234,-1.3169,125.9188,0.45462,-0.0089,-0.0427,0.88962,0.1283,-0.0243,-9.8168,-0.5202,-0.058,0.1928,0.2729,3,16,0.59,0.79,0.35,24.679,19.37,95.1,33.3,20926.0,7671,7896,7591,7421,49.6,50.2,51.2,52.8,2.946,2.753,2.872,2.756,5.52,110.4,25.4,55.6,1011.45,-28.99,0.16,1.68,16.2,35.0,24.6,0,no_anomaly,0.0,0,0,0,0,26.8467046,80.9461934,5.0,0.0
2024-09-26T09:28:01.700Z,MISSION_0009,17,0,takeoff,SITE_LKN_010,26.846701,80.9461951,5.0,126.18,2.523,0.18,0.56,3.8566,-1.36,126.1833,0.45192,0.0258,0.02464,0.89134,-0.1342,-0.0658,-9.8484,-0.1375,-0.2308,0.4505,0.2174,3,12,0.7,0.81,0.2,24.649,14.61,95.0,33.2,20911.0,7587,7574,7623,7922,51.9,49.3,50.6,52.1,2.683,2.784,2.791,2.785,5.55,109.7,25.1,57.2,1011.13,-25.21,-0.0,1.61,22.7,30.6,25.5,0,no_anomaly,0.0,0,0,0,0,26.846701,80.9461951,5.0,0.0
2024-09-26T09:28:01.800Z,MISSION_0009,18,0,takeoff,SITE_LKN_010,26.8467046,80.9462017,5.0,126.73,2.124,0.151,0.55,6.6102,-1.4633,126.7341,0.44683,0.03724,0.04582,0.89267,0.0563,-0.0909,-9.7729,0.2941,1.376,-0.242,0.1827,3,13,0.73,0.83,0.2,24.667,20.04,95.0,33.4,20896.0,7875,7663,7743,7802,50.0,48.8,52.1,50.6,3.06,2.515,2.869,2.815,5.8,106.3,24.8,57.0,1011.29,-32.05,-0.04,1.19,20.1,37.2,30.3,0,no_anomaly,0.0,0,0,0,0,26.8467046,80.9462017,5.0,0.0
2024-09-26T09:28:01.900Z,MISSION_0009,19,0,takeoff,SITE_LKN_010,26.8467001,80.9462009,5.0,127.84,2.224,0.148,0.1,-0.7772,-1.8613,127.8395,0.43966,0.01161,-0.01323,0.89799,0.2221,-0.0243,-9.9145,0.1547,0.0145,0.7065,0.2913,3,15,0.78,0.65,0.4,24.727,21.78,94.9,33.4,20880.0,7876,7492,7680,7695,48.3,49.0,46.2,52.6,2.816,2.628,2.901,2.792,5.98,111.0,25.0,56.1,1011.26,-31.58,0.15,1.64,23.6,32.4,28.1,0,no_anomaly,0.0,0,0,0,0,26.8467001,80.9462009,5.0,0.0
2024-09-26T09:28:02.000Z,MISSION_0009,20,0,takeoff,SITE_LKN_010,26.846701,80.9462005,5.0,127.37,2.291,0.099,0.13,0.4499,-1.0159,127.3667,0.44328,0.00969,-0.00041,0.89633,-0.0101,-0.1073,-9.7849,0.3189,-0.4172,-0.007,0.2574,3,20,0.65,0.87,0.21,24.669,17.43,94.8,33.4,20865.0,7960,7851,7516,7722,49.0,50.5,49.3,50.5,2.69,2.799,2.929,3.042,5.83,118.3,25.2,56.8,1010.94,-30.48,0.47,1.6,19.9,32.0,25.6,0,no_anomaly,0.0,0,0,0,0,26.846701,80.9462005,5.0,0.0
2024-09-26T09:28:02.100Z,MISSION_0009,21,0,takeoff,SITE_LKN_010,26.8466986,80.9461986,5.0,126.41,2.335,0.111,0.22,0.6198,-2.7705,126.4079,0.45056,0.02402,-0.00607,0.8924,-0.0645,0.1073,-9.761,-0.2805,0.0477,-0.1509,0.2172,3,15,0.69,1.0,0.34,24.618,18.46,94.8,32.3,20850.0,7851,7631,7667,7150,51.1,51.4,50.0,46.2,2.549,2.888,2.699,2.777,6.16,115.6,24.8,55.6,1010.8,-25.85,-1.73,1.49,18.5,36.9,29.7,0,no_anomaly,0.0,0,0,0,0,26.8466986,80.9461986,5.0,0.0
2024-09-26T09:28:02.200Z,MISSION_0009,22,0,takeoff,SITE_LKN_010,26.8466977,80.9461955,5.0,126.18,2.471,0.037,0.56,-5.4558,-2.4279,126.177,0.4529,-0.00267,-0.05201,0.89004,0.2592,-0.0236,-9.7581,-0.6077,0.116,-0.0989,0.2777,3,11,0.59,1.08,0.21,24.573,19.81,94.7,32.8,20834.0,7596,7464,7625,7668,48.5,49.1,53.6,50.5,2.985,3.105,2.627,2.87,5.43,110.8,25.3,56.4,1011.24,-30.16,1.11,1.68,22.6,33.7,29.7,0,no_anomaly,0.0,0,0,0,0,26.8466977,80.9461955,5.0,0.0
2024-09-26T09:28:02.300Z,MISSION_0009,23,0,takeoff,SITE_LKN_010,26.8466986,80.9461978,5.0,127.08,2.862,0.046,0.29,5.1808,-5.5499,127.0782,0.44265,0.06341,0.01886,0.89425,-0.1412,0.0047,-9.7989,0.1292,-1.1854,-0.3474,0.1287,3,18,0.73,0.72,0.2,24.684,21.1,94.6,33.1,20819.0,7786,7708,7830,7700,47.9,52.4,50.4,50.7,2.901,2.957,2.727,2.77,6.71,114.6,25.4,56.0,1011.53,-32.88,1.45,1.54,17.9,31.4,27.0,0,no_anomaly,0.0,0,0,0,0,26.8466986,80.9461978,5.0,0.0
2024-09-26T09:28:02.400Z,MISSION_0009,24,0,takeoff,SITE_LKN_010,26.846698,80.9461927,5.0,124.45,2.677,0.096,0.85,-2.7204,-4.2976,124.4451,0.46637,0.02211,-0.03846,0.88348,-0.1121,-0.0234,-9.8932,-0.1595,0.3715,0.0251,0.1435,3,18,0.61,0.69,0.21,24.621,22.12,94.6,33.4,20804.0,7830,7615,7840,7542,51.0,51.6,49.2,50.4,2.815,2.861,2.813,2.807,5.86,110.8,24.9,54.7,1010.9,-25.87,1.67,1.67,23.4,31.9,28.7,0,no_anomaly,0.0,0,0,0,0,26.846698,80.9461927,5.0,0.0
2024-09-26T09:28:02.500Z,MISSION_0009,25,0,takeoff,SITE_LKN_010,26.8466959,80.9461901,5.0,125.75,3.084,0.088,1.19,1.3106,-0.4215,125.7489,0.45587,0.00849,0.0085,0.88996,-0.1091,0.0052,-9.7589,-0.042,-0.6846,-0.2666,0.1792,3,18,0.72,0.83,0.27,24.57,22.38,94.5,33.1,20788.0,7971,7829,7459,7830,50.0,48.4,48.2,48.1,2.524,2.922,3.095,2.77,5.71,106.1,24.8,57.1,1011.36,-26.69,-1.08,1.31,20.8,37.9,30.5,0,no_anomaly,0.0,0,0,0,0,26.8466959,80.9461901,5.0,0.0
2024-09-26T09:28:02.600Z,MISSION_0009,26,0,takeoff,SITE_LKN_010,26.8466918,80.9461924,5.0,124.09,3.128,0.087,1.24,1.5547,-0.6693,124.0885,0.46867,0.01152,0.00925,0.88325,-0.0761,-0.0193,-9.8405,-0.4189,-0.1587,-0.0762,0.1848,3,20,0.68,0.86,0.29,24.634,20.25,94.4,33.3,20773.0,7826,7783,7727,7895,49.8,52.8,49.9,50.7,2.793,2.814,2.993,2.886,6.36,114.1,25.4,56.1,1011.35,-33.98,0.64,1.93,16.4,38.1,24.0,0,no_anomaly,0.0,0,0,0,0,26.8466918,80.9461924,5.0,0.0
2024-09-26T09:28:02.700Z,MISSION_0009,27,0,takeoff,SITE_LKN_010,26.8466904,80.9461909,5.0,124.55,2.762,0.081,1.48,0.4603,-2.094,124.5474,0.4651,0.01804,-0.00495,0.88506,-0.2305,0.0755,-9.8619,-1.0049,-0.4309,0.1148,0.1524,3,15,0.67,0.96,0.36,24.644,14.46,94.4,33.4,20758.0,7628,7647,7906,7523,50.5,51.8,49.1,51.8,2.808,2.86,2.793,3.003,5.31,118.9,25.2,56.8,1010.9,-27.97,-0.87,1.83,20.0,37.5,28.1,0,no_anomaly,0.0,0,0,0,0,26.8466904,80.9461909,5.0,0.0
2024-09-26T09:28:02.800Z,MISSION_0009,28,0,takeoff,SITE_LKN_010,26.8466891,80.9461895,5.0,123.67,2.972,0.146,1.69,8.1406,-2.736,123.6652,0.46923,0.05449,0.05132,0.8799,-0.0743,0.0669,-9.8091,-0.0083,-0.0354,0.2105,0.1678,3,19,0.61,0.97,0.2,24.623,19.52,94.3,33.7,20742.0,7590,7740,7700,7660,52.0,51.6,52.3,49.6,2.708,2.674,2.841,2.82,6.48,107.1,24.9,55.4,1011.29,-28.19,-1.09,1.33,21.9,40.8,28.6,0,no_anomaly,0.0,0,0,0,0,26.8466891,80.9461895,5.0,0.0
2024-09-26T09:28:02.900Z,MISSION_0009,29,0,takeoff,SITE_LKN_010,26.8466918,80.9461927,5.0,122.35,3.004,0.1,1.22,-2.2898,-4.8713,122.3542,0.48232,0.0276,-0.03797,0.87474,0.2154,-0.0003,-9.8803,-0.4873,-0.7553,0.1755,0.2269,3,13,0.7,0.65,0.36,24.57,13.27,94.2,32.2,20727.0,7705,7471,7669,7630,50.0,50.0,49.6,49.0,2.734,2.794,2.673,2.648,5.9,127.5,25.4,55.7,1011.21,-28.62,0.5,1.61,21.7,31.2,26.9,0,no_anomaly,0.0,0,0,0,0,26.8466918,80.9461927,5.0,0.0
2024-09-26T09:28:03.000Z,MISSION_0009,30,0,takeoff,SITE_LKN_010,26.8466955,80.9461942,5.0,122.42,2.793,0.097,0.82,3.145,-0.4958,122.4223,0.48129,0.01701,0.02197,0.87612,0.0704,-0.0069,-9.6988,0.3655,-1.1058,0.165,0.1894,3,11,0.81,0.98,0.32,24.587,22.1,94.1,33.5,20712.0,7863,7692,7848,7865,51.9,46.4,52.6,50.4,2.64,2.742,2.923,2.952,5.59,101.6,25.2,55.9,1011.51,-35.68,-0.33,1.41,24.5,35.4,28.7,0,no_anomaly,0.0,0,0,0,0,26.8466955,80.9461942,5.0,0.0
2024-09-26T09:28:03.100Z,MISSION_0009,31,0,takeoff,SITE_LKN_010,26.846698,80.9461962,5.0,121.09,3.034,0.191,0.48,5.3362,-1.8609,121.0947,0.49045,0.03701,0.03255,0.87008,0.0718,0.0057,-9.8282,-0.0966,0.2184,0.1006,0.1963,3,18,0.66,0.84,0.26,24.66,17.64,94.1,33.2,20696.0,7760,7893,7723,7924,50.2,48.5,55.4,51.8,2.762,2.757,3.064,3.06,6.32,113.2,24.9,55.8,1011.22,-30.38,0.1,1.66,21.6,33.0,29.7,0,no_anomaly,0.0,0,0,0,0,26.846698,80.9461962,5.0,0.0
2024-09-26T09:28:03.200Z,MISSION_0009,32,0,takeoff,SITE_LKN_010,26.8466994,80.9461974,5.0,121.45,3.01,0.052,0.3,-3.7342,-4.0217,121.4549,0.4894,0.01467,-0.04555,0.87074,-0.1086,0.0683,-9.8279,0.1135,0.0722,-0.0842,0.0954,3,15,0.77,0.68,0.38,24.625,16.7,94.0,33.9,20681.0,7822,7850,7567,7859,49.8,48.9,52.6,51.2,2.774,2.987,2.953,2.664,6.4,103.1,25.2,55.5,1011.42,-30.27,0.43,1.8,24.3,35.7,31.5,0,no_anomaly,0.0,0,0,0,0,26.8466994,80.9461974,5.0,0.0
2024-09-26T09:28:03.300Z,MISSION_0009,33,0,takeoff,SITE_LKN_010,26.8466984,80.9462034,5.0,119.32,3.118,0.164,0.41,2.2677,-1.7175,119.3185,0.50473,0.02293,0.00951,0.86292,-0.0615,-0.026,-9.8305,0.0894,-1.0371,0.057,0.2568,3,16,0.73,0.76,0.41,24.594,21.55,93.9,32.5,20666.0,7617,7322,7877,7501,49.9,52.9,47.6,47.1,2.884,2.786,2.753,2.83,5.86,111.2,25.1,56.1,1011.28,-27.53,0.11,1.51,19.0,38.0,30.5,0,no_anomaly,0.0,0,0,0,0,26.8466984,80.9462034,5.0,0.0
2024-09-26T09:28:03.400Z,MISSION_0009,34,0,takeoff,SITE_LKN_010,26.8466898,80.9462092,5.0,122.01,3.241,0.08,1.52,0.3625,-2.2348,122.0057,0.48462,0.01859,-0.00669,0.8745,-0.2237,0.0232,-9.8039,0.3114,0.5968,0.3003,0.2911,3,14,0.87,0.72,0.41,24.612,21.57,93.9,33.4,20651.0,7642,7429,7801,7704,52.2,51.0,46.5,49.0,2.717,2.632,2.839,2.743,6.36,114.2,24.8,55.7,1011.01,-27.77,-1.2,1.7,19.0,36.1,29.3,0,no_anomaly,0.0,0,0,0,0,26.8466898,80.9462092,5.0,0.0
2024-09-26T09:28:03.500Z,MISSION_0009,35,0,takeoff,SITE_LKN_010,26.8466843,80.9462091,5.0,122.09,3.083,0.027,2.02,3.1724,-4.1744,122.0856,0.48277,0.04525,0.00658,0.87455,-0.0352,0.0437,-9.7874,0.0627,0.5429,-0.2272,0.1688,3,12,0.61,0.74,0.2,24.643,16.77,93.8,34.0,20635.0,7508,7630,7840,7560,46.8,52.0,49.0,48.6,2.828,2.688,2.961,2.841,4.84,119.0,24.8,55.8,1011.39,-32.49,-0.84,1.73,22.1,39.2,26.6,0,no_anomaly,0.0,0,0,0,0,26.8466843,80.9462091,5.0,0.0
2024-09-26T09:28:03.600Z,MISSION_0009,36,0,takeoff,SITE_LKN_010,26.8466848,80.9462121,5.0,123.2,2.965,0.061,2.17,9.281,-0.7093,123.1985,0.47363,0.04391,0.06823,0.87698,0.0471,-0.0177,-9.8684,0.9976,0.7852,-0.147,0.1151,3,20,0.83,0.9,0.27,24.639,17.59,93.7,32.5,20620.0,7807,7796,7680,7407,49.1,49.7,48.0,47.7,2.862,2.777,3.028,2.903,6.14,109.6,24.8,55.7,1011.34,-29.92,-0.03,1.62,17.4,39.0,24.8,0,no_anomaly,0.0,0,0,0,0,26.8466848,80.9462121,5.0,0.0
2024-09-26T09:28:03.700Z,MISSION_0009,37,0,takeoff,SITE_LKN_010,26.846689,80.9462126,5.0,123.47,2.85,0.156,1.86,-1.6303,-3.5928,123.4731,0.47364,0.02087,-0.02737,0.88005,0.1232,-0.0839,-9.9535,-0.1092,0.4544,0.0505,0.2912,3,16,0.5,0.81,0.2,24.685,20.92,93.7,34.2,20605.0,7677,7565,7663,7604,49.9,53.1,49.9,51.8,2.871,2.889,2.99,2.745,5.88,120.5,24.9,56.5,1011.51,-27.87,1.19,1.78,15.2,29.0,27.0,0,no_anomaly,0.0,0,0,0,0,26.846689,80.9462126,5.0,0.0
2024-09-26T09:28:03.800Z,MISSION_0009,38,0,takeoff,SITE_LKN_010,26.8466881,80.9462144,5.0,124.43,2.658,0.121,2.08,1.1158,-3.6872,124.4326,0.46559,0.033,-0.00639,0.88436,0.1641,-0.0282,-9.8458,-0.0849,-0.7849,-0.1608,0.2993,3,13,0.81,0.96,0.29,24.594,23.86,93.6,33.2,20589.0,7410,7716,8013,7784,51.5,51.7,51.0,48.3,2.78,2.798,3.009,2.56,5.8,105.7,25.2,57.1,1011.21,-34.67,-0.91,2.14,21.6,40.2,26.3,0,no_anomaly,0.0,0,0,0,0,26.8466881,80.9462144,5.0,0.0
2024-09-26T09:28:03.900Z,MISSION_0009,39,0,takeoff,SITE_LKN_010,26.8466897,80.9462139,5.0,125.89,2.178,0.008,1.92,-1.4963,-1.6556,125.8888,0.45494,0.00693,-0.0182,0.89031,0.1929,0.022,-9.8304,-0.0025,1.5709,0.1965,0.2203,3,10,0.6,1.0,0.36,24.639,20.62,93.5,33.5,20574.0,7536,7515,7603,7526,48.1,51.0,48.7,48.7,2.656,2.968,2.933,2.789,5.85,114.9,25.1,56.6,1011.26,-29.13,0.59,1.28,19.6,30.1,26.4,0,no_anomaly,0.0,0,0,0,0,26.8466897,80.9462139,5.0,0.0
2024-09-26T09:28:04.000Z,MISSION_0009,40,0,takeoff,SITE_LKN_010,26.846688,80.9462112,5.0,125.32,2.509,0.065,1.83,1.107,-1.0872,125.3178,0.45916,0.01286,0.00422,0.88825,-0.0715,-0.0352,-9.8371,0.9035,-0.712,0.6876,0.218,3,17,0.72,0.6,0.27,24.62,20.04,93.4,34.1,20559.0,7910,7753,7669,7851,47.5,50.5,51.3,47.5,2.666,2.934,2.819,2.996,5.63,109.6,25.2,56.1,1011.57,-30.88,-0.7,1.51,16.9,37.9,26.5,0,no_anomaly,0.0,0,0,0,0,26.846688,80.9462112,5.0,0.0
2024-09-26T09:28:04.100Z,MISSION_0009,41,0,takeoff,SITE_LKN_010,26.8466908,80.9462163,5.0,122.34,2.384,0.075,2.09,-1.8662,-1.402,122.3357,0.48232,0.00286,-0.02016,0.87576,0.3148,-0.0279,-9.7653,-0.3593,0.5586,0.1398,0.166,3,20,0.93,0.93,0.36,24.681,22.4,93.4,32.6,20543.0,7653,7645,7831,7587,51.6,50.0,45.9,49.5,2.996,2.804,3.102,2.735,6.53,126.3,25.1,55.9,1011.5,-33.21,1.63,1.49,22.2,30.7,27.4,0,no_anomaly,0.0,0,0,0,0,26.8466908,80.9462163,5.0,0.0
2024-09-26T09:28:04.200Z,MISSION_0009,42,0,takeoff,SITE_LKN_010,26.846691,80.9462211,5.0,124.32,1.901,0.084,2.56,2.184,-1.8236,124.3182,0.46661,0.02297,0.00942,0.88412,-0.0978,0.0538,-9.9052,-0.4971,-0.9071,0.1068,0.2518,3,18,0.78,0.81,0.34,24.642,20.11,93.3,33.2,20528.0,7887,7793,7965,7704,47.1,49.4,53.8,50.2,2.64,2.506,2.63,2.916,5.61,103.1,25.2,55.7,1011.22,-34.5,0.52,2.19,22.7,35.7,28.1,0,no_anomaly,0.0,0,0,0,0,26.846691,80.9462211,5.0,0.0
2024-09-26T09:28:04.300Z,MISSION_0009,43,0,takeoff,SITE_LKN_010,26.8466897,80.946217,5.0,125.25,2.252,0.089,2.22,1.6036,-2.3945,125.2493,0.45941,0.02499,0.00282,0.88787,0.2606,-0.0311,-9.8001,-0.4923,-0.4292,0.006,0.2165,3,20,0.72,0.78,0.29,24.598,16.91,93.2,32.8,20513.0,7664,7680,7698,7777,53.2,50.3,51.5,51.4,2.798,2.606,2.861,2.653,5.56,113.0,25.3,56.1,1011.15,-25.3,-1.5,1.75,20.8,38.6,27.1,0,no_anomaly,0.0,0,0,0,0,26.8466897,80.946217,5.0,0.0
2024-09-26T09:28:04.400Z,MISSION_0009,44,0,takeoff,SITE_LKN_010,26.8466866,80.9462146,5.0,125.51,2.509,0.047,2.2,3.4651,-1.4759,125.5118,0.45719,0.02528,0.02098,0.88876,0.0219,0.0345,-9.8938,-0.3188,-0.0467,0.0063,0.2233,3,16,0.78,1.01,0.37,24.628,22.19,93.2,33.5,20497.0,7675,7648,7781,7703,51.3,52.5,51.2,46.8,2.789,2.771,2.742,2.579,5.62,109.0,25.0,55.8,1011.33,-25.63,-0.72,1.73,20.1,33.4,29.5,0,no_anomaly,0.0,0,0,0,0,26.8466866,80.9462146,5.0,0.0
2024-09-26T09:28:04.500Z,MISSION_0009,45,0,takeoff,SITE_LKN_010,26.8466851,80.9462088,5.0,126.01,2.595,0.067,1.92,-1.5164,-0.6076,126.0077,0.45395,-0.00128,-0.0142,0.89091,-0.0304,0.0662,-9.6988,0.0047,-0.1003,0.056,0.1949,3,13,0.83,1.11,0.3,24.625,13.27,93.1,32.8,20482.0,7602,7575,7622,7791,50.1,45.6,50.9,47.7,2.652,2.819,2.87,2.829,5.45,109.7,25.1,56.1,1011.46,-32.24,-1.51,1.24,21.3,31.7,27.7,0,no_anomaly,0.0,0,0,0,0,26.8466851,80.9462088,5.0,0.0
2024-09-26T09:28:04.600Z,MISSION_0009,46,0,takeoff,SITE_LKN_010,26.8466859,80.946215,5.0,123.67,3.293,0.168,2.29,-0.8413,-1.2108,123.6671,0.47206,0.00585,-0.01146,0.88147,-0.2206,0.0325,-9.799,0.0724,0.3086,0.0882,0.1639,3,20,0.69,0.6,0.2,24.6,15.5,93.0,33.8,20467.0,7809,7979,7718,7629,55.5,51.5,51.7,48.6,2.678,2.948,3.007,2.792,5.57,110.8,25.1,56.6,1011.42,-25.44,2.2,1.3,18.3,32.0,26.1,0,no_anomaly,0.0,0,0,0,0,26.8466859,80.946215,5.0,0.0
2024-09-26T09:28:04.700Z,MISSION_0009,47,0,takeoff,SITE_LKN_010,26.8466884,80.9462142,5.0,124.65,3.568,0.108,2.04,-2.9193,-1.3072,124.6511,0.46452,-0.00173,-0.02785,0.88512,0.0533,-0.0659,-9.8083,-0.7754,-0.4999,0.0133,0.2374,3,13,0.63,0.91,0.27,24.555,23.61,93.0,31.9,20451.0,7492,7708,7871,7668,50.1,49.5,47.0,47.6,2.655,2.859,2.72,2.647,6.48,117.8,25.2,56.3,1011.02,-35.59,0.33,1.91,21.1,32.9,28.6,0,no_anomaly,0.0,0,0,0,0,26.8466884,80.9462142,5.0,0.0
2024-09-26T09:28:04.800Z,MISSION_0009,48,0,takeoff,SITE_LKN_010,26.8466909,80.9462163,5.0,123.75,3.565,0.107,2.08,-6.981,-3.3198,123.7545,0.47185,-0.00319,-0.0673,0.8791,0.0417,0.0229,-9.8177,0.1179,0.1447,-0.6786,0.185,3,17,0.71,0.74,0.2,24.58,21.69,92.9,33.6,20436.0,7657,7548,7644,7578,52.9,48.6,53.4,47.9,2.378,2.586,2.729,3.188,5.75,117.0,25.1,56.5,1011.24,-29.54,-0.6,2.05,22.9,33.2,26.3,0,no_anomaly,0.0,0,0,0,0,26.8466909,80.9462163,5.0,0.0
2024-09-26T09:28:04.900Z,MISSION_0009,49,0,takeoff,SITE_LKN_010,26.8466902,80.9462109,5.0,121.34,3.645,0.06,1.64,3.228,-1.5102,121.3387,0.48929,0.02528,0.0181,0.87157,0.0714,0.0717,-9.777,0.4939,-0.5943,0.0007,0.178,3,10,0.7,0.81,0.2,24.662,22.86,92.8,32.8,20421.0,7822,7692,7523,7607,52.4,51.4,51.2,48.0,2.639,2.672,2.599,2.752,5.78,115.6,25.2,56.1,1011.11,-24.74,-0.74,1.3,22.6,30.9,30.3,0,no_anomaly,0.0,0,0,0,0,26.8466902,80.9462109,5.0,0.0
2024-09-26T09:28:05.000Z,MISSION_0009,50,0,takeoff,SITE_LKN_010,26.8466868,80.9462055,5.0,123.05,3.995,0.173,1.59,2.8733,-0.1437,123.0488,0.47661,0.01306,0.02144,0.87876,0.0495,0.0055,-9.8761,0.5112,0.7648,-0.1352,0.2558,3,12,0.8,0.98,0.29,24.579,21.57,92.8,33.9,20405.0,7554,7694,7592,7706,52.0,48.3,53.6,49.1,2.807,2.423,2.909,2.684,6.09,112.3,25.1,56.3,1011.06,-31.43,0.77,1.56,22.0,29.7,28.4,0,no_anomaly,0.0,0,0,0,0,26.8466868,80.9462055,5.0,0.0
2024-09-26T09:28:05.100Z,MISSION_0009,51,0,takeoff,SITE_LKN_010,26.8466873,80.9462074,5.0,122.83,3.881,0.028,1.64,0.5272,-2.6631,122.8335,0.47821,0.02261,-0.00708,0.87793,0.1206,-0.0053,-9.8235,-0.2034,-0.2054,-0.1399,0.2415,3,20,0.61,0.65,0.25,24.589,18.5,92.7,33.7,20390.0,7715,7480,7664,7974,50.6,49.8,50.3,51.4,2.88,2.857,2.812,2.722,6.14,109.0,25.2,57.2,1011.54,-29.91,-0.71,1.66,21.4,34.7,26.0,0,no_anomaly,0.0,0,0,0,0,26.8466873,80.9462074,5.0,0.0
2024-09-26T09:28:05.200Z,MISSION_0009,52,0,takeoff,SITE_LKN_010,26.84669,80.94621,5.0,122.79,3.861,0.163,1.57,-1.1973,-0.9984,122.7934,0.47878,0.00265,-0.01334,0.87783,0.0127,0.0127,-9.7985,0.4314,-0.2264,-0.4498,0.1748,3,10,0.6,1.06,0.32,24.617,20.31,92.6,33.4,20375.0,7949,7820,7629,7635,53.3,48.8,48.6,50.9,2.842,2.717,2.591,2.897,5.7,117.0,24.8,56.1,1011.07,-32.17,-0.61,1.37,19.1,39.7,29.6,0,no_anomaly,0.0,0,0,0,0,26.84669,80.94621,5.0,0.0
2024-09-26T09:28:05.300Z,MISSION_0009,53,0,takeoff,SITE_LKN_010,26.8466866,80.946206,5.0,125.18,3.945,0.04,1.63,2.168,-1.0461,125.176,0.46013,0.01681,0.01259,0.8876,-0.1415,-0.0017,-9.7954,0.4543,-0.0121,-0.0867,0.081,3,17,0.66,0.8,0.36,24.708,17.29,92.5,33.9,20360.0,7999,7611,7519,7494,52.7,51.3,49.2,51.5,3.078,2.658,2.591,2.783,6.05,114.3,25.3,55.7,1011.12,-30.68,0.55,1.22,20.9,37.9,29.1,0,no_anomaly,0.0,0,0,0,0,26.8466866,80.946206,5.0,0.0
2024-09-26T09:28:05.400Z,MISSION_0009,54,0,takeoff,SITE_LKN_010,26.846684,80.9462052,5.0,122.15,3.597,0.075,1.87,-1.0617,-1.679,122.1506,0.48371,0.00834,-0.01519,0.87506,-0.073,-0.0409,-9.8335,0.5845,0.0673,-0.3475,0.2781,3,17,0.73,1.15,0.42,24.541,21.95,92.5,33.4,20344.0,7589,7931,7767,7798,54.1,50.4,48.4,52.3,2.933,2.738,2.636,2.981,5.46,108.3,24.8,56.1,1011.35,-30.08,2.68,1.84,18.3,36.2,28.3,0,no_anomaly,0.0,0,0,0,0,26.846684,80.9462052,5.0,0.0
2024-09-26T09:28:05.500Z,MISSION_0009,55,0,takeoff,SITE_LKN_010,26.8466859,80.9462074,5.0,122.71,3.543,0.062,1.77,-2.459,0.2383,122.7119,0.47922,-0.01211,-0.01783,0.87743,0.0233,-0.0179,-9.7918,0.0596,-0.0325,0.0765,0.269,3,19,0.63,1.02,0.22,24.64,16.66,92.4,33.1,20329.0,7600,7734,7755,7807,49.8,49.1,52.6,50.0,2.787,2.769,3.065,2.801,6.68,108.8,25.2,55.8,1011.07,-35.17,0.47,1.87,22.2,32.5,27.5,0,no_anomaly,0.0,0,0,0,0,26.8466859,80.9462074,5.0,0.0
2024-09-26T09:28:05.600Z,MISSION_0009,56,0,takeoff,SITE_LKN_010,26.8466892,80.946209,5.0,122.42,3.426,0.044,1.57,-0.344,-3.1062,122.418,0.48151,0.02231,-0.01568,0.87602,-0.1546,-0.0334,-9.8407,-0.4889,-0.1094,-0.0357,0.1779,3,18,0.58,0.66,0.2,24.586,25.71,92.3,32.5,20314.0,7826,7592,7407,7374,52.3,49.9,51.7,49.7,2.558,2.602,2.667,2.756,6.0,105.8,24.9,56.2,1011.21,-34.89,-0.94,1.15,21.4,32.5,25.0,0,no_anomaly,0.0,0,0,0,0,26.8466892,80.946209,5.0,0.0
2024-09-26T09:28:05.700Z,MISSION_0009,57,0,takeoff,SITE_LKN_010,26.8466915,80.9462103,5.0,120.97,3.717,0.044,1.48,1.2129,-1.4464,120.9739,0.49244,0.0162,0.00299,0.87019,-0.2039,0.0203,-9.7427,-0.2698,0.1104,-0.1805,0.1455,3,19,0.69,0.88,0.29,24.561,19.79,92.3,34.6,20298.0,7786,7719,7700,7566,54.1,51.2,53.7,51.3,2.964,2.752,2.657,2.769,5.09,103.8,25.3,55.3,1010.87,-31.38,0.68,1.38,18.5,32.3,25.9,0,no_anomaly,0.0,0,0,0,0,26.8466915,80.9462103,5.0,0.0
2024-09-26T09:28:05.800Z,MISSION_0009,58,0,takeoff,SITE_LKN_010,26.8466911,80.9462146,5.0,118.52,4.179,0.089,1.91,-1.6798,-1.5851,118.5221,0.5112,0.0044,-0.01967,0.85923,-0.1074,0.0343,-9.8682,-1.0031,0.8673,-0.0759,0.1998,3,17,0.67,0.85,0.25,24.474,21.01,92.2,32.3,20283.0,7663,7789,7789,7787,50.0,49.7,50.9,49.2,2.903,2.518,2.847,2.63,6.28,110.4,25.0,56.0,1011.12,-32.11,0.52,1.0,19.6,32.4,29.5,0,no_anomaly,0.0,0,0,0,0,26.8466911,80.9462146,5.0,0.0
2024-09-26T09:28:05.900Z,MISSION_0009,59,0,takeoff,SITE_LKN_010,26.8466907,80.9462102,5.0,117.81,3.848,0.088,1.54,-1.4098,-2.3172,117.8107,0.51652,0.01096,-0.02097,0.85595,0.0009,0.0132,-9.8061,-0.0996,-0.5558,0.1087,0.1976,3,14,0.53,0.63,0.28,24.618,18.69,92.1,33.6,20268.0,7770,7798,7691,7254,48.6,51.8,50.5,50.5,2.899,2.899,3.018,2.677,6.53,122.0,25.1,56.3,1011.1,-30.33,-1.8,1.0,23.4,33.6,28.9,0,no_anomaly,0.0,0,0,0,0,26.8466907,80.9462102,5.0,0.0
2024-09-26T09:28:06.000Z,MISSION_0009,60,0,takeoff,SITE_LKN_010,26.8466883,80.9462093,5.0,116.35,3.763,0.145,1.67,5.4729,-3.6672,116.3468,0.52518,0.05232,0.02369,0.84905,-0.29,0.0299,-9.7982,0.2931,-0.0539,0.3618,0.1572,3,20,0.83,0.83,0.25,24.683,15.47,92.1,33.5,20252.0,7857,7759,7819,7794,49.7,54.6,50.8,49.9,2.857,3.189,2.92,2.914,6.25,109.6,24.9,56.1,1010.98,-27.8,-0.86,1.93,22.3,37.6,30.0,0,no_anomaly,0.0,0,0,0,0,26.8466883,80.9462093,5.0,0.0
2024-09-26T09:28:06.100Z,MISSION_0009,61,0,takeoff,SITE_LKN_010,26.846689,80.9462088,5.0,119.22,3.487,0.149,1.57,0.3423,-5.1915,119.2228,0.50522,0.04058,-0.02034,0.86179,0.1669,-0.0558,-9.8616,-0.7546,0.1009,0.3558,0.2417,3,14,0.74,0.9,0.42,24.657,16.86,92.0,32.5,20237.0,7643,7431,7623,7722,48.5,48.2,46.7,51.2,2.804,2.966,2.577,2.783,5.79,109.1,24.9,55.6,1011.52,-26.65,1.84,1.58,20.7,39.5,27.1,0,no_anomaly,0.0,0,0,0,0,26.846689,80.9462088,5.0,0.0
2024-09-26T09:28:06.200Z,MISSION_0009,62,0,takeoff,SITE_LKN_010,26.8466877,80.9462061,5.0,117.91,3.801,0.138,1.53,-0.6621,-1.1267,117.9075,0.51574,0.00544,-0.01002,0.85667,-0.2912,0.0625,-9.8269,0.1992,-0.5225,0.1871,0.1775,3,20,0.8,0.96,0.26,24.675,14.25,91.9,33.5,20222.0,7538,7881,7629,7640,49.7,54.7,55.8,52.7,2.801,2.469,2.698,2.708,5.65,115.8,25.1,56.0,1011.22,-26.12,0.68,1.22,21.4,34.3,27.9,0,no_anomaly,0.0,0,0,0,0,26.8466877,80.9462061,5.0,0.0
2024-09-26T09:28:06.300Z,MISSION_0009,63,0,takeoff,SITE_LKN_010,26.8466906,80.9462083,5.0,117.6,3.841,0.063,1.39,-4.017,0.7895,117.6034,0.51746,-0.02404,-0.02641,0.85496,-0.0309,0.0813,-9.8437,-0.7052,0.6752,0.2794,0.279,3,15,0.75,1.08,0.29,24.579,18.82,91.8,33.5,20206.0,7679,7806,7706,7876,51.3,50.3,50.0,47.3,2.927,3.113,2.439,2.922,5.79,116.3,25.2,55.7,1010.69,-32.74,-0.52,1.87,19.5,34.6,25.3,0,no_anomaly,0.0,0,0,0,0,26.8466906,80.9462083,5.0,0.0
2024-09-26T09:28:06.400Z,MISSION_0009,64,0,takeoff,SITE_LKN_010,26.8466871,80.9462105,5.0,115.89,3.819,0.154,1.85,-1.5057,-1.7362,115.8883,0.53081,0.00587,-0.01918,0.84726,-0.4588,-0.0162,-9.7683,-0.8592,0.0919,0.7033,0.2559,3,17,0.59,0.87,0.31,24.615,15.89,91.8,33.6,20191.0,7900,7622,7614,7859,45.8,54.1,52.2,51.1,2.936,2.922,2.835,2.764,5.08,107.9,24.9,55.6,1010.97,-29.1,-1.36,1.2,18.7,38.9,28.4,0,no_anomaly,0.0,0,0,0,0,26.8466871,80.9462105,5.0,0.0
2024-09-26T09:28:06.500Z,MISSION_0009,65,0,takeoff,SITE_LKN_010,26.8466857,80.9462134,5.0,117.19,3.779,0.113,2.18,-0.9235,-3.8413,117.1854,0.52104,0.02441,-0.02434,0.85284,0.0705,-0.044,-9.789,0.6861,-0.2546,0.0582,0.2179,3,14,0.85,0.91,0.38,24.561,20.68,91.7,33.1,20176.0,8025,7433,7644,7545,51.6,48.2,52.1,49.1,2.799,3.045,2.834,2.897,6.92,108.7,25.1,56.8,1011.45,-33.09,-0.67,1.28,19.2,32.8,27.7,0,no_anomaly,0.0,0,0,0,0,26.8466857,80.9462134,5.0,0.0
2024-09-26T09:28:06.600Z,MISSION_0009,66,0,takeoff,SITE_LKN_010,26.8466879,80.9462128,5.0,118.92,3.487,0.012,1.96,3.6278,-0.4719,118.917,0.50779,0.01963,0.02517,0.86089,-0.0784,0.0614,-9.774,0.3943,-0.7761,0.4171,0.2371,3,19,0.66,0.66,0.23,24.593,22.21,91.6,33.7,20160.0,7709,7934,7831,7670,48.8,49.6,52.3,49.8,2.752,2.856,2.756,2.694,5.83,111.4,25.4,55.5,1011.04,-28.02,-0.43,1.26,17.9,32.4,29.1,0,no_anomaly,0.0,0,0,0,0,26.8466879,80.9462128,5.0,0.0
2024-09-26T09:28:06.700Z,MISSION_0009,67,0,takeoff,SITE_LKN_010,26.8466859,80.9462145,5.0,119.79,3.314,0.138,2.25,-3.8917,-1.6775,119.7853,0.50171,-0.00437,-0.03671,0.86425,-0.2788,0.0745,-9.7743,0.0709,0.3679,0.1202,0.2739,3,15,0.6,0.75,0.2,24.584,28.23,91.6,33.4,20145.0,7845,7607,7868,7654,47.2,50.4,51.6,48.3,2.594,2.82,2.675,2.686,6.06,110.3,25.1,56.3,1011.45,-32.09,-1.61,1.32,17.8,37.2,28.9,0,no_anomaly,0.0,0,0,0,0,26.8466859,80.9462145,5.0,0.0
2024-09-26T09:28:06.800Z,MISSION_0009,68,0,takeoff,SITE_LKN_010,26.8466846,80.9462127,5.0,119.52,3.332,0.037,2.22,-2.9454,-2.8472,119.5222,0.50384,0.00852,-0.0347,0.86306,0.2455,-0.0459,-9.869,0.0207,-0.8193,0.0203,0.2167,3,14,0.58,0.96,0.22,24.541,18.37,91.5,33.8,20130.0,7600,7748,7780,7654,49.2,50.5,49.3,45.7,2.899,2.699,2.669,2.805,5.88,100.9,25.2,56.0,1011.42,-33.59,0.15,2.13,18.7,34.1,26.9,0,no_anomaly,0.0,0,0,0,0,26.8466846,80.9462127,5.0,0.0
2024-09-26T09:28:06.900Z,MISSION_0009,69,0,takeoff,SITE_LKN_010,26.846682,80.9462138,5.0,119.47,3.7,0.122,2.52,-4.5398,-4.3634,119.4694,0.50455,0.01291,-0.05336,0.86164,0.1187,0.0346,-9.8294,-0.001,0.3089,-0.0464,0.2117,3,17,0.68,0.88,0.31,24.574,16.16,91.4,32.3,20115.0,7807,7737,7822,7562,51.1,49.3,48.9,48.6,2.875,2.951,2.599,2.691,6.14,108.0,24.9,56.1,1011.31,-28.97,0.89,1.25,19.0,28.3,26.9,0,no_anomaly,0.0,0,0,0,0,26.846682,80.9462138,5.0,0.0
2024-09-26T09:28:07.000Z,MISSION_0009,70,0,takeoff,SITE_LKN_010,26.846681,80.9462133,5.0,122.81,3.758,0.064,2.59,-3.1166,-1.676,122.8101,0.47874,-0.00018,-0.03087,0.87742,0.3182,-0.0124,-9.7732,-0.1473,-0.1662,-0.0856,0.3213,3,17,0.71,0.68,0.33,24.489,23.95,91.4,32.8,20099.0,7691,7762,7716,7713,55.0,51.8,51.4,53.9,2.763,2.787,2.762,2.648,5.19,114.7,25.5,55.9,1011.2,-31.13,0.64,1.63,17.3,36.3,25.4,0,no_anomaly,0.0,0,0,0,0,26.846681,80.9462133,5.0,0.0
2024-09-26T09:28:07.100Z,MISSION_0009,71,0,takeoff,SITE_LKN_010,26.8466791,80.9462123,5.0,123.53,3.704,0.046,2.7,-5.4961,-1.026,123.5298,0.47291,-0.0148,-0.04647,0.87976,-0.0601,-0.0148,-9.7325,-0.607,0.4174,0.0793,0.2965,3,13,0.84,1.04,0.43,24.632,17.24,91.3,33.3,20084.0,7720,7816,7721,7712,53.5,50.1,52.7,45.9,2.919,3.0,2.853,2.865,5.53,111.6,25.0,55.9,1011.26,-29.53,0.94,1.35,24.2,39.8,27.3,0,no_anomaly,0.0,0,0,0,0,26.8466791,80.9462123,5.0,0.0
2024-09-26T09:28:07.200Z,MISSION_0009,72,0,takeoff,SITE_LKN_010,26.8466747,80.9462096,5.0,125.47,3.454,0.157,3.02,0.5617,-3.6281,125.4662,0.45776,0.03038,-0.01015,0.8885,0.1454,0.0439,-9.7638,-0.1852,0.298,-0.1959,0.2473,3,11,0.72,0.93,0.23,24.617,17.67,91.2,34.1,20069.0,7664,7881,7517,7569,47.0,47.8,52.4,50.4,2.842,2.708,2.915,2.901,6.28,117.4,25.2,55.7,1011.62,-31.76,0.43,1.43,19.0,38.4,30.7,0,no_anomaly,0.0,0,0,0,0,26.8466747,80.9462096,5.0,0.0
2024-09-26T09:28:07.300Z,MISSION_0009,73,0,takeoff,SITE_LKN_010,26.846673,80.9462106,5.0,126.32,3.299,0.14,3.23,-4.2653,-2.1979,126.3183,0.45175,0.0003,-0.04185,0.89116,-0.0398,0.0655,-9.7479,0.4861,0.845,0.2048,0.1942,3,18,0.74,1.04,0.26,24.549,19.8,91.2,33.6,20053.0,7761,7672,7770,7501,49.7,46.9,46.1,53.4,2.814,2.725,3.004,2.937,5.3,112.7,25.4,55.8,1011.03,-25.25,-0.07,1.18,23.4,32.3,26.6,0,no_anomaly,0.0,0,0,0,0,26.846673,80.9462106,5.0,0.0
2024-09-26T09:28:07.400Z,MISSION_0009,74,0,takeoff,SITE_LKN_010,26.8466715,80.9462099,5.0,126.36,2.897,0.097,3.36,-3.451,-3.6813,126.3577,0.45163,0.01507,-0.04134,0.89112,-0.0551,-0.0775,-9.8081,-0.4348,0.5401,0.5168,0.2357,3,15,0.74,0.91,0.36,24.57,18.47,91.1,33.9,20038.0,7924,7568,7868,7481,49.7,49.8,51.2,49.8,2.698,2.675,2.759,2.842,5.79,110.7,25.3,56.2,1011.48,-32.16,-0.47,1.47,20.1,36.9,27.5,0,no_anomaly,0.0,0,0,0,0,26.8466715,80.9462099,5.0,0.0
2024-09-26T09:28:07.500Z,MISSION_0009,75,0,takeoff,SITE_LKN_010,26.8466682,80.9462077,5.0,127.63,2.738,0.07,3.65,4.5323,-2.9476,127.6329,0.43984,0.0405,0.02413,0.89684,0.2491,0.0134,-9.7903,-1.0236,-0.6384,-0.2819,0.2698,3,11,0.69,0.72,0.28,24.513,17.85,91.0,32.5,20023.0,7801,7643,7954,7707,49.4,46.2,48.7,51.4,2.802,2.551,2.803,2.714,5.97,115.2,25.0,56.2,1011.4,-29.75,-0.54,1.9,22.8,33.2,25.2,0,no_anomaly,0.0,0,0,0,0,26.8466682,80.9462077,5.0,0.0
2024-09-26T09:28:07.600Z,MISSION_0009,76,0,takeoff,SITE_LKN_010,26.8466734,80.9462082,5.0,129.88,2.373,0.16,3.1,1.0366,-2.1336,129.8808,0.42332,0.0207,0.00031,0.90574,-0.128,0.0022,-9.7881,-0.5403,-1.0234,0.2211,0.2414,3,19,0.77,0.87,0.39,24.483,15.87,90.9,33.8,20007.0,7712,7745,7489,7634,47.9,49.0,50.4,49.3,2.723,2.726,2.906,3.14,5.93,116.0,25.0,55.5,1011.09,-32.55,-1.18,2.07,17.8,38.7,28.4,0,no_anomaly,0.0,0,0,0,0,26.8466734,80.9462082,5.0,0.0
2024-09-26T09:28:07.700Z,MISSION_0009,77,0,takeoff,SITE_LKN_010,26.8466775,80.9462107,5.0,130.41,2.528,0.065,2.77,-0.026,-3.5944,130.4085,0.41918,0.02838,-0.01336,0.90736,-0.2244,-0.0127,-9.8996,-0.903,-0.0419,-0.1244,0.2164,3,15,0.76,1.03,0.34,24.558,17.09,90.9,33.7,19992.0,7682,7710,7812,7926,50.6,49.8,53.8,50.3,2.975,2.612,2.697,2.815,6.06,120.5,25.0,56.2,1011.43,-28.97,-1.05,1.4,23.4,40.0,28.7,0,no_anomaly,0.0,0,0,0,0,26.8466775,80.9462107,5.0,0.0
2024-09-26T09:28:07.800Z,MISSION_0009,78,0,takeoff,SITE_LKN_010,26.8466736,80.9462092,5.0,126.27,2.231,0.101,3.11,2.5026,-0.8578,126.2743,0.45159,0.01654,0.0161,0.89193,0.1428,-0.0644,-9.8661,-0.343,-0.6831,-0.1566,0.214,3,12,0.73,0.86,0.25,24.601,18.87,90.8,33.7,19977.0,7888,7665,7685,7993,51.4,49.4,50.5,51.7,2.926,2.929,3.224,2.949,5.94,108.7,25.2,56.6,1011.24,-29.65,1.73,1.5,18.6,34.3,28.9,0,no_anomaly,0.0,0,0,0,0,26.8466736,80.9462092,5.0,0.0
2024-09-26T09:28:07.900Z,MISSION_0009,79,0,takeoff,SITE_LKN_010,26.8466798,80.9462154,5.0,122.58,2.119,0.0,2.83,0.0225,0.7316,122.5757,0.4804,-0.00551,0.00324,0.87703,-0.0726,0.0222,-9.7438,0.2355,-0.3581,0.3537,0.1461,3,13,0.57,0.61,0.22,24.548,18.39,90.7,33.5,19961.0,7737,7768,7564,7684,49.3,47.3,52.9,51.6,2.715,2.723,2.986,2.372,5.91,106.5,24.9,56.2,1011.08,-25.48,-0.49,1.51,21.3,32.7,25.2,0,no_anomaly,0.0,0,0,0,0,26.8466798,80.9462154,5.0,0.0
2024-09-26T09:28:08.000Z,MISSION_0009,80,0,takeoff,SITE_LKN_010,26.8466805,80.9462149,5.0,124.46,1.662,0.046,2.74,-2.2927,-1.6026,124.4554,0.46607,0.00305,-0.02421,0.88441,-0.0763,-0.0175,-9.8261,-0.4179,0.2016,-0.0158,0.266,3,16,0.68,0.8,0.3,24.471,19.63,90.7,32.2,19946.0,7873,7840,7845,7418,49.5,50.5,51.9,50.6,2.663,3.055,2.85,2.573,6.06,110.2,24.7,57.2,1011.48,-29.47,-0.32,1.0,20.4,39.1,25.9,0,no_anomaly,0.0,0,0,0,0,26.8466805,80.9462149,5.0,0.0
2024-09-26T09:28:08.100Z,MISSION_0009,81,0,takeoff,SITE_LKN_010,26.8466813,80.9462109,5.0,124.42,1.391,0.089,2.41,2.6229,-1.3414,124.4233,0.46582,0.02102,0.01479,0.88451,-0.0528,0.0226,-9.843,-0.2285,0.4691,-0.3157,0.1724,3,16,0.52,0.71,0.25,24.47,17.93,90.6,33.0,19931.0,7573,7489,7510,7765,50.5,52.2,53.8,48.6,2.845,2.698,2.784,2.805,5.71,114.3,25.1,55.7,1011.38,-31.35,-1.83,1.15,20.5,28.6,25.8,0,no_anomaly,0.0,0,0,0,0,26.8466813,80.9462109,5.0,0.0
2024-09-26T09:28:08.200Z,MISSION_0009,82,0,transit,SITE_LKN_010,26.8466812,80.9462051,5.5,126.06,1.421,0.067,2.17,-3.2532,-0.6245,126.0615,0.45346,-0.00802,-0.02777,0.89081,0.1984,-0.0177,-9.9143,0.9309,-0.6236,-0.2623,0.169,3,12,0.8,0.86,0.24,24.583,19.97,90.5,32.6,19915.0,7787,7705,8002,7595,50.5,50.3,48.2,53.7,2.843,2.826,2.716,2.584,7.32,111.7,25.3,56.4,1011.47,-30.59,-0.98,1.22,21.3,29.5,26.8,0,no_anomaly,0.0,0,0,0,0,26.8466812,80.9462051,5.5,0.0
2024-09-26T09:28:08.300Z,MISSION_0009,83,0,transit,SITE_LKN_010,26.8466817,80.9462046,6.0,123.43,1.293,0.121,2.1,0.4709,-0.7961,123.4274,0.47384,0.00807,0.00033,0.88058,-0.3672,-0.0781,-9.9097,-0.5551,0.9765,0.1175,0.1776,3,17,0.62,0.98,0.31,24.542,22.09,90.5,33.4,19900.0,7647,7391,7545,7552,50.3,49.3,51.8,50.6,2.876,2.813,2.803,2.862,6.86,112.7,25.0,55.2,1011.08,-29.44,-0.27,1.89,22.1,37.8,26.3,0,no_anomaly,0.0,0,0,0,0,26.8466817,80.9462046,6.0,0.0
2024-09-26T09:28:08.400Z,MISSION_0009,84,0,transit,SITE_LKN_010,26.8466826,80.9462046,6.5,124.9,1.837,0.123,2.0,0.1531,-1.9493,124.8963,0.46246,0.0157,-0.00668,0.88647,0.2517,0.0556,-9.8577,0.2039,0.0702,-0.2919,0.1307,3,17,0.61,0.86,0.33,24.571,15.35,90.4,33.6,19885.0,7675,7618,7612,7909,48.2,51.4,46.0,50.8,2.794,3.003,2.927,2.833,6.37,109.5,25.0,55.9,1010.67,-25.93,-0.44,1.75,17.2,32.2,26.4,0,no_anomaly,0.0,0,0,0,0,26.8466826,80.9462046,6.5,0.0
2024-09-26T09:28:08.500Z,MISSION_0009,85,0,transit,SITE_LKN_010,26.8466831,80.9462087,7.0,127.7,2.012,0.134,2.11,0.2095,-2.1409,127.6962,0.44064,0.01757,-0.00659,0.89749,0.4088,0.0024,-9.8392,-0.3893,0.1116,0.0282,0.1911,3,11,0.73,0.85,0.32,24.526,18.25,90.3,33.5,19869.0,7483,7565,7723,7483,54.3,47.6,48.4,49.8,3.023,2.625,2.931,2.692,4.9,112.8,25.2,56.0,1011.13,-27.04,1.43,1.62,18.9,35.8,26.3,0,no_anomaly,0.0,0,0,0,0,26.8466831,80.9462087,7.0,0.0
2024-09-26T09:28:08.600Z,MISSION_0009,86,0,transit,SITE_LKN_010,26.846684,80.9462057,7.5,129.34,1.876,0.182,1.89,0.0303,-1.4014,129.345,0.42776,0.01117,-0.00499,0.90381,0.065,-0.0186,-9.8172,0.2472,0.3909,0.1378,0.2265,3,18,0.64,0.77,0.22,24.55,19.43,90.2,33.3,19854.0,7960,7970,7527,7936,51.9,49.6,50.4,50.0,2.801,2.984,2.955,2.828,5.54,109.3,25.0,57.2,1011.13,-28.21,-0.52,1.74,21.3,37.7,23.8,0,no_anomaly,0.0,0,0,0,0,26.846684,80.9462057,7.5,0.0
2024-09-26T09:28:08.700Z,MISSION_0009,87,0,transit,SITE_LKN_010,26.8466827,80.9462148,8.0,128.72,2.131,0.128,2.54,5.9092,0.81,128.7212,0.43245,0.01594,0.04952,0.90016,0.0349,-0.0194,-9.8541,-0.5438,-0.4925,0.4114,0.1654,3,15,0.83,0.92,0.31,24.578,17.49,90.2,33.0,19839.0,7958,7765,7977,7455,48.1,50.4,50.1,52.3,2.8,2.617,2.981,2.801,5.65,118.2,25.3,56.5,1011.36,-26.4,-0.26,1.59,20.8,34.7,29.4,0,no_anomaly,0.0,0,0,0,0,26.8466827,80.9462148,8.0,0.0
2024-09-26T09:28:08.800Z,MISSION_0009,88,0,transit,SITE_LKN_010,26.8466856,80.9462163,8.5,127.87,2.06,0.086,2.42,-0.9644,-0.3272,127.8684,0.43941,-0.00113,-0.00881,0.89824,-0.089,-0.0221,-9.7649,-0.0647,0.5232,-0.1376,0.2131,3,20,0.67,1.06,0.27,24.58,17.55,90.1,33.0,19824.0,7525,7612,7613,7415,50.5,50.7,49.8,52.7,2.867,2.964,2.83,2.919,5.28,113.0,25.5,55.6,1011.38,-33.04,-0.82,1.16,20.8,37.9,29.9,0,no_anomaly,0.0,0,0,0,0,26.8466856,80.9462163,8.5,0.0
2024-09-26T09:28:08.900Z,MISSION_0009,89,0,transit,SITE_LKN_010,26.8466822,80.946221,9.0,128.63,2.359,0.04,3.07,-1.0933,-4.4055,128.6259,0.43345,0.0305,-0.02525,0.90031,0.3344,0.0757,-9.8605,-0.1209,0.6514,-0.191,0.1218,3,15,0.76,1.22,0.26,24.552,18.84,90.0,34.1,19808.0,7932,7365,7903,7540,52.4,51.7,49.6,53.3,2.675,2.55,2.791,2.561,5.92,111.1,25.3,55.9,1011.15,-21.44,-0.3,1.17,19.8,31.2,29.4,0,no_anomaly,0.0,0,0,0,0,26.8466822,80.946221,9.0,0.0
2024-09-26T09:28:09.000Z,MISSION_0009,90,0,transit,SITE_LKN_010,26.8466835,80.9462238,9.5,126.29,2.137,0.093,3.23,2.3948,-0.314,126.2915,0.45157,0.01188,0.01741,0.89199,-0.1701,-0.0337,-9.9275,-0.3795,0.2902,0.1278,0.1915,3,13,0.65,0.6,0.2,24.607,16.68,90.0,33.8,19793.0,7613,7494,7587,7698,50.3,49.4,51.1,50.7,2.56,2.864,2.614,2.934,5.34,118.3,25.1,56.3,1011.42,-27.55,1.23,1.52,21.7,33.5,27.1,0,no_anomaly,0.0,0,0,0,0,26.8466835,80.9462238,9.5,0.0
2024-09-26T09:28:09.100Z,MISSION_0009,91,0,transit,SITE_LKN_010,26.8466902,80.9462217,10.0,128.34,2.387,0.066,2.65,0.389,-1.3978,128.3446,0.43559,0.01246,-0.00226,0.90005,-0.0747,-0.0312,-9.8629,0.3852,-0.8182,-0.1608,0.2355,3,10,0.92,1.05,0.26,24.413,17.05,89.9,32.4,19778.0,7807,7603,7789,7911,49.7,51.9,50.4,47.4,2.771,3.245,2.946,2.95,5.99,115.3,25.4,55.7,1010.92,-29.74,1.13,1.89,23.0,32.7,30.5,0,no_anomaly,0.0,0,0,0,0,26.8466902,80.9462217,10.0,0.0
2024-09-26T09:28:09.200Z,MISSION_0009,92,0,transit,SITE_LKN_010,26.8466888,80.9462208,10.5,130.7,2.39,0.026,2.63,-2.6677,0.3279,130.6993,0.4169,-0.01231,-0.01996,0.90865,0.1047,0.003,-9.7772,0.3943,-0.4026,0.2334,0.246,3,18,0.6,0.87,0.2,24.59,18.12,89.8,33.7,19762.0,7634,7891,7643,7598,49.5,47.9,52.1,50.6,2.95,2.953,2.892,3.164,6.39,108.2,25.3,56.2,1010.93,-26.99,0.38,1.0,17.3,32.7,28.9,0,no_anomaly,0.0,0,0,0,0,26.8466888,80.9462208,10.5,0.0
2024-09-26T09:28:09.300Z,MISSION_0009,93,0,transit,SITE_LKN_010,26.8466888,80.9462216,11.0,129.6,2.023,0.114,2.71,0.2146,-1.5546,129.602,0.4257,0.01307,-0.00408,0.90476,0.0502,-0.0243,-9.7322,-0.3679,0.3818,0.1087,0.2291,3,10,0.81,0.92,0.37,24.524,17.86,89.8,33.2,19747.0,8005,7883,7913,7672,52.8,50.3,47.7,49.1,2.948,2.704,2.772,2.985,6.41,111.4,25.3,56.5,1010.96,-33.41,1.45,1.26,19.7,32.3,26.2,0,no_anomaly,0.0,0,0,0,0,26.8466888,80.9462216,11.0,0.0
2024-09-26T09:28:09.400Z,MISSION_0009,94,0,transit,SITE_LKN_010,26.8466923,80.9462281,11.5,130.37,2.271,0.061,3.24,2.358,-2.4357,130.3676,0.41913,0.02792,0.00975,0.90745,-0.1625,0.0703,-9.8567,0.4108,-0.1476,0.0015,0.1119,3,12,0.76,0.88,0.23,24.504,13.58,89.7,33.4,19732.0,7933,7681,7790,7659,51.9,52.5,48.2,49.4,2.635,2.775,2.599,2.88,5.94,118.3,25.2,56.6,1011.43,-29.94,-0.37,2.15,20.0,30.5,24.8,0,no_anomaly,0.0,0,0,0,0,26.8466923,80.9462281,11.5,0.0
2024-09-26T09:28:09.500Z,MISSION_0009,95,0,transit,SITE_LKN_010,26.8466882,80.9462297,12.0,128.07,2.587,0.039,3.56,3.1526,-3.1175,128.0664,0.43685,0.03649,0.01282,0.8987,-0.2205,0.0017,-9.7706,-0.5914,-0.0429,-0.6701,0.3162,3,17,0.6,0.61,0.2,24.604,18.37,89.6,34.2,19716.0,7846,7716,7896,7518,53.2,50.8,48.4,50.7,2.801,2.778,2.619,2.828,5.95,119.9,25.0,56.2,1011.1,-29.74,1.84,1.74,20.7,33.2,28.7,0,no_anomaly,0.0,0,0,0,0,26.8466882,80.9462297,12.0,0.0
2024-09-26T09:28:09.600Z,MISSION_0009,96,0,transit,SITE_LKN_010,26.8466872,80.9462315,12.5,125.49,2.314,0.094,3.78,3.0703,-2.5845,125.4889,0.45714,0.03231,0.01349,0.8887,0.1262,-0.0748,-9.8365,0.3189,0.0945,0.1694,0.2672,3,19,0.66,0.89,0.27,24.441,19.49,89.6,32.8,19701.0,7824,7633,7690,7674,48.3,51.2,47.7,52.8,2.807,2.866,2.978,3.104,5.66,113.9,25.3,56.8,1011.62,-23.11,-1.22,1.15,21.9,33.8,26.6,0,no_anomaly,0.0,0,0,0,0,26.8466872,80.9462315,12.5,0.0
2024-09-26T09:28:09.700Z,MISSION_0009,97,0,transit,SITE_LKN_010,26.8466856,80.9462308,13.0,125.21,2.475,0.11,3.78,-1.9152,-3.2917,125.2126,0.46027,0.01781,-0.02805,0.88715,-0.1794,-0.0732,-9.7364,-0.6034,-0.6024,0.6933,0.2071,3,13,1.01,1.01,0.5,24.548,25.91,89.5,32.8,19686.0,7624,7680,7773,7416,49.9,52.4,50.9,51.5,3.0,2.791,2.983,2.841,6.17,103.8,25.4,55.6,1011.2,-32.53,0.88,1.52,22.2,37.3,29.4,0,no_anomaly,0.0,0,0,0,0,26.8466856,80.9462308,13.0,0.0
2024-09-26T09:28:09.800Z,MISSION_0009,98,0,transit,SITE_LKN_010,26.8466878,80.9462322,13.5,125.25,2.031,0.143,3.83,1.328,-0.8521,125.2503,0.45969,0.01193,0.00687,0.88797,0.1009,0.0839,-9.8878,-0.2212,-1.0248,-0.028,0.2446,3,19,0.72,0.93,0.2,24.503,22.35,89.4,33.9,19670.0,7813,7626,7617,7344,49.7,50.5,49.6,51.1,2.579,2.719,2.739,2.798,5.21,104.3,25.5,55.7,1011.45,-34.93,-0.43,1.67,18.4,39.4,28.4,0,no_anomaly,0.0,0,0,0,0,26.8466878,80.9462322,13.5,0.0
2024-09-26T09:28:09.900Z,MISSION_0009,99,0,transit,SITE_LKN_010,26.8466842,80.9462294,14.0,127.28,2.26,0.068,3.72,-1.2733,-1.8627,127.2797,0.44409,0.00963,-0.01717,0.89577,0.059,-0.0149,-9.8676,-0.3995,0.239,-0.1477,0.2787,3,20,0.74,0.99,0.31,24.561,20.07,89.3,33.5,19655.0,7472,7825,7928,7725,49.5,47.7,46.4,49.9,2.98,3.077,2.941,2.729,6.36,106.8,25.3,55.4,1011.34,-26.74,-0.2,1.45,19.0,32.2,30.5,0,no_anomaly,0.0,0,0,0,0,26.8466842,80.9462294,14.0,0.0
2024-09-26T09:28:10.000Z,MISSION_0009,100,0,transit,SITE_LKN_010,26.8466807,80.9462338,14.5,127.45,2.301,0.131,4.33,2.678,-1.4122,127.4519,0.44225,0.02139,0.0155,0.8965,0.1355,0.0853,-9.8505,-0.1387,-0.832,0.3552,0.1705,3,15,0.7,1.18,0.23,24.498,20.65,89.3,33.3,19640.0,7615,7796,7871,7995,51.0,53.3,49.3,51.0,2.997,2.739,2.874,2.955,6.05,120.5,24.8,55.8,1011.04,-31.86,-0.59,1.69,21.0,40.6,28.7,0,no_anomaly,0.0,0,0,0,0,26.8466807,80.9462338,14.5,0.0
2024-09-26T09:28:10.100Z,MISSION_0009,101,0,transit,SITE_LKN_010,26.846682,80.9462348,15.0,128.27,2.438,0.093,4.37,-0.2651,-2.3813,128.2714,0.43619,0.01769,-0.01115,0.89961,-0.0493,0.026,-9.7604,0.0098,-0.1384,-0.0821,0.1438,3,18,0.69,0.6,0.2,24.526,18.25,89.2,33.4,19624.0,7590,7541,7809,7903,48.2,52.1,52.5,51.4,2.739,2.786,2.674,2.658,5.96,115.4,25.1,56.6,1011.09,-29.21,0.65,1.04,20.5,38.2,28.1,0,no_anomaly,0.0,0,0,0,0,26.846682,80.9462348,15.0,0.0
2024-09-26T09:28:10.200Z,MISSION_0009,102,0,transit,SITE_LKN_010,26.8466791,80.9462304,15.5,129.23,2.507,0.044,4.11,2.0284,-2.0333,129.2313,0.42827,0.02361,0.00838,0.9033,-0.1362,-0.0888,-9.7854,0.3037,0.3556,0.5775,0.1405,3,18,0.81,0.94,0.36,24.481,16.38,89.1,33.1,19609.0,7643,7946,7661,7662,54.8,50.0,50.2,50.1,2.819,2.909,2.902,2.892,5.75,115.2,25.6,55.4,1010.89,-36.87,-1.27,1.09,19.0,32.2,31.1,0,no_anomaly,0.0,0,0,0,0,26.8466791,80.9462304,15.5,0.0
2024-09-26T09:28:10.300Z,MISSION_0009,103,0,transit,SITE_LKN_010,26.8466803,80.9462342,16.0,128.94,2.603,0.113,4.39,-4.8506,-2.5393,128.94,0.43134,0.00174,-0.04772,0.90093,-0.0978,-0.0203,-9.7727,0.0195,0.7462,0.2,0.264,3,15,0.64,1.11,0.36,24.594,18.24,89.1,33.1,19594.0,7604,7635,7785,7636,49.9,52.9,51.0,49.3,2.74,2.79,2.812,2.729,6.36,107.5,25.0,55.9,1011.54,-28.67,-0.51,1.74,17.8,31.1,25.3,0,no_anomaly,0.0,0,0,0,0,26.8466803,80.9462342,16.0,0.0
2024-09-26T09:28:10.400Z,MISSION_0009,104,0,transit,SITE_LKN_010,26.8466798,80.9462294,16.5,125.65,2.224,0.084,3.97,-1.9061,-3.3126,125.6466,0.45691,0.01812,-0.02799,0.88889,-0.0592,0.0526,-9.9061,0.0275,0.0463,-0.1472,0.2733,3,12,0.65,0.87,0.25,24.524,19.96,89.0,34.1,19579.0,7641,7677,8022,7803,49.9,51.1,48.3,51.2,2.8,2.886,2.745,2.821,6.35,115.3,25.0,55.5,1010.84,-31.89,-0.28,1.55,17.6,30.1,25.4,0,no_anomaly,0.0,0,0,0,0,26.8466798,80.9462294,16.5,0.0
2024-09-26T09:28:10.500Z,MISSION_0009,105,0,transit,SITE_LKN_010,26.8466806,80.9462243,17.0,125.05,2.734,0.135,3.46,0.3564,-2.0082,125.0466,0.46127,0.01698,-0.00533,0.88708,-0.3013,0.0114,-9.8512,0.3308,0.4989,-0.424,0.1868,3,18,0.68,0.61,0.39,24.509,18.0,88.9,33.6,19563.0,7460,7862,8155,7621,51.0,52.3,53.5,52.6,2.923,2.693,2.737,2.781,5.4,111.9,24.9,56.5,1011.13,-27.7,-0.68,1.0,20.9,33.4,26.3,0,no_anomaly,0.0,0,0,0,0,26.8466806,80.9462243,17.0,0.0
2024-09-26T09:28:10.600Z,MISSION_0009,106,0,transit,SITE_LKN_010,26.8466908,80.9462232,17.5,123.97,2.489,0.192,2.78,6.1323,0.2144,123.9671,0.46914,0.02348,0.0481,0.8815,-0.0046,0.0126,-9.7947,-0.0946,-0.6294,-0.2253,0.2532,3,16,0.63,0.94,0.27,24.486,20.82,88.9,33.2,19548.0,7680,7500,7931,7941,50.6,50.1,50.5,51.2,2.708,2.519,2.716,2.71,5.37,112.9,25.2,56.9,1011.24,-32.32,0.86,1.65,20.7,31.0,28.7,0,no_anomaly,0.0,0,0,0,0,26.8466908,80.9462232,17.5,0.0
2024-09-26T09:28:10.700Z,MISSION_0009,107,0,transit,SITE_LKN_010,26.8466873,80.9462242,18.0,124.48,2.781,0.045,3.04,-4.4977,1.9634,124.4828,0.46473,-0.03342,-0.02675,0.88442,-0.3201,-0.0381,-9.7674,-0.3564,-0.0697,-0.0134,0.2182,3,13,0.72,0.82,0.2,24.467,20.77,88.8,33.7,19533.0,7672,7917,7765,7813,50.5,51.1,53.5,48.5,2.824,3.242,2.863,2.796,5.73,112.5,25.0,56.4,1011.13,-31.46,1.08,1.45,21.2,40.1,28.2,0,no_anomaly,0.0,0,0,0,0,26.8466873,80.9462242,18.0,0.0
2024-09-26T09:28:10.800Z,MISSION_0009,108,0,transit,SITE_LKN_010,26.8466884,80.9462208,18.5,124.87,2.563,0.063,2.65,-3.1656,-3.273,124.8671,0.46311,0.01253,-0.03769,0.88541,-0.0144,0.0141,-9.7296,0.246,0.7739,0.1872,0.1563,3,14,0.97,1.15,0.34,24.498,18.07,88.7,33.6,19517.0,7691,7716,7867,7768,50.8,51.4,51.0,47.5,2.713,2.866,2.765,3.032,5.56,114.2,25.3,56.3,1011.0,-34.15,0.72,1.23,20.9,37.3,23.4,0,no_anomaly,0.0,0,0,0,0,26.8466884,80.9462208,18.5,0.0
2024-09-26T09:28:10.900Z,MISSION_0009,109,0,transit,SITE_LKN_010,26.846692,80.9462243,19.0,126.54,2.718,0.076,2.84,-0.2721,-1.2369,126.5416,0.44977,0.00857,-0.00697,0.89308,-0.2506,0.0029,-9.8688,0.2688,-0.5458,-0.0151,0.2572,3,16,0.68,1.04,0.24,24.453,16.46,88.6,32.5,19502.0,7611,7826,7826,7826,48.8,55.1,48.1,51.1,2.463,2.546,2.668,2.82,5.05,113.6,25.1,55.7,1011.29,-30.53,-0.13,2.08,19.3,31.9,28.2,0,no_anomaly,0.0,0,0,0,0,26.846692,80.9462243,19.0,0.0
2024-09-26T09:28:11.000Z,MISSION_0009,110,0,transit,SITE_LKN_010,26.846691,80.9462276,19.5,126.9,2.834,0.058,3.24,2.7233,0.0064,126.8991,0.44686,0.01057,0.02128,0.89429,0.0297,0.0247,-9.7518,-0.2766,0.1806,-0.2186,0.1455,3,15,0.86,1.09,0.27,24.528,12.63,88.6,33.4,19487.0,7520,7785,7646,7961,51.1,50.3,48.5,52.1,2.84,2.563,2.835,3.064,5.14,121.7,25.3,55.2,1010.98,-29.17,-1.9,1.89,18.7,35.0,27.0,0,no_anomaly,0.0,0,0,0,0,26.846691,80.9462276,19.5,0.0
2024-09-26T09:28:11.100Z,MISSION_0009,111,0,transit,SITE_LKN_010,26.8466922,80.9462286,20.0,128.26,2.679,0.119,3.3,-2.1087,-3.1926,128.2601,0.43655,0.01704,-0.0287,0.89906,-0.0936,0.0083,-9.7902,-0.464,-0.0534,-0.0223,0.2757,3,10,0.6,0.86,0.26,24.409,22.23,88.5,33.8,19471.0,7824,7411,8229,8098,53.6,50.8,47.3,45.4,2.89,2.743,2.998,2.639,5.74,111.4,25.1,56.3,1011.4,-25.41,-0.95,1.41,20.8,29.0,24.5,0,no_anomaly,0.0,0,0,0,0,26.8466922,80.9462286,20.0,0.0
2024-09-26T09:28:11.200Z,MISSION_0009,112,0,transit,SITE_LKN_010,26.8466915,80.9462275,20.5,127.97,3.098,0.11,3.2,6.8929,-3.8351,127.9722,0.43574,0.05637,0.03935,0.89744,-0.1376,-0.0414,-9.8213,-0.1598,0.8419,0.281,0.2357,3,11,0.67,1.12,0.24,24.509,20.12,88.4,33.8,19456.0,7838,7595,7575,8060,49.1,48.9,52.5,50.5,2.671,2.77,2.852,2.965,6.06,116.0,25.1,56.6,1011.27,-28.38,0.48,1.44,15.8,32.4,27.9,0,no_anomaly,0.0,0,0,0,0,26.8466915,80.9462275,20.5,0.0
2024-09-26T09:28:11.300Z,MISSION_0009,113,0,transit,SITE_LKN_010,26.8466908,80.9462233,20.8,127.88,3.336,0.101,2.79,0.2601,-1.3448,127.8835,0.43923,0.01154,-0.00312,0.8983,0.1284,-0.0321,-9.8872,0.6696,-0.3342,0.2082,0.2527,3,17,0.74,0.81,0.33,24.557,23.84,88.4,33.5,19441.0,7773,7855,7525,7725,49.1,51.4,48.5,49.8,2.972,2.743,2.819,2.49,6.35,114.5,25.1,56.9,1011.39,-30.28,-0.48,1.7,22.9,31.1,28.3,0,no_anomaly,0.0,0,0,0,0,26.8466908,80.9462233,20.8,0.0
2024-09-26T09:28:11.400Z,MISSION_0009,114,0,transit,SITE_LKN_010,26.8466913,80.9462201,20.8,128.64,3.565,0.161,2.44,-0.8318,-0.7102,128.6386,0.43338,0.00244,-0.00923,0.90116,-0.0526,0.0146,-9.8766,0.5685,1.177,-0.0779,0.244,3,10,0.66,0.79,0.2,24.488,15.34,88.3,33.4,19425.0,7906,7663,7758,7893,46.8,48.8,50.5,51.4,2.742,2.67,3.159,2.625,5.67,115.3,25.2,56.9,1011.19,-27.83,1.17,1.69,21.5,35.9,26.5,0,no_anomaly,0.0,0,0,0,0,26.8466913,80.9462201,20.8,0.0
2024-09-26T09:28:11.500Z,MISSION_0009,115,0,transit,SITE_LKN_010,26.8466935,80.9462201,20.8,125.94,3.861,0.167,2.35,-0.3155,-0.9993,125.9402,0.45446,0.00652,-0.00642,0.89072,-0.2933,0.0208,-9.7854,0.0047,0.0398,0.2689,0.2694,3,18,0.68,1.07,0.36,24.352,21.32,88.2,33.2,19410.0,7819,7802,7874,7650,52.3,50.4,49.5,49.9,2.802,2.682,2.782,2.949,4.96,110.6,25.2,55.7,1011.45,-31.96,0.2,1.13,22.3,31.5,30.4,0,no_anomaly,0.0,0,0,0,0,26.8466935,80.9462201,20.8,0.0
2024-09-26T09:28:11.600Z,MISSION_0009,116,0,transit,SITE_LKN_010,26.8466957,80.946222,20.8,127.4,4.524,0.136,2.5,-2.1207,-3.3686,127.4049,0.44325,0.01815,-0.0296,0.89572,-0.0368,0.043,-9.7726,-0.0932,0.7311,0.2654,0.284,3,20,0.65,0.77,0.28,24.524,23.02,88.2,33.4,19395.0,7749,7495,7791,7864,46.3,52.5,49.0,51.2,3.228,2.872,2.794,2.681,6.29,109.8,25.3,56.3,1011.34,-28.0,-0.75,1.46,18.2,31.1,26.0,0,no_anomaly,0.0,0,0,0,0,26.8466957,80.946222,20.8,0.0
2024-09-26T09:28:11.700Z,MISSION_0009,117,0,transit,SITE_LKN_010,26.8467011,80.946223,20.8,129.0,4.888,0.045,2.56,2.2108,-1.0095,129.0021,0.43024,0.01625,0.01362,0.90246,0.0481,0.0517,-9.8501,0.2561,-0.1058,-0.0364,0.1761,3,13,0.77,0.86,0.33,24.524,24.71,88.1,33.0,19379.0,7758,7902,7954,7775,51.4,50.5,49.6,49.2,2.644,2.872,2.711,2.674,5.83,114.7,25.1,56.9,1011.41,-30.16,-0.07,1.65,17.1,34.6,26.8,0,no_anomaly,0.0,0,0,0,0,26.8467011,80.946223,20.8,0.0
2024-09-26T09:28:11.800Z,MISSION_0009,118,0,transit,SITE_LKN_010,26.8467003,80.9462247,20.8,129.19,5.413,0.096,2.75,0.7038,-1.1805,129.1885,0.42894,0.01194,0.00113,0.90325,0.1525,-0.0311,-9.7235,-0.0175,0.1598,0.1703,0.1948,3,16,0.68,0.89,0.33,24.566,18.92,88.0,34.1,19364.0,7774,7858,7632,7699,51.6,50.0,50.5,49.8,2.769,2.807,2.752,2.958,6.25,107.0,25.2,56.0,1011.22,-28.32,0.34,1.61,22.1,31.0,28.5,0,no_anomaly,0.0,0,0,0,0,26.8467003,80.9462247,20.8,0.0
2024-09-26T09:28:11.900Z,MISSION_0009,119,0,transit,SITE_LKN_010,26.8467009,80.9462256,20.8,128.46,4.716,0.12,2.85,6.3016,-3.5086,128.4594,0.43239,0.05141,0.03618,0.89949,-0.0357,-0.0349,-9.8624,0.0787,0.1228,0.0495,0.2767,3,20,0.77,0.63,0.33,24.453,14.66,87.9,33.5,19349.0,7755,7670,7630,7750,51.1,47.6,49.2,52.7,2.9,2.752,2.651,2.676,5.98,115.1,24.8,57.0,1011.3,-27.13,1.14,1.92,20.4,38.6,30.8,0,no_anomaly,0.0,0,0,0,0,26.8467009,80.9462256,20.8,0.0
2024-09-26T09:28:12.000Z,MISSION_0009,120,0,transit,SITE_LKN_010,26.8466967,80.9462208,20.8,128.62,4.512,0.156,2.35,2.4238,-3.9081,128.6241,0.43247,0.03988,0.00427,0.90076,-0.0641,0.0223,-9.7992,1.0874,0.2356,0.1189,0.2126,3,15,0.83,0.83,0.25,24.334,19.24,87.9,33.6,19334.0,7726,7608,7688,7623,48.8,51.7,51.7,51.7,2.4,2.693,2.719,2.582,6.11,107.2,25.1,56.2,1010.82,-32.59,0.39,1.9,21.1,31.1,26.8,0,no_anomaly,0.0,0,0,0,0,26.8466967,80.9462208,20.8,0.0
2024-09-26T09:28:12.100Z,MISSION_0009,121,0,transit,SITE_LKN_010,26.8466963,80.9462113,20.8,128.9,4.953,0.064,1.32,2.7695,-1.1949,128.8965,0.43095,0.01983,0.01731,0.90199,-0.4013,-0.047,-9.8227,-0.9844,0.0034,0.1238,0.1564,3,10,0.53,0.78,0.2,24.529,19.45,87.8,34.0,19318.0,7939,7335,7720,7524,49.7,49.3,53.0,51.9,3.038,2.923,2.77,2.84,5.52,114.6,25.3,55.5,1011.27,-31.25,1.57,1.4,19.1,39.1,28.2,0,no_anomaly,0.0,0,0,0,0,26.8466963,80.9462113,20.8,0.0
2024-09-26T09:28:12.200Z,MISSION_0009,122,0,transit,SITE_LKN_010,26.8466968,80.9462113,20.8,129.22,4.929,0.107,1.3,-0.0094,0.6886,129.2207,0.42876,-0.00546,0.0025,0.9034,0.063,0.0157,-9.7995,-0.7082,0.3786,-0.1496,0.1921,3,12,0.69,1.11,0.2,24.466,16.57,87.7,33.1,19303.0,7445,7539,7642,7900,49.2,53.3,50.2,53.7,3.063,2.94,2.813,2.705,5.5,114.7,25.2,56.1,1011.39,-33.9,0.51,1.76,18.7,31.6,28.0,0,no_anomaly,0.0,0,0,0,0,26.8466968,80.9462113,20.8,0.0
2024-09-26T09:28:12.300Z,MISSION_0009,123,0,transit,SITE_LKN_010,26.8466957,80.9462146,20.8,129.87,5.012,0.121,1.7,2.4024,-5.1773,129.8724,0.42224,0.04977,-0.00016,0.90511,0.0417,-0.0148,-9.8581,-0.6505,-0.8015,0.4215,0.1918,3,14,0.79,0.72,0.41,24.491,21.71,87.7,33.4,19288.0,7763,7732,7812,7618,51.0,51.2,54.0,48.3,2.885,2.774,2.751,2.769,5.21,114.1,25.0,56.5,1011.39,-28.96,0.17,1.0,19.8,35.7,23.9,0,no_anomaly,0.0,0,0,0,0,26.8466957,80.9462146,20.8,0.0
2024-09-26T09:28:12.400Z,MISSION_0009,124,0,transit,SITE_LKN_010,26.8466979,80.9462164,20.8,129.3,5.104,0.103,1.84,3.8265,-4.0334,129.3014,0.42657,0.04607,0.01509,0.90315,0.0476,0.0228,-9.7538,0.2367,0.3325,-0.2782,0.2029,3,20,0.74,0.83,0.4,24.412,20.96,87.6,33.4,19272.0,7614,7420,7740,7841,53.5,50.1,52.6,52.3,2.769,2.611,2.826,2.825,5.81,117.0,25.0,56.0,1011.54,-23.16,0.57,1.47,19.5,39.1,29.9,0,no_anomaly,0.0,0,0,0,0,26.8466979,80.9462164,20.8,0.0
2024-09-26T09:28:12.500Z,MISSION_0009,125,0,transit,SITE_LKN_010,26.8467022,80.9462136,20.8,129.63,5.289,0.024,1.54,2.7106,-3.1025,129.6254,0.42472,0.03455,0.00988,0.90461,0.171,-0.0494,-9.8328,0.7005,-0.3887,0.0233,0.2187,3,14,0.62,1.01,0.26,24.443,22.37,87.5,34.4,19257.0,7843,7762,7721,7684,49.5,48.3,51.5,52.3,2.872,2.81,2.675,2.779,5.96,114.2,24.8,57.0,1011.2,-28.39,-0.28,1.43,16.5,33.5,28.1,0,no_anomaly,0.0,0,0,0,0,26.8467022,80.9462136,20.8,0.0
2024-09-26T09:28:12.600Z,MISSION_0009,126,0,transit,SITE_LKN_010,26.846704,80.9462177,20.8,128.04,5.408,0.124,2.03,-1.1572,-3.2955,128.0361,0.43815,0.02142,-0.02167,0.89839,0.1773,-0.1061,-9.8061,-0.8607,0.4457,-0.1915,0.2982,3,20,0.51,0.68,0.2,24.464,19.93,87.5,33.5,19242.0,7859,7775,7774,8048,51.0,48.0,54.4,52.6,2.68,2.807,3.055,2.963,5.9,109.3,25.2,56.5,1011.04,-29.87,1.08,1.54,20.7,34.5,26.5,0,no_anomaly,0.0,0,0,0,0,26.846704,80.9462177,20.8,0.0
2024-09-26T09:28:12.700Z,MISSION_0009,127,0,transit,SITE_LKN_010,26.846706,80.9462155,20.8,127.64,5.554,0.153,1.85,-4.9731,-0.8635,127.6402,0.44106,-0.01238,-0.04225,0.8964,0.1473,0.0214,-9.8099,0.3839,0.3646,0.1961,0.2173,3,18,0.76,1.01,0.28,24.608,17.13,87.4,32.8,19226.0,7794,7554,8164,7812,51.1,53.0,50.4,50.4,2.867,2.868,2.595,2.804,6.05,109.3,24.8,55.6,1011.06,-28.32,-0.6,1.9,22.0,32.1,29.1,0,no_anomaly,0.0,0,0,0,0,26.846706,80.9462155,20.8,0.0
2024-09-26T09:28:12.800Z,MISSION_0009,128,0,transit,SITE_LKN_010,26.8467057,80.9462152,20.8,126.71,5.599,0.081,1.81,3.4856,-3.6227,126.7085,0.44718,0.04187,0.013,0.89337,0.1256,0.0003,-9.7803,0.6839,-0.0112,0.3764,0.2707,3,20,0.77,0.85,0.32,24.511,20.68,87.3,33.7,19211.0,7811,7551,7824,8122,51.5,51.0,46.9,48.9,2.841,2.894,2.882,2.787,5.71,110.0,25.5,56.3,1011.07,-30.66,1.55,1.18,22.0,41.5,28.0,0,no_anomaly,0.0,0,0,0,0,26.8467057,80.9462152,20.8,0.0
2024-09-26T09:28:12.900Z,MISSION_0009,129,0,transit,SITE_LKN_010,26.8467048,80.9462167,20.8,127.92,5.717,0.068,1.94,3.5024,-1.7936,127.9179,0.43833,0.02747,0.02059,0.89816,0.1244,0.0871,-9.8506,-0.4111,0.4185,-0.0582,0.241,3,11,0.84,0.75,0.3,24.49,22.02,87.3,33.3,19196.0,7577,7797,7817,7835,54.8,49.3,46.6,52.1,2.893,2.843,2.877,2.92,6.45,119.5,25.1,56.0,1011.34,-31.49,-2.04,1.38,18.6,34.6,27.9,0,no_anomaly,0.0,0,0,0,0,26.8467048,80.9462167,20.8,0.0
