timestamp_utc,mission_id,frame_id,waypoint_id,inspection_phase,site_id,latitude_deg,longitude_deg,altitude_m,heading_deg,ground_speed_ms,vertical_speed_ms,distance_to_tower_m,roll_deg,pitch_deg,yaw_deg,quat_w,quat_x,quat_y,quat_z,accel_x_ms2,accel_y_ms2,accel_z_ms2,gyro_x_rads,gyro_y_rads,gyro_z_rads,vibration_level,gps_fix_type,gps_satellite_count,gps_hdop,gps_vdop,position_error_m,battery_voltage_v,battery_current_a,battery_remaining_pct,battery_temp_c,battery_capacity_mah,motor_fl_rpm,motor_fr_rpm,motor_rl_rpm,motor_rr_rpm,motor_fl_temp_c,motor_fr_temp_c,motor_rl_temp_c,motor_rr_temp_c,motor_fl_thrust_n,motor_fr_thrust_n,motor_rl_thrust_n,motor_rr_thrust_n,wind_speed_ms,wind_dir_deg,air_temp_c,humidity_pct,pressure_hpa,gimbal_pitch_deg,gimbal_roll_deg,zoom_factor,ir_temp_min_c,ir_temp_max_c,ir_temp_avg_c,anomaly_detected,anomaly_class,anomaly_confidence,anomaly_bbox_x,anomaly_bbox_y,anomaly_bbox_w,anomaly_bbox_h,anomaly_gps_lat,anomaly_gps_lon,anomaly_gps_alt_m,ir_temp_delta_c
2024-09-03T06:31:00.000Z,MISSION_0032,0,0,takeoff,SITE_BLR_003,12.9715989,77.5946008,1.5,307.44,0.151,0.066,0.16,-0.3581,-4.4039,307.4432,-0.89593,0.01981,0.03307,0.44251,0.0171,0.0529,-9.7863,0.3871,0.3193,-0.4516,0.1277,3,17,0.69,1.02,0.22,24.737,26.46,95.5,45.0,21014.0,8076,8214,8197,8348,63.7,63.9,61.3,63.3,2.719,2.745,2.888,2.877,1.11,62.6,37.3,41.1,1010.12,-26.06,-0.91,1.13,32.0,42.5,40.4,0,no_anomaly,0.0,0,0,0,0,12.9715989,77.5946008,1.5,0.0
2024-09-03T06:31:00.100Z,MISSION_0032,1,0,takeoff,SITE_BLR_003,12.9715992,77.5946038,3.0,308.9,0.0,0.088,0.44,2.4026,-0.604,308.9031,-0.90206,-0.01664,0.0138,0.43107,0.0734,-0.0957,-9.8432,-0.155,-0.5663,-0.2739,0.112,3,13,0.58,1.06,0.27,24.731,16.46,95.5,45.9,20999.0,8095,8184,8026,7875,62.2,62.7,62.2,61.2,2.845,2.891,2.829,2.811,0.63,56.0,37.9,41.7,1010.16,-32.05,0.06,1.61,27.7,50.0,37.4,0,no_anomaly,0.0,0,0,0,0,12.9715992,77.5946038,3.0,0.0
2024-09-03T06:31:00.200Z,MISSION_0032,2,0,takeoff,SITE_BLR_003,12.9715999,77.5946007,4.5,309.36,0.027,0.05,0.07,-4.4606,-4.3695,309.362,-0.90196,0.05144,0.0178,0.42836,-0.0836,-0.0584,-9.8334,-0.0445,0.601,0.7707,0.0917,3,17,0.5,0.96,0.2,24.694,24.96,95.4,45.8,20985.0,8568,8138,8148,8088,63.6,61.2,64.4,62.4,2.549,2.981,2.995,2.834,0.34,55.8,37.6,41.9,1010.1,-26.71,0.76,1.5,31.1,48.3,39.9,0,no_anomaly,0.0,0,0,0,0,12.9715999,77.5946007,4.5,0.0
2024-09-03T06:31:00.300Z,MISSION_0032,3,0,takeoff,SITE_BLR_003,12.9715979,77.5946076,5.0,309.6,0.0,0.114,0.88,-0.3254,-0.4654,309.6007,-0.90481,0.0043,0.00247,0.42578,0.0039,0.0057,-9.7705,0.0621,0.6871,-0.3134,0.1565,3,16,0.66,0.78,0.25,24.709,20.79,95.3,46.4,20970.0,8296,8239,8173,8366,61.2,64.5,63.5,62.6,2.711,2.694,2.836,3.025,0.08,62.3,37.6,42.4,1010.21,-30.08,-0.42,1.41,35.3,52.5,41.8,0,no_anomaly,0.0,0,0,0,0,12.9715979,77.5946076,5.0,0.0
2024-09-03T06:31:00.400Z,MISSION_0032,4,0,takeoff,SITE_BLR_003,12.9716005,77.5946106,5.0,309.72,0.147,-0.018,1.18,-0.5293,-4.4686,309.7193,-0.9045,0.02074,0.03333,0.42467,-0.0465,-0.0458,-9.8072,0.6741,-0.6985,-0.2535,0.0854,3,17,0.72,1.06,0.34,24.681,18.61,95.2,45.5,20955.0,8241,8407,8090,8162,63.7,59.8,59.8,62.5,2.602,2.923,2.791,2.876,0.84,61.8,37.5,41.3,1009.91,-30.58,0.45,1.65,32.8,49.7,39.8,0,no_anomaly,0.0,0,0,0,0,12.9716005,77.5946106,5.0,0.0
2024-09-03T06:31:00.500Z,MISSION_0032,5,0,takeoff,SITE_BLR_003,12.9716022,77.5946115,5.0,309.86,0.282,0.138,1.3,0.2775,-2.8529,309.8589,-0.90553,0.00836,0.02357,0.42355,-0.0257,-0.085,-9.837,0.024,0.1378,0.1384,0.1362,3,10,0.77,1.03,0.35,24.743,15.44,95.2,45.5,20940.0,8024,8178,8271,8164,61.5,60.8,60.6,62.8,2.649,2.89,2.78,2.823,0.41,52.4,37.3,41.4,1009.84,-29.35,-0.3,1.2,30.2,50.0,40.5,0,no_anomaly,0.0,0,0,0,0,12.9716022,77.5946115,5.0,0.0
2024-09-03T06:31:00.600Z,MISSION_0032,6,0,takeoff,SITE_BLR_003,12.9716031,77.5946147,5.0,309.73,0.175,0.089,1.68,-0.6284,-1.6439,309.7259,-0.90515,0.01106,0.01066,0.42481,-0.0251,-0.0532,-9.8343,-0.2439,-0.5254,-0.3106,0.1707,3,12,0.55,0.78,0.21,24.74,11.63,95.1,45.5,20925.0,8408,8091,8265,8265,65.5,60.9,60.2,61.1,2.973,2.805,2.756,2.627,0.0,59.6,37.4,40.9,1010.11,-28.3,0.08,1.87,35.4,50.7,40.6,0,no_anomaly,0.0,0,0,0,0,12.9716031,77.5946147,5.0,0.0
2024-09-03T06:31:00.700Z,MISSION_0032,7,0,takeoff,SITE_BLR_003,12.9716053,77.5946197,5.0,309.11,0.518,0.07,2.27,-1.4827,-2.6984,309.1067,-0.90253,0.0218,0.0157,0.42979,0.0973,0.0452,-9.7548,-0.6056,0.7384,0.367,0.1439,3,18,0.64,0.68,0.24,24.699,17.4,95.0,45.5,20910.0,8411,8248,8571,8140,60.5,60.7,59.7,65.7,2.923,3.003,2.78,2.658,0.6,63.8,37.8,41.6,1009.88,-27.43,-1.35,1.66,28.4,44.6,36.9,0,no_anomaly,0.0,0,0,0,0,12.9716053,77.5946197,5.0,0.0
2024-09-03T06:31:00.800Z,MISSION_0032,8,0,takeoff,SITE_BLR_003,12.9716047,77.5946217,5.0,307.55,0.659,0.135,2.47,1.4477,0.1264,307.5537,-0.897,-0.01182,0.00459,0.44185,0.0977,0.052,-9.7454,-0.8762,0.8534,-0.7349,0.1778,3,11,0.84,0.9,0.4,24.604,21.83,95.0,44.9,20895.0,8168,8404,8203,8398,62.3,62.6,65.6,63.0,2.835,2.672,2.652,2.665,1.0,59.1,37.4,41.6,1010.13,-33.26,-0.12,1.72,29.1,50.8,36.1,0,no_anomaly,0.0,0,0,0,0,12.9716047,77.5946217,5.0,0.0
2024-09-03T06:31:00.900Z,MISSION_0032,9,0,takeoff,SITE_BLR_003,12.9716047,77.5946199,5.0,305.65,1.341,0.044,2.28,0.7076,-2.1018,305.6517,-0.88951,0.00288,0.01914,0.45651,0.0957,0.0126,-9.9212,-0.1415,0.0796,0.5138,0.0683,3,13,0.7,0.91,0.31,24.673,22.52,94.9,46.2,20880.0,8167,8263,8266,8103,59.4,61.7,56.7,63.4,2.842,3.091,2.892,2.816,1.44,55.8,37.3,41.4,1010.42,-24.07,-0.19,1.39,33.1,50.2,38.5,0,no_anomaly,0.0,0,0,0,0,12.9716047,77.5946199,5.0,0.0
2024-09-03T06:31:01.000Z,MISSION_0032,10,0,takeoff,SITE_BLR_003,12.9716058,77.594614,5.0,306.02,0.993,0.105,1.69,-0.034,-0.2094,306.0231,-0.8911,0.00109,0.00149,0.45381,0.0653,0.0341,-9.7786,0.8062,-0.5316,-0.2106,0.1212,3,11,0.83,0.87,0.42,24.673,16.54,94.8,45.5,20866.0,8273,8196,8424,8359,64.8,63.9,59.5,60.7,2.863,2.72,2.747,2.857,0.86,64.9,37.2,42.5,1009.94,-29.82,0.95,1.94,36.6,49.0,41.2,0,no_anomaly,0.0,0,0,0,0,12.9716058,77.594614,5.0,0.0
2024-09-03T06:31:01.100Z,MISSION_0032,11,0,takeoff,SITE_BLR_003,12.9716078,77.5946119,5.0,305.37,1.649,0.077,1.58,0.7315,-2.2688,305.3653,-0.88834,0.00342,0.02052,0.45871,-0.0413,-0.0164,-9.821,0.0115,0.6031,0.3779,0.1275,3,15,0.79,0.89,0.29,24.605,15.11,94.8,45.7,20851.0,8117,8181,8302,8328,61.2,66.2,59.4,63.4,2.777,2.888,2.773,3.044,1.16,65.4,37.6,41.3,1010.08,-31.23,-0.49,1.31,29.4,49.7,40.4,0,no_anomaly,0.0,0,0,0,0,12.9716078,77.5946119,5.0,0.0
2024-09-03T06:31:01.200Z,MISSION_0032,12,0,takeoff,SITE_BLR_003,12.9716038,77.5946145,5.0,307.51,1.824,0.072,1.67,1.176,-0.8172,307.5109,-0.89688,-0.00605,0.01093,0.4421,-0.0632,-0.0565,-9.8579,0.0077,0.4846,0.4202,0.1261,3,19,0.76,0.92,0.34,24.682,18.1,94.7,45.4,20836.0,7978,8183,8207,8118,58.8,62.1,61.7,62.3,2.751,2.725,2.681,3.004,0.16,59.8,37.4,42.1,1010.18,-36.81,0.63,1.54,34.3,51.1,42.1,0,no_anomaly,0.0,0,0,0,0,12.9716038,77.5946145,5.0,0.0
2024-09-03T06:31:01.300Z,MISSION_0032,13,0,takeoff,SITE_BLR_003,12.9716088,77.5946104,5.0,308.66,1.605,0.071,1.51,0.4764,-3.4505,308.6639,-0.90096,0.0093,0.02894,0.43284,-0.059,-0.0413,-9.817,0.4661,-0.225,-0.6142,0.0961,3,19,0.68,0.83,0.33,24.706,15.99,94.6,44.5,20821.0,8675,8189,8338,8077,66.8,58.0,66.3,61.0,2.761,2.583,2.391,2.626,0.61,61.6,37.4,42.0,1010.04,-25.98,1.17,2.02,32.4,52.2,42.2,0,no_anomaly,0.0,0,0,0,0,12.9716088,77.5946104,5.0,0.0
2024-09-03T06:31:01.400Z,MISSION_0032,14,0,takeoff,SITE_BLR_003,12.9716117,77.5946119,5.0,309.09,1.434,0.113,1.86,1.2974,-1.8866,309.0899,-0.90282,-0.00315,0.01973,0.42955,-0.0295,-0.0092,-9.854,0.5625,0.5544,0.1098,0.114,3,16,0.69,0.84,0.27,24.578,26.69,94.6,45.3,20806.0,8208,8279,8107,8109,66.8,63.3,63.7,61.1,2.489,2.64,2.857,3.106,0.56,54.7,37.4,41.2,1009.8,-27.98,-0.84,1.81,31.2,51.9,40.5,0,no_anomaly,0.0,0,0,0,0,12.9716117,77.5946119,5.0,0.0
2024-09-03T06:31:01.500Z,MISSION_0032,15,0,takeoff,SITE_BLR_003,12.971612,77.5946055,5.0,308.17,1.423,0.1,1.47,0.4263,-1.5135,308.1743,-0.8994,0.00243,0.01351,0.43692,-0.0328,-0.0203,-9.7983,0.3211,0.1339,-0.3543,0.1446,3,10,0.55,1.01,0.25,24.692,24.54,94.5,45.8,20791.0,8187,8149,7942,8143,59.1,62.2,63.9,63.8,2.995,2.853,2.815,2.701,1.34,57.7,37.3,42.0,1010.22,-31.89,-0.44,1.76,32.6,44.5,36.7,0,no_anomaly,0.0,0,0,0,0,12.971612,77.5946055,5.0,0.0
2024-09-03T06:31:01.600Z,MISSION_0032,16,0,takeoff,SITE_BLR_003,12.9716126,77.5946055,5.0,308.11,1.493,0.049,1.53,-0.0765,-4.0361,308.1052,-0.89863,0.01601,0.03137,0.4373,-0.0705,0.0269,-9.7112,-0.7579,0.497,0.5291,0.1342,3,10,0.75,0.95,0.24,24.649,14.78,94.4,45.3,20776.0,7924,8292,8400,8196,61.6,64.0,59.5,65.7,2.82,2.768,3.135,2.437,0.03,56.2,38.0,41.8,1009.87,-27.53,0.77,1.42,32.3,45.1,41.2,0,no_anomaly,0.0,0,0,0,0,12.9716126,77.5946055,5.0,0.0
2024-09-03T06:31:01.700Z,MISSION_0032,17,0,takeoff,SITE_BLR_003,12.971611,77.5946055,5.0,307.72,1.627,0.093,1.37,0.5113,-1.0402,307.7238,-0.89771,-1e-05,0.01011,0.44048,-0.0804,0.083,-9.8392,0.4643,0.003,-0.2346,0.1426,3,20,0.61,0.84,0.33,24.632,21.74,94.4,46.0,20762.0,8175,8012,8155,8111,65.2,61.7,62.5,62.9,2.671,2.578,2.661,2.882,0.21,52.7,37.5,42.2,1009.76,-26.06,-0.48,1.7,35.3,43.2,41.2,0,no_anomaly,0.0,0,0,0,0,12.971611,77.5946055,5.0,0.0
2024-09-03T06:31:01.800Z,MISSION_0032,18,0,takeoff,SITE_BLR_003,12.9716131,77.5946089,5.0,306.06,1.264,0.11,1.76,-1.7598,-2.6503,306.0645,-0.89076,0.02417,0.01365,0.45363,0.0792,-0.073,-9.8311,0.0451,0.2555,0.1533,0.0848,3,19,0.7,0.78,0.29,24.709,18.16,94.3,46.1,20747.0,8087,8259,8351,8184,59.7,62.1,62.5,63.1,2.359,3.042,2.776,2.819,0.34,58.9,37.4,41.3,1009.95,-30.62,0.63,1.61,29.7,48.0,40.6,0,no_anomaly,0.0,0,0,0,0,12.9716131,77.5946089,5.0,0.0
2024-09-03T06:31:01.900Z,MISSION_0032,19,0,takeoff,SITE_BLR_003,12.9716156,77.5946072,5.0,306.27,1.598,0.067,1.91,-1.7173,-2.1789,306.2725,-0.89169,0.02196,0.01019,0.45199,0.0024,-0.0655,-9.8492,0.7109,-0.2182,-0.1755,0.1716,3,16,0.8,0.82,0.37,24.64,20.93,94.2,44.6,20732.0,8301,8228,8426,8202,61.5,60.7,63.2,62.8,2.922,2.964,2.689,2.871,0.59,62.8,37.3,41.9,1010.22,-33.09,1.3,1.36,34.0,50.4,37.7,0,no_anomaly,0.0,0,0,0,0,12.9716156,77.5946072,5.0,0.0
2024-09-03T06:31:02.000Z,MISSION_0032,20,0,takeoff,SITE_BLR_003,12.9716174,77.5946018,5.0,306.86,1.298,0.145,1.95,-1.0511,-1.139,306.8576,-0.89426,0.01265,0.00479,0.44735,-0.0732,-0.0758,-9.8866,-0.0494,0.0391,0.2355,0.1492,3,20,0.67,0.73,0.34,24.652,15.86,94.2,45.5,20717.0,8286,8044,8230,8352,64.1,59.9,61.5,62.2,2.892,2.931,2.551,2.897,1.28,56.7,37.6,42.2,1010.08,-29.13,1.73,1.23,30.2,50.5,42.3,0,no_anomaly,0.0,0,0,0,0,12.9716174,77.5946018,5.0,0.0
2024-09-03T06:31:02.100Z,MISSION_0032,21,0,takeoff,SITE_BLR_003,12.97162,77.5945947,5.0,308.29,1.073,0.041,2.31,3.1306,-2.861,308.2933,-0.89959,-0.01369,0.03437,0.43516,0.1639,-0.0243,-9.812,0.5785,-0.1068,-0.3964,0.0722,3,19,0.82,0.85,0.42,24.661,23.76,94.1,45.4,20702.0,8126,8088,7932,8284,64.7,62.8,62.9,60.9,2.484,2.754,2.998,2.727,0.68,66.7,37.5,40.8,1010.28,-30.3,0.38,1.69,31.3,49.5,38.4,0,no_anomaly,0.0,0,0,0,0,12.97162,77.5945947,5.0,0.0
2024-09-03T06:31:02.200Z,MISSION_0032,22,0,takeoff,SITE_BLR_003,12.9716232,77.5945951,5.0,309.17,1.466,-0.019,2.64,-0.0941,-1.5077,309.1698,-0.90314,0.00639,0.01153,0.42915,-0.0052,0.0296,-9.8102,0.1179,0.0922,-0.5204,0.0203,3,12,0.67,0.84,0.2,24.616,22.18,94.0,45.8,20687.0,7922,8269,8334,8082,62.4,64.4,65.6,60.6,2.828,3.066,2.663,3.003,0.87,65.7,37.4,41.7,1009.97,-29.09,-0.02,1.34,32.0,43.8,42.0,0,no_anomaly,0.0,0,0,0,0,12.9716232,77.5945951,5.0,0.0
2024-09-03T06:31:02.300Z,MISSION_0032,23,0,takeoff,SITE_BLR_003,12.9716201,77.5945908,5.0,310.79,1.328,0.083,2.46,-1.6682,-4.1024,310.7877,-0.9083,0.02813,0.02648,0.41654,-0.0642,0.0513,-9.765,0.2158,0.2009,0.0022,0.0656,3,16,0.5,0.93,0.2,24.641,19.17,94.0,46.3,20672.0,7957,8299,8438,8354,63.2,64.0,65.7,58.7,2.608,2.713,2.642,3.088,0.32,58.2,37.2,41.2,1009.63,-27.78,0.44,2.1,34.3,44.0,41.6,0,no_anomaly,0.0,0,0,0,0,12.9716201,77.5945908,5.0,0.0
2024-09-03T06:31:02.400Z,MISSION_0032,24,0,takeoff,SITE_BLR_003,12.9716253,77.5945932,5.0,311.93,1.289,0.154,2.92,3.1646,0.3239,311.9294,-0.91291,-0.02637,0.00867,0.40721,0.0021,0.0229,-9.8953,-0.7135,-1.2581,0.5346,0.0724,3,10,0.52,0.96,0.23,24.656,20.42,93.9,44.7,20657.0,8478,8171,8045,8512,63.8,62.1,64.6,63.4,2.791,2.63,3.012,2.71,0.58,62.3,37.5,41.0,1010.07,-36.44,1.62,1.21,30.8,46.8,39.8,0,no_anomaly,0.0,0,0,0,0,12.9716253,77.5945932,5.0,0.0
2024-09-03T06:31:02.500Z,MISSION_0032,25,0,takeoff,SITE_BLR_003,12.9716234,77.5945955,5.0,311.84,1.346,0.076,2.65,-1.0088,-5.0466,311.8446,-0.91191,0.02599,0.03661,0.40792,0.1007,-0.0404,-9.8613,-0.6964,0.1135,-0.094,0.0014,3,12,0.8,0.93,0.35,24.639,14.48,93.8,45.8,20643.0,8178,8222,8254,8217,65.0,64.6,65.0,61.5,2.73,2.758,2.676,2.584,0.88,65.8,37.4,41.9,1010.54,-33.93,-1.08,1.75,36.7,49.3,42.5,0,no_anomaly,0.0,0,0,0,0,12.9716234,77.5945955,5.0,0.0
2024-09-03T06:31:02.600Z,MISSION_0032,26,0,takeoff,SITE_BLR_003,12.9716241,77.5945968,5.0,313.55,1.254,0.106,2.71,0.6078,-3.1504,313.5504,-0.91866,0.00597,0.02735,0.39405,0.092,0.0111,-9.6812,0.2514,-1.1276,0.3058,0.0922,3,10,0.68,0.92,0.2,24.566,21.53,93.8,45.7,20628.0,8187,8187,8029,8190,60.7,60.6,61.3,61.8,2.536,2.604,2.8,2.868,0.0,61.3,37.4,41.6,1010.29,-29.9,0.36,1.19,30.7,44.6,37.7,0,no_anomaly,0.0,0,0,0,0,12.9716241,77.5945968,5.0,0.0
2024-09-03T06:31:02.700Z,MISSION_0032,27,0,takeoff,SITE_BLR_003,12.9716227,77.5945996,5.0,311.9,0.858,0.106,2.53,-1.6706,-3.46,311.9016,-0.9125,0.02561,0.02163,0.40769,-0.0274,0.0363,-9.8254,-0.2247,0.0668,-0.0296,0.1271,3,20,0.66,0.88,0.34,24.708,17.96,93.7,46.0,20613.0,8105,8219,7805,8175,62.3,64.0,61.8,67.6,2.963,2.971,2.899,2.942,1.47,57.9,37.6,41.0,1010.08,-34.39,-0.42,1.8,35.2,51.8,40.2,0,no_anomaly,0.0,0,0,0,0,12.9716227,77.5945996,5.0,0.0
2024-09-03T06:31:02.800Z,MISSION_0032,28,0,takeoff,SITE_BLR_003,12.9716175,77.5946018,5.0,310.94,0.894,0.068,1.96,3.0863,-3.2368,310.94,-0.90937,-0.01277,0.03686,0.41416,0.0335,0.0775,-9.9008,-0.1602,-0.6844,0.3686,0.2599,3,20,0.65,0.83,0.2,24.588,19.68,93.6,45.6,20598.0,8433,8296,8338,8420,59.9,61.3,62.6,63.3,2.769,2.743,2.751,2.851,1.0,54.7,37.3,40.5,1010.54,-30.72,-1.62,1.47,34.3,42.7,37.4,0,no_anomaly,0.0,0,0,0,0,12.9716175,77.5946018,5.0,0.0
2024-09-03T06:31:02.900Z,MISSION_0032,29,0,takeoff,SITE_BLR_003,12.9716164,77.5945995,5.0,309.56,1.523,0.038,1.83,0.2133,-3.7285,309.555,-0.90421,0.01218,0.03022,0.42585,-0.057,-0.0035,-9.7952,0.3061,0.1878,0.0423,0.1443,3,14,0.69,1.15,0.28,24.628,20.78,93.6,45.5,20583.0,8107,8104,7989,8136,62.8,60.9,62.5,67.3,2.695,2.878,2.868,2.697,1.66,52.0,37.4,41.2,1010.13,-28.45,0.71,1.72,33.3,51.6,39.2,0,no_anomaly,0.0,0,0,0,0,12.9716164,77.5945995,5.0,0.0
2024-09-03T06:31:03.000Z,MISSION_0032,30,0,takeoff,SITE_BLR_003,12.971619,77.5946011,5.0,309.07,1.921,0.083,2.12,1.5993,-0.8947,309.0704,-0.90278,-0.00924,0.01305,0.4298,0.0212,0.1021,-9.7503,0.6826,-0.367,-0.0145,0.0987,3,15,0.7,0.97,0.22,24.607,20.48,93.5,45.3,20568.0,8220,8206,8402,8120,61.9,64.9,60.5,62.1,2.952,2.83,2.707,2.66,0.68,62.4,37.7,41.6,1009.87,-31.23,-1.47,1.16,33.7,42.1,40.2,0,no_anomaly,0.0,0,0,0,0,12.971619,77.5946011,5.0,0.0
2024-09-03T06:31:03.100Z,MISSION_0032,31,0,takeoff,SITE_BLR_003,12.9716233,77.5946032,5.0,308.25,1.801,0.066,2.61,-1.9102,-0.3809,308.2496,-0.89959,0.01645,-0.00428,0.4364,0.0116,-0.0311,-9.7908,0.0002,0.8073,0.0838,0.1029,3,16,0.67,1.04,0.29,24.641,20.99,93.4,44.6,20553.0,8117,8349,8283,8224,58.3,63.8,63.2,65.0,2.696,2.83,2.628,2.963,0.55,63.0,37.6,41.9,1010.2,-30.54,-1.03,1.19,32.3,49.6,39.8,0,no_anomaly,0.0,0,0,0,0,12.9716233,77.5946032,5.0,0.0
2024-09-03T06:31:03.200Z,MISSION_0032,32,0,takeoff,SITE_BLR_003,12.9716232,77.5946002,5.0,307.22,1.313,0.032,2.58,-5.0127,-3.1415,307.2235,-0.89408,0.05133,0.0051,0.44493,-0.0234,0.037,-9.7784,-0.239,0.1707,0.4853,0.0541,3,10,0.65,0.7,0.2,24.611,17.8,93.4,46.5,20539.0,8292,8119,8288,8081,63.6,62.6,64.9,59.2,2.708,2.827,2.997,2.515,1.05,53.5,37.2,42.4,1010.07,-29.6,1.49,1.58,36.8,44.6,43.0,0,no_anomaly,0.0,0,0,0,0,12.9716232,77.5946002,5.0,0.0
2024-09-03T06:31:03.300Z,MISSION_0032,33,0,takeoff,SITE_BLR_003,12.9716232,77.5946006,5.0,306.78,1.328,0.078,2.58,0.1136,-5.4277,306.7823,-0.8931,0.02032,0.04278,0.44735,-0.0129,-0.0629,-9.7043,0.1242,0.1589,-0.1322,0.1288,3,15,0.59,0.94,0.33,24.609,24.66,93.3,46.2,20524.0,8058,8398,7952,8427,59.4,60.9,64.3,65.2,2.788,2.73,2.691,2.971,0.63,61.5,37.6,41.6,1010.11,-36.74,-1.05,1.65,31.2,53.4,43.4,0,no_anomaly,0.0,0,0,0,0,12.9716232,77.5946006,5.0,0.0
2024-09-03T06:31:03.400Z,MISSION_0032,34,0,takeoff,SITE_BLR_003,12.9716196,77.5946033,5.0,307.99,1.789,0.093,2.22,0.9239,-2.8519,307.988,-0.89853,0.00367,0.0259,0.43814,-0.058,-0.0709,-9.8148,-0.3339,0.3249,0.3246,0.0748,3,18,0.53,0.91,0.23,24.612,19.8,93.2,45.9,20509.0,8297,8069,8129,7926,61.5,60.5,67.6,65.3,2.721,2.936,2.889,2.582,1.03,63.8,37.7,40.8,1010.14,-28.84,0.51,1.5,32.1,44.3,38.8,0,no_anomaly,0.0,0,0,0,0,12.9716196,77.5946033,5.0,0.0
2024-09-03T06:31:03.500Z,MISSION_0032,35,0,takeoff,SITE_BLR_003,12.9716189,77.5945997,5.0,307.17,2.015,0.158,2.11,-1.7083,-4.519,307.1703,-0.89454,0.03088,0.02868,0.445,0.0843,-0.0341,-9.8797,-1.2739,-0.6744,0.0233,0.1186,3,10,0.72,1.18,0.2,24.616,20.05,93.2,45.3,20494.0,8212,8243,8223,8032,61.8,63.4,64.0,66.1,2.794,2.879,2.834,2.803,0.95,57.1,37.5,41.9,1009.85,-27.39,1.12,1.21,35.2,42.7,39.4,0,no_anomaly,0.0,0,0,0,0,12.9716189,77.5945997,5.0,0.0
2024-09-03T06:31:03.600Z,MISSION_0032,36,0,takeoff,SITE_BLR_003,12.9716192,77.5946027,5.0,307.96,1.912,0.182,2.16,0.8944,-3.1254,307.9608,-0.89838,0.00495,0.02793,0.43831,-0.0118,0.0376,-9.7295,-0.8402,-0.2759,-0.2778,0.0984,3,10,0.58,0.92,0.23,24.613,19.68,93.1,44.7,20479.0,8159,8349,8312,8374,60.8,62.4,62.1,66.1,2.919,2.675,2.861,2.556,1.26,61.1,37.2,42.1,1009.97,-31.92,0.51,1.09,32.2,51.9,40.0,0,no_anomaly,0.0,0,0,0,0,12.9716192,77.5946027,5.0,0.0
2024-09-03T06:31:03.700Z,MISSION_0032,37,0,takeoff,SITE_BLR_003,12.9716266,77.5946038,5.0,307.69,2.262,0.127,2.99,-3.2989,-1.4688,307.693,-0.89701,0.03148,-0.00119,0.44089,0.0297,0.0374,-9.8263,-0.1712,0.1926,0.0864,0.122,3,14,0.55,0.9,0.27,24.611,21.97,93.0,45.2,20464.0,8295,8208,8200,8430,64.6,59.3,63.5,61.0,2.749,2.684,2.957,2.75,1.61,72.6,36.8,42.1,1010.14,-30.46,-2.12,1.35,31.2,49.3,41.2,0,no_anomaly,0.0,0,0,0,0,12.9716266,77.5946038,5.0,0.0
2024-09-03T06:31:03.800Z,MISSION_0032,38,0,takeoff,SITE_BLR_003,12.9716251,77.594598,5.0,308.14,2.374,-0.007,2.81,4.6642,-0.0862,308.1386,-0.89859,-0.03627,0.01847,0.43689,0.0457,0.0683,-9.8095,0.0376,0.6846,-0.3736,0.0685,3,13,0.64,1.0,0.36,24.529,18.46,93.0,44.7,20449.0,8165,8254,8334,8490,62.5,63.7,64.0,63.0,2.735,2.891,2.837,2.912,1.4,62.9,37.3,41.1,1010.15,-26.26,-0.03,2.06,33.0,44.8,38.7,0,no_anomaly,0.0,0,0,0,0,12.9716251,77.594598,5.0,0.0
2024-09-03T06:31:03.900Z,MISSION_0032,39,0,takeoff,SITE_BLR_003,12.9716242,77.5946014,5.0,310.19,2.322,0.062,2.7,-0.7352,-3.6899,310.1865,-0.90642,0.01937,0.0265,0.4211,-0.005,0.0331,-9.8266,0.1152,-0.2628,-0.3484,0.1154,3,10,0.74,1.06,0.31,24.543,18.71,92.9,45.7,20434.0,8225,8226,7917,8281,60.4,62.9,59.3,62.8,2.707,2.88,3.076,2.713,0.86,60.8,37.5,41.7,1009.84,-33.34,-0.09,1.34,33.0,52.5,40.8,0,no_anomaly,0.0,0,0,0,0,12.9716242,77.5946014,5.0,0.0
2024-09-03T06:31:04.000Z,MISSION_0032,40,0,takeoff,SITE_BLR_003,12.9716256,77.5945999,5.0,307.17,2.486,0.143,2.85,2.3665,-2.8782,307.1745,-0.89537,-0.00732,0.03167,0.44413,0.0404,-0.0279,-9.7742,0.013,0.9754,-0.0187,0.101,3,17,0.67,0.82,0.2,24.545,22.25,92.8,46.2,20420.0,8443,8210,8335,7984,58.3,58.8,64.1,62.0,3.02,2.859,2.679,2.767,0.27,59.1,37.2,41.7,1010.3,-28.48,0.73,1.59,33.4,43.9,39.9,0,no_anomaly,0.0,0,0,0,0,12.9716256,77.5945999,5.0,0.0
2024-09-03T06:31:04.100Z,MISSION_0032,41,0,takeoff,SITE_BLR_003,12.9716276,77.5946009,5.0,307.45,2.576,0.108,3.07,-1.9073,-1.3494,307.4517,-0.89641,0.02014,0.00319,0.44275,-0.036,0.0691,-9.7574,0.4036,-0.4578,-0.4927,0.0826,3,10,0.6,0.88,0.25,24.63,23.4,92.7,45.7,20405.0,8217,8139,8241,8236,63.7,63.3,65.5,60.9,2.685,3.016,2.723,2.711,1.63,69.7,37.2,42.1,1010.37,-25.62,-0.69,1.81,31.1,50.1,41.5,0,no_anomaly,0.0,0,0,0,0,12.9716276,77.5946009,5.0,0.0
2024-09-03T06:31:04.200Z,MISSION_0032,42,0,takeoff,SITE_BLR_003,12.9716267,77.5945966,5.0,306.14,2.824,0.104,3.0,0.8445,-1.5912,306.1391,-0.89149,-0.00028,0.01572,0.45276,-0.017,0.0571,-9.8273,0.31,0.4567,-0.0102,0.1469,3,12,0.7,0.66,0.35,24.646,19.51,92.7,46.0,20390.0,8339,8284,8439,8110,61.9,61.2,64.3,63.5,2.81,2.858,2.682,2.496,1.3,64.1,37.7,41.3,1010.11,-31.91,0.32,2.27,32.0,42.6,38.3,0,no_anomaly,0.0,0,0,0,0,12.9716267,77.5945966,5.0,0.0
2024-09-03T06:31:04.300Z,MISSION_0032,43,0,takeoff,SITE_BLR_003,12.9716285,77.5945966,5.0,307.83,2.965,0.05,3.19,-0.9012,-0.8158,307.8347,-0.89809,0.01019,0.00294,0.43969,0.0938,0.0387,-9.828,0.1062,-0.4749,-0.0341,0.0759,3,11,0.51,1.03,0.22,24.585,22.76,92.6,45.4,20375.0,8151,8454,7832,8277,63.9,63.4,61.0,63.0,2.82,2.749,2.939,2.774,0.0,62.2,37.2,41.9,1009.88,-29.31,0.22,1.64,33.6,51.5,38.1,0,no_anomaly,0.0,0,0,0,0,12.9716285,77.5945966,5.0,0.0
2024-09-03T06:31:04.400Z,MISSION_0032,44,0,takeoff,SITE_BLR_003,12.971631,77.5945965,5.0,307.87,3.487,0.041,3.48,2.0132,-4.093,307.8736,-0.89787,-8e-05,0.03979,0.43845,-0.1009,-0.0178,-9.7386,0.8488,0.2258,0.4605,0.1751,3,19,0.66,0.8,0.31,24.547,21.09,92.5,45.5,20360.0,8443,8386,8092,8583,62.5,63.1,61.1,60.9,2.742,2.664,2.975,2.668,1.48,61.3,37.4,42.2,1010.41,-33.57,0.15,1.28,28.8,48.2,39.1,0,no_anomaly,0.0,0,0,0,0,12.971631,77.5945965,5.0,0.0
2024-09-03T06:31:04.500Z,MISSION_0032,45,0,takeoff,SITE_BLR_003,12.9716312,77.5945947,5.0,307.33,3.693,0.072,3.53,1.6075,-0.8084,307.3335,-0.89616,-0.00944,0.01254,0.44345,0.0507,0.0727,-9.8487,-0.0925,-0.5058,-0.0183,0.1491,3,18,0.74,0.88,0.44,24.55,16.66,92.5,45.6,20345.0,8222,7837,8312,8225,66.2,60.0,62.8,60.5,2.928,2.762,2.607,2.701,0.47,59.2,37.8,41.4,1010.42,-28.77,-1.5,1.6,34.7,50.5,38.1,0,no_anomaly,0.0,0,0,0,0,12.9716312,77.5945947,5.0,0.0
2024-09-03T06:31:04.600Z,MISSION_0032,46,0,takeoff,SITE_BLR_003,12.9716317,77.594592,5.0,309.22,3.848,0.141,3.64,-1.8164,-1.7486,309.2184,-0.90308,0.02086,0.00699,0.4289,-0.0585,-0.0518,-9.8675,-0.7808,0.0637,0.2754,0.0944,3,18,0.61,0.78,0.31,24.63,25.11,92.4,45.0,20330.0,8075,8258,8451,8141,61.5,61.9,64.6,63.3,2.935,2.715,2.844,2.755,0.59,67.8,37.3,41.2,1010.55,-26.31,-0.61,1.27,31.6,50.2,40.6,0,no_anomaly,0.0,0,0,0,0,12.9716317,77.594592,5.0,0.0
2024-09-03T06:31:04.700Z,MISSION_0032,47,0,takeoff,SITE_BLR_003,12.9716345,77.5945859,5.0,313.79,3.252,0.145,4.14,-0.0275,-1.8344,313.7895,-0.91967,0.0065,0.01463,0.39237,0.0597,-0.0329,-9.7113,0.211,0.1794,-0.2417,0.2044,3,18,0.64,0.99,0.22,24.66,14.25,92.3,45.4,20316.0,8187,7981,8378,8659,65.6,63.4,61.7,62.0,2.966,2.634,2.568,2.812,0.56,59.9,37.3,41.7,1009.97,-27.61,0.8,1.87,29.4,47.2,41.0,0,no_anomaly,0.0,0,0,0,0,12.9716345,77.5945859,5.0,0.0
2024-09-03T06:31:04.800Z,MISSION_0032,48,0,takeoff,SITE_BLR_003,12.9716329,77.5945852,5.0,314.1,3.328,0.127,4.01,2.7229,-3.358,314.101,-0.92046,-0.01045,0.03623,0.389,-0.0618,0.0511,-9.8757,0.0524,0.2174,0.3745,0.1287,3,20,0.7,0.86,0.23,24.597,19.91,92.3,44.9,20301.0,8148,8000,8202,8057,58.3,64.0,62.3,60.2,2.79,3.023,2.778,2.868,0.66,63.7,37.3,42.3,1010.31,-31.67,-1.7,1.48,29.4,51.1,41.1,0,no_anomaly,0.0,0,0,0,0,12.9716329,77.5945852,5.0,0.0
2024-09-03T06:31:04.900Z,MISSION_0032,49,0,takeoff,SITE_BLR_003,12.9716331,77.5945862,5.0,312.74,3.397,0.135,3.99,-1.3598,-0.288,312.7384,-0.91607,0.01188,-0.00245,0.40084,0.0765,-0.0202,-9.7374,-0.2445,0.8217,0.0744,0.1605,3,10,0.56,0.85,0.22,24.523,16.48,92.2,46.7,20286.0,7943,8159,8230,8191,66.3,62.7,59.9,63.0,2.955,2.927,2.733,2.77,0.0,61.7,37.7,41.8,1010.17,-29.71,1.09,1.78,29.0,42.6,40.7,0,no_anomaly,0.0,0,0,0,0,12.9716331,77.5945862,5.0,0.0
2024-09-03T06:31:05.000Z,MISSION_0032,50,0,takeoff,SITE_BLR_003,12.9716346,77.594587,5.0,316.49,3.411,0.127,4.11,2.8238,1.5375,316.4894,-0.92829,-0.02785,-0.00333,0.3708,-0.1538,-0.0749,-9.7979,-0.4787,-0.5716,0.0856,0.0627,3,18,0.54,0.67,0.2,24.582,20.51,92.1,45.4,20271.0,8110,8240,8104,8117,59.5,61.4,62.3,61.9,2.977,2.802,2.574,2.78,0.07,66.1,37.6,41.3,1010.19,-27.14,-0.56,1.74,34.3,50.7,39.2,0,no_anomaly,0.0,0,0,0,0,12.9716346,77.594587,5.0,0.0
2024-09-03T06:31:05.100Z,MISSION_0032,51,0,takeoff,SITE_BLR_003,12.971631,77.5945908,5.0,314.42,3.214,-0.004,3.6,-1.4372,-1.6051,314.4186,-0.92169,0.01699,0.00805,0.38746,0.071,-0.0672,-9.7815,0.2617,0.2352,0.2769,0.1152,3,19,0.54,0.99,0.2,24.594,15.06,92.1,45.4,20256.0,7992,8296,8229,8345,58.2,62.2,63.0,61.5,2.793,2.816,2.809,2.837,0.73,68.7,37.5,41.1,1009.96,-29.75,1.46,1.17,34.8,49.7,42.0,0,no_anomaly,0.0,0,0,0,0,12.971631,77.5945908,5.0,0.0
2024-09-03T06:31:05.200Z,MISSION_0032,52,0,takeoff,SITE_BLR_003,12.9716289,77.5945951,5.0,315.15,3.499,0.098,3.26,-2.1799,-3.3264,315.1537,-0.92362,0.02865,0.01957,0.38172,0.0651,0.0166,-9.8481,0.39,-0.2769,0.1129,0.0395,3,17,0.69,0.76,0.32,24.595,16.6,92.0,45.7,20241.0,8368,8278,8318,8243,59.3,65.0,62.0,63.5,2.852,2.607,2.915,2.651,0.53,57.5,37.3,41.0,1010.32,-28.44,-1.48,1.92,32.8,44.0,37.5,0,no_anomaly,0.0,0,0,0,0,12.9716289,77.5945951,5.0,0.0
2024-09-03T06:31:05.300Z,MISSION_0032,53,0,takeoff,SITE_BLR_003,12.9716312,77.5945935,5.0,316.01,3.605,0.106,3.55,-0.0341,-3.4487,316.0118,-0.9268,0.01155,0.02779,0.37435,-0.022,0.0233,-9.7953,0.8168,0.2622,-0.2984,0.0851,3,20,0.62,0.96,0.2,24.496,21.18,91.9,46.2,20226.0,8505,8294,8330,8422,61.1,61.0,64.7,64.6,2.728,2.618,2.502,2.559,0.51,69.7,37.5,41.4,1009.71,-29.87,1.65,1.67,33.4,49.0,38.1,0,no_anomaly,0.0,0,0,0,0,12.9716312,77.5945935,5.0,0.0
2024-09-03T06:31:05.400Z,MISSION_0032,54,0,takeoff,SITE_BLR_003,12.9716317,77.5945939,5.0,317.06,4.074,0.022,3.59,-3.1651,-1.2355,317.0623,-0.9301,0.02964,-8e-05,0.36611,-0.0248,-0.0084,-9.8015,0.2309,0.2726,0.0797,0.1942,3,19,0.58,0.96,0.23,24.531,20.45,91.9,44.5,20211.0,7999,8032,8169,8298,60.7,65.0,61.4,60.2,2.679,2.687,2.733,2.97,0.64,64.8,37.7,41.5,1010.26,-31.85,0.27,1.18,35.4,43.2,38.4,0,no_anomaly,0.0,0,0,0,0,12.9716317,77.5945939,5.0,0.0
2024-09-03T06:31:05.500Z,MISSION_0032,55,0,takeoff,SITE_BLR_003,12.9716314,77.5945909,5.0,317.09,4.137,0.043,3.64,1.0657,-4.239,317.0887,-0.93015,0.00488,0.03782,0.36519,-0.0536,-0.0065,-9.7908,0.9304,0.4164,0.0637,0.0979,3,11,0.7,0.93,0.26,24.598,20.09,91.8,46.1,20197.0,8112,8199,8051,8530,59.6,61.1,60.6,60.8,2.888,3.038,2.824,2.916,0.18,61.5,37.4,41.1,1010.18,-28.34,-0.03,1.7,33.2,49.7,40.2,0,no_anomaly,0.0,0,0,0,0,12.9716314,77.5945909,5.0,0.0
2024-09-03T06:31:05.600Z,MISSION_0032,56,0,takeoff,SITE_BLR_003,12.9716332,77.5945862,5.0,316.5,3.819,0.106,4.0,0.1392,-0.2672,316.4973,-0.9288,-0.00026,0.00262,0.37058,0.135,0.0306,-9.8247,0.8816,0.4162,-0.313,0.0784,3,17,0.76,0.95,0.2,24.6,22.32,91.7,44.8,20182.0,8102,7974,8237,8022,62.7,66.5,62.1,65.7,2.837,2.93,3.219,3.018,0.4,64.4,37.4,39.5,1010.19,-27.72,-0.69,1.27,31.4,48.2,38.3,0,no_anomaly,0.0,0,0,0,0,12.9716332,77.5945862,5.0,0.0
2024-09-03T06:31:05.700Z,MISSION_0032,57,0,takeoff,SITE_BLR_003,12.9716312,77.5945862,5.0,316.99,4.153,-0.028,3.8,-1.4962,-2.9866,316.9916,-0.92987,0.0217,0.01946,0.36673,0.1397,-0.0687,-9.8131,0.0903,0.0174,0.0721,0.0986,3,11,0.74,0.88,0.27,24.514,21.65,91.7,45.3,20167.0,8206,8227,7949,7934,67.4,62.4,62.6,63.9,2.775,2.829,2.918,2.61,1.55,62.6,37.5,42.0,1009.95,-29.88,1.31,1.54,31.9,48.9,42.2,0,no_anomaly,0.0,0,0,0,0,12.9716312,77.5945862,5.0,0.0
2024-09-03T06:31:05.800Z,MISSION_0032,58,0,takeoff,SITE_BLR_003,12.9716301,77.5945931,5.0,316.36,4.315,0.11,3.44,-0.9004,-1.8544,316.3582,-0.92815,0.01331,0.0121,0.37176,-0.0903,-0.0797,-9.7676,-0.1676,-0.0096,0.0717,0.0876,3,17,0.62,0.87,0.2,24.573,21.84,91.6,45.6,20152.0,8311,8306,8418,8098,63.7,61.2,62.8,64.6,2.85,2.849,2.835,2.592,1.5,66.1,37.4,41.5,1010.05,-30.2,-0.16,1.45,33.4,46.9,37.9,0,no_anomaly,0.0,0,0,0,0,12.9716301,77.5945931,5.0,0.0
2024-09-03T06:31:05.900Z,MISSION_0032,59,0,takeoff,SITE_BLR_003,12.9716329,77.5945896,5.0,316.65,3.954,0.081,3.84,-3.2422,-2.4067,316.6535,-0.92851,0.03404,0.00906,0.36964,-0.0763,-0.054,-9.8718,0.1064,0.4011,0.1273,0.1906,3,18,0.73,0.93,0.34,24.534,18.94,91.5,45.2,20137.0,8017,8217,8117,8223,66.0,62.1,63.3,58.7,2.537,2.683,2.841,2.698,1.37,58.4,37.6,41.9,1010.08,-26.02,1.37,1.83,31.5,49.4,40.1,0,no_anomaly,0.0,0,0,0,0,12.9716329,77.5945896,5.0,0.0
2024-09-03T06:31:06.000Z,MISSION_0032,60,0,takeoff,SITE_BLR_003,12.9716363,77.5945875,5.0,314.51,3.924,0.053,4.27,2.6573,-4.006,314.5074,-0.92173,-0.00786,0.04118,0.38556,0.0159,0.0283,-9.7775,-0.4293,-0.3792,0.3039,0.0563,3,11,0.63,0.64,0.26,24.628,22.39,91.5,46.3,20122.0,8071,8208,8107,7946,64.0,59.3,60.1,58.8,2.582,2.871,2.811,2.642,0.34,65.4,37.6,41.3,1009.88,-31.48,0.02,2.15,31.8,42.5,37.1,0,no_anomaly,0.0,0,0,0,0,12.9716363,77.5945875,5.0,0.0
2024-09-03T06:31:06.100Z,MISSION_0032,61,0,takeoff,SITE_BLR_003,12.9716339,77.5945828,5.0,315.89,3.593,0.019,4.23,0.5976,-0.1085,315.8864,-0.9268,-0.00448,0.00284,0.37552,-0.0178,-0.0578,-9.9965,-0.079,0.282,0.0756,0.1367,3,11,0.56,0.69,0.3,24.694,13.87,91.4,45.8,20107.0,8019,8245,8097,8302,65.9,64.2,64.3,65.3,3.009,2.606,2.528,2.569,0.39,66.8,37.6,41.2,1010.5,-25.29,-0.16,1.1,34.6,53.8,43.6,0,no_anomaly,0.0,0,0,0,0,12.9716339,77.5945828,5.0,0.0
2024-09-03T06:31:06.200Z,MISSION_0032,62,0,takeoff,SITE_BLR_003,12.9716358,77.594584,5.0,313.62,3.884,0.092,4.36,-1.3464,-2.103,313.6217,-0.91891,0.01802,0.01224,0.39387,0.0421,-0.0042,-9.8374,-0.198,-0.0733,-0.176,0.049,3,20,0.81,1.06,0.27,24.576,19.39,91.3,45.8,20092.0,8160,7936,8235,8376,58.6,63.0,62.6,62.4,2.659,2.593,2.642,2.701,0.79,65.0,37.4,41.5,1010.12,-29.32,-0.21,1.38,35.1,50.2,38.4,0,no_anomaly,0.0,0,0,0,0,12.9716358,77.594584,5.0,0.0
2024-09-03T06:31:06.300Z,MISSION_0032,63,0,takeoff,SITE_BLR_003,12.9716329,77.5945836,5.0,311.49,3.946,0.094,4.1,0.7128,-2.7812,311.4864,-0.91149,0.0043,0.02468,0.41056,0.0507,0.0063,-9.835,0.4892,0.4719,-0.3862,0.1546,3,16,0.54,1.02,0.21,24.499,18.89,91.3,44.7,20078.0,8039,8277,8161,8229,59.4,63.0,60.9,63.6,2.524,3.064,2.942,2.994,0.77,59.5,36.9,41.2,1010.14,-26.48,0.85,1.89,31.5,51.9,42.9,0,no_anomaly,0.0,0,0,0,0,12.9716329,77.5945836,5.0,0.0
2024-09-03T06:31:06.400Z,MISSION_0032,64,0,takeoff,SITE_BLR_003,12.9716293,77.5945894,5.0,311.51,3.973,0.11,3.47,-0.6022,0.6487,311.5099,-0.91178,0.00247,-0.00732,0.4106,0.1235,-0.1166,-9.8296,-0.0656,-0.0549,0.1816,0.2234,3,12,0.75,0.92,0.31,24.598,18.62,91.2,45.8,20063.0,8288,8300,8124,8459,63.2,61.3,67.0,64.2,2.634,3.034,2.74,2.747,0.69,61.8,37.3,41.2,1010.42,-25.23,0.42,1.72,32.0,46.0,39.7,0,no_anomaly,0.0,0,0,0,0,12.9716293,77.5945894,5.0,0.0
2024-09-03T06:31:06.500Z,MISSION_0032,65,0,takeoff,SITE_BLR_003,12.9716298,77.5945914,5.0,314.05,3.766,0.084,3.45,1.2293,-3.0293,314.0518,-0.92042,0.00044,0.02852,0.38989,-0.0188,-0.0196,-9.8088,0.1996,0.2286,0.1084,0.0728,3,13,0.7,1.19,0.28,24.547,20.05,91.1,45.4,20048.0,8233,8321,8282,8222,60.3,65.4,61.9,64.3,2.484,2.942,2.769,2.912,1.61,61.0,37.2,42.3,1010.07,-30.75,-0.65,1.28,33.1,49.3,38.8,0,no_anomaly,0.0,0,0,0,0,12.9716298,77.5945914,5.0,0.0
2024-09-03T06:31:06.600Z,MISSION_0032,66,0,takeoff,SITE_BLR_003,12.9716277,77.5945915,5.0,312.97,3.413,0.166,3.22,-0.0524,-0.7788,312.975,-0.91695,0.00313,0.00605,0.39894,-0.025,-0.1042,-9.8859,0.1451,0.347,0.2301,0.1149,3,20,0.82,1.01,0.49,24.636,22.09,91.1,45.1,20033.0,8187,8383,8107,8196,63.7,63.7,58.1,62.8,2.988,2.85,2.878,3.133,0.76,54.6,37.6,42.1,1010.31,-29.3,0.58,1.33,33.1,41.5,39.8,0,no_anomaly,0.0,0,0,0,0,12.9716277,77.5945915,5.0,0.0
2024-09-03T06:31:06.700Z,MISSION_0032,67,0,takeoff,SITE_BLR_003,12.9716254,77.5945901,5.0,315.07,3.104,0.125,3.04,-0.4181,-1.4522,315.0657,-0.924,0.00821,0.01032,0.38216,-0.0451,0.0002,-9.7718,-0.3657,0.1534,-0.0334,0.2069,3,10,0.73,1.11,0.22,24.671,15.28,91.0,45.6,20018.0,8307,7901,8185,8209,63.5,63.7,62.4,59.2,2.865,2.727,3.022,2.664,0.95,65.1,37.5,41.9,1010.06,-30.73,-1.02,1.36,30.0,50.9,42.0,0,no_anomaly,0.0,0,0,0,0,12.9716254,77.5945901,5.0,0.0
2024-09-03T06:31:06.800Z,MISSION_0032,68,0,takeoff,SITE_BLR_003,12.9716276,77.5945885,5.0,313.82,3.195,0.099,3.33,1.0911,-2.2216,313.8189,-0.91974,-0.00115,0.02157,0.39192,0.0068,-0.0365,-9.7457,-0.2803,-0.1788,0.2767,0.1834,3,10,0.73,0.93,0.39,24.549,17.6,90.9,46.3,20003.0,8376,8446,8418,8606,62.3,63.6,62.8,66.0,2.797,3.153,3.262,3.142,0.54,64.7,37.6,42.1,1010.05,-27.45,-1.61,1.89,33.0,43.0,39.5,0,no_anomaly,0.0,0,0,0,0,12.9716276,77.5945885,5.0,0.0
2024-09-03T06:31:06.900Z,MISSION_0032,69,0,takeoff,SITE_BLR_003,12.9716253,77.5945857,5.0,312.56,3.47,0.137,3.23,-0.4664,-1.7252,312.5596,-0.91538,0.00978,0.01215,0.40228,-0.0924,0.0141,-9.7448,-0.3245,0.19,-0.0039,0.1739,3,19,0.66,1.14,0.26,24.595,16.33,90.9,45.0,19988.0,7961,8406,8158,8381,61.9,62.7,62.0,64.4,2.765,2.795,2.832,2.87,0.73,55.6,37.4,41.1,1010.1,-30.92,0.55,1.2,29.9,47.8,41.6,0,no_anomaly,0.0,0,0,0,0,12.9716253,77.5945857,5.0,0.0
2024-09-03T06:31:07.000Z,MISSION_0032,70,0,takeoff,SITE_BLR_003,12.9716244,77.5945818,5.0,312.72,3.478,0.034,3.39,-1.1339,-3.3508,312.7158,-0.91552,0.02078,0.02281,0.4011,-0.039,-0.0224,-9.8211,-0.006,-0.252,-0.3459,0.1882,3,15,0.64,0.88,0.24,24.544,22.33,90.8,45.4,19974.0,8370,8518,8146,8064,61.9,60.7,61.0,60.9,2.647,2.653,2.573,2.936,0.04,72.4,37.4,41.4,1010.32,-31.4,2.65,1.0,34.1,50.1,40.9,0,no_anomaly,0.0,0,0,0,0,12.9716244,77.5945818,5.0,0.0
2024-09-03T06:31:07.100Z,MISSION_0032,71,0,takeoff,SITE_BLR_003,12.9716275,77.5945833,5.0,312.89,3.653,0.075,3.58,2.9392,-1.2598,312.8882,-0.91643,-0.01912,0.02032,0.39923,0.1132,0.0468,-9.8173,0.1673,0.2705,0.0413,0.1398,3,18,0.76,0.83,0.29,24.527,20.12,90.7,45.6,19959.0,8358,8111,8329,8146,66.0,62.3,64.7,63.5,2.813,2.827,2.739,2.786,0.71,59.3,37.5,41.2,1010.32,-22.31,2.41,1.73,30.7,49.9,39.1,0,no_anomaly,0.0,0,0,0,0,12.9716275,77.5945833,5.0,0.0
2024-09-03T06:31:07.200Z,MISSION_0032,72,0,takeoff,SITE_BLR_003,12.9716272,77.5945887,5.0,312.63,4.228,0.112,3.28,-1.597,-0.5018,312.6348,-0.91566,0.01452,-0.00159,0.40168,0.0358,-0.0749,-9.7093,-0.3407,0.6432,0.2908,0.1277,3,17,0.69,0.92,0.26,24.527,22.51,90.7,46.4,19944.0,8166,8354,8206,8122,62.4,64.4,63.8,61.3,2.842,2.805,2.656,2.839,0.64,66.3,37.2,41.9,1010.02,-29.88,-0.54,1.2,33.8,43.0,39.3,0,no_anomaly,0.0,0,0,0,0,12.9716272,77.5945887,5.0,0.0
2024-09-03T06:31:07.300Z,MISSION_0032,73,0,takeoff,SITE_BLR_003,12.9716225,77.5945869,5.0,313.71,3.77,0.085,2.9,1.3587,-1.593,313.7092,-0.91942,-0.00544,0.01744,0.39285,-0.0911,0.0774,-9.8286,0.0458,-0.322,-0.1847,0.093,3,10,0.81,0.94,0.3,24.547,19.77,90.6,46.1,19929.0,8472,8128,8270,7979,62.0,61.4,66.7,61.8,2.788,3.177,2.76,2.768,0.94,59.4,37.2,41.9,1010.14,-32.54,0.69,1.75,29.9,48.1,38.5,0,no_anomaly,0.0,0,0,0,0,12.9716225,77.5945869,5.0,0.0
2024-09-03T06:31:07.400Z,MISSION_0032,74,0,takeoff,SITE_BLR_003,12.9716227,77.5945923,5.0,312.04,3.407,0.128,2.66,-0.4176,-0.8581,312.04,-0.91364,0.00637,0.00536,0.40643,0.0249,-0.0227,-9.824,0.1761,0.1602,-0.2022,0.1149,3,20,0.81,1.01,0.26,24.576,18.39,90.5,46.0,19914.0,8339,8243,8296,8191,62.9,65.5,59.6,62.3,2.623,2.532,2.673,2.833,1.24,57.4,37.3,41.7,1010.14,-24.7,1.12,1.04,29.8,52.0,37.5,0,no_anomaly,0.0,0,0,0,0,12.9716227,77.5945923,5.0,0.0
2024-09-03T06:31:07.500Z,MISSION_0032,75,0,takeoff,SITE_BLR_003,12.9716279,77.5945928,5.0,311.84,3.542,0.107,3.21,-3.5418,-2.0265,311.8358,-0.91216,0.03542,0.00353,0.40829,-0.0065,0.0186,-9.7572,0.7941,0.9443,-0.091,0.0709,3,15,0.67,0.94,0.28,24.544,16.17,90.5,46.4,19899.0,8190,8261,8110,8097,61.5,62.6,62.2,62.9,2.745,2.838,2.497,2.834,0.91,63.1,37.6,41.6,1010.09,-27.31,1.7,1.88,33.6,45.0,42.8,0,no_anomaly,0.0,0,0,0,0,12.9716279,77.5945928,5.0,0.0
2024-09-03T06:31:07.600Z,MISSION_0032,76,0,takeoff,SITE_BLR_003,12.9716283,77.5945944,5.0,308.68,3.474,0.118,3.22,3.7295,-1.4645,308.6834,-0.90102,-0.0238,0.0256,0.43236,-0.0377,0.0439,-9.7784,0.8232,-0.724,-0.0757,0.1016,3,10,0.69,0.77,0.29,24.675,20.13,90.4,47.1,19884.0,8091,8303,8249,8315,62.1,59.4,63.9,63.3,2.934,2.694,2.552,2.87,0.0,71.5,37.4,41.7,1010.62,-31.43,0.18,1.7,35.6,46.7,42.9,0,no_anomaly,0.0,0,0,0,0,12.9716283,77.5945944,5.0,0.0
2024-09-03T06:31:07.700Z,MISSION_0032,77,0,takeoff,SITE_BLR_003,12.9716284,77.594594,5.0,310.21,2.642,0.145,3.23,0.6373,-2.6454,310.2123,-0.90689,0.00467,0.02328,0.4207,0.0725,-0.078,-9.7965,-0.56,0.03,0.7462,0.0628,3,14,0.73,0.89,0.39,24.48,19.66,90.3,45.3,19869.0,8145,8310,8303,8275,62.8,59.3,62.8,63.9,2.841,2.727,2.651,2.852,0.47,56.0,37.6,41.3,1010.2,-31.02,-1.16,1.67,30.5,43.2,39.0,0,no_anomaly,0.0,0,0,0,0,12.9716284,77.594594,5.0,0.0
2024-09-03T06:31:07.800Z,MISSION_0032,78,0,takeoff,SITE_BLR_003,12.9716293,77.5945882,5.0,309.19,2.788,0.129,3.52,1.2831,-1.3758,309.1934,-0.90325,-0.00496,0.01565,0.42881,-0.0921,0.0933,-9.7798,0.1044,0.3432,0.2381,0.0231,3,20,0.72,0.97,0.26,24.521,20.49,90.2,45.9,19855.0,8287,8418,8237,8181,62.1,61.9,62.7,64.8,2.861,2.542,2.459,2.801,0.61,63.7,37.7,41.4,1010.04,-28.1,0.2,1.39,35.0,45.4,39.7,0,no_anomaly,0.0,0,0,0,0,12.9716293,77.5945882,5.0,0.0
2024-09-03T06:31:07.900Z,MISSION_0032,79,0,takeoff,SITE_BLR_003,12.9716307,77.5945902,5.0,308.5,2.479,0.148,3.59,1.2164,-0.2694,308.4969,-0.90064,-0.00854,0.00673,0.43442,-0.108,-0.0409,-9.7869,0.2289,0.7269,0.4398,0.1188,3,18,0.76,0.78,0.31,24.558,20.29,90.2,46.0,19840.0,8371,8127,8102,8121,61.4,61.5,62.8,59.9,2.948,2.809,2.845,2.517,1.63,60.3,37.6,41.6,1009.98,-32.74,1.64,1.76,35.4,45.4,43.4,0,no_anomaly,0.0,0,0,0,0,12.9716307,77.5945902,5.0,0.0
2024-09-03T06:31:08.000Z,MISSION_0032,80,0,takeoff,SITE_BLR_003,12.9716368,77.5945885,5.0,308.22,2.835,0.052,4.29,2.2431,-3.6158,308.2181,-0.89928,-0.00383,0.03692,0.4358,0.0277,0.0132,-9.7992,0.0733,1.0429,-0.3578,0.1016,3,12,0.64,1.04,0.27,24.444,23.1,90.1,46.5,19825.0,8067,8532,8103,8043,63.5,63.8,60.8,61.3,2.758,2.672,2.897,2.806,0.58,62.0,37.5,41.7,1010.19,-31.59,1.24,1.47,34.9,51.5,39.3,0,no_anomaly,0.0,0,0,0,0,12.9716368,77.5945885,5.0,0.0
2024-09-03T06:31:08.100Z,MISSION_0032,81,0,takeoff,SITE_BLR_003,12.9716394,77.5945846,5.0,309.12,2.758,0.151,4.71,-0.3951,-0.7086,309.1212,-0.90301,0.00577,0.0041,0.42956,0.0464,0.0545,-9.7571,-0.6759,0.6242,-0.1278,0.1301,3,14,0.8,0.65,0.36,24.515,18.52,90.0,45.0,19810.0,8310,8232,8320,8278,63.8,61.6,63.6,62.4,2.859,2.93,2.776,2.717,0.35,69.8,37.7,40.7,1010.29,-32.72,0.54,1.19,32.0,49.9,39.8,0,no_anomaly,0.0,0,0,0,0,12.9716394,77.5945846,5.0,0.0
2024-09-03T06:31:08.200Z,MISSION_0032,82,0,takeoff,SITE_BLR_003,12.9716354,77.5945863,5.0,311.03,2.452,0.192,4.23,-3.0915,-2.607,311.0327,-0.90926,0.03397,0.00952,0.41473,-0.0949,-0.0468,-9.8418,0.1878,-0.0989,0.1743,0.1308,3,10,0.71,0.78,0.26,24.56,17.37,90.0,45.4,19795.0,7973,7840,8123,8123,57.6,63.5,64.2,63.7,2.745,2.661,2.584,2.804,0.41,57.5,37.9,41.0,1009.82,-30.7,-0.09,1.8,28.7,48.7,38.6,0,no_anomaly,0.0,0,0,0,0,12.9716354,77.5945863,5.0,0.0
2024-09-03T06:31:08.300Z,MISSION_0032,83,0,takeoff,SITE_BLR_003,12.9716346,77.594588,5.0,309.74,2.333,0.168,4.08,0.3775,-3.21,309.7426,-0.90504,0.00891,0.02676,0.4244,0.1123,-0.0305,-9.8164,-0.0288,-0.1845,-0.2343,0.1021,3,13,0.71,0.83,0.35,24.62,21.09,89.9,44.8,19780.0,8288,8309,8027,7903,65.9,64.2,58.8,62.2,2.651,2.813,2.683,3.048,0.82,66.8,37.1,41.2,1009.98,-32.31,1.23,1.04,32.0,46.4,42.8,0,no_anomaly,0.0,0,0,0,0,12.9716346,77.594588,5.0,0.0
2024-09-03T06:31:08.400Z,MISSION_0032,84,0,takeoff,SITE_BLR_003,12.9716283,77.5945855,5.0,309.69,2.562,0.14,3.54,-0.372,-3.4844,309.6861,-0.90468,0.01586,0.02614,0.42499,0.0297,0.051,-9.7717,-0.4436,-0.6141,-0.3148,0.1193,3,20,0.81,1.04,0.35,24.604,15.87,89.8,46.6,19765.0,8014,8123,8492,8169,62.6,61.2,63.5,58.7,2.854,2.847,2.771,2.799,1.41,65.4,37.3,42.2,1010.01,-30.23,-1.1,1.31,33.5,52.9,41.5,0,no_anomaly,0.0,0,0,0,0,12.9716283,77.5945855,5.0,0.0
2024-09-03T06:31:08.500Z,MISSION_0032,85,0,takeoff,SITE_BLR_003,12.9716316,77.5945834,5.0,309.74,2.42,0.093,3.97,0.1505,-2.5102,309.739,-0.90514,0.00811,0.02039,0.42455,-0.063,-0.0566,-9.8445,-0.1642,0.245,0.3542,0.1038,3,13,0.76,0.6,0.34,24.535,24.03,89.8,45.2,19751.0,8276,8204,8415,8228,63.3,62.7,63.4,63.2,3.163,2.838,2.645,2.733,1.2,57.2,37.3,41.3,1010.44,-27.79,-1.7,1.45,32.3,52.4,42.1,0,no_anomaly,0.0,0,0,0,0,12.9716316,77.5945834,5.0,0.0
2024-09-03T06:31:08.600Z,MISSION_0032,86,0,takeoff,SITE_BLR_003,12.9716311,77.5945864,5.0,309.9,2.128,0.013,3.78,0.9746,-0.8243,309.9011,-0.90591,-0.00466,0.01012,0.42332,-0.0661,-0.0485,-9.8272,-0.1422,0.4666,-0.2544,0.1563,3,17,0.78,0.9,0.39,24.569,22.79,89.7,45.7,19736.0,8338,8065,8261,8195,58.9,63.6,63.4,64.0,2.834,2.761,2.987,2.656,0.28,54.0,37.6,42.1,1009.58,-33.8,2.47,1.31,33.0,44.1,43.0,0,no_anomaly,0.0,0,0,0,0,12.9716311,77.5945864,5.0,0.0
2024-09-03T06:31:08.700Z,MISSION_0032,87,0,takeoff,SITE_BLR_003,12.9716329,77.5945914,5.0,308.03,2.366,0.126,3.78,-0.1673,-2.7277,308.0336,-0.89865,0.01174,0.02076,0.43801,-0.0021,0.0079,-9.8293,0.1775,-0.1589,0.2082,0.0969,3,18,0.78,0.6,0.42,24.524,15.57,89.6,44.8,19721.0,8329,8221,8158,8592,63.7,64.0,65.3,61.6,2.823,2.739,2.695,2.805,1.01,61.5,37.4,41.6,1010.14,-26.68,-0.93,1.3,29.7,48.5,39.7,0,no_anomaly,0.0,0,0,0,0,12.9716329,77.5945914,5.0,0.0
2024-09-03T06:31:08.800Z,MISSION_0032,88,0,transit,SITE_BLR_003,12.9716271,77.594585,5.5,307.52,2.205,0.187,3.45,-1.8273,-2.4261,307.5161,-0.89647,0.02366,0.01194,0.44231,-0.0245,-0.0733,-9.8001,-0.7571,-0.4293,-0.1101,0.0819,3,11,0.7,0.93,0.2,24.523,14.63,89.6,45.6,19706.0,8266,8308,8425,8114,60.8,56.3,60.8,61.7,2.891,2.649,2.769,2.76,1.08,59.2,37.4,41.8,1010.48,-32.3,1.08,1.21,30.8,48.5,41.0,0,no_anomaly,0.0,0,0,0,0,12.9716271,77.594585,5.5,0.0
2024-09-03T06:31:08.900Z,MISSION_0032,89,0,transit,SITE_BLR_003,12.9716201,77.5945856,6.0,307.16,2.078,0.119,2.75,-2.1953,-2.6516,307.1622,-0.89496,0.02744,0.0122,0.44513,0.081,-0.0609,-9.7814,-0.4887,0.3194,0.1031,0.1067,3,15,0.58,0.89,0.33,24.552,21.34,89.5,45.9,19691.0,8043,8172,8099,8185,61.6,59.0,63.8,62.6,2.57,3.063,2.969,2.621,1.01,57.8,37.4,41.5,1010.23,-31.9,1.86,1.59,33.2,52.0,38.9,0,no_anomaly,0.0,0,0,0,0,12.9716201,77.5945856,6.0,0.0
2024-09-03T06:31:09.000Z,MISSION_0032,90,0,transit,SITE_BLR_003,12.9716191,77.594591,6.5,306.27,1.986,0.161,2.35,0.4803,0.828,306.2713,-0.89203,-0.007,-0.00455,0.45189,-0.0044,0.0191,-9.8074,-0.0068,-0.5256,-0.1033,0.1385,3,13,0.79,0.9,0.35,24.495,11.48,89.4,46.1,19676.0,8344,8323,8250,8536,66.2,60.8,65.3,63.4,2.945,2.686,2.646,2.922,0.6,48.7,37.5,41.1,1010.11,-28.9,-0.67,1.84,31.2,50.0,38.3,0,no_anomaly,0.0,0,0,0,0,12.9716191,77.594591,6.5,0.0
2024-09-03T06:31:09.100Z,MISSION_0032,91,0,transit,SITE_BLR_003,12.9716189,77.5945936,7.0,311.45,2.336,0.046,2.23,-0.6671,-0.7398,311.4455,-0.91152,0.00796,0.00349,0.41117,-0.1185,-0.0032,-9.7975,0.2819,-0.2173,-0.0702,0.1539,3,20,0.71,0.88,0.2,24.547,21.56,89.4,46.1,19661.0,8149,8274,8128,8163,59.8,63.4,62.1,61.7,2.631,2.69,2.947,2.908,1.46,61.1,37.4,42.5,1009.99,-31.44,-1.44,1.39,34.0,48.6,38.5,0,no_anomaly,0.0,0,0,0,0,12.9716189,77.5945936,7.0,0.0
2024-09-03T06:31:09.200Z,MISSION_0032,92,0,transit,SITE_BLR_003,12.9716208,77.5945902,7.5,310.86,2.165,0.029,2.55,-2.0725,-2.1052,310.8581,-0.90901,0.02408,0.00919,0.41598,0.0656,0.0156,-9.8366,0.3205,-0.4878,-0.1171,0.1105,3,18,0.63,0.88,0.22,24.539,14.48,89.3,45.8,19646.0,7917,8300,8297,8293,62.7,60.5,61.9,62.6,2.725,2.7,2.699,2.467,0.42,62.7,37.2,41.9,1010.12,-26.5,1.54,1.52,34.7,46.5,39.2,0,no_anomaly,0.0,0,0,0,0,12.9716208,77.5945902,7.5,0.0
2024-09-03T06:31:09.300Z,MISSION_0032,93,0,transit,SITE_BLR_003,12.9716218,77.5945868,8.0,313.06,2.485,0.102,2.84,-1.3468,-1.2512,313.0641,-0.91711,0.01513,0.00533,0.3983,0.0228,0.0818,-9.8768,-0.5382,1.3865,-0.0247,0.1235,3,10,0.59,0.69,0.25,24.529,22.4,89.2,45.1,19632.0,8109,8164,8251,8206,62.0,61.9,62.7,62.2,2.566,2.994,2.818,2.654,0.91,54.4,37.6,40.9,1009.98,-27.8,0.08,1.52,29.2,51.7,38.3,0,no_anomaly,0.0,0,0,0,0,12.9716218,77.5945868,8.0,0.0
2024-09-03T06:31:09.400Z,MISSION_0032,94,0,transit,SITE_BLR_003,12.9716195,77.5945839,8.5,315.4,2.12,0.089,2.81,1.1244,-0.667,315.4032,-0.92518,-0.00687,0.00911,0.37935,0.0666,0.0481,-9.8965,0.1062,-0.0184,0.3836,0.0956,3,10,0.62,1.29,0.2,24.508,21.5,89.2,46.4,19617.0,8204,8251,8116,8176,61.5,64.2,62.4,63.3,2.726,3.092,2.75,2.624,1.46,63.4,37.5,41.5,1009.79,-30.06,-0.82,1.0,32.7,48.4,38.7,0,no_anomaly,0.0,0,0,0,0,12.9716195,77.5945839,8.5,0.0
2024-09-03T06:31:09.500Z,MISSION_0032,95,0,transit,SITE_BLR_003,12.9716171,77.5945824,9.0,315.46,1.841,0.12,2.73,-2.2976,0.1276,315.4596,-0.92523,0.01813,-0.00863,0.37888,-0.0465,-0.045,-9.8405,0.312,-0.4988,-0.454,0.1584,3,13,0.79,0.94,0.37,24.456,22.74,89.1,45.3,19602.0,8101,8453,8219,8288,61.8,63.5,64.3,61.5,2.988,2.867,2.824,3.055,0.24,50.1,37.6,42.1,1009.91,-30.99,-0.55,1.56,32.2,48.2,41.1,0,no_anomaly,0.0,0,0,0,0,12.9716171,77.5945824,9.0,0.0
2024-09-03T06:31:09.600Z,MISSION_0032,96,0,transit,SITE_BLR_003,12.9716173,77.5945837,9.5,313.43,1.823,0.113,2.65,-2.0267,-3.1815,313.4335,-0.91787,0.02721,0.01851,0.39551,0.0699,-0.0796,-9.9266,-0.201,-0.4997,0.3841,0.2034,3,18,0.72,0.75,0.34,24.491,22.05,89.0,44.8,19587.0,8171,8294,8185,8288,60.9,65.1,63.8,61.5,3.04,2.615,2.811,2.823,0.66,63.0,37.3,41.8,1010.11,-25.79,-0.24,1.26,31.0,49.9,40.8,0,no_anomaly,0.0,0,0,0,0,12.9716173,77.5945837,9.5,0.0
2024-09-03T06:31:09.700Z,MISSION_0032,97,0,transit,SITE_BLR_003,12.9716211,77.5945789,10.0,313.45,1.519,0.043,3.32,-0.2955,-1.5192,313.4535,-0.91853,0.00761,0.01116,0.39511,-0.0002,-0.0275,-9.9464,-0.8291,-0.55,0.1463,0.0463,3,11,0.73,0.77,0.41,24.506,20.78,89.0,45.5,19572.0,8339,8550,8356,8349,63.8,61.4,66.1,61.2,3.027,2.552,2.528,2.808,0.65,56.0,37.4,41.1,1010.4,-25.72,0.95,1.6,32.9,49.8,43.6,0,no_anomaly,0.0,0,0,0,0,12.9716211,77.5945789,10.0,0.0
2024-09-03T06:31:09.800Z,MISSION_0032,98,0,transit,SITE_BLR_003,12.9716222,77.5945784,10.5,315.27,1.684,0.024,3.44,0.8594,-3.0008,315.2735,-0.92452,0.00303,0.02707,0.38015,0.0963,0.048,-9.836,-0.813,0.4582,-0.1286,0.1532,3,13,0.76,0.88,0.27,24.505,14.67,88.9,45.9,19557.0,8214,8172,8326,8192,64.1,62.1,64.4,65.7,2.797,2.759,3.032,2.93,0.39,69.3,37.3,41.1,1010.15,-29.29,0.66,1.78,29.8,44.3,37.6,0,no_anomaly,0.0,0,0,0,0,12.9716222,77.5945784,10.5,0.0
2024-09-03T06:31:09.900Z,MISSION_0032,99,0,transit,SITE_BLR_003,12.9716198,77.5945776,11.0,312.81,1.176,0.21,3.33,-1.1147,-0.9167,312.8146,-0.91631,0.01212,0.00344,0.40027,-0.029,-0.0091,-9.8534,-0.8749,0.1704,-0.1614,0.127,3,17,0.75,0.99,0.34,24.486,21.56,88.8,45.3,19542.0,8394,8242,8458,8199,63.5,63.1,61.2,62.7,2.678,2.78,2.668,2.4,1.0,61.1,37.4,41.5,1010.2,-34.55,-2.41,1.35,31.9,47.1,41.8,0,no_anomaly,0.0,0,0,0,0,12.9716198,77.5945776,11.0,0.0
2024-09-03T06:31:10.000Z,MISSION_0032,100,0,transit,SITE_BLR_003,12.9716242,77.5945779,11.5,312.74,1.42,0.07,3.65,-0.3999,-0.1219,312.7421,-0.91615,0.00362,-0.00042,0.40081,0.0996,0.0471,-9.7838,0.022,-0.3223,0.0298,0.1078,3,13,0.74,0.89,0.38,24.549,20.58,88.8,45.4,19528.0,8068,7859,8347,8303,63.0,64.2,63.0,61.4,2.852,2.871,2.841,2.784,0.0,64.6,37.2,41.7,1010.09,-32.71,0.07,1.59,32.6,50.8,40.7,0,no_anomaly,0.0,0,0,0,0,12.9716242,77.5945779,11.5,0.0
2024-09-03T06:31:10.100Z,MISSION_0032,101,0,transit,SITE_BLR_003,12.971621,77.5945773,12.0,315.25,0.831,0.143,3.45,0.6181,-1.9974,315.2537,-0.92461,0.00165,0.01817,0.38049,0.0551,-0.0634,-9.8214,0.2833,-0.6236,-0.4815,0.0965,3,14,0.82,1.14,0.33,24.577,17.98,88.7,45.4,19513.0,7972,8310,8338,8293,63.0,61.3,60.1,61.8,2.854,3.102,2.577,2.923,1.47,60.1,37.9,40.1,1009.52,-24.05,-0.1,1.11,31.2,50.1,42.6,0,no_anomaly,0.0,0,0,0,0,12.971621,77.5945773,12.0,0.0
2024-09-03T06:31:10.200Z,MISSION_0032,102,0,transit,SITE_BLR_003,12.9716231,77.5945741,12.5,315.76,0.754,0.1,3.86,-0.3928,-2.3244,315.756,-0.92616,0.01081,0.0175,0.37657,0.0496,0.0241,-9.8132,-0.7132,0.9413,-0.5184,0.0302,3,17,0.72,1.22,0.27,24.523,20.85,88.6,46.3,19498.0,8463,8147,8129,8285,60.7,60.8,61.7,60.0,2.914,2.871,2.713,2.993,0.53,61.3,37.3,42.2,1010.04,-30.69,-0.71,1.18,31.4,51.4,40.0,0,no_anomaly,0.0,0,0,0,0,12.9716231,77.5945741,12.5,0.0
2024-09-03T06:31:10.300Z,MISSION_0032,103,0,transit,SITE_BLR_003,12.9716234,77.5945766,13.0,312.63,1.076,0.096,3.69,-0.4821,-2.9798,312.6301,-0.91541,0.0143,0.02212,0.40167,0.0529,0.0156,-9.7713,0.1504,0.64,-0.1283,0.087,3,10,0.82,0.73,0.38,24.539,15.16,88.6,44.8,19483.0,8377,8308,8305,8338,65.9,61.2,63.0,63.0,2.991,2.898,2.786,2.988,0.0,64.4,37.7,40.9,1010.08,-29.72,-0.69,1.54,31.0,52.7,42.0,0,no_anomaly,0.0,0,0,0,0,12.9716234,77.5945766,13.0,0.0
2024-09-03T06:31:10.400Z,MISSION_0032,104,0,transit,SITE_BLR_003,12.971619,77.5945757,13.5,314.02,0.9,0.088,3.44,2.1534,-1.9104,314.023,-0.92042,-0.01079,0.02268,0.39013,0.1174,0.0233,-9.7718,0.8077,-0.4178,-0.2695,0.1429,3,11,0.69,0.69,0.27,24.517,21.02,88.5,45.9,19468.0,8587,8431,8450,8300,60.3,61.1,61.4,61.2,2.831,2.985,2.701,2.582,0.19,60.8,37.5,41.2,1010.12,-24.7,-0.19,1.79,32.2,43.0,38.0,0,no_anomaly,0.0,0,0,0,0,12.971619,77.5945757,13.5,0.0
2024-09-03T06:31:10.500Z,MISSION_0032,105,0,transit,SITE_BLR_003,12.9716162,77.5945753,14.0,314.6,0.97,0.117,3.29,0.888,-0.4068,314.6025,-0.92252,-0.00578,0.00627,0.38585,-0.0784,-0.0171,-9.7769,-0.1472,0.4209,-0.0104,0.0629,3,11,0.69,0.82,0.25,24.591,15.28,88.4,46.2,19453.0,8189,8078,8300,8041,60.0,66.7,62.7,61.4,2.88,2.953,2.805,3.009,1.32,55.1,37.5,41.8,1010.05,-31.41,-0.9,1.84,31.3,46.3,39.9,0,no_anomaly,0.0,0,0,0,0,12.9716162,77.5945753,14.0,0.0
2024-09-03T06:31:10.600Z,MISSION_0032,106,0,transit,SITE_BLR_003,12.971616,77.5945768,14.5,317.24,1.134,0.06,3.14,-0.496,-0.0135,317.2396,-0.93117,0.00407,-0.00147,0.36455,0.0441,0.0867,-9.8592,-0.2371,0.2251,-0.0455,0.202,3,12,0.6,0.76,0.2,24.526,20.97,88.4,46.3,19438.0,8185,8303,8003,8640,61.3,61.7,65.0,63.2,2.976,2.596,2.664,2.745,0.86,59.1,37.4,42.1,1009.94,-31.62,-1.3,1.0,32.3,47.4,40.5,0,no_anomaly,0.0,0,0,0,0,12.971616,77.5945768,14.5,0.0
2024-09-03T06:31:10.700Z,MISSION_0032,107,0,transit,SITE_BLR_003,12.9716147,77.5945736,15.0,319.05,1.195,0.064,3.37,2.2078,-2.2156,319.0504,-0.93661,-0.01128,0.02485,0.34932,-0.0674,0.0088,-9.8284,0.3105,-1.1542,-0.3361,0.135,3,18,0.67,0.69,0.31,24.456,17.06,88.3,44.9,19423.0,8275,8206,8255,8233,61.1,64.1,60.6,63.6,2.905,2.744,2.979,2.583,0.53,56.8,37.4,41.4,1009.95,-32.5,-0.01,2.17,33.4,50.4,43.3,0,no_anomaly,0.0,0,0,0,0,12.9716147,77.5945736,15.0,0.0
2024-09-03T06:31:10.800Z,MISSION_0032,108,0,transit,SITE_BLR_003,12.9716145,77.5945696,15.5,319.21,1.314,0.04,3.75,0.2599,-3.2579,319.2116,-0.93696,0.00778,0.02743,0.34828,0.0158,-0.0834,-9.7752,-0.2488,0.0715,-0.4396,0.0697,3,19,0.6,0.84,0.21,24.577,15.46,88.2,44.5,19409.0,8195,8459,8443,8257,64.0,64.6,63.9,67.5,2.9,2.788,2.829,2.455,0.69,60.1,37.2,41.8,1009.92,-29.05,1.12,1.45,32.8,46.2,37.7,0,no_anomaly,0.0,0,0,0,0,12.9716145,77.5945696,15.5,0.0
2024-09-03T06:31:10.900Z,MISSION_0032,109,0,transit,SITE_BLR_003,12.9716178,77.5945702,16.0,315.06,1.242,0.086,3.86,0.8405,-1.6847,315.0558,-0.92398,-0.00116,0.01639,0.38208,0.0133,0.0059,-9.8225,0.5406,0.0381,0.114,0.1239,3,13,0.61,1.14,0.24,24.446,17.26,88.2,46.0,19394.0,8403,8145,7996,8315,63.6,63.8,64.0,60.7,2.802,2.677,3.057,2.93,0.01,56.9,37.7,41.7,1010.61,-33.49,-0.38,1.56,32.7,52.0,41.1,0,no_anomaly,0.0,0,0,0,0,12.9716178,77.5945702,16.0,0.0
2024-09-03T06:31:11.000Z,MISSION_0032,110,0,transit,SITE_BLR_003,12.9716175,77.5945721,16.5,314.11,1.072,0.109,3.66,-1.4684,-3.2959,314.1122,-0.92029,0.02301,0.02149,0.38998,-0.0432,-0.0439,-9.7383,-0.1912,0.1731,-0.0271,0.1584,3,11,0.63,0.96,0.25,24.522,16.14,88.1,45.6,19379.0,8112,8189,8303,8480,61.8,61.4,62.3,63.4,2.878,2.872,2.762,2.978,0.34,62.0,37.6,41.7,1010.27,-27.92,-1.02,1.19,33.3,46.5,40.3,0,no_anomaly,0.0,0,0,0,0,12.9716175,77.5945721,16.5,0.0
2024-09-03T06:31:11.100Z,MISSION_0032,111,0,transit,SITE_BLR_003,12.9716098,77.5945703,17.0,310.84,1.22,0.177,3.48,1.5573,-0.9654,310.8368,-0.9093,-0.00885,0.01331,0.41583,0.0703,-0.0574,-9.6852,-0.0113,0.2182,0.3197,0.1342,3,11,0.71,1.38,0.32,24.432,20.94,88.0,45.4,19364.0,8768,8497,8270,8015,63.9,60.0,66.5,64.4,2.644,2.895,2.733,2.875,1.23,68.3,37.7,41.6,1009.67,-31.17,0.73,1.44,29.7,49.9,38.9,0,no_anomaly,0.0,0,0,0,0,12.9716098,77.5945703,17.0,0.0
2024-09-03T06:31:11.200Z,MISSION_0032,112,0,transit,SITE_BLR_003,12.9716106,77.5945713,17.5,308.52,1.649,0.123,3.4,0.6001,-2.5228,308.522,-0.9006,0.00484,0.0221,0.43406,0.0193,-0.0723,-9.7704,0.0924,-0.1091,-0.1983,0.1412,3,16,0.76,0.94,0.31,24.421,19.58,88.0,46.2,19349.0,8189,8207,8340,8253,62.9,61.8,64.5,62.1,2.979,2.822,2.666,2.875,0.01,62.3,37.4,41.0,1009.83,-29.26,0.61,2.09,35.4,45.3,40.9,0,no_anomaly,0.0,0,0,0,0,12.9716106,77.5945713,17.5,0.0
2024-09-03T06:31:11.300Z,MISSION_0032,113,0,transit,SITE_BLR_003,12.9716056,77.594569,18.0,308.93,1.593,0.107,3.51,-0.0056,-0.717,308.9266,-0.90229,0.00274,0.00563,0.43108,0.1324,-0.0536,-9.7782,-0.4799,1.2232,-0.3746,0.011,3,19,0.78,1.01,0.32,24.43,17.73,87.9,46.6,19334.0,8099,8213,8315,8521,60.2,59.8,63.7,66.4,2.683,2.663,2.921,2.669,0.0,67.4,37.7,41.5,1010.15,-28.72,-0.07,1.56,35.5,52.7,41.0,0,no_anomaly,0.0,0,0,0,0,12.9716056,77.594569,18.0,0.0
2024-09-03T06:31:11.400Z,MISSION_0032,114,0,transit,SITE_BLR_003,12.9716114,77.5945697,18.5,308.35,1.303,0.116,3.6,-1.8273,-1.5885,308.3541,-0.89985,0.02039,0.00553,0.43569,-0.1838,-0.0548,-9.8057,-0.3337,0.2631,-0.2458,0.1676,3,14,0.68,0.67,0.25,24.461,19.55,87.8,46.3,19319.0,8369,8351,8450,8458,60.2,63.3,63.3,62.6,2.721,2.866,2.945,2.915,1.31,53.3,37.3,41.2,1010.29,-25.5,1.08,1.74,35.0,47.1,41.9,0,no_anomaly,0.0,0,0,0,0,12.9716114,77.5945697,18.5,0.0
2024-09-03T06:31:11.500Z,MISSION_0032,115,0,transit,SITE_BLR_003,12.9716053,77.5945702,19.0,305.41,1.242,0.18,3.37,-1.3742,-3.3908,305.4082,-0.88803,0.02422,0.02079,0.45867,0.047,-0.0016,-9.8787,0.4134,0.0188,-0.3639,0.083,3,20,0.65,0.75,0.25,24.489,17.3,87.7,46.2,19304.0,8578,8155,8292,8283,61.0,61.5,60.6,64.3,2.706,2.912,3.062,2.913,0.29,59.0,37.7,41.4,1010.08,-28.11,-0.55,1.7,33.6,50.4,39.9,0,no_anomaly,0.0,0,0,0,0,12.9716053,77.5945702,19.0,0.0
2024-09-03T06:31:11.600Z,MISSION_0032,116,0,transit,SITE_BLR_003,12.9716011,77.5945714,19.5,306.7,1.04,0.072,3.18,-0.4657,-0.905,306.6977,-0.8937,0.00717,0.00524,0.44857,-0.0373,0.0149,-9.7363,-0.6171,0.3917,0.1178,0.1501,3,18,0.72,0.88,0.32,24.483,19.42,87.7,45.5,19290.0,8261,8325,8349,8356,62.0,61.1,64.2,65.3,2.768,2.656,2.647,2.892,1.26,60.5,37.2,41.5,1010.05,-30.64,0.94,1.81,33.7,53.8,41.7,0,no_anomaly,0.0,0,0,0,0,12.9716011,77.5945714,19.5,0.0
2024-09-03T06:31:11.700Z,MISSION_0032,117,0,transit,SITE_BLR_003,12.9715998,77.5945738,20.0,303.52,1.198,0.144,2.92,-2.4041,-2.6526,303.5214,-0.88032,0.02943,0.01046,0.47335,0.1665,-0.0135,-9.8108,1.1311,0.5423,0.2237,0.1099,3,19,0.63,0.99,0.2,24.547,21.51,87.6,46.0,19275.0,8139,8359,8631,8461,58.2,64.8,63.9,57.6,2.899,2.879,2.633,2.815,0.91,58.2,37.5,41.3,1010.0,-33.18,-1.23,2.0,35.3,50.3,39.4,0,no_anomaly,0.0,0,0,0,0,12.9715998,77.5945738,20.0,0.0
2024-09-03T06:31:11.800Z,MISSION_0032,118,0,transit,SITE_BLR_003,12.9716022,77.5945756,20.5,303.39,1.709,0.137,2.73,-0.8713,-0.3415,303.3949,-0.88042,0.00811,-0.00098,0.47413,0.1458,-0.0163,-9.7858,-0.7905,0.4606,-0.4293,0.1041,3,10,0.65,1.19,0.2,24.467,18.24,87.5,46.6,19260.0,8372,8435,8202,8374,62.7,65.7,60.9,59.8,2.77,2.662,2.69,2.82,0.65,62.7,36.9,41.8,1009.96,-24.83,0.38,2.05,30.6,45.2,39.3,0,no_anomaly,0.0,0,0,0,0,12.9716022,77.5945756,20.5,0.0
2024-09-03T06:31:11.900Z,MISSION_0032,119,0,transit,SITE_BLR_003,12.9715979,77.5945732,21.0,303.31,1.685,0.068,2.99,-0.2108,1.2964,303.3143,-0.88007,-0.00375,-0.01083,0.4747,0.0472,-0.0086,-9.8139,0.5764,-0.4709,0.552,0.0214,3,14,0.6,0.97,0.29,24.454,21.07,87.5,46.6,19245.0,8074,8174,8216,8200,63.0,61.3,61.4,64.5,2.527,2.68,2.841,2.845,0.11,55.4,37.5,41.7,1010.17,-32.2,0.61,1.2,33.9,51.1,38.2,0,no_anomaly,0.0,0,0,0,0,12.9715979,77.5945732,21.0,0.0
2024-09-03T06:31:12.000Z,MISSION_0032,120,0,transit,SITE_BLR_003,12.9716005,77.5945701,21.5,305.09,2.007,0.123,3.33,-1.4976,-4.6601,305.0863,-0.8863,0.03033,0.03005,0.46113,0.1468,-0.0041,-9.8522,-0.1549,-0.2829,-0.6045,0.135,3,13,0.59,0.81,0.23,24.456,19.54,87.4,45.5,19230.0,8192,8435,8437,8242,61.6,62.2,64.7,63.2,2.688,2.931,2.573,2.836,0.87,62.5,37.8,41.8,1009.86,-29.72,-0.72,1.85,35.2,51.2,41.4,0,no_anomaly,0.0,0,0,0,0,12.9716005,77.5945701,21.5,0.0
2024-09-03T06:31:12.100Z,MISSION_0032,121,0,transit,SITE_BLR_003,12.9716027,77.5945651,22.0,306.94,1.752,0.131,3.9,-0.3059,-3.5124,306.9362,-0.89423,0.01608,0.02623,0.44656,0.008,0.0859,-9.7152,-0.0061,-0.5132,0.1418,0.1248,3,20,0.6,0.8,0.24,24.557,23.72,87.3,45.6,19215.0,8205,8044,8379,8361,60.8,62.6,63.7,61.5,2.841,2.739,2.662,2.761,0.26,67.4,37.5,41.5,1010.12,-29.57,0.51,1.85,29.6,49.0,41.3,0,no_anomaly,0.0,0,0,0,0,12.9716027,77.5945651,22.0,0.0
2024-09-03T06:31:12.200Z,MISSION_0032,122,0,transit,SITE_BLR_003,12.9715974,77.5945656,22.0,308.33,1.647,0.145,3.84,-1.8916,-2.4231,308.3297,-0.89958,0.02407,0.01184,0.43594,0.0304,-0.0443,-9.7736,0.0699,-0.8821,0.148,0.1167,3,14,0.5,1.0,0.23,24.509,21.4,87.3,45.1,19200.0,8280,8365,8266,8325,61.8,64.3,64.4,61.3,2.899,2.656,2.831,2.99,0.07,65.9,37.8,41.3,1010.24,-36.97,0.43,1.42,32.6,51.2,41.6,0,no_anomaly,0.0,0,0,0,0,12.9715974,77.5945656,22.0,0.0
2024-09-03T06:31:12.300Z,MISSION_0032,123,0,transit,SITE_BLR_003,12.9715959,77.5945621,22.0,307.37,1.845,0.075,4.24,2.7227,-3.719,307.3746,-0.89601,-0.00691,0.0396,0.44222,0.0256,0.0592,-9.8874,0.1483,0.4839,0.0439,0.0405,3,14,0.73,0.96,0.24,24.478,24.32,87.2,46.5,19186.0,8240,8162,8496,8178,62.0,62.3,62.7,62.3,3.062,2.934,2.749,2.796,0.84,54.9,37.6,42.1,1010.26,-32.72,-0.51,1.0,30.1,48.6,41.5,0,no_anomaly,0.0,0,0,0,0,12.9715959,77.5945621,22.0,0.0
2024-09-03T06:31:12.400Z,MISSION_0032,124,0,transit,SITE_BLR_003,12.9715941,77.5945575,22.0,306.92,1.696,0.043,4.78,1.9374,-3.6762,306.9224,-0.89429,-0.00079,0.03624,0.44602,-0.0464,-0.0341,-9.7533,-0.4537,0.1482,0.41,0.0653,3,17,0.73,0.9,0.27,24.466,13.49,87.1,46.1,19171.0,8414,8238,8284,8324,62.8,62.6,63.5,64.0,2.622,2.835,2.756,2.881,0.2,52.3,37.1,41.4,1010.43,-31.05,0.38,1.71,33.6,48.8,43.1,0,no_anomaly,0.0,0,0,0,0,12.9715941,77.5945575,22.0,0.0
2024-09-03T06:31:12.500Z,MISSION_0032,125,0,transit,SITE_BLR_003,12.9715939,77.5945569,22.0,307.29,2.147,0.099,4.84,1.3368,-2.4388,307.2872,-0.8959,-0.001,0.02424,0.4436,0.0682,-0.0147,-9.8103,-0.0264,-0.7354,-0.3675,0.0909,3,16,0.58,0.96,0.2,24.496,13.04,87.1,45.9,19156.0,8676,8218,8579,8128,65.7,62.2,66.4,63.5,3.158,2.955,2.906,2.889,1.28,67.6,37.6,41.8,1010.28,-33.64,0.15,1.38,37.0,51.5,41.7,0,no_anomaly,0.0,0,0,0,0,12.9715939,77.5945569,22.0,0.0
2024-09-03T06:31:12.600Z,MISSION_0032,126,0,transit,SITE_BLR_003,12.9715919,77.5945599,22.0,309.28,2.158,0.053,4.56,-1.9131,-1.751,309.2834,-0.90331,0.02163,0.00666,0.4284,0.0028,-0.0861,-9.7483,0.614,-0.392,0.2014,0.181,3,16,0.67,0.93,0.2,24.459,21.07,87.0,46.6,19141.0,8347,8276,8487,8173,60.5,61.7,61.1,65.0,2.894,3.062,2.656,2.956,0.68,70.7,37.6,41.8,1010.17,-29.46,-0.5,1.61,35.6,47.3,41.0,0,no_anomaly,0.0,0,0,0,0,12.9715919,77.5945599,22.0,0.0
2024-09-03T06:31:12.700Z,MISSION_0032,127,0,transit,SITE_BLR_003,12.9715957,77.5945569,22.0,309.01,1.689,0.122,4.82,0.5035,-1.7813,309.0084,-0.90253,0.00273,0.01592,0.43033,-0.0114,0.0605,-9.7576,0.6509,-0.1338,0.4782,0.0009,3,14,0.54,0.86,0.2,24.415,12.78,86.9,45.9,19126.0,8396,8236,8255,8538,63.1,63.7,61.6,62.5,2.572,2.878,2.824,2.613,0.74,57.4,37.4,41.5,1010.07,-28.26,-0.34,1.37,32.3,51.0,37.8,0,no_anomaly,0.0,0,0,0,0,12.9715957,77.5945569,22.0,0.0
2024-09-03T06:31:12.800Z,MISSION_0032,128,0,transit,SITE_BLR_003,12.9715952,77.5945568,22.0,309.34,1.888,0.024,4.83,0.2374,-2.352,309.3362,-0.90367,0.00691,0.01944,0.42773,0.0131,0.0324,-9.7996,0.3155,0.4897,0.0554,0.0836,3,20,0.68,1.2,0.24,24.403,24.07,86.9,46.0,19111.0,8453,8449,8281,8076,62.6,66.2,65.3,66.2,2.874,2.928,2.628,2.633,1.32,59.0,37.5,41.2,1009.77,-27.2,-0.77,1.35,32.9,43.1,38.4,0,no_anomaly,0.0,0,0,0,0,12.9715952,77.5945568,22.0,0.0
2024-09-03T06:31:12.900Z,MISSION_0032,129,0,transit,SITE_BLR_003,12.9715897,77.594558,22.0,306.22,2.284,0.123,4.81,0.3145,-0.6626,306.2198,-0.89186,0.00017,0.0064,0.45226,-0.1578,0.0759,-9.8092,-0.0682,0.5282,-0.2928,0.0845,3,13,0.72,0.9,0.25,24.49,21.47,86.8,45.1,19096.0,8359,8519,8607,8256,59.9,62.0,61.5,62.9,2.945,2.636,2.726,2.948,0.0,66.4,36.9,41.6,1010.35,-32.4,-1.32,1.75,35.7,50.8,38.5,0,no_anomaly,0.0,0,0,0,0,12.9715897,77.594558,22.0,0.0
