timestamp_utc,mission_id,frame_id,waypoint_id,inspection_phase,site_id,latitude_deg,longitude_deg,altitude_m,heading_deg,ground_speed_ms,vertical_speed_ms,distance_to_tower_m,roll_deg,pitch_deg,yaw_deg,quat_w,quat_x,quat_y,quat_z,accel_x_ms2,accel_y_ms2,accel_z_ms2,gyro_x_rads,gyro_y_rads,gyro_z_rads,vibration_level,gps_fix_type,gps_satellite_count,gps_hdop,gps_vdop,position_error_m,battery_voltage_v,battery_current_a,battery_remaining_pct,battery_temp_c,battery_capacity_mah,motor_fl_rpm,motor_fr_rpm,motor_rl_rpm,motor_rr_rpm,motor_fl_temp_c,motor_fr_temp_c,motor_rl_temp_c,motor_rr_temp_c,motor_fl_thrust_n,motor_fr_thrust_n,motor_rl_thrust_n,motor_rr_thrust_n,wind_speed_ms,wind_dir_deg,air_temp_c,humidity_pct,pressure_hpa,gimbal_pitch_deg,gimbal_roll_deg,zoom_factor,ir_temp_min_c,ir_temp_max_c,ir_temp_avg_c,anomaly_detected,anomaly_class,anomaly_confidence,anomaly_bbox_x,anomaly_bbox_y,anomaly_bbox_w,anomaly_bbox_h,anomaly_gps_lat,anomaly_gps_lon,anomaly_gps_alt_m,ir_temp_delta_c
2024-09-07T17:59:00.000Z,MISSION_0030,0,0,takeoff,SITE_BOM_001,19.0760025,72.8776972,1.5,54.65,0.483,0.079,0.42,-4.2297,-3.0012,54.6507,0.88795,-0.02076,-0.04018,0.45771,-0.117,-0.0193,-9.7974,0.1736,0.1,-0.2485,0.266,3,16,0.5,0.96,0.2,24.771,21.36,99.0,43.7,21775.0,7119,7139,7147,7339,58.9,62.1,60.6,55.8,2.803,2.891,2.667,2.759,8.25,231.4,34.9,72.7,1019.56,-28.61,0.34,1.16,34.1,46.9,40.1,0,no_anomaly,0.0,0,0,0,0,19.0760025,72.8776972,1.5,0.0
2024-09-07T17:59:00.100Z,MISSION_0030,1,0,takeoff,SITE_BOM_001,19.0760038,72.8777032,3.0,55.64,0.177,0.066,0.55,-2.3961,-1.0233,55.6372,0.88429,-0.01433,-0.01765,0.46639,-0.1228,-0.0101,-9.8712,-0.0712,0.3225,-0.5173,0.2703,3,15,0.77,1.13,0.36,24.827,20.64,98.9,42.7,21755.0,7339,7235,7479,7500,60.3,59.9,61.9,60.6,2.796,2.703,2.76,2.653,6.41,239.2,35.2,72.5,1019.22,-27.92,0.78,1.47,28.5,44.0,34.5,0,no_anomaly,0.0,0,0,0,0,19.0760038,72.8777032,3.0,0.0
2024-09-07T17:59:00.200Z,MISSION_0030,2,0,takeoff,SITE_BOM_001,19.0760035,72.8777107,4.5,54.13,0.253,0.09,1.25,-1.1479,-1.1157,54.1309,0.89044,-0.00449,-0.01323,0.45488,0.257,-0.0349,-9.8111,0.0034,-0.1239,0.24,0.3363,3,20,0.77,1.2,0.37,24.784,21.82,98.8,42.6,21735.0,7156,7258,7435,7102,61.5,60.1,61.8,63.6,2.851,2.982,2.896,2.887,6.13,224.0,35.0,72.7,1019.48,-29.91,0.24,1.52,26.8,41.4,39.0,0,no_anomaly,0.0,0,0,0,0,19.0760035,72.8777107,4.5,0.0
2024-09-07T17:59:00.300Z,MISSION_0030,3,0,takeoff,SITE_BOM_001,19.0760021,72.8777047,5.0,53.4,0.0,0.111,0.58,-0.3392,-2.2876,53.3966,0.89323,0.00633,-0.01916,0.44915,0.0144,0.0277,-9.8244,0.5899,0.6013,-0.2577,0.3441,3,17,0.79,1.14,0.36,24.803,18.21,98.7,43.0,21715.0,7249,7303,7407,7314,60.7,60.4,59.3,61.6,2.63,2.992,2.728,2.912,7.67,238.2,35.1,72.1,1019.04,-31.27,0.42,1.58,26.0,44.5,33.8,0,no_anomaly,0.0,0,0,0,0,19.0760021,72.8777047,5.0,0.0
2024-09-07T17:59:00.400Z,MISSION_0030,4,0,takeoff,SITE_BOM_001,19.0760003,72.8777063,5.0,54.36,0.166,0.085,0.7,-2.3604,-4.3083,54.3582,0.88912,-0.00114,-0.04283,0.45566,-0.069,0.0552,-9.8149,-0.5642,-0.3443,-0.319,0.2845,3,10,0.81,0.93,0.31,24.806,19.99,98.6,42.8,21695.0,7250,7352,7452,7355,60.9,59.3,59.1,63.9,2.891,2.848,2.779,2.542,7.42,234.4,34.9,72.5,1019.23,-33.3,0.15,1.73,29.4,41.6,39.1,0,no_anomaly,0.0,0,0,0,0,19.0760003,72.8777063,5.0,0.0
2024-09-07T17:59:00.500Z,MISSION_0030,5,0,takeoff,SITE_BOM_001,19.0759939,72.8777026,5.0,54.78,0.316,0.112,0.73,4.1459,-3.3926,54.7847,0.88641,0.04571,-0.00963,0.46053,0.0363,-0.0379,-9.8686,0.9056,-0.3715,0.0622,0.3087,3,11,0.69,0.95,0.27,24.8,19.68,98.5,42.5,21675.0,7390,7273,7298,7133,60.5,61.3,59.0,57.9,2.606,2.7,2.838,2.805,7.46,228.0,34.9,72.1,1019.3,-35.82,1.63,1.33,33.1,49.7,40.3,0,no_anomaly,0.0,0,0,0,0,19.0759939,72.8777026,5.0,0.0
2024-09-07T17:59:00.600Z,MISSION_0030,6,0,takeoff,SITE_BOM_001,19.0759946,72.8777024,5.0,54.91,0.0,0.06,0.66,5.8318,-3.8666,54.9077,0.88494,0.06065,-0.00646,0.4617,-0.0142,-0.0512,-9.8268,-0.0095,-0.6854,-0.0363,0.2483,3,12,0.68,0.88,0.25,24.756,23.66,98.4,43.6,21655.0,7316,7330,7535,7183,61.1,60.8,61.0,60.2,2.985,2.384,2.661,2.809,7.59,232.6,34.8,72.8,1019.4,-26.0,0.12,1.35,29.0,41.7,38.1,0,no_anomaly,0.0,0,0,0,0,19.0759946,72.8777024,5.0,0.0
2024-09-07T17:59:00.700Z,MISSION_0030,7,0,takeoff,SITE_BOM_001,19.0759975,72.8777022,5.0,56.28,0.0,0.106,0.36,4.3865,-3.3946,56.279,0.88023,0.04769,-0.00806,0.47207,-0.0815,-0.0411,-9.764,-0.3206,-0.281,0.2235,0.3221,3,20,0.76,0.88,0.31,24.731,21.6,98.3,42.7,21635.0,7328,7299,7486,7364,58.2,58.9,61.0,60.2,2.818,2.53,2.866,2.971,7.34,227.3,35.0,71.6,1019.38,-28.66,3.1,1.84,30.9,42.5,36.6,0,no_anomaly,0.0,0,0,0,0,19.0759975,72.8777022,5.0,0.0
2024-09-07T17:59:00.800Z,MISSION_0030,8,0,takeoff,SITE_BOM_001,19.0759995,72.8777008,5.0,57.4,0.63,0.105,0.1,2.2255,-1.8798,57.3986,0.87672,0.02491,-0.00506,0.48034,0.2193,0.0147,-9.8098,0.344,0.0216,-0.3646,0.3419,3,14,0.75,0.75,0.25,24.765,22.24,98.2,44.1,21615.0,7277,6980,7806,7308,62.2,57.8,58.8,58.7,3.063,2.958,2.781,2.599,6.9,226.8,34.9,72.0,1019.17,-25.88,1.67,2.04,25.5,41.0,36.9,0,no_anomaly,0.0,0,0,0,0,19.0759995,72.8777008,5.0,0.0
2024-09-07T17:59:00.900Z,MISSION_0030,9,0,takeoff,SITE_BOM_001,19.0759993,72.8777054,5.0,56.78,0.804,0.079,0.6,5.3114,-2.7565,56.7846,0.87798,0.05217,0.00089,0.47584,0.0991,-0.0011,-9.8088,1.1051,0.0475,-0.3319,0.2168,3,10,0.7,0.93,0.32,24.723,22.9,98.2,42.4,21595.0,7088,7177,7010,7370,59.5,59.3,58.9,57.8,2.669,2.816,2.738,2.676,7.73,237.4,35.3,71.7,1019.32,-36.03,-0.39,1.6,31.1,41.7,35.8,0,no_anomaly,0.0,0,0,0,0,19.0759993,72.8777054,5.0,0.0
2024-09-07T17:59:01.000Z,MISSION_0030,10,0,takeoff,SITE_BOM_001,19.076,72.8777038,5.0,56.8,0.641,0.067,0.43,-2.6034,-2.831,56.8022,0.87941,-0.00823,-0.03253,0.47488,0.0206,-0.0925,-9.839,-0.0601,0.2515,-0.3692,0.2287,3,11,0.54,0.9,0.28,24.69,17.24,98.1,43.2,21575.0,6950,7248,7466,7337,60.8,56.7,64.2,57.9,2.838,2.846,2.804,2.624,7.56,235.2,34.9,72.2,1018.97,-28.12,1.45,1.62,28.9,48.2,37.4,0,no_anomaly,0.0,0,0,0,0,19.076,72.8777038,5.0,0.0
2024-09-07T17:59:01.100Z,MISSION_0030,11,0,takeoff,SITE_BOM_001,19.0759942,72.8777002,5.0,56.35,0.517,0.066,0.64,-2.6782,-0.1503,56.3537,0.88127,-0.01998,-0.01219,0.47204,-0.0839,-0.02,-9.8939,0.8393,-0.2657,0.3986,0.2322,3,14,0.73,0.68,0.2,24.675,21.31,98.0,43.0,21555.0,7468,7042,7110,7238,62.7,58.0,62.0,60.5,2.855,2.615,2.724,2.728,7.61,228.5,35.1,72.7,1019.38,-27.72,-0.8,1.79,33.6,49.2,41.0,0,no_anomaly,0.0,0,0,0,0,19.0759942,72.8777002,5.0,0.0
2024-09-07T17:59:01.200Z,MISSION_0030,12,0,takeoff,SITE_BOM_001,19.0759968,72.8777043,5.0,57.39,0.222,0.062,0.6,-3.2679,-1.8324,57.3864,0.87695,-0.01734,-0.02771,0.47946,-0.1147,-0.0063,-9.7843,0.2804,-0.2415,-0.4842,0.2257,3,15,0.58,0.86,0.24,24.78,18.58,97.9,43.3,21535.0,7276,7221,7055,7326,63.2,59.3,55.8,57.8,2.701,2.642,2.503,2.887,7.3,229.0,34.8,71.8,1019.44,-30.46,-1.09,1.63,29.5,47.2,36.4,0,no_anomaly,0.0,0,0,0,0,19.0759968,72.8777043,5.0,0.0
2024-09-07T17:59:01.300Z,MISSION_0030,13,0,takeoff,SITE_BOM_001,19.0759941,72.8777056,5.0,56.6,0.0,0.164,0.9,-6.6206,-2.3762,56.5963,0.8794,-0.04102,-0.04559,0.47211,-0.0318,0.0405,-9.861,-0.2532,0.8251,0.1734,0.2824,3,15,0.65,0.82,0.24,24.684,17.46,97.8,43.3,21515.0,7268,7434,7297,7208,62.6,53.6,59.7,57.4,2.986,3.069,2.754,2.672,7.31,238.3,34.9,72.2,1019.52,-34.07,0.43,1.51,28.8,43.3,34.3,0,no_anomaly,0.0,0,0,0,0,19.0759941,72.8777056,5.0,0.0
2024-09-07T17:59:01.400Z,MISSION_0030,14,0,takeoff,SITE_BOM_001,19.0759936,72.8777023,5.0,56.55,0.0,0.071,0.76,-0.0091,-1.2132,56.5478,0.88064,0.00494,-0.00936,0.47366,-0.1599,-0.0187,-9.7956,0.2662,-0.2961,-0.1124,0.1917,3,10,0.64,0.84,0.35,24.7,20.8,97.7,43.5,21495.0,7478,7323,7150,7416,61.3,59.1,60.1,56.0,2.694,2.773,2.645,2.783,7.43,229.5,35.3,71.8,1019.52,-30.65,0.05,1.35,31.8,45.5,40.7,0,no_anomaly,0.0,0,0,0,0,19.0759936,72.8777023,5.0,0.0
2024-09-07T17:59:01.500Z,MISSION_0030,15,0,takeoff,SITE_BOM_001,19.0759933,72.8777006,5.0,56.77,0.215,0.119,0.75,4.1511,-2.4968,56.7656,0.87863,0.04221,-0.00194,0.47563,-0.1427,-0.096,-9.9319,0.5141,0.0592,-0.1626,0.2399,3,20,0.72,0.79,0.22,24.746,16.42,97.6,42.6,21475.0,7418,7229,7414,7309,62.0,58.9,61.7,57.6,2.762,2.847,2.664,2.755,7.76,234.5,35.1,71.7,1019.19,-28.2,0.85,1.7,30.3,47.5,34.3,0,no_anomaly,0.0,0,0,0,0,19.0759933,72.8777006,5.0,0.0
2024-09-07T17:59:01.600Z,MISSION_0030,16,0,takeoff,SITE_BOM_001,19.0759952,72.8776982,5.0,56.33,0.7,0.065,0.58,-8.8683,-2.8949,56.3347,0.87958,-0.05625,-0.05869,0.46876,-0.3461,-0.0075,-9.7904,-0.6156,-0.2259,-0.3193,0.2689,3,16,0.61,0.97,0.28,24.609,19.43,97.5,42.9,21455.0,7302,7389,7231,7253,58.3,62.5,60.9,61.6,2.978,2.754,2.937,2.676,7.74,234.8,34.9,72.5,1019.39,-32.69,-0.02,1.1,29.8,42.2,37.1,0,no_anomaly,0.0,0,0,0,0,19.0759952,72.8776982,5.0,0.0
2024-09-07T17:59:01.700Z,MISSION_0030,17,0,takeoff,SITE_BOM_001,19.0759942,72.8776979,5.0,57.12,0.27,0.123,0.69,3.0547,-0.9088,57.1191,0.87788,0.0272,0.00578,0.47807,-0.1772,-0.0886,-9.8458,-0.1552,-0.1068,-0.0144,0.3371,3,12,0.62,0.83,0.23,24.839,22.23,97.4,42.4,21435.0,7576,7233,7068,7362,61.3,60.6,58.1,60.7,3.037,2.934,2.708,2.632,7.72,234.4,35.1,72.5,1019.5,-30.61,1.09,1.68,29.1,47.8,36.1,0,no_anomaly,0.0,0,0,0,0,19.0759942,72.8776979,5.0,0.0
2024-09-07T17:59:01.800Z,MISSION_0030,18,0,takeoff,SITE_BOM_001,19.075993,72.8777015,5.0,54.99,0.436,0.142,0.8,-4.6882,-2.1658,54.9901,0.88651,-0.02756,-0.03563,0.46052,0.355,0.0001,-9.8122,0.0338,0.2263,0.0101,0.2405,3,17,0.89,0.86,0.2,24.779,18.28,97.3,43.3,21415.0,6987,7158,7295,7000,57.8,62.8,63.8,55.7,2.593,2.777,3.094,2.63,7.23,229.0,34.5,72.0,1019.08,-28.82,0.43,1.26,28.9,43.0,38.9,0,no_anomaly,0.0,0,0,0,0,19.075993,72.8777015,5.0,0.0
2024-09-07T17:59:01.900Z,MISSION_0030,19,0,takeoff,SITE_BOM_001,19.0759941,72.8776963,5.0,51.47,0.768,0.137,0.77,-2.3088,-3.0552,51.4736,0.90053,-0.00657,-0.03275,0.43351,0.3073,-0.013,-9.7603,-0.0394,-0.1763,0.3743,0.208,3,13,0.73,0.81,0.45,24.776,16.26,97.2,43.0,21395.0,7370,7322,7238,7451,59.6,59.8,60.2,58.4,2.93,2.926,2.632,2.902,6.7,232.6,34.6,72.9,1019.41,-26.78,2.82,1.3,32.8,42.8,39.2,0,no_anomaly,0.0,0,0,0,0,19.0759941,72.8776963,5.0,0.0
2024-09-07T17:59:02.000Z,MISSION_0030,20,0,takeoff,SITE_BOM_001,19.075994,72.8776958,5.0,52.42,0.878,0.063,0.82,0.8394,-1.1243,52.4225,0.89707,0.0109,-0.00557,0.44171,-0.2649,-0.0707,-9.785,0.3235,0.297,-0.0158,0.2411,3,11,0.78,0.95,0.27,24.782,19.14,97.2,43.2,21375.0,7353,7084,7279,7395,60.7,59.2,61.6,60.3,2.941,2.707,2.837,2.776,6.89,233.6,35.0,72.1,1019.41,-33.03,0.4,1.78,27.0,48.7,36.0,0,no_anomaly,0.0,0,0,0,0,19.075994,72.8776958,5.0,0.0
2024-09-07T17:59:02.100Z,MISSION_0030,21,0,takeoff,SITE_BOM_001,19.0759998,72.8776904,5.0,53.21,1.05,0.122,1.07,-1.9492,-3.8477,53.2124,0.89373,-0.00017,-0.03763,0.44703,-0.1191,-0.0286,-9.8045,0.5176,-0.5355,0.6191,0.2949,3,13,0.8,0.96,0.29,24.796,16.73,97.1,43.4,21355.0,7281,7395,7262,7117,58.3,57.8,58.9,58.7,2.834,2.688,2.731,2.74,8.16,232.0,34.9,72.4,1019.11,-27.69,0.24,1.0,31.1,40.9,36.2,0,no_anomaly,0.0,0,0,0,0,19.0759998,72.8776904,5.0,0.0
2024-09-07T17:59:02.200Z,MISSION_0030,22,0,takeoff,SITE_BOM_001,19.0760002,72.8776841,5.0,53.89,0.983,0.074,1.77,-1.1488,-0.4559,53.8862,0.89142,-0.00713,-0.00809,0.45304,0.2175,-0.0142,-9.8015,0.7636,0.0168,0.4146,0.1471,3,18,0.73,1.03,0.35,24.703,19.29,97.0,43.7,21335.0,7469,7758,7314,7178,60.4,61.1,61.4,60.0,2.826,3.037,2.931,2.98,6.31,231.9,34.9,73.0,1019.16,-30.97,-1.17,1.48,27.1,46.8,37.6,0,no_anomaly,0.0,0,0,0,0,19.0760002,72.8776841,5.0,0.0
2024-09-07T17:59:02.300Z,MISSION_0030,23,0,takeoff,SITE_BOM_001,19.0759988,72.8776785,5.0,53.24,0.872,0.116,2.4,0.6122,-2.6853,53.2381,0.89369,0.01527,-0.01855,0.44804,-0.0765,0.0556,-9.6795,-0.0872,0.7002,0.4561,0.3486,3,20,0.59,0.79,0.34,24.809,21.33,96.9,43.4,21315.0,7292,7327,7450,7146,55.8,64.3,58.0,58.5,2.767,2.851,2.68,2.827,8.1,222.8,34.9,72.3,1019.25,-32.39,0.35,1.0,29.0,42.6,36.2,0,no_anomaly,0.0,0,0,0,0,19.0759988,72.8776785,5.0,0.0
2024-09-07T17:59:02.400Z,MISSION_0030,24,0,takeoff,SITE_BOM_001,19.0759954,72.8776786,5.0,53.92,0.763,0.215,2.44,-2.0476,-1.4322,53.9213,0.89121,-0.01026,-0.01924,0.45307,0.1268,0.085,-9.8471,-0.252,0.8394,-0.3941,0.2061,3,15,0.69,0.86,0.25,24.778,17.05,96.8,43.6,21295.0,7199,7136,7540,7256,60.4,60.7,60.3,60.7,2.615,2.767,2.689,3.121,7.29,232.8,35.5,72.0,1019.18,-24.44,-1.42,1.67,25.9,45.7,36.8,0,no_anomaly,0.0,0,0,0,0,19.0759954,72.8776786,5.0,0.0
2024-09-07T17:59:02.500Z,MISSION_0030,25,0,takeoff,SITE_BOM_001,19.0759928,72.8776843,5.0,54.0,0.501,0.136,1.92,3.0729,0.146,53.9985,0.89071,0.02331,0.01331,0.45378,-0.3701,0.0511,-9.7374,-0.4943,0.2747,-0.2185,0.2429,3,15,0.86,0.78,0.3,24.709,17.97,96.7,43.9,21275.0,7123,7431,7348,7291,61.6,61.8,58.2,59.2,2.835,2.941,2.885,3.101,6.79,235.4,34.6,72.7,1019.5,-33.25,-0.1,1.48,29.4,41.7,38.5,0,no_anomaly,0.0,0,0,0,0,19.0759928,72.8776843,5.0,0.0
2024-09-07T17:59:02.600Z,MISSION_0030,26,0,takeoff,SITE_BOM_001,19.0759915,72.8776837,5.0,54.77,0.167,0.137,2.05,1.2522,-2.7398,54.769,0.88751,0.0207,-0.0162,0.46003,0.0994,-0.0153,-9.7449,0.9797,-0.7203,0.4639,0.261,3,11,0.82,0.99,0.42,24.74,24.44,96.6,43.7,21255.0,7559,7471,7291,7143,60.5,60.5,58.8,61.6,2.805,2.78,2.727,2.94,7.45,228.1,35.1,72.6,1019.52,-24.91,-0.91,1.66,30.6,50.5,36.4,0,no_anomaly,0.0,0,0,0,0,19.0759915,72.8776837,5.0,0.0
2024-09-07T17:59:02.700Z,MISSION_0030,27,0,takeoff,SITE_BOM_001,19.0759915,72.8776851,5.0,52.4,0.021,0.089,1.91,-2.0959,-2.3057,52.4045,0.89707,-0.00752,-0.02612,0.44105,-0.0964,-0.0624,-9.8276,0.0321,-0.2445,-0.1471,0.2817,3,17,0.77,1.18,0.29,24.719,13.12,96.5,43.5,21234.0,7523,7481,7305,7290,62.8,59.5,59.1,60.4,2.641,2.64,2.722,2.889,7.06,232.4,35.3,72.3,1019.25,-32.06,-0.11,1.73,32.6,50.3,41.6,0,no_anomaly,0.0,0,0,0,0,19.0759915,72.8776851,5.0,0.0
2024-09-07T17:59:02.800Z,MISSION_0030,28,0,takeoff,SITE_BOM_001,19.0759922,72.8776852,5.0,52.12,0.13,0.176,1.87,3.7802,-0.4103,52.1202,0.89779,0.0312,0.01128,0.43918,-0.3975,-0.0141,-9.7317,0.0477,0.4569,-0.1601,0.2276,3,10,0.72,1.01,0.3,24.777,22.6,96.4,43.3,21214.0,7159,7392,7329,7033,61.5,61.2,59.7,60.6,2.771,2.889,2.536,2.809,7.59,237.6,35.4,72.1,1019.61,-30.67,0.83,1.75,28.5,41.0,36.0,0,no_anomaly,0.0,0,0,0,0,19.0759922,72.8776852,5.0,0.0
2024-09-07T17:59:02.900Z,MISSION_0030,29,0,takeoff,SITE_BOM_001,19.0759915,72.8776832,5.0,52.45,0.115,0.075,2.1,-1.123,-5.5767,52.445,0.89619,0.01271,-0.04796,0.44089,-0.0691,0.0326,-9.8836,0.4151,0.1692,-0.0028,0.1954,3,15,0.71,1.13,0.36,24.743,22.97,96.3,43.4,21194.0,7145,7193,7322,6970,59.8,59.2,59.1,60.1,2.951,2.733,2.823,2.705,7.23,226.9,35.1,72.6,1019.0,-30.19,-0.08,1.76,29.0,43.8,36.2,0,no_anomaly,0.0,0,0,0,0,19.0759915,72.8776832,5.0,0.0
2024-09-07T17:59:03.000Z,MISSION_0030,30,0,takeoff,SITE_BOM_001,19.0759904,72.87768,5.0,52.08,0.064,0.118,2.47,1.2263,-3.3897,52.0782,0.89791,0.02259,-0.02188,0.43905,0.2688,-0.0059,-9.8349,0.1562,-0.212,0.2138,0.264,3,11,0.63,0.9,0.31,24.675,19.96,96.2,43.8,21174.0,7275,7217,7149,7375,62.0,61.8,58.4,59.2,2.754,2.871,2.942,2.888,7.14,235.1,35.0,72.0,1019.3,-32.89,0.58,1.58,31.4,43.8,34.4,0,no_anomaly,0.0,0,0,0,0,19.0759904,72.87768,5.0,0.0
2024-09-07T17:59:03.100Z,MISSION_0030,31,0,takeoff,SITE_BOM_001,19.0759935,72.8776833,5.0,54.41,0.0,0.17,2.0,7.2495,-3.3716,54.408,0.88637,0.06963,0.00278,0.4577,-0.0999,0.0191,-9.754,0.0835,0.5788,-0.0736,0.1536,3,17,0.66,0.93,0.25,24.774,17.96,96.2,43.0,21154.0,7713,7420,7078,7653,62.1,58.8,61.0,59.1,2.845,2.653,2.748,2.569,7.16,227.8,35.3,71.9,1019.24,-28.25,-1.7,1.0,30.5,40.8,37.4,0,no_anomaly,0.0,0,0,0,0,19.0759935,72.8776833,5.0,0.0
2024-09-07T17:59:03.200Z,MISSION_0030,32,0,takeoff,SITE_BOM_001,19.0759887,72.8776802,5.0,50.95,0.816,0.133,2.54,1.4467,-2.7423,50.9489,0.90232,0.02168,-0.01617,0.43022,-0.0261,-0.0371,-9.8431,-0.158,-0.503,-0.1855,0.2775,3,12,0.87,0.99,0.37,24.754,20.11,96.1,42.6,21134.0,7168,7054,7204,7339,64.2,58.4,59.9,58.3,3.19,2.843,2.676,2.923,7.21,236.0,35.2,71.7,1019.09,-27.62,-1.56,1.51,29.4,47.5,39.3,0,no_anomaly,0.0,0,0,0,0,19.0759887,72.8776802,5.0,0.0
2024-09-07T17:59:03.300Z,MISSION_0030,33,0,takeoff,SITE_BOM_001,19.0759901,72.8776808,5.0,51.91,0.548,0.2,2.41,-3.0988,-6.3916,51.9122,0.89806,0.00012,-0.06192,0.43549,0.2065,0.0665,-9.831,-0.6128,-0.784,0.0258,0.3191,3,17,0.76,0.88,0.2,24.737,20.53,96.0,43.7,21114.0,7359,7603,7191,7443,58.5,59.7,60.4,58.6,2.911,2.648,2.72,2.57,7.26,238.6,35.2,71.8,1019.47,-28.49,1.85,1.4,33.2,41.3,39.9,0,no_anomaly,0.0,0,0,0,0,19.0759901,72.8776808,5.0,0.0
2024-09-07T17:59:03.400Z,MISSION_0030,34,0,takeoff,SITE_BOM_001,19.0759841,72.8776808,5.0,52.74,0.107,0.059,2.77,4.3993,-2.3614,52.7434,0.89473,0.04353,-0.0014,0.44448,-0.2632,0.0281,-9.7688,-0.183,-0.6349,-0.5652,0.1873,3,19,0.62,1.18,0.32,24.646,18.49,95.9,43.3,21094.0,7175,7254,7364,7125,61.5,57.8,56.8,61.7,2.545,3.031,2.943,2.743,7.25,232.9,34.8,72.3,1019.35,-24.86,0.31,1.35,32.5,45.9,38.2,0,no_anomaly,0.0,0,0,0,0,19.0759841,72.8776808,5.0,0.0
2024-09-07T17:59:03.500Z,MISSION_0030,35,0,takeoff,SITE_BOM_001,19.075987,72.8776794,5.0,51.33,0.278,0.048,2.71,2.1292,-0.6103,51.3251,0.90115,0.01905,0.00325,0.43308,-0.0031,-0.0085,-9.8423,-0.288,1.2056,0.096,0.2366,3,11,0.7,0.91,0.2,24.688,20.66,95.8,42.7,21074.0,7213,7143,7289,7376,58.8,60.3,60.5,59.7,2.967,2.94,2.835,2.779,6.79,239.4,34.9,72.7,1019.57,-27.8,1.22,1.52,29.3,41.6,37.2,0,no_anomaly,0.0,0,0,0,0,19.075987,72.8776794,5.0,0.0
2024-09-07T17:59:03.600Z,MISSION_0030,36,0,takeoff,SITE_BOM_001,19.0759865,72.8776737,5.0,51.56,0.657,0.191,3.28,-5.561,-4.7136,51.5579,0.89953,-0.02578,-0.05807,0.43222,0.0129,-0.0269,-9.8167,-0.5531,-0.149,-0.0238,0.273,3,17,0.87,1.0,0.2,24.701,18.96,95.7,42.2,21054.0,7459,7356,7189,6898,59.8,60.5,58.3,60.9,2.814,2.912,2.727,2.765,6.39,231.3,34.9,72.6,1019.07,-32.55,-1.38,1.35,33.8,46.2,38.5,0,no_anomaly,0.0,0,0,0,0,19.0759865,72.8776737,5.0,0.0
2024-09-07T17:59:03.700Z,MISSION_0030,37,0,takeoff,SITE_BOM_001,19.0759852,72.8776775,5.0,49.74,0.302,0.157,3.0,0.0908,-2.7707,49.7393,0.90699,0.01089,-0.0216,0.42045,-0.3674,0.0397,-9.8352,0.4779,0.514,0.5883,0.2731,3,11,0.63,0.7,0.35,24.767,21.76,95.6,43.5,21034.0,7096,7527,7385,7373,61.5,60.0,62.4,57.6,2.907,2.814,3.084,2.989,7.2,230.8,34.7,72.5,1019.43,-31.48,-0.14,1.61,29.8,45.9,39.0,0,no_anomaly,0.0,0,0,0,0,19.0759852,72.8776775,5.0,0.0
2024-09-07T17:59:03.800Z,MISSION_0030,38,0,transit,SITE_BOM_001,19.0759844,72.8776787,5.5,50.74,0.347,0.109,2.94,-2.2417,-1.4048,50.7378,0.90343,-0.01242,-0.01945,0.42811,-0.0573,-0.0826,-9.809,0.0694,0.4016,-0.2875,0.3375,3,14,0.76,0.97,0.2,24.767,16.37,95.5,42.9,21014.0,7167,7293,7148,7354,59.2,62.2,60.5,61.4,2.768,2.775,2.485,2.536,6.42,231.3,35.3,72.5,1018.86,-30.14,0.45,1.77,27.4,42.3,38.4,0,no_anomaly,0.0,0,0,0,0,19.0759844,72.8776787,5.5,0.0
2024-09-07T17:59:03.900Z,MISSION_0030,39,0,transit,SITE_BOM_001,19.0759845,72.8776776,6.0,51.09,0.655,0.072,3.03,-2.0759,-4.1033,51.0888,0.9018,-0.0009,-0.0401,0.43028,-0.1688,0.0281,-9.7813,-0.1904,-0.79,-0.3066,0.1759,3,19,0.79,0.98,0.25,24.648,11.76,95.4,43.9,20994.0,7539,7071,7442,6992,64.4,59.8,56.9,60.9,2.702,2.937,2.679,2.651,7.85,229.5,34.8,71.8,1019.47,-31.37,0.11,1.32,32.5,49.4,37.6,0,no_anomaly,0.0,0,0,0,0,19.0759845,72.8776776,6.0,0.0
2024-09-07T17:59:04.000Z,MISSION_0030,40,0,transit,SITE_BOM_001,19.0759853,72.8776764,6.5,48.95,0.467,0.066,3.1,-1.5879,-2.6393,48.9525,0.90994,-0.00307,-0.0267,0.41388,-0.155,0.0855,-9.8113,-1.2355,0.6956,-0.0818,0.2003,3,20,0.79,1.02,0.23,24.655,24.99,95.3,42.8,20974.0,7123,7380,7455,7287,60.6,61.5,60.8,56.5,2.994,2.716,2.692,2.766,7.26,230.0,35.0,71.7,1019.31,-32.09,2.53,1.59,26.1,46.6,33.9,0,no_anomaly,0.0,0,0,0,0,19.0759853,72.8776764,6.5,0.0
2024-09-07T17:59:04.100Z,MISSION_0030,41,0,transit,SITE_BOM_001,19.0759878,72.8776764,7.0,47.28,0.356,0.04,2.96,-1.5439,-2.1478,47.2762,0.91595,-0.00483,-0.02257,0.40062,-0.2787,-0.0862,-9.7407,0.2326,-0.1467,0.4679,0.3035,3,17,0.7,0.96,0.22,24.665,16.72,95.2,43.3,20954.0,7331,7227,7277,7425,60.6,60.7,60.3,60.2,2.718,2.83,2.999,2.692,7.49,234.0,35.1,72.9,1019.41,-28.21,-1.47,1.12,26.8,49.1,35.6,0,no_anomaly,0.0,0,0,0,0,19.0759878,72.8776764,7.0,0.0
2024-09-07T17:59:04.200Z,MISSION_0030,42,0,transit,SITE_BOM_001,19.075985,72.8776703,7.5,48.09,0.0,0.1,3.7,8.3479,-1.6396,48.0891,0.91029,0.07228,0.01662,0.40728,-0.026,-0.0059,-9.7644,-0.0691,-0.0167,-0.2663,0.2584,3,18,0.62,0.85,0.2,24.681,20.16,95.2,43.7,20934.0,7407,7292,7337,7065,59.4,62.9,61.4,58.7,2.553,2.884,2.467,3.05,6.92,235.3,35.2,73.3,1019.26,-25.87,-2.12,1.33,28.6,40.4,37.4,0,no_anomaly,0.0,0,0,0,0,19.075985,72.8776703,7.5,0.0
2024-09-07T17:59:04.300Z,MISSION_0030,43,0,transit,SITE_BOM_001,19.0759881,72.8776717,8.0,48.36,0.556,0.047,3.42,0.8565,-1.2371,48.3586,0.91216,0.01124,-0.00679,0.40963,0.2758,0.0168,-9.7708,-0.4206,0.1192,-0.1074,0.2704,3,15,0.61,0.76,0.25,24.661,21.01,95.1,43.2,20914.0,7348,7311,7178,7387,57.7,62.4,62.1,58.7,2.886,3.089,2.75,3.113,7.41,232.9,35.1,72.8,1019.13,-30.46,1.01,1.33,29.7,45.1,37.9,0,no_anomaly,0.0,0,0,0,0,19.0759881,72.8776717,8.0,0.0
2024-09-07T17:59:04.400Z,MISSION_0030,44,0,transit,SITE_BOM_001,19.0759898,72.8776706,8.5,46.61,0.449,0.139,3.46,0.0104,-5.3774,46.6094,0.9174,0.01864,-0.04305,0.39519,-0.2222,-0.0255,-9.8007,0.67,0.6634,-0.3099,0.223,3,13,0.68,0.91,0.3,24.703,21.63,95.0,42.8,20894.0,7159,7411,7230,7641,62.7,62.6,62.2,63.7,3.065,2.897,2.852,2.917,6.9,228.0,34.9,72.1,1019.29,-28.75,0.89,1.08,27.6,45.2,36.7,0,no_anomaly,0.0,0,0,0,0,19.0759898,72.8776706,8.5,0.0
2024-09-07T17:59:04.500Z,MISSION_0030,45,0,transit,SITE_BOM_001,19.0759922,72.8776767,9.0,46.05,0.417,0.177,2.73,1.3074,-3.3673,46.0502,0.91975,0.02199,-0.02258,0.39125,0.1992,-0.0018,-9.8863,0.5136,0.1902,-0.3695,0.272,3,14,0.5,0.95,0.2,24.667,23.25,94.9,42.2,20874.0,7528,7197,7448,7248,59.6,61.7,60.9,61.1,2.666,2.993,2.908,2.875,7.16,233.0,35.0,72.2,1019.47,-31.33,-0.3,1.59,31.0,42.1,38.1,0,no_anomaly,0.0,0,0,0,0,19.0759922,72.8776767,9.0,0.0
2024-09-07T17:59:04.600Z,MISSION_0030,46,0,transit,SITE_BOM_001,19.0759919,72.8776778,9.5,44.43,0.384,0.114,2.63,3.2355,-2.411,44.431,0.92497,0.03408,-0.0088,0.37841,-0.2773,0.0898,-9.7671,-0.4226,0.2319,-0.5867,0.3088,3,15,0.73,0.99,0.25,24.668,18.75,94.8,43.0,20854.0,7372,7471,7460,7074,64.9,60.7,63.4,58.3,2.809,2.916,2.767,2.758,8.23,240.8,34.8,72.5,1019.13,-25.93,-1.34,1.5,32.8,45.5,36.3,0,no_anomaly,0.0,0,0,0,0,19.0759919,72.8776778,9.5,0.0
2024-09-07T17:59:04.700Z,MISSION_0030,47,0,transit,SITE_BOM_001,19.0759938,72.8776751,10.0,44.47,0.065,0.131,2.85,5.9463,-0.3353,44.4678,0.92434,0.04912,0.01692,0.37802,-0.2737,0.0095,-9.8149,0.1306,0.1445,0.3743,0.2852,3,17,0.62,0.83,0.3,24.636,13.27,94.7,44.4,20834.0,7587,7282,7307,7415,59.9,59.5,58.1,61.8,3.088,2.621,2.837,2.886,6.99,231.4,35.0,71.6,1019.32,-34.61,2.16,1.56,30.5,39.4,34.2,0,no_anomaly,0.0,0,0,0,0,19.0759938,72.8776751,10.0,0.0
2024-09-07T17:59:04.800Z,MISSION_0030,48,0,transit,SITE_BOM_001,19.075996,72.8776766,10.5,42.29,0.0,0.159,2.64,5.6153,-5.1849,42.2937,0.92979,0.06194,-0.02448,0.36202,-0.089,0.0467,-9.8327,0.3999,-0.6532,-0.0062,0.1749,3,17,0.66,0.86,0.26,24.743,19.86,94.6,43.3,20814.0,7383,7141,7378,7697,63.7,61.9,61.6,57.4,2.742,2.605,2.763,2.713,7.13,230.6,34.8,72.2,1019.6,-30.56,-0.34,1.0,30.0,50.4,38.0,0,no_anomaly,0.0,0,0,0,0,19.075996,72.8776766,10.5,0.0
2024-09-07T17:59:04.900Z,MISSION_0030,49,0,transit,SITE_BOM_001,19.0759984,72.8776697,11.0,41.95,0.095,0.126,3.38,-0.5058,-0.8368,41.9478,0.93372,-0.00151,-0.0084,0.3579,0.0675,-0.0435,-9.7324,-0.2572,-0.1555,0.0346,0.2414,3,17,0.57,0.6,0.24,24.617,19.1,94.5,43.8,20794.0,7550,7196,7296,7314,60.0,58.2,57.4,62.6,2.678,2.763,2.927,3.055,7.63,229.2,35.0,72.1,1019.66,-25.96,0.65,1.13,31.5,48.7,38.6,0,no_anomaly,0.0,0,0,0,0,19.0759984,72.8776697,11.0,0.0
2024-09-07T17:59:05.000Z,MISSION_0030,50,0,transit,SITE_BOM_001,19.0760012,72.8776667,11.5,41.39,0.046,0.116,3.71,3.5805,-2.9361,41.3895,0.93443,0.03826,-0.01292,0.35385,0.3614,-0.0856,-9.8193,-0.333,-0.5679,0.1626,0.3828,3,10,0.63,1.03,0.2,24.659,15.08,94.4,43.1,20774.0,7403,7203,7452,7403,58.7,57.6,63.5,63.6,2.715,2.949,2.867,2.739,7.37,234.6,35.3,73.2,1019.04,-31.68,-1.52,1.68,29.8,46.3,40.0,0,no_anomaly,0.0,0,0,0,0,19.0760012,72.8776667,11.5,0.0
2024-09-07T17:59:05.100Z,MISSION_0030,51,0,transit,SITE_BOM_001,19.076003,72.8776636,12.0,42.91,0.183,0.103,4.07,7.3607,-1.3228,42.9099,0.92845,0.06395,0.01276,0.36568,0.0459,-0.0524,-9.8972,-0.4169,-0.2851,-0.1194,0.2938,3,20,0.64,1.11,0.25,24.579,16.9,94.3,42.7,20754.0,7363,7304,7247,7195,60.2,63.2,59.6,60.0,3.022,2.949,3.094,2.783,7.76,222.5,35.2,72.8,1019.6,-23.67,-0.21,1.73,29.3,48.0,39.1,0,no_anomaly,0.0,0,0,0,0,19.076003,72.8776636,12.0,0.0
2024-09-07T17:59:05.200Z,MISSION_0030,52,0,transit,SITE_BOM_001,19.0760082,72.8776645,12.5,43.09,0.209,0.187,4.06,-2.2103,-3.1444,43.0938,0.92979,-0.00786,-0.0326,0.36656,-0.3856,-0.1594,-9.829,0.4905,-0.1397,-0.5684,0.1771,3,19,0.65,0.65,0.22,24.647,18.17,94.2,42.8,20734.0,7536,7358,7463,7410,60.3,62.6,63.1,60.4,2.799,2.916,2.725,2.763,8.34,236.1,35.4,72.3,1019.14,-33.05,-0.05,2.09,29.2,47.2,37.2,0,no_anomaly,0.0,0,0,0,0,19.0760082,72.8776645,12.5,0.0
2024-09-07T17:59:05.300Z,MISSION_0030,53,0,transit,SITE_BOM_001,19.076008,72.877664,13.0,43.71,0.0,0.13,4.1,-1.7177,-2.0346,43.7077,0.92798,-0.0073,-0.02205,0.37189,0.3335,-0.1641,-9.7494,0.6101,-1.0984,0.4352,0.1876,3,11,0.79,0.63,0.33,24.635,18.29,94.2,42.8,20714.0,7286,7243,7303,7238,63.1,59.7,60.0,62.8,2.997,2.732,2.882,2.929,7.68,228.2,35.0,72.3,1019.11,-24.66,-0.2,1.08,29.7,48.0,38.5,0,no_anomaly,0.0,0,0,0,0,19.076008,72.877664,13.0,0.0
2024-09-07T17:59:05.400Z,MISSION_0030,54,0,transit,SITE_BOM_001,19.0760052,72.8776633,13.5,43.68,0.286,0.114,4.12,-1.6876,0.4928,43.6784,0.9281,-0.01527,-0.00149,0.37202,-0.1522,0.0758,-9.8407,-0.652,0.0193,0.8183,0.2197,3,10,0.56,0.93,0.22,24.582,18.57,94.1,42.7,20694.0,7554,7402,7317,7308,60.2,56.7,58.3,58.8,2.653,2.617,2.959,2.676,7.13,228.1,34.9,71.4,1019.46,-31.33,-0.75,2.02,30.1,42.2,36.1,0,no_anomaly,0.0,0,0,0,0,19.0760052,72.8776633,13.5,0.0
2024-09-07T17:59:05.500Z,MISSION_0030,55,0,transit,SITE_BOM_001,19.0760092,72.8776605,14.0,44.59,0.0,0.058,4.51,-4.3817,-2.4292,44.591,0.92466,-0.02733,-0.0341,0.37827,0.2154,-0.0015,-9.8441,-0.4244,-0.3298,0.0118,0.2244,3,16,0.75,1.18,0.2,24.641,19.27,94.0,43.0,20674.0,7583,7464,7189,7228,58.7,62.5,62.1,60.1,2.821,2.759,2.861,2.896,7.74,231.3,35.2,72.7,1018.98,-29.06,-0.36,2.14,28.9,41.5,35.0,0,no_anomaly,0.0,0,0,0,0,19.0760092,72.8776605,14.0,0.0
2024-09-07T17:59:05.600Z,MISSION_0030,56,0,transit,SITE_BOM_001,19.0760097,72.8776613,14.5,43.12,0.0,0.091,4.44,-5.6983,-4.2003,43.1245,0.92891,-0.03275,-0.0523,0.36512,0.4257,0.0391,-9.8541,-0.4438,-0.188,0.0827,0.2499,3,18,0.77,0.74,0.36,24.683,16.69,93.9,43.0,20654.0,7363,7040,7572,7495,61.3,60.0,61.8,61.1,2.581,2.745,2.688,2.98,7.26,224.4,34.7,72.8,1019.44,-34.81,0.29,2.15,32.0,50.8,37.6,0,no_anomaly,0.0,0,0,0,0,19.0760097,72.8776613,14.5,0.0
2024-09-07T17:59:05.700Z,MISSION_0030,57,0,transit,SITE_BOM_001,19.0760175,72.8776591,15.0,42.64,0.339,0.127,4.95,0.7481,-3.1206,42.6387,0.93114,0.01598,-0.02299,0.36359,-0.0356,-0.0069,-9.7971,0.1699,1.1553,0.1855,0.2439,3,13,0.61,0.65,0.2,24.608,20.25,93.8,43.4,20634.0,7559,7473,7300,7296,60.6,63.0,58.5,60.2,2.853,2.779,2.918,2.786,7.09,229.7,35.1,71.8,1019.03,-31.79,-0.55,1.53,33.0,48.5,41.2,0,no_anomaly,0.0,0,0,0,0,19.0760175,72.8776591,15.0,0.0
2024-09-07T17:59:05.800Z,MISSION_0030,58,0,transit,SITE_BOM_001,19.0760166,72.8776593,15.5,42.94,0.57,0.089,4.89,-4.3453,-3.1536,42.9356,0.92998,-0.0252,-0.03946,0.36461,0.392,-0.0066,-9.8851,0.1091,0.1413,-0.0584,0.3436,3,19,0.68,0.83,0.27,24.569,15.54,93.7,44.0,20614.0,7063,7467,7483,7147,59.7,60.4,61.7,59.6,2.847,2.482,2.896,2.851,7.98,233.2,35.0,72.7,1019.3,-29.67,0.36,2.03,27.9,49.8,36.2,0,no_anomaly,0.0,0,0,0,0,19.0760166,72.8776593,15.5,0.0
2024-09-07T17:59:05.900Z,MISSION_0030,59,0,transit,SITE_BOM_001,19.076018,72.8776571,16.0,44.11,0.424,-0.006,5.18,1.1627,-4.1167,44.1117,0.92604,0.02288,-0.02948,0.37559,-0.1198,0.0076,-9.8233,-0.2755,0.7756,-0.4458,0.2032,3,19,0.74,0.89,0.2,24.602,15.18,93.6,42.2,20594.0,7513,7295,7425,7175,59.9,61.1,57.6,62.6,2.675,2.774,2.881,2.638,6.86,231.7,34.9,73.4,1019.46,-28.35,-1.36,1.9,32.8,45.9,37.4,0,no_anomaly,0.0,0,0,0,0,19.076018,72.8776571,16.0,0.0
2024-09-07T17:59:06.000Z,MISSION_0030,60,0,transit,SITE_BOM_001,19.0760103,72.8776582,16.5,44.62,0.186,0.108,4.79,8.0154,-2.4093,44.6245,0.9221,0.07261,0.00713,0.38,-0.2079,-0.0648,-9.7907,-0.2066,0.3207,0.1186,0.1657,3,15,0.51,0.88,0.2,24.619,18.88,93.5,43.6,20574.0,7649,7219,7711,7484,57.8,59.1,60.5,56.3,2.589,2.849,3.085,2.892,7.23,232.1,35.0,71.9,1019.11,-23.44,-0.52,1.92,30.1,42.5,39.1,0,no_anomaly,0.0,0,0,0,0,19.0760103,72.8776582,16.5,0.0
2024-09-07T17:59:06.100Z,MISSION_0030,61,0,transit,SITE_BOM_001,19.0760157,72.8776616,16.8,43.2,0.0,0.102,4.62,0.5756,-0.6968,43.196,0.92975,0.00691,-0.00381,0.36811,-0.0783,0.0421,-9.8066,0.4624,0.3916,0.1583,0.3036,3,12,0.73,0.95,0.4,24.514,13.87,93.4,44.4,20554.0,7240,7258,7194,7393,65.2,59.9,60.5,59.9,2.655,2.795,2.93,2.671,7.86,226.2,35.4,71.7,1019.08,-27.89,1.21,1.24,29.8,45.7,36.6,0,no_anomaly,0.0,0,0,0,0,19.0760157,72.8776616,16.8,0.0
2024-09-07T17:59:06.200Z,MISSION_0030,62,0,transit,SITE_BOM_001,19.0760171,72.8776604,16.8,44.53,0.0,0.17,4.8,1.1417,0.5116,44.53,0.9254,0.00753,0.00791,0.37883,-0.0089,-0.048,-9.8024,-0.59,-0.1648,-0.1806,0.3169,3,10,0.63,0.94,0.27,24.632,16.38,93.3,43.0,20534.0,7381,7120,7259,7426,61.8,58.3,62.2,62.4,2.851,3.201,2.885,2.52,7.16,238.3,35.0,71.4,1019.04,-34.38,0.92,1.77,32.5,46.0,36.6,0,no_anomaly,0.0,0,0,0,0,19.0760171,72.8776604,16.8,0.0
2024-09-07T17:59:06.300Z,MISSION_0030,63,0,transit,SITE_BOM_001,19.0760165,72.8776602,16.8,43.74,0.0,0.111,4.8,3.3867,-2.2765,43.7393,0.92723,0.03481,-0.00742,0.3728,0.1877,0.0307,-9.8087,0.1014,-0.0925,0.0269,0.1873,3,10,0.71,0.87,0.44,24.663,19.16,93.2,43.5,20514.0,7372,7282,7244,7725,62.8,56.2,59.6,61.4,2.503,3.061,2.884,2.59,8.3,233.0,35.2,72.2,1019.35,-33.5,-0.02,1.47,29.9,46.2,35.5,0,no_anomaly,0.0,0,0,0,0,19.0760165,72.8776602,16.8,0.0
2024-09-07T17:59:06.400Z,MISSION_0030,64,0,transit,SITE_BOM_001,19.0760134,72.8776629,16.8,42.09,0.252,0.094,4.39,-1.738,-0.8096,42.0894,0.93321,-0.01162,-0.01204,0.35895,-0.0678,-0.0664,-9.7619,-0.7466,-0.1795,-0.0507,0.2411,3,15,0.72,0.92,0.35,24.578,19.06,93.2,43.4,20494.0,7269,7178,7228,7395,58.0,58.3,58.9,55.5,2.594,2.653,2.722,2.761,7.17,224.1,35.2,72.5,1019.47,-32.61,1.4,1.25,26.4,43.5,37.2,0,no_anomaly,0.0,0,0,0,0,19.0760134,72.8776629,16.8,0.0
2024-09-07T17:59:06.500Z,MISSION_0030,65,0,transit,SITE_BOM_001,19.0760133,72.8776625,16.8,42.14,0.154,0.066,4.42,4.2687,-2.3061,42.1424,0.93203,0.04198,-0.00538,0.35991,0.0819,0.0539,-9.8368,0.0711,-0.076,0.3086,0.2608,3,20,0.76,0.83,0.2,24.614,16.11,93.1,42.5,20474.0,7730,7464,7359,7542,60.2,60.1,60.3,60.0,2.639,2.483,2.71,2.746,6.89,228.2,35.2,72.7,1019.74,-36.36,0.29,1.58,31.8,41.9,36.3,0,no_anomaly,0.0,0,0,0,0,19.0760133,72.8776625,16.8,0.0
2024-09-07T17:59:06.600Z,MISSION_0030,66,0,transit,SITE_BOM_001,19.0760148,72.8776685,16.8,42.41,0.03,0.078,3.88,-2.6147,-3.1202,42.4149,0.93191,-0.01142,-0.03363,0.36094,-0.2404,0.0191,-9.8895,0.4913,-0.5892,0.3353,0.2902,3,16,0.84,0.67,0.25,24.64,16.34,93.0,43.8,20454.0,7406,7254,7510,7157,60.9,60.8,59.0,61.0,2.726,2.586,3.047,2.823,7.0,234.5,35.0,71.3,1019.34,-32.35,-0.06,1.43,30.1,39.9,39.3,0,no_anomaly,0.0,0,0,0,0,19.0760148,72.8776685,16.8,0.0
2024-09-07T17:59:06.700Z,MISSION_0030,67,0,transit,SITE_BOM_001,19.0760111,72.8776707,16.8,42.15,0.488,0.053,3.49,-2.0168,-0.6236,42.1515,0.93298,-0.01446,-0.01141,0.35945,-0.0537,-0.0643,-9.787,-0.4362,0.1223,-0.0055,0.1797,3,15,0.77,0.85,0.24,24.629,14.12,92.9,43.1,20434.0,7494,7425,7368,7323,59.8,62.8,58.4,59.0,2.46,2.629,2.734,2.803,7.1,227.8,35.1,72.5,1019.38,-31.57,0.48,1.0,29.4,45.0,37.9,0,no_anomaly,0.0,0,0,0,0,19.0760111,72.8776707,16.8,0.0
2024-09-07T17:59:06.800Z,MISSION_0030,68,0,transit,SITE_BOM_001,19.076014,72.8776746,16.8,43.92,0.75,0.068,3.23,2.6479,-1.3919,43.9221,0.92702,0.02597,-0.00262,0.37411,0.0845,0.0645,-9.8008,-0.2601,-0.5237,-0.1186,0.2142,3,13,0.73,0.81,0.23,24.555,15.16,92.8,43.4,20414.0,7748,7143,7351,7297,60.0,57.9,59.9,59.3,2.855,2.751,2.738,2.881,7.18,233.2,35.0,71.6,1019.38,-35.06,-0.43,1.94,26.9,45.0,37.3,0,no_anomaly,0.0,0,0,0,0,19.076014,72.8776746,16.8,0.0
2024-09-07T17:59:06.900Z,MISSION_0030,69,0,transit,SITE_BOM_001,19.0760123,72.8776739,16.8,44.32,0.714,0.096,3.21,2.7223,-2.2966,44.3211,0.9255,0.02955,-0.0096,0.37746,-0.4996,0.0381,-9.7595,-0.7368,-0.0979,-0.0557,0.1806,3,12,0.76,1.24,0.42,24.592,18.11,92.7,43.2,20394.0,7519,7323,7340,7301,56.8,60.7,59.7,58.4,2.784,2.885,2.853,2.868,7.91,224.6,35.2,72.2,1019.46,-29.03,1.72,1.81,26.7,43.8,35.1,0,no_anomaly,0.0,0,0,0,0,19.0760123,72.8776739,16.8,0.0
2024-09-07T17:59:07.000Z,MISSION_0030,70,0,transit,SITE_BOM_001,19.0760127,72.8776764,16.8,44.08,0.515,0.131,2.98,3.149,-5.0616,44.0819,0.92521,0.04201,-0.03061,0.37589,-0.0319,-0.0051,-9.7917,-0.8683,0.2404,0.1676,0.2148,3,10,0.73,0.84,0.25,24.528,23.07,92.6,44.0,20374.0,7485,7582,7346,7188,59.1,60.5,62.2,62.7,2.873,2.826,2.557,2.846,8.09,226.2,34.9,70.9,1019.47,-31.91,0.79,1.39,30.4,43.8,39.0,0,no_anomaly,0.0,0,0,0,0,19.0760127,72.8776764,16.8,0.0
2024-09-07T17:59:07.100Z,MISSION_0030,71,0,transit,SITE_BOM_001,19.0760122,72.8776743,16.8,44.59,0.513,0.101,3.16,-2.6899,-2.3987,44.5902,0.92497,-0.01377,-0.02826,0.37874,0.12,0.0324,-9.7818,0.4262,0.1281,-0.0157,0.3076,3,17,0.68,0.77,0.2,24.558,21.1,92.5,43.4,20354.0,7408,7214,7180,7474,58.9,62.6,60.7,60.7,2.501,2.978,2.922,2.742,8.1,228.8,34.9,72.6,1019.23,-31.92,1.14,1.66,28.8,41.9,37.0,0,no_anomaly,0.0,0,0,0,0,19.0760122,72.8776743,16.8,0.0
2024-09-07T17:59:07.200Z,MISSION_0030,72,0,transit,SITE_BOM_001,19.0760164,72.8776771,16.8,45.72,0.041,0.045,3.13,3.7509,-2.9083,45.722,0.92034,0.04,-0.01066,0.38893,0.1146,-0.0242,-9.8171,0.5595,0.7023,-0.0428,0.2429,3,16,0.74,0.83,0.21,24.582,21.13,92.4,43.3,20334.0,7316,7078,7424,7295,58.5,62.7,58.0,60.4,2.699,2.728,2.737,2.894,7.92,229.8,35.5,72.3,1019.28,-35.72,-1.43,1.75,26.4,39.9,35.8,0,no_anomaly,0.0,0,0,0,0,19.0760164,72.8776771,16.8,0.0
2024-09-07T17:59:07.300Z,MISSION_0030,73,0,transit,SITE_BOM_001,19.0760194,72.8776805,16.8,48.46,0.193,0.192,3.07,-1.9679,-3.1429,48.4622,0.91161,-0.0044,-0.03205,0.40977,-0.0662,-0.0484,-9.7842,-0.0094,-0.1887,-0.0737,0.1747,3,20,0.58,1.03,0.25,24.626,23.19,92.3,43.3,20314.0,7539,7389,7493,7216,59.5,63.8,61.0,63.2,2.73,2.663,2.816,2.835,8.12,229.4,35.2,72.9,1019.19,-25.94,-1.04,1.98,34.1,49.4,39.9,0,no_anomaly,0.0,0,0,0,0,19.0760194,72.8776805,16.8,0.0
2024-09-07T17:59:07.400Z,MISSION_0030,74,0,transit,SITE_BOM_001,19.0760176,72.8776738,16.8,47.2,0.273,0.086,3.52,-1.4132,-2.0292,47.2036,0.91622,-0.00421,-0.02116,0.40008,0.1828,-0.0498,-9.8921,0.5421,0.5255,0.6625,0.1792,3,15,0.84,0.96,0.29,24.607,18.51,92.2,43.4,20294.0,7521,7483,7228,7235,55.4,59.0,60.4,60.9,3.015,2.993,2.745,2.872,6.72,232.9,35.2,72.6,1019.18,-34.56,-0.06,1.46,28.5,44.9,36.0,0,no_anomaly,0.0,0,0,0,0,19.0760176,72.8776738,16.8,0.0
2024-09-07T17:59:07.500Z,MISSION_0030,75,1,transit,SITE_BOM_001,19.0760203,72.8776739,16.8,44.93,0.99,0.042,3.68,3.2359,-1.6893,44.9311,0.92348,0.03172,-0.00283,0.38232,0.1777,-0.0349,-9.9316,0.2533,-0.5683,-0.0553,0.2323,3,18,0.83,1.08,0.26,24.615,14.22,92.2,42.9,20274.0,7430,7440,7225,7209,61.0,60.1,56.4,60.2,2.798,2.67,2.63,2.858,7.71,227.5,34.8,71.8,1019.44,-23.59,-1.45,1.66,29.3,46.3,38.5,0,no_anomaly,0.0,0,0,0,0,19.0760203,72.8776739,16.8,0.0
2024-09-07T17:59:07.600Z,MISSION_0030,76,1,transit,SITE_BOM_001,19.0760169,72.8776685,16.8,44.36,0.715,0.052,3.98,-2.8027,-2.4756,44.361,0.92571,-0.01449,-0.02923,0.37684,0.0813,0.0509,-9.8053,-0.6903,0.1877,-0.2534,0.2009,3,20,0.69,1.26,0.31,24.584,20.06,92.1,43.3,20254.0,7407,7203,7395,7372,60.8,60.5,59.0,57.6,2.691,2.765,2.671,2.649,6.86,227.4,35.1,72.4,1019.56,-29.41,0.17,1.49,31.4,44.5,36.1,0,no_anomaly,0.0,0,0,0,0,19.0760169,72.8776685,16.8,0.0
2024-09-07T17:59:07.700Z,MISSION_0030,77,1,transit,SITE_BOM_001,19.0760244,72.8776669,16.8,44.47,0.696,0.08,4.57,3.4363,-1.146,44.468,0.92507,0.03153,0.00209,0.37848,0.2136,-0.0367,-9.7252,0.53,0.0891,0.4682,0.1283,3,14,0.81,0.94,0.2,24.645,20.79,92.0,43.7,20234.0,7527,7132,7117,7695,55.1,59.7,59.7,61.5,3.055,2.857,2.777,2.794,7.69,238.6,34.8,71.8,1019.38,-30.45,-0.74,1.04,30.4,41.1,37.2,0,no_anomaly,0.0,0,0,0,0,19.0760244,72.8776669,16.8,0.0
2024-09-07T17:59:07.800Z,MISSION_0030,78,1,transit,SITE_BOM_001,19.0760236,72.8776694,16.8,47.69,0.972,0.115,4.3,-6.4522,-0.8117,47.6947,0.91331,-0.04861,-0.02922,0.40329,-0.1293,0.0773,-9.9205,0.6048,0.1778,-0.3853,0.1592,3,16,0.91,0.97,0.4,24.535,17.2,91.9,43.9,20214.0,7198,7317,7439,7338,60.5,59.9,60.8,61.2,2.91,2.483,2.926,2.824,8.03,235.1,35.3,72.4,1019.09,-27.2,0.68,1.42,29.4,42.0,35.8,0,no_anomaly,0.0,0,0,0,0,19.0760236,72.8776694,16.8,0.0
2024-09-07T17:59:07.900Z,MISSION_0030,79,1,transit,SITE_BOM_001,19.0760192,72.8776676,16.8,48.88,0.959,0.016,4.19,1.1511,-2.2787,48.8814,0.91008,0.01737,-0.01395,0.41383,-0.2923,-0.1106,-9.744,-0.1753,-0.1742,0.2741,0.247,3,15,0.9,0.88,0.26,24.682,20.87,91.8,42.3,20194.0,7618,7309,7401,7560,64.6,60.9,62.3,61.6,2.681,2.503,2.788,2.936,7.1,220.4,35.3,71.9,1019.36,-32.96,-0.51,1.19,31.6,41.7,39.7,0,no_anomaly,0.0,0,0,0,0,19.0760192,72.8776676,16.8,0.0
2024-09-07T17:59:08.000Z,MISSION_0030,80,1,transit,SITE_BOM_001,19.0760197,72.8776688,16.8,47.85,0.571,0.173,4.11,1.7724,-1.283,47.8539,0.91383,0.01868,-0.00396,0.40566,-0.006,0.0007,-9.8345,-0.1429,-0.4073,-0.3157,0.2876,3,15,0.82,0.91,0.36,24.618,17.76,91.7,42.7,20174.0,7166,7625,7332,7337,58.7,61.6,63.3,61.2,2.945,2.87,2.792,2.836,6.79,223.1,35.0,72.3,1019.63,-30.49,1.01,1.43,30.2,48.2,37.4,0,no_anomaly,0.0,0,0,0,0,19.0760197,72.8776688,16.8,0.0
2024-09-07T17:59:08.100Z,MISSION_0030,81,1,transit,SITE_BOM_001,19.0760191,72.8776668,16.8,47.51,0.784,0.064,4.26,-3.0224,-4.6457,47.5071,0.91465,-0.0078,-0.0477,0.40135,-0.0958,0.075,-9.7802,-0.4975,-0.7813,-0.2359,0.2162,3,19,0.6,0.97,0.2,24.576,16.6,91.6,43.2,20154.0,7131,7302,7293,7276,60.9,61.1,57.7,60.4,2.939,2.908,2.764,2.506,7.2,238.6,34.6,72.6,1019.45,-39.84,0.67,1.0,28.7,40.2,36.8,0,no_anomaly,0.0,0,0,0,0,19.0760191,72.8776668,16.8,0.0
2024-09-07T17:59:08.200Z,MISSION_0030,82,1,transit,SITE_BOM_001,19.0760158,72.8776689,16.8,46.62,0.724,0.052,3.88,1.5939,-2.0241,46.6233,0.91804,0.01976,-0.01072,0.39586,0.1946,-0.0378,-9.7883,0.1452,0.4437,-0.194,0.2317,3,12,0.76,0.86,0.28,24.62,19.36,91.5,42.7,20134.0,7356,7191,7229,7284,57.6,62.2,60.6,60.1,2.772,2.598,3.035,2.807,6.52,228.0,35.1,73.4,1019.41,-27.68,-0.73,1.85,29.4,42.8,39.4,0,no_anomaly,0.0,0,0,0,0,19.0760158,72.8776689,16.8,0.0
2024-09-07T17:59:08.300Z,MISSION_0030,83,1,transit,SITE_BOM_001,19.0760118,72.8776713,16.8,44.84,0.985,0.19,3.45,2.9126,-1.5838,44.8386,0.9239,0.02876,-0.00308,0.38155,-0.1458,-0.0073,-9.8494,0.1226,-0.4806,-0.1409,0.3154,3,17,0.5,0.89,0.2,24.527,16.35,91.4,43.1,20114.0,7362,7423,7150,7292,63.2,60.1,57.6,60.2,2.897,2.727,2.918,2.768,6.98,224.8,34.9,72.1,1019.16,-28.24,0.94,1.92,28.1,42.2,36.9,0,no_anomaly,0.0,0,0,0,0,19.0760118,72.8776713,16.8,0.0
2024-09-07T17:59:08.400Z,MISSION_0030,84,1,transit,SITE_BOM_001,19.0760141,72.8776709,16.8,44.63,0.861,0.068,3.6,0.807,-2.3762,44.6306,0.92483,0.01439,-0.01651,0.37975,-0.4775,0.0614,-9.8341,-1.4652,0.1261,0.0722,0.2364,3,19,0.74,1.13,0.33,24.584,20.95,91.3,43.2,20094.0,7418,7479,7323,7258,63.3,60.8,62.2,57.4,2.913,2.784,2.814,2.833,7.5,235.0,35.3,71.8,1019.35,-24.62,-0.45,1.43,28.4,48.0,34.9,0,no_anomaly,0.0,0,0,0,0,19.0760141,72.8776709,16.8,0.0
2024-09-07T17:59:08.500Z,MISSION_0030,85,1,transit,SITE_BOM_001,19.0760165,72.877671,16.8,42.8,0.37,0.154,3.71,2.4289,-5.1754,42.7951,0.92956,0.03618,-0.0343,0.36527,0.1618,-0.0683,-9.8013,0.0525,0.1087,0.3622,0.324,3,20,0.72,0.66,0.27,24.524,18.09,91.2,42.0,20074.0,7402,7309,7382,7475,59.8,60.2,61.7,57.6,2.799,2.815,3.027,2.74,7.59,226.3,34.8,71.6,1019.17,-33.55,-0.97,1.96,29.7,44.8,39.6,0,no_anomaly,0.0,0,0,0,0,19.0760165,72.877671,16.8,0.0
2024-09-07T17:59:08.600Z,MISSION_0030,86,1,transit,SITE_BOM_001,19.0760133,72.8776724,16.8,43.33,0.583,0.057,3.4,0.4498,-2.0335,43.3277,0.92919,0.0102,-0.01504,0.36916,0.1208,-0.0263,-9.7666,-0.0667,0.2265,-0.2816,0.222,3,14,0.66,0.83,0.36,24.554,22.08,91.2,43.4,20054.0,7528,7427,7439,7516,60.7,56.8,65.0,60.5,2.853,3.072,2.457,3.027,7.14,238.3,34.9,72.2,1019.43,-25.03,-1.09,1.54,28.5,43.4,35.7,0,no_anomaly,0.0,0,0,0,0,19.0760133,72.8776724,16.8,0.0
2024-09-07T17:59:08.700Z,MISSION_0030,87,1,transit,SITE_BOM_001,19.0760142,72.8776752,16.8,43.89,0.46,0.249,3.19,4.7407,-5.3675,43.8898,0.92501,0.0558,-0.02795,0.37478,0.1221,-0.029,-9.8047,-1.2673,0.1424,0.0844,0.2621,3,14,0.52,1.07,0.27,24.641,21.62,91.1,42.6,20034.0,7468,7311,7438,7454,57.5,60.3,58.8,63.0,2.957,2.588,3.152,2.524,7.62,231.6,35.0,71.5,1018.93,-22.65,1.02,1.86,29.3,49.3,38.1,0,no_anomaly,0.0,0,0,0,0,19.0760142,72.8776752,16.8,0.0
2024-09-07T17:59:08.800Z,MISSION_0030,88,1,transit,SITE_BOM_001,19.0760131,72.8776751,16.8,41.44,0.326,0.001,3.14,1.833,0.5644,41.4449,0.9352,0.01322,0.01027,0.35372,-0.0314,-0.044,-9.7367,-0.0742,-0.2098,-0.0884,0.2496,3,13,0.68,0.87,0.31,24.586,22.36,91.0,43.4,20014.0,7376,7119,7570,7309,64.5,59.3,59.9,62.6,2.803,2.66,2.591,2.747,8.89,222.3,34.9,72.9,1018.89,-26.16,-0.07,1.2,28.4,48.0,36.8,0,no_anomaly,0.0,0,0,0,0,19.0760131,72.8776751,16.8,0.0
2024-09-07T17:59:08.900Z,MISSION_0030,89,1,transit,SITE_BOM_001,19.0760047,72.8776774,16.8,41.06,0.12,0.096,2.57,2.7582,-0.8355,41.0618,0.93613,0.02509,0.00161,0.35077,0.1821,-0.0383,-9.8987,0.2514,0.1996,0.2844,0.2889,3,19,0.64,0.76,0.32,24.505,11.97,90.9,43.6,19994.0,7718,7532,7247,7397,66.8,57.7,60.9,60.9,3.078,2.872,2.774,2.75,7.59,237.0,35.1,73.2,1019.43,-28.43,-1.1,1.71,33.1,50.2,39.9,0,no_anomaly,0.0,0,0,0,0,19.0760047,72.8776774,16.8,0.0
2024-09-07T17:59:09.000Z,MISSION_0030,90,1,orbit_base,SITE_BOM_001,19.0759277,72.8777342,17.1,41.44,0.46,0.095,8.91,1.6214,0.5511,41.4421,0.93523,0.01153,0.0095,0.35372,-0.1004,-0.1029,-9.8224,0.2636,0.6812,0.3972,0.1423,3,12,0.77,1.05,0.24,24.561,21.27,90.8,43.9,19973.0,7229,7487,7353,7152,58.6,60.5,58.8,63.3,2.881,2.999,2.742,2.769,6.77,224.9,35.0,71.7,1019.2,-40.38,0.3,1.15,28.6,42.3,36.4,0,no_anomaly,0.0,0,0,0,0,19.0759277,72.8777342,17.1,0.0
2024-09-07T17:59:09.100Z,MISSION_0030,91,1,orbit_base,SITE_BOM_001,19.0759267,72.877732,17.4,41.55,0.549,0.046,8.91,1.9328,-2.5797,41.5487,0.93448,0.02375,-0.01506,0.3549,0.1222,-0.0084,-9.902,0.5272,0.5318,-0.6501,0.1289,3,10,0.58,1.0,0.2,24.633,21.21,90.7,43.2,19953.0,7385,7536,7170,7416,61.6,58.1,59.7,61.1,2.828,2.675,2.926,2.677,8.0,225.9,34.9,71.1,1019.06,-21.12,-0.1,1.54,29.6,44.6,40.4,0,no_anomaly,0.0,0,0,0,0,19.0759267,72.877732,17.4,0.0
2024-09-07T17:59:09.200Z,MISSION_0030,92,1,orbit_base,SITE_BOM_001,19.0759258,72.8777298,17.7,40.99,0.762,0.141,8.91,-1.3705,-2.9608,40.9917,0.93643,-0.00215,-0.02838,0.34971,-0.409,0.0078,-9.7896,-0.4504,0.4293,0.359,0.2392,3,15,0.8,1.07,0.37,24.587,22.49,90.6,43.4,19933.0,7356,7620,7262,7480,64.6,57.2,61.0,61.7,3.108,2.595,2.586,2.792,7.42,225.0,34.8,71.6,1019.44,-30.6,-1.2,1.73,29.0,44.9,38.6,0,no_anomaly,0.0,0,0,0,0,19.0759258,72.8777298,17.7,0.0
2024-09-07T17:59:09.300Z,MISSION_0030,93,1,orbit_base,SITE_BOM_001,19.0759249,72.8777276,18.0,44.23,0.068,0.087,8.91,3.7877,-0.8366,44.2264,0.92582,0.03336,0.00568,0.37645,0.179,-0.1273,-9.8134,-0.2548,-0.7865,-0.0063,0.2652,3,16,0.81,0.6,0.2,24.621,20.52,90.5,43.5,19913.0,7307,7377,7200,7482,62.1,59.6,61.6,59.1,2.592,2.837,2.599,2.444,9.15,222.9,35.1,72.5,1019.66,-32.32,1.19,2.0,32.1,41.9,38.2,0,no_anomaly,0.0,0,0,0,0,19.0759249,72.8777276,18.0,0.0
2024-09-07T17:59:09.400Z,MISSION_0030,94,1,orbit_base,SITE_BOM_001,19.0759241,72.8777253,18.3,45.6,0.04,0.19,8.91,-0.2736,0.5337,45.5963,0.92186,-0.00401,0.00337,0.38749,-0.0824,-0.0346,-9.7682,0.2839,-0.0933,-0.152,0.2603,3,12,0.83,1.17,0.25,24.548,18.86,90.4,44.1,19893.0,7240,7500,7374,7579,61.9,60.3,61.2,59.9,3.045,2.725,2.502,2.793,8.02,236.4,35.1,72.3,1019.19,-29.02,0.58,1.49,30.7,47.4,37.1,0,no_anomaly,0.0,0,0,0,0,19.0759241,72.8777253,18.3,0.0
2024-09-07T17:59:09.500Z,MISSION_0030,95,1,orbit_base,SITE_BOM_001,19.0759234,72.877723,18.6,45.74,0.035,0.107,8.91,-1.6741,-1.1667,45.7378,0.92131,-0.0095,-0.01506,0.38843,-0.0203,-0.0484,-9.7741,-0.3693,0.1653,0.0813,0.1493,3,17,0.57,1.08,0.25,24.574,17.92,90.3,43.7,19873.0,7547,7218,7261,7260,59.5,63.8,61.0,62.9,2.774,2.882,2.741,2.927,6.66,237.1,34.9,73.3,1019.04,-28.18,0.08,1.55,28.0,49.3,39.2,0,no_anomaly,0.0,0,0,0,0,19.0759234,72.877723,18.6,0.0
2024-09-07T17:59:09.600Z,MISSION_0030,96,1,orbit_base,SITE_BOM_001,19.0759227,72.8777207,18.9,46.91,0.0,0.072,8.91,-5.2738,-1.3177,46.9145,0.91654,-0.03763,-0.02885,0.39713,0.4452,0.0056,-9.7964,0.4147,0.1469,0.035,0.1999,3,19,0.65,0.84,0.33,24.481,18.92,90.2,43.6,19853.0,7357,7486,7648,7584,59.8,58.2,59.7,57.5,2.993,3.214,2.603,2.854,7.26,226.2,34.8,72.3,1019.47,-29.29,0.59,1.4,26.7,42.6,38.8,0,no_anomaly,0.0,0,0,0,0,19.0759227,72.8777207,18.9,0.0
2024-09-07T17:59:09.700Z,MISSION_0030,97,1,orbit_base,SITE_BOM_001,19.0759221,72.8777184,19.2,44.99,0.074,0.183,8.91,1.6033,-3.8073,44.9902,0.92313,0.02563,-0.02534,0.38278,0.4172,0.0877,-9.7333,0.7116,0.632,-0.2182,0.3119,3,17,0.58,1.15,0.2,24.542,16.01,90.2,43.2,19833.0,7567,7355,7335,7441,59.6,56.1,61.1,60.6,2.954,2.892,2.769,2.853,7.23,232.8,35.4,71.3,1019.38,-28.89,-0.27,1.11,28.2,49.6,39.6,0,no_anomaly,0.0,0,0,0,0,19.0759221,72.8777184,19.2,0.0
2024-09-07T17:59:09.800Z,MISSION_0030,98,1,orbit_base,SITE_BOM_001,19.0759216,72.877716,19.5,42.68,0.0,0.07,8.91,-0.5498,-1.8824,42.6784,0.93133,0.00151,-0.01705,0.36376,0.1546,-0.075,-9.809,0.1818,0.6097,0.2701,0.251,3,11,0.55,0.78,0.25,24.453,17.2,90.1,43.4,19813.0,6974,7190,7308,6989,61.0,60.7,59.1,61.9,2.613,2.896,2.625,3.02,7.44,238.4,34.9,72.0,1019.14,-31.58,0.2,1.77,32.9,42.6,38.4,0,no_anomaly,0.0,0,0,0,0,19.0759216,72.877716,19.5,0.0
2024-09-07T17:59:09.900Z,MISSION_0030,99,1,orbit_base,SITE_BOM_001,19.0759212,72.8777137,19.8,41.49,0.0,0.132,8.91,-5.0473,-2.3726,41.4863,0.93439,-0.03384,-0.03493,0.35291,-0.3473,-0.0094,-9.8645,0.5012,0.1798,-0.1943,0.2125,3,20,0.76,0.8,0.24,24.583,18.59,90.0,43.7,19793.0,7222,7425,7548,7210,60.8,59.9,58.4,60.7,2.99,2.812,2.836,2.573,6.91,229.1,35.0,72.5,1019.22,-34.0,0.57,1.35,29.0,45.3,40.3,0,no_anomaly,0.0,0,0,0,0,19.0759212,72.8777137,19.8,0.0
2024-09-07T17:59:10.000Z,MISSION_0030,100,1,orbit_base,SITE_BOM_001,19.0759208,72.8777113,20.1,41.19,0.0,0.108,8.91,1.0338,-1.8773,41.1942,0.93586,0.01421,-0.01216,0.35187,0.1634,-0.0168,-9.82,-1.364,0.2302,0.3055,0.2248,3,19,0.54,1.13,0.2,24.53,24.48,89.9,42.9,19773.0,7485,7056,7653,7307,62.3,56.8,62.8,62.7,2.793,2.679,2.99,2.788,7.3,228.9,34.9,73.2,1019.24,-33.21,0.05,1.0,30.8,39.9,37.2,0,no_anomaly,0.0,0,0,0,0,19.0759208,72.8777113,20.1,0.0
2024-09-07T17:59:10.100Z,MISSION_0030,101,1,orbit_base,SITE_BOM_001,19.0759205,72.8777089,20.4,43.05,0.0,0.164,8.91,-4.1969,0.2777,43.0535,0.92959,-0.03495,-0.01118,0.36677,-0.1392,0.0496,-9.8127,0.2712,-0.5133,-0.5978,0.3287,3,14,0.64,1.06,0.25,24.444,19.24,89.8,43.1,19753.0,7323,7612,7598,7238,63.4,61.7,60.4,60.7,2.992,2.834,2.628,2.66,6.76,223.3,35.2,72.7,1019.42,-29.2,0.16,1.78,29.3,48.1,38.7,0,no_anomaly,0.0,0,0,0,0,19.0759205,72.8777089,20.4,0.0
2024-09-07T17:59:10.200Z,MISSION_0030,102,1,orbit_base,SITE_BOM_001,19.0759203,72.8777065,20.7,43.59,0.0,0.072,8.91,-2.4093,-1.9119,43.5909,0.92831,-0.01333,-0.02329,0.37083,-0.1246,0.0084,-9.8072,0.0571,0.0563,-0.3304,0.2637,3,11,0.74,0.87,0.23,24.493,12.84,89.7,42.9,19733.0,7576,7487,7427,7393,62.3,61.4,61.8,58.5,2.64,2.576,2.757,3.007,7.16,223.2,34.7,71.5,1019.44,-27.14,0.07,1.16,27.6,40.6,36.6,0,no_anomaly,0.0,0,0,0,0,19.0759203,72.8777065,20.7,0.0
2024-09-07T17:59:10.300Z,MISSION_0030,103,1,orbit_base,SITE_BOM_001,19.0759201,72.8777041,21.0,45.55,0.0,0.059,8.91,8.2547,-3.1879,45.5517,0.9185,0.07708,0.00227,0.38782,-0.0834,0.024,-9.8255,-0.8135,-0.0037,0.2669,0.2175,3,17,0.52,0.89,0.29,24.509,24.65,89.6,43.1,19713.0,7543,7396,7835,7551,62.1,60.1,60.8,62.7,2.871,2.91,2.529,2.78,7.95,229.6,34.7,71.8,1019.71,-27.0,-0.74,1.61,30.7,46.5,36.3,0,no_anomaly,0.0,0,0,0,0,19.0759201,72.8777041,21.0,0.0
2024-09-07T17:59:10.400Z,MISSION_0030,104,1,orbit_base,SITE_BOM_001,19.07592,72.8777017,21.3,45.27,0.337,0.058,8.91,5.5938,-1.7206,45.2658,0.9215,0.0508,0.00493,0.385,0.0991,0.0301,-9.7445,0.4297,-0.5522,0.0876,0.2135,3,12,0.73,0.86,0.36,24.473,18.02,89.5,43.5,19693.0,7502,7372,7149,7229,58.1,59.7,58.6,60.3,3.038,2.977,2.541,2.812,6.64,226.1,35.4,73.1,1019.54,-33.72,0.31,1.61,29.0,46.3,37.8,0,no_anomaly,0.0,0,0,0,0,19.07592,72.8777017,21.3,0.0
2024-09-07T17:59:10.500Z,MISSION_0030,105,1,orbit_base,SITE_BOM_001,19.07592,72.8776993,21.6,46.08,0.007,0.042,8.91,-4.4498,0.4947,46.0771,0.91947,-0.03741,-0.01122,0.39121,-0.297,-0.0691,-9.7913,0.2275,-0.1486,0.5159,0.1963,3,15,0.68,0.77,0.24,24.475,17.86,89.4,43.5,19673.0,7666,7520,7570,7336,62.7,57.6,62.0,61.2,2.885,2.435,2.72,2.792,7.38,234.8,35.3,71.4,1019.18,-35.54,-0.4,1.75,29.3,48.5,37.1,0,no_anomaly,0.0,0,0,0,0,19.07592,72.8776993,21.6,0.0
2024-09-07T17:59:10.600Z,MISSION_0030,106,1,orbit_base,SITE_BOM_001,19.0759201,72.8776969,21.9,45.93,0.0,0.11,8.91,1.8035,-2.4531,45.9321,0.92028,0.02284,-0.01357,0.39036,-0.2851,0.0289,-9.877,0.2822,0.2497,-0.2196,0.2244,3,12,0.66,0.94,0.2,24.535,16.71,89.3,43.7,19653.0,7151,7408,7319,7442,62.1,53.8,61.4,56.9,2.971,2.793,2.675,2.655,7.52,229.2,35.2,72.6,1019.35,-31.56,0.45,1.91,28.8,41.2,35.5,0,no_anomaly,0.0,0,0,0,0,19.0759201,72.8776969,21.9,0.0
2024-09-07T17:59:10.700Z,MISSION_0030,107,1,orbit_base,SITE_BOM_001,19.0759202,72.8776945,22.2,44.79,0.187,0.148,8.91,-2.4079,-0.513,44.7912,0.9244,-0.01772,-0.01214,0.38082,-0.0762,0.0288,-9.7839,-0.2297,-0.7805,0.352,0.2345,3,19,0.64,0.9,0.33,24.548,20.89,89.2,43.4,19633.0,7319,7635,6981,7303,58.2,59.9,57.0,61.5,2.854,2.697,3.07,3.06,7.74,223.8,34.8,71.9,1019.38,-31.62,-0.19,1.06,28.1,46.9,36.0,0,no_anomaly,0.0,0,0,0,0,19.0759202,72.8776945,22.2,0.0
2024-09-07T17:59:10.800Z,MISSION_0030,108,1,orbit_base,SITE_BOM_001,19.0759204,72.8776921,22.5,46.66,0.775,0.104,8.91,-4.4379,2.2536,46.6618,0.91707,-0.04333,0.00271,0.39637,0.1005,-0.0438,-9.7573,0.5297,0.0498,0.1868,0.2183,3,19,0.61,0.93,0.24,24.58,13.27,89.2,43.6,19613.0,7396,7497,7684,7550,59.4,60.6,62.5,62.6,2.822,3.032,2.784,2.68,7.23,223.3,34.7,71.9,1019.36,-29.72,-1.79,1.76,27.8,41.2,40.6,0,no_anomaly,0.0,0,0,0,0,19.0759204,72.8776921,22.5,0.0
2024-09-07T17:59:10.900Z,MISSION_0030,109,1,orbit_base,SITE_BOM_001,19.0759207,72.8776898,22.8,45.43,0.6,0.103,8.91,-2.0067,-1.5955,45.4258,0.92231,-0.01078,-0.0196,0.38579,-0.4395,0.0336,-9.7518,-0.249,0.0619,0.1208,0.2722,3,16,0.61,0.82,0.29,24.552,24.09,89.1,44.3,19593.0,7221,7287,7415,7441,59.0,59.8,60.5,60.3,2.812,2.928,2.824,2.912,6.74,228.3,34.9,72.9,1019.39,-34.66,0.77,1.01,29.1,41.4,36.7,0,no_anomaly,0.0,0,0,0,0,19.0759207,72.8776898,22.8,0.0
2024-09-07T17:59:11.000Z,MISSION_0030,110,1,orbit_base,SITE_BOM_001,19.075921,72.8776874,23.1,46.71,0.438,0.094,8.91,1.7622,-3.0554,46.7059,0.91748,0.02468,-0.01838,0.39658,-0.1872,-0.0774,-9.8557,0.2765,0.4144,0.1673,0.2655,3,15,0.81,0.73,0.39,24.485,17.81,89.0,42.7,19573.0,7169,7498,7524,7353,58.5,61.0,62.0,60.8,2.742,2.694,2.974,2.667,7.4,240.3,35.2,72.2,1019.14,-27.5,-0.85,1.4,29.2,41.4,37.3,0,no_anomaly,0.0,0,0,0,0,19.075921,72.8776874,23.1,0.0
2024-09-07T17:59:11.100Z,MISSION_0030,111,1,orbit_base,SITE_BOM_001,19.0759214,72.877685,23.4,48.16,0.367,0.109,8.91,-5.2993,-1.0285,48.1648,0.91212,-0.03854,-0.02705,0.40722,0.2705,-0.0043,-9.8161,-0.553,0.5391,0.0981,0.1802,3,10,0.68,0.88,0.2,24.498,20.25,88.9,43.4,19553.0,7411,7369,7215,7249,57.7,56.5,64.3,62.3,2.369,2.989,2.929,2.78,7.22,219.8,34.9,72.1,1019.71,-24.76,-0.66,1.78,29.8,42.3,37.6,0,no_anomaly,0.0,0,0,0,0,19.0759214,72.877685,23.4,0.0
2024-09-07T17:59:11.200Z,MISSION_0030,112,1,orbit_base,SITE_BOM_001,19.0759219,72.8776827,23.7,48.83,0.822,0.14,8.91,6.0986,-2.4758,48.826,0.90861,0.05734,0.00234,0.41368,0.5257,-0.0279,-9.8313,-0.7566,-0.5006,0.53,0.173,3,16,0.55,0.78,0.2,24.496,18.43,88.8,43.9,19533.0,7386,7696,7438,7257,62.2,58.5,60.4,62.8,2.925,2.914,3.081,2.695,7.64,233.5,35.2,72.1,1019.12,-26.92,0.74,1.71,28.6,47.3,39.5,0,no_anomaly,0.0,0,0,0,0,19.0759219,72.8776827,23.7,0.0
2024-09-07T17:59:11.300Z,MISSION_0030,113,1,orbit_base,SITE_BOM_001,19.0759225,72.8776803,24.0,49.63,0.272,-0.006,8.91,2.2084,-1.0791,49.6344,0.90737,0.02144,-0.00046,0.41979,-0.198,-0.0395,-9.8561,-0.2589,0.1832,0.2841,0.2784,3,19,0.64,0.79,0.28,24.523,16.87,88.7,43.5,19513.0,7348,7355,7447,7356,59.6,54.8,59.8,60.2,2.932,3.109,2.768,2.977,8.4,235.1,35.2,72.6,1019.41,-34.21,0.13,1.53,30.7,49.3,38.0,0,no_anomaly,0.0,0,0,0,0,19.0759225,72.8776803,24.0,0.0
2024-09-07T17:59:11.400Z,MISSION_0030,114,1,orbit_base,SITE_BOM_001,19.0759231,72.877678,24.3,49.29,0.088,0.237,8.91,0.6983,-1.2544,49.2926,0.9088,0.0101,-0.00741,0.41704,-0.1555,0.0155,-9.8809,0.2911,-1.0689,0.4124,0.2678,3,19,0.81,0.72,0.22,24.511,20.58,88.6,43.5,19493.0,7335,7321,7362,7683,57.6,60.7,58.7,60.1,2.926,2.74,2.656,2.899,7.44,231.5,34.7,72.5,1019.29,-28.83,0.32,1.39,31.5,49.9,39.0,0,no_anomaly,0.0,0,0,0,0,19.0759231,72.877678,24.3,0.0
2024-09-07T17:59:11.500Z,MISSION_0030,115,1,orbit_base,SITE_BOM_001,19.0759238,72.8776757,24.6,46.35,0.354,0.104,8.91,-1.592,-2.698,46.3542,0.91908,-0.0035,-0.02711,0.39313,0.3709,-0.1334,-9.8005,0.5454,0.3814,0.13,0.2261,3,12,0.63,0.88,0.28,24.433,16.91,88.5,42.5,19473.0,7386,7333,7409,7047,61.9,57.6,59.7,58.3,2.728,2.694,2.859,2.831,7.3,226.7,35.3,71.4,1019.49,-24.79,-0.39,1.74,29.6,43.5,36.9,0,no_anomaly,0.0,0,0,0,0,19.0759238,72.8776757,24.6,0.0
2024-09-07T17:59:11.600Z,MISSION_0030,116,1,orbit_base,SITE_BOM_001,19.0759245,72.8776734,24.9,44.89,0.176,0.124,8.91,2.6936,-1.2265,44.8876,0.92385,0.02581,-0.00092,0.38188,-0.219,-0.0272,-9.7566,0.972,0.2073,0.0365,0.3437,3,16,0.78,0.76,0.27,24.509,19.28,88.4,43.2,19453.0,7724,7506,7888,7391,61.0,57.7,58.9,58.6,2.715,3.001,3.054,2.807,7.21,227.8,34.9,72.6,1019.45,-30.97,-0.5,1.03,29.0,45.9,37.4,0,no_anomaly,0.0,0,0,0,0,19.0759245,72.8776734,24.9,0.0
2024-09-07T17:59:11.700Z,MISSION_0030,117,1,orbit_base,SITE_BOM_001,19.0759254,72.8776712,25.2,45.94,0.222,0.133,8.91,-1.7143,-2.299,45.9447,0.92052,-0.00594,-0.02431,0.38989,0.2395,0.0329,-9.7218,0.5889,-0.4682,-0.1138,0.2572,3,10,0.83,1.08,0.4,24.502,18.02,88.3,43.9,19433.0,7402,7335,7686,7345,61.1,61.5,64.3,58.8,2.815,2.915,2.915,2.735,7.71,237.7,35.1,72.3,1019.16,-31.32,1.03,1.49,27.9,42.4,37.4,0,no_anomaly,0.0,0,0,0,0,19.0759254,72.8776712,25.2,0.0
2024-09-07T17:59:11.800Z,MISSION_0030,118,1,orbit_base,SITE_BOM_001,19.0759263,72.877669,25.5,43.91,0.0,0.138,8.91,-0.0764,-2.4064,43.9083,0.92728,0.00723,-0.01972,0.37377,-0.1882,-0.0245,-9.793,-0.2768,-0.3317,-0.2852,0.2179,3,19,0.73,0.86,0.29,24.468,15.73,88.2,43.6,19413.0,7549,7270,7600,7212,59.4,62.3,60.0,54.6,2.915,2.872,2.787,2.854,7.49,235.9,35.1,71.9,1019.36,-31.01,0.79,1.0,30.7,45.8,36.5,0,no_anomaly,0.0,0,0,0,0,19.0759263,72.877669,25.5,0.0
2024-09-07T17:59:11.900Z,MISSION_0030,119,1,orbit_base,SITE_BOM_001,19.0759272,72.8776668,25.8,43.66,0.307,0.137,8.91,-0.0452,-1.3612,43.6579,0.92823,0.00405,-0.01117,0.37181,-0.0414,0.002,-9.898,0.4086,-0.4641,-0.1321,0.1897,3,16,0.73,0.96,0.26,24.472,14.7,88.2,43.4,19393.0,7210,7335,7626,7480,64.2,60.6,61.6,60.2,2.842,2.78,2.575,2.736,7.96,232.1,35.2,71.6,1019.48,-29.6,0.19,1.38,29.1,41.5,36.7,0,no_anomaly,0.0,0,0,0,0,19.0759272,72.8776668,25.8,0.0
2024-09-07T17:59:12.000Z,MISSION_0030,120,1,orbit_base,SITE_BOM_001,19.0759283,72.8776646,26.1,43.85,0.0,0.107,8.91,2.0302,-3.317,43.846,0.92696,0.02723,-0.02023,0.37362,-0.3157,-0.045,-9.7927,-0.292,-0.082,0.2934,0.283,3,17,0.71,0.99,0.34,24.488,8.33,88.1,43.7,19373.0,7296,7393,7444,7263,61.1,59.5,57.0,62.2,2.748,2.662,2.897,2.713,7.01,230.7,35.5,72.1,1019.4,-29.61,1.37,1.22,30.0,45.2,36.4,0,no_anomaly,0.0,0,0,0,0,19.0759283,72.8776646,26.1,0.0
2024-09-07T17:59:12.100Z,MISSION_0030,121,1,orbit_base,SITE_BOM_001,19.0759294,72.8776625,26.4,44.42,0.096,0.011,8.91,2.1805,-0.8452,44.4242,0.92554,0.0204,0.00037,0.37809,-0.3501,0.0233,-9.9048,0.0634,-0.6906,-0.5598,0.2375,3,15,0.73,0.94,0.3,24.503,20.31,88.0,43.9,19353.0,7285,7192,7298,7277,58.0,62.6,59.0,58.8,2.875,3.123,2.841,3.016,6.95,238.6,35.0,72.1,1019.02,-29.8,-0.48,1.72,31.6,45.7,35.2,0,no_anomaly,0.0,0,0,0,0,19.0759294,72.8776625,26.4,0.0
2024-09-07T17:59:12.200Z,MISSION_0030,122,1,orbit_base,SITE_BOM_001,19.0759305,72.8776604,26.7,44.37,0.0,0.085,8.91,-4.0281,-2.0331,44.375,0.92547,-0.02584,-0.02969,0.37677,-0.0994,-0.1195,-9.7527,-0.6182,0.547,0.2538,0.3176,3,19,0.67,1.19,0.26,24.497,16.92,87.9,44.1,19333.0,7549,7426,7293,7304,60.8,56.8,60.7,58.5,3.048,2.656,2.702,2.528,6.95,230.9,35.1,73.0,1019.6,-31.99,0.81,1.11,27.7,42.4,37.0,0,no_anomaly,0.0,0,0,0,0,19.0759305,72.8776604,26.7,0.0
2024-09-07T17:59:12.300Z,MISSION_0030,123,1,orbit_base,SITE_BOM_001,19.0759317,72.8776583,27.0,43.2,0.162,0.013,8.91,-4.6355,-1.3524,43.2034,0.92912,-0.03326,-0.02585,0.36738,0.1985,-0.031,-9.9072,-0.1058,-0.5005,0.2659,0.3178,3,17,0.73,0.82,0.29,24.386,16.69,87.8,43.2,19313.0,7468,7557,7441,7413,63.8,61.7,58.7,63.6,2.722,2.989,2.988,2.687,6.63,233.8,34.6,72.9,1019.25,-32.48,1.22,1.65,28.8,47.6,37.9,0,no_anomaly,0.0,0,0,0,0,19.0759317,72.8776583,27.0,0.0
2024-09-07T17:59:12.400Z,MISSION_0030,124,1,orbit_base,SITE_BOM_001,19.075933,72.8776563,27.3,43.78,0.172,0.09,8.91,-3.6182,-5.3293,43.7826,0.92697,-0.01194,-0.05487,0.3709,0.0109,0.0456,-9.7989,1.1216,-1.4237,0.3352,0.3086,3,15,0.75,0.8,0.28,24.458,18.08,87.7,42.6,19293.0,7468,7282,7392,7320,58.5,62.2,60.5,58.0,2.75,2.651,3.078,3.176,7.76,234.5,35.1,72.6,1019.25,-31.08,-1.04,1.58,29.4,42.5,38.0,0,no_anomaly,0.0,0,0,0,0,19.075933,72.8776563,27.3,0.0
2024-09-07T17:59:12.500Z,MISSION_0030,125,1,orbit_base,SITE_BOM_001,19.0759344,72.8776543,27.6,46.84,0.362,0.123,8.91,5.2854,-1.1419,46.842,0.91641,0.04626,0.00919,0.39746,-0.0207,-0.0485,-9.859,-0.7145,0.352,-0.0828,0.3348,3,10,0.82,1.01,0.25,24.392,17.42,87.6,43.6,19273.0,7449,7092,7398,7422,61.6,65.4,62.1,59.4,3.17,2.575,2.56,2.89,7.63,232.0,35.0,72.0,1019.51,-30.17,-0.24,1.33,30.4,47.5,35.6,0,no_anomaly,0.0,0,0,0,0,19.0759344,72.8776543,27.6,0.0
2024-09-07T17:59:12.600Z,MISSION_0030,126,1,orbit_base,SITE_BOM_001,19.0759358,72.8776523,27.9,46.32,0.618,0.008,8.91,-6.032,-2.5784,46.3171,0.91838,-0.03953,-0.04134,0.39154,-0.2263,-0.0649,-9.7889,-0.1808,0.1074,-0.3881,0.2532,3,14,0.83,0.96,0.24,24.428,17.68,87.5,43.9,19253.0,7361,7640,7693,7449,61.0,57.4,59.2,59.2,2.793,2.672,2.938,2.978,7.52,231.1,34.8,73.1,1019.63,-28.83,0.43,1.32,30.4,43.0,37.5,0,no_anomaly,0.0,0,0,0,0,19.0759358,72.8776523,27.9,0.0
2024-09-07T17:59:12.700Z,MISSION_0030,127,1,orbit_base,SITE_BOM_001,19.0759372,72.8776504,28.2,46.02,0.645,0.112,8.91,-0.0101,-3.215,46.0151,0.92009,0.01088,-0.02586,0.3907,0.1746,0.038,-9.8753,0.6372,-0.213,-0.159,0.2364,3,12,0.76,0.76,0.26,24.483,17.46,87.4,43.4,19233.0,7477,7452,7614,7283,63.1,61.4,59.5,60.2,2.692,2.913,2.916,2.797,8.08,236.0,34.8,71.4,1019.26,-26.98,-0.25,1.63,29.1,48.1,37.5,0,no_anomaly,0.0,0,0,0,0,19.0759372,72.8776504,28.2,0.0
2024-09-07T17:59:12.800Z,MISSION_0030,128,1,orbit_base,SITE_BOM_001,19.0759387,72.8776486,28.5,46.44,0.124,0.186,8.91,-4.105,-2.3083,46.4436,0.91849,-0.02497,-0.03262,0.3933,0.0197,0.0492,-9.7496,-0.4882,0.0978,0.5596,0.2939,3,11,0.69,0.97,0.34,24.504,15.74,87.3,42.7,19213.0,7351,7325,7744,7462,60.4,60.1,61.3,58.5,2.513,2.486,3.206,2.889,6.06,226.1,35.2,71.6,1019.79,-30.32,1.54,1.61,32.8,41.7,36.4,0,no_anomaly,0.0,0,0,0,0,19.0759387,72.8776486,28.5,0.0
2024-09-07T17:59:12.900Z,MISSION_0030,129,1,orbit_base,SITE_BOM_001,19.0759403,72.8776467,28.8,43.57,0.477,0.028,8.91,-1.5295,-3.3794,43.5748,0.92823,-0.00144,-0.03233,0.3706,-0.0856,0.1137,-9.7574,0.677,-1.2584,0.0873,0.1913,3,13,0.76,0.95,0.28,24.412,13.25,87.2,44.6,19193.0,7557,7401,7393,7506,61.7,59.1,61.6,60.8,2.806,2.876,2.688,2.432,6.82,225.6,35.0,71.8,1019.45,-34.02,-0.44,1.74,30.0,45.0,36.4,0,no_anomaly,0.0,0,0,0,0,19.0759403,72.8776467,28.8,0.0
