timestamp_utc,mission_id,frame_id,waypoint_id,inspection_phase,site_id,latitude_deg,longitude_deg,altitude_m,heading_deg,ground_speed_ms,vertical_speed_ms,distance_to_tower_m,roll_deg,pitch_deg,yaw_deg,quat_w,quat_x,quat_y,quat_z,accel_x_ms2,accel_y_ms2,accel_z_ms2,gyro_x_rads,gyro_y_rads,gyro_z_rads,vibration_level,gps_fix_type,gps_satellite_count,gps_hdop,gps_vdop,position_error_m,battery_voltage_v,battery_current_a,battery_remaining_pct,battery_temp_c,battery_capacity_mah,motor_fl_rpm,motor_fr_rpm,motor_rl_rpm,motor_rr_rpm,motor_fl_temp_c,motor_fr_temp_c,motor_rl_temp_c,motor_rr_temp_c,motor_fl_thrust_n,motor_fr_thrust_n,motor_rl_thrust_n,motor_rr_thrust_n,wind_speed_ms,wind_dir_deg,air_temp_c,humidity_pct,pressure_hpa,gimbal_pitch_deg,gimbal_roll_deg,zoom_factor,ir_temp_min_c,ir_temp_max_c,ir_temp_avg_c,anomaly_detected,anomaly_class,anomaly_confidence,anomaly_bbox_x,anomaly_bbox_y,anomaly_bbox_w,anomaly_bbox_h,anomaly_gps_lat,anomaly_gps_lon,anomaly_gps_alt_m,ir_temp_delta_c
2024-04-23T18:59:00.000Z,MISSION_0018,0,0,takeoff,SITE_JAI_009,26.9124009,75.7873008,1.5,193.62,0.0,0.088,0.13,-2.8827,-2.7239,193.6217,-0.11793,0.02658,-0.02215,0.99242,0.0208,0.0011,-9.8509,-0.0405,0.3285,-0.1882,0.2028,3,10,0.53,0.74,0.25,24.77,13.79,99.5,39.0,21885.0,7539,7382,7449,7636,52.8,56.1,56.1,54.2,2.953,2.847,3.128,2.467,1.12,64.9,30.6,36.3,1014.04,-27.09,1.1,1.34,26.8,43.4,35.3,0,no_anomaly,0.0,0,0,0,0,26.9124009,75.7873008,1.5,0.0
2024-04-23T18:59:00.100Z,MISSION_0018,1,0,takeoff,SITE_JAI_009,26.9124024,75.7873055,3.0,192.98,0.0,0.06,0.67,-2.1151,-1.7133,192.9838,-0.11276,0.01694,-0.01665,0.99334,0.0836,0.0265,-9.7983,0.3923,1.4146,0.3055,0.0732,3,12,0.54,1.05,0.23,24.784,18.36,99.4,38.7,21870.0,7290,7458,7355,7269,56.4,55.6,53.8,55.3,2.821,2.807,2.846,2.649,1.26,62.3,30.7,34.6,1014.05,-31.03,-0.24,1.45,24.5,42.9,32.7,0,no_anomaly,0.0,0,0,0,0,26.9124024,75.7873055,3.0,0.0
2024-04-23T18:59:00.200Z,MISSION_0018,2,0,takeoff,SITE_JAI_009,26.9124005,75.7873078,4.5,190.66,0.247,0.059,0.87,2.0308,-4.0683,190.655,-0.0934,0.03369,0.02093,0.99484,0.0666,-0.007,-9.8457,-0.0261,-0.8449,-0.0582,0.0806,3,19,0.54,0.67,0.33,24.834,13.56,99.3,39.2,21855.0,7504,7556,7311,7386,58.3,53.4,55.0,57.7,2.685,2.365,2.723,2.738,1.54,65.2,30.6,33.8,1014.32,-25.42,0.44,1.12,27.9,45.8,34.8,0,no_anomaly,0.0,0,0,0,0,26.9124005,75.7873078,4.5,0.0
2024-04-23T18:59:00.300Z,MISSION_0018,3,0,takeoff,SITE_JAI_009,26.9123948,75.7873061,5.0,191.07,0.413,0.07,0.89,1.8084,-3.599,191.0654,-0.09685,0.02973,0.01873,0.99468,0.1101,-0.0003,-9.9089,-0.1988,0.3792,0.1049,0.0948,3,18,0.59,0.6,0.29,24.809,18.11,99.3,38.5,21841.0,7629,7187,7138,7383,56.2,57.3,56.0,53.4,2.931,2.62,2.935,2.644,0.7,53.2,30.7,34.8,1013.86,-28.24,0.37,1.39,24.1,43.3,31.3,0,no_anomaly,0.0,0,0,0,0,26.9123948,75.7873061,5.0,0.0
2024-04-23T18:59:00.400Z,MISSION_0018,4,0,takeoff,SITE_JAI_009,26.9123899,75.787311,5.0,192.65,0.0,0.01,1.66,0.7748,-1.2469,192.6467,-0.1102,0.01007,0.00792,0.99383,-0.0284,0.0938,-9.7803,-0.4318,-0.7487,-0.3927,0.0944,3,12,0.58,0.86,0.2,24.763,15.24,99.2,38.5,21826.0,7591,7527,7350,7631,54.2,55.4,54.7,57.0,2.785,2.784,2.698,2.923,0.49,54.3,30.7,35.4,1014.11,-27.39,-0.12,1.55,23.1,38.9,35.0,0,no_anomaly,0.0,0,0,0,0,26.9123899,75.787311,5.0,0.0
2024-04-23T18:59:00.500Z,MISSION_0018,5,0,takeoff,SITE_JAI_009,26.9123925,75.7873107,5.0,194.92,0.012,0.085,1.45,0.652,-0.0317,194.924,-0.12987,-0.00046,0.00568,0.99151,-0.0052,-0.0166,-9.8452,0.0697,0.0821,0.0592,0.1551,3,12,0.54,1.16,0.31,24.739,14.71,99.1,38.7,21811.0,7708,7435,7317,7447,56.1,57.4,57.5,56.6,2.606,2.631,2.846,2.946,1.3,59.3,30.4,34.4,1014.08,-29.5,-0.35,1.57,24.9,43.7,33.9,0,no_anomaly,0.0,0,0,0,0,26.9123925,75.7873107,5.0,0.0
2024-04-23T18:59:00.600Z,MISSION_0018,6,0,takeoff,SITE_JAI_009,26.9123916,75.7873163,5.0,198.99,0.0,0.079,2.04,1.4624,-1.8675,198.9944,-0.16517,0.01397,0.01527,0.98605,0.1405,0.0873,-9.7753,0.9395,-0.221,-0.2236,0.1086,3,13,0.7,0.9,0.33,24.763,18.14,99.1,39.1,21797.0,7446,7577,7421,7705,53.8,55.3,54.7,54.0,2.765,2.812,2.782,3.063,0.0,57.3,30.7,33.7,1013.79,-26.45,0.43,1.49,26.3,42.6,30.2,0,no_anomaly,0.0,0,0,0,0,26.9123916,75.7873163,5.0,0.0
2024-04-23T18:59:00.700Z,MISSION_0018,7,0,takeoff,SITE_JAI_009,26.9123847,75.7873197,5.0,200.73,0.085,0.048,2.78,-0.8649,-1.5039,200.7299,-0.1798,0.01427,-0.00506,0.98359,-0.1116,-0.0039,-9.7833,0.1138,0.2047,0.5313,0.0979,3,16,0.84,1.15,0.33,24.781,14.24,99.0,39.3,21782.0,7700,7377,7371,7543,57.7,53.1,57.1,53.8,2.731,2.836,2.68,2.773,1.24,63.0,31.1,33.7,1013.97,-30.66,-0.44,1.33,25.8,46.9,35.9,0,no_anomaly,0.0,0,0,0,0,26.9123847,75.7873197,5.0,0.0
2024-04-23T18:59:00.800Z,MISSION_0018,8,0,takeoff,SITE_JAI_009,26.9123842,75.7873216,5.0,200.29,0.174,0.194,2.98,-0.4373,-2.2253,200.2867,-0.176,0.01979,-0.00034,0.98419,0.0262,-0.0273,-9.7924,-0.1138,-0.4728,-0.4781,0.0967,3,16,0.69,0.9,0.2,24.801,17.1,98.9,39.0,21767.0,7285,7575,7400,7313,57.8,56.5,53.4,55.3,2.8,2.667,2.914,2.747,0.44,61.6,30.6,35.1,1013.53,-25.83,-0.18,1.42,29.3,43.8,34.1,0,no_anomaly,0.0,0,0,0,0,26.9123842,75.7873216,5.0,0.0
2024-04-23T18:59:00.900Z,MISSION_0018,9,0,takeoff,SITE_JAI_009,26.9123841,75.7873209,5.0,198.22,0.045,0.069,2.92,1.7033,-0.0284,198.2247,-0.15836,-0.00211,0.01472,0.98727,-0.0142,-0.0439,-9.7682,0.6911,-0.4732,0.3543,0.1355,3,16,0.69,0.99,0.2,24.792,16.78,98.9,39.3,21752.0,7612,7382,7367,7406,52.4,53.4,53.9,57.9,2.674,2.903,3.021,2.83,1.65,65.4,31.1,34.9,1014.14,-30.58,0.79,1.71,28.1,40.5,32.7,0,no_anomaly,0.0,0,0,0,0,26.9123841,75.7873209,5.0,0.0
2024-04-23T18:59:01.000Z,MISSION_0018,10,0,takeoff,SITE_JAI_009,26.9123781,75.7873216,5.0,197.97,0.0,0.093,3.43,1.6592,-2.9905,197.9715,-0.15649,0.02351,0.01837,0.98723,-0.1684,0.0092,-9.7283,-0.0304,0.1767,0.6036,0.059,3,17,0.68,0.81,0.27,24.837,16.55,98.8,38.2,21738.0,7276,7395,7242,7359,56.4,56.0,56.2,54.8,2.656,2.742,2.85,2.891,1.19,60.4,30.4,34.5,1013.69,-28.86,0.37,1.66,27.8,36.5,30.9,0,no_anomaly,0.0,0,0,0,0,26.9123781,75.7873216,5.0,0.0
2024-04-23T18:59:01.100Z,MISSION_0018,11,0,takeoff,SITE_JAI_009,26.9123733,75.7873168,5.0,198.22,0.003,0.034,3.51,2.5071,-1.828,198.2186,-0.1586,0.01228,0.02412,0.98697,-0.0514,-0.0194,-9.7665,0.2486,0.1808,-0.6754,0.1533,3,20,0.73,0.85,0.25,24.732,16.86,98.7,38.8,21723.0,7511,7557,7478,7426,55.0,56.3,55.3,55.4,2.276,2.749,2.6,3.163,1.94,60.7,30.8,34.4,1014.02,-29.76,-0.09,1.68,23.2,40.5,31.5,0,no_anomaly,0.0,0,0,0,0,26.9123733,75.7873168,5.0,0.0
2024-04-23T18:59:01.200Z,MISSION_0018,12,0,takeoff,SITE_JAI_009,26.9123664,75.7873156,5.0,199.24,0.0,0.22,4.12,-0.5201,-0.1349,199.2409,-0.16711,0.00192,-0.00428,0.98593,-0.0043,-0.0192,-9.7254,0.4817,0.2213,-0.016,0.0191,3,20,0.86,0.81,0.32,24.78,18.82,98.7,38.2,21708.0,7355,7119,7472,7384,57.0,57.1,60.8,56.0,2.66,2.55,2.768,3.054,0.71,58.2,30.6,33.9,1013.98,-27.74,1.08,1.72,23.8,38.9,31.7,0,no_anomaly,0.0,0,0,0,0,26.9123664,75.7873156,5.0,0.0
2024-04-23T18:59:01.300Z,MISSION_0018,13,0,takeoff,SITE_JAI_009,26.9123673,75.7873165,5.0,202.12,0.011,0.148,4.08,-0.2106,-1.7766,202.1247,-0.19183,0.01557,0.00117,0.9813,-0.0377,-0.0884,-9.8443,-0.5822,0.2651,0.0073,0.1434,3,12,0.7,1.06,0.2,24.745,17.91,98.6,38.6,21693.0,7465,7303,7623,7180,55.4,58.8,57.1,59.0,2.819,2.775,2.793,2.682,1.9,62.9,30.8,35.1,1014.14,-32.92,0.29,1.52,26.6,45.4,32.5,0,no_anomaly,0.0,0,0,0,0,26.9123673,75.7873165,5.0,0.0
2024-04-23T18:59:01.400Z,MISSION_0018,14,0,takeoff,SITE_JAI_009,26.9123662,75.7873116,5.0,202.01,0.0,0.036,3.97,1.1028,-0.4601,202.0074,-0.1909,0.0021,0.01021,0.98155,-0.0707,-0.0075,-9.7968,0.8585,-0.7099,-0.1619,0.1747,3,20,0.63,0.64,0.33,24.765,21.91,98.5,38.7,21679.0,7284,7615,7348,7665,57.3,51.4,56.0,57.3,2.697,2.633,2.73,2.618,0.89,60.7,30.5,35.4,1013.84,-34.89,-0.91,1.29,22.6,35.2,33.4,0,no_anomaly,0.0,0,0,0,0,26.9123662,75.7873116,5.0,0.0
2024-04-23T18:59:01.500Z,MISSION_0018,15,0,takeoff,SITE_JAI_009,26.9123686,75.7873088,5.0,201.98,0.0,0.004,3.63,-0.3496,-3.0298,201.9784,-0.19048,0.02653,0.00205,0.98133,-0.0202,-0.0537,-9.7863,0.0022,-0.6325,-0.0198,0.1481,3,13,0.6,0.86,0.2,24.765,15.32,98.5,38.9,21664.0,7726,7352,7453,7340,57.0,56.6,54.7,53.8,2.601,2.802,2.687,2.947,0.1,62.3,30.7,35.5,1013.54,-28.53,1.37,1.61,25.8,37.5,35.2,0,no_anomaly,0.0,0,0,0,0,26.9123686,75.7873088,5.0,0.0
2024-04-23T18:59:01.600Z,MISSION_0018,16,0,takeoff,SITE_JAI_009,26.9123694,75.7873047,5.0,199.12,0.0,0.075,3.45,-0.1574,-0.243,199.1242,-0.16611,0.00232,-0.001,0.9861,0.0394,-0.0619,-9.824,-0.1673,0.2358,0.4716,0.1361,3,15,0.72,1.1,0.35,24.792,18.46,98.4,39.0,21649.0,7281,7418,7732,7380,55.5,57.3,55.9,54.9,2.764,2.847,2.877,2.717,0.31,54.3,30.7,34.6,1014.14,-30.1,0.18,2.47,23.3,37.9,33.9,0,no_anomaly,0.0,0,0,0,0,26.9123694,75.7873047,5.0,0.0
2024-04-23T18:59:01.700Z,MISSION_0018,17,0,takeoff,SITE_JAI_009,26.9123698,75.787303,5.0,198.27,0.55,0.128,3.38,-1.8071,-0.63,198.2748,-0.15869,0.00793,-0.0147,0.98719,0.0035,0.0543,-9.7979,0.2974,0.5641,0.3412,0.07,3,11,0.56,0.95,0.3,24.767,18.01,98.3,38.6,21634.0,7283,7309,7434,7245,52.7,54.5,56.2,57.5,2.88,2.744,2.628,2.931,0.98,57.8,30.4,35.6,1013.87,-32.86,0.1,1.0,25.4,41.7,33.4,0,no_anomaly,0.0,0,0,0,0,26.9123698,75.787303,5.0,0.0
2024-04-23T18:59:01.800Z,MISSION_0018,18,0,takeoff,SITE_JAI_009,26.9123706,75.7873054,5.0,200.92,0.668,0.084,3.33,-1.8471,-0.9893,200.9233,-0.18141,0.01142,-0.01428,0.98324,-0.0299,-0.0001,-9.8554,-0.2648,0.7719,0.6391,0.1014,3,20,0.67,0.87,0.26,24.807,14.59,98.3,39.2,21620.0,7596,7545,7533,7374,56.7,54.2,53.6,58.2,2.929,2.948,2.785,2.717,1.24,53.9,31.0,34.8,1013.77,-28.13,-0.06,1.5,24.0,41.0,31.6,0,no_anomaly,0.0,0,0,0,0,26.9123706,75.7873054,5.0,0.0
2024-04-23T18:59:01.900Z,MISSION_0018,19,0,takeoff,SITE_JAI_009,26.9123702,75.7873072,5.0,198.98,0.73,0.133,3.42,-1.9003,-4.1278,198.9766,-0.16413,0.03825,-0.01041,0.98564,0.023,-0.0167,-9.9084,-0.5668,1.1848,-0.1482,0.1029,3,13,0.78,1.07,0.3,24.744,13.01,98.2,39.0,21605.0,7612,7667,7386,7272,56.2,57.3,60.6,59.9,3.089,2.968,2.741,2.758,0.87,63.6,30.8,33.7,1013.58,-29.56,1.23,1.15,25.2,40.9,32.8,0,no_anomaly,0.0,0,0,0,0,26.9123702,75.7873072,5.0,0.0
2024-04-23T18:59:02.000Z,MISSION_0018,20,0,takeoff,SITE_JAI_009,26.9123727,75.7873009,5.0,199.73,0.43,0.22,3.04,0.3813,-3.8239,199.7255,-0.1713,0.0323,0.00899,0.98465,0.0268,-0.0709,-9.8069,-0.0845,0.3415,0.1069,0.186,3,12,0.63,0.95,0.21,24.796,22.36,98.1,39.2,21590.0,7331,7720,7611,7325,58.7,54.5,57.5,53.3,2.769,2.912,2.668,2.957,0.36,54.5,30.8,34.6,1014.03,-30.48,1.17,1.85,24.3,39.4,34.1,0,no_anomaly,0.0,0,0,0,0,26.9123727,75.7873009,5.0,0.0
2024-04-23T18:59:02.100Z,MISSION_0018,21,0,takeoff,SITE_JAI_009,26.9123763,75.7873013,5.0,203.86,0.361,0.04,2.64,2.9975,-0.9699,203.8591,-0.20685,0.00287,0.02734,0.97799,0.0102,-0.0804,-9.7972,-1.0491,0.5086,-0.0118,0.1713,3,13,0.84,0.99,0.35,24.853,15.74,98.1,37.9,21576.0,7196,7197,7529,7527,54.1,55.4,55.2,58.2,2.905,2.869,2.892,3.026,0.91,60.3,30.3,35.8,1013.84,-34.84,0.1,1.0,28.3,40.2,35.3,0,no_anomaly,0.0,0,0,0,0,26.9123763,75.7873013,5.0,0.0
2024-04-23T18:59:02.200Z,MISSION_0018,22,0,takeoff,SITE_JAI_009,26.9123778,75.7873057,5.0,204.4,0.0,0.129,2.55,2.81,-1.2041,204.4049,-0.21154,0.00509,0.02618,0.977,0.1036,0.0032,-9.812,-0.2663,-0.0256,-0.0822,0.1114,3,16,0.69,1.03,0.21,24.679,21.85,98.0,38.8,21561.0,7564,7449,7471,7279,55.0,54.6,55.3,55.8,2.966,2.546,2.766,2.887,0.82,54.4,30.7,35.0,1013.67,-25.57,-0.42,1.03,28.1,42.0,34.4,0,no_anomaly,0.0,0,0,0,0,26.9123778,75.7873057,5.0,0.0
2024-04-23T18:59:02.300Z,MISSION_0018,23,0,takeoff,SITE_JAI_009,26.9123746,75.7873079,5.0,203.23,0.059,0.116,2.96,-3.8631,-1.316,203.2324,-0.20085,0.01803,-0.0307,0.97898,-0.1716,0.0185,-9.8783,-0.4638,-0.0544,-0.539,0.143,3,19,0.66,0.75,0.27,24.799,20.94,97.9,38.6,21546.0,7337,7593,7528,7126,56.1,58.8,58.4,57.7,2.895,2.795,2.696,2.906,1.58,56.2,30.8,35.3,1013.87,-29.9,-0.42,2.08,29.3,40.3,34.7,0,no_anomaly,0.0,0,0,0,0,26.9123746,75.7873079,5.0,0.0
2024-04-23T18:59:02.400Z,MISSION_0018,24,0,takeoff,SITE_JAI_009,26.9123739,75.7873128,5.0,204.08,0.0,0.089,3.23,-3.6123,-2.022,204.0763,-0.20788,0.02382,-0.02714,0.97749,-0.1278,-0.0063,-9.802,-0.3351,0.3649,-0.2646,0.1486,3,10,0.65,1.0,0.23,24.734,20.38,97.9,38.0,21531.0,7364,7515,7398,7526,54.2,51.8,53.7,55.0,2.591,3.106,2.772,2.822,0.89,62.3,30.7,36.2,1013.88,-31.44,-0.27,1.79,26.9,42.2,34.1,0,no_anomaly,0.0,0,0,0,0,26.9123739,75.7873128,5.0,0.0
2024-04-23T18:59:02.500Z,MISSION_0018,25,0,takeoff,SITE_JAI_009,26.9123708,75.7873148,5.0,201.29,0.0,0.026,3.65,-0.5982,-0.5839,201.291,-0.1847,0.00597,-0.00419,0.98277,-0.0326,0.0141,-9.7907,0.097,-0.675,0.127,0.1181,3,15,0.65,1.16,0.22,24.766,21.91,97.8,38.5,21517.0,7266,7328,7407,7598,58.7,55.9,59.6,55.9,2.831,2.614,2.791,2.621,1.51,57.0,30.9,34.3,1014.09,-24.88,-0.43,1.67,27.5,40.0,29.8,0,no_anomaly,0.0,0,0,0,0,26.9123708,75.7873148,5.0,0.0
2024-04-23T18:59:02.600Z,MISSION_0018,26,0,takeoff,SITE_JAI_009,26.9123656,75.7873176,5.0,200.79,0.586,0.091,4.3,1.5472,-6.6337,200.7937,-0.18091,0.05447,0.0237,0.9817,0.0042,-0.0111,-9.8679,0.3534,0.448,-0.148,0.0404,3,13,0.81,0.72,0.28,24.743,15.42,97.7,38.5,21502.0,7377,7352,7371,7462,53.0,57.2,56.6,56.5,3.068,2.904,2.818,2.847,0.09,59.5,30.6,35.0,1013.48,-30.7,-0.81,1.7,26.6,44.3,32.8,0,no_anomaly,0.0,0,0,0,0,26.9123656,75.7873176,5.0,0.0
2024-04-23T18:59:02.700Z,MISSION_0018,27,0,takeoff,SITE_JAI_009,26.9123609,75.7873214,5.0,200.0,0.903,0.111,4.96,2.9454,-3.3346,200.0,-0.17425,0.02418,0.03035,0.98394,-0.0641,0.0048,-9.7946,-0.0721,0.0597,0.8939,0.1098,3,12,0.75,1.05,0.31,24.749,22.65,97.7,38.9,21487.0,7359,7447,7566,7433,53.9,55.0,61.2,58.0,2.847,2.547,2.694,3.024,1.21,61.7,30.8,34.8,1014.04,-34.36,-1.61,1.84,30.0,43.6,34.6,0,no_anomaly,0.0,0,0,0,0,26.9123609,75.7873214,5.0,0.0
2024-04-23T18:59:02.800Z,MISSION_0018,28,0,takeoff,SITE_JAI_009,26.9123632,75.7873247,5.0,199.12,0.615,0.017,4.93,0.2283,-1.5431,199.1214,-0.1661,0.01295,0.0042,0.98601,-0.0559,-0.0592,-9.8536,0.8268,-0.6539,-0.1162,0.0437,3,12,0.71,0.94,0.32,24.683,18.99,97.6,39.4,21472.0,7456,7453,7498,7092,59.7,58.5,58.4,53.7,2.821,2.747,2.726,2.878,0.56,53.8,30.8,34.1,1013.91,-30.68,1.56,1.4,29.3,38.0,34.8,0,no_anomaly,0.0,0,0,0,0,26.9123632,75.7873247,5.0,0.0
2024-04-23T18:59:02.900Z,MISSION_0018,29,0,takeoff,SITE_JAI_009,26.9123664,75.7873249,5.0,199.51,0.646,0.017,4.65,-3.1939,-3.7641,199.514,-0.16841,0.03707,-0.02189,0.98478,-0.021,0.0271,-9.8364,0.5972,-0.578,-0.1459,0.1464,3,16,0.68,1.07,0.26,24.792,15.22,97.5,38.9,21458.0,7300,7727,7598,7485,57.5,56.4,50.4,58.5,2.829,2.847,2.803,3.065,0.76,62.9,30.6,34.3,1014.32,-27.69,1.89,1.84,26.3,37.9,30.6,0,no_anomaly,0.0,0,0,0,0,26.9123664,75.7873249,5.0,0.0
2024-04-23T18:59:03.000Z,MISSION_0018,30,0,takeoff,SITE_JAI_009,26.9123706,75.7873173,5.0,199.03,0.803,0.031,3.8,-0.4806,-3.1481,199.0271,-0.1651,0.02778,0.00041,0.98588,-0.0039,-0.0311,-9.8119,0.8253,-0.6165,0.1299,0.2202,3,13,0.54,1.06,0.2,24.744,17.39,97.5,38.8,21443.0,7329,7513,7250,7518,56.5,57.8,59.8,56.9,2.906,3.115,2.92,2.944,0.82,57.5,30.8,34.9,1014.22,-28.55,-0.24,1.57,26.5,40.3,30.9,0,no_anomaly,0.0,0,0,0,0,26.9123706,75.7873173,5.0,0.0
2024-04-23T18:59:03.100Z,MISSION_0018,31,0,takeoff,SITE_JAI_009,26.9123748,75.7873162,5.0,202.07,1.144,0.179,3.33,3.5922,1.6159,202.0696,-0.19086,-0.01983,0.02806,0.98102,-0.0403,0.0657,-9.839,-0.1129,0.2185,-0.6914,0.1058,3,11,0.82,0.88,0.37,24.677,24.05,97.4,37.9,21428.0,7445,7253,7387,7338,56.5,56.2,58.7,56.7,2.93,2.797,2.817,2.903,1.56,72.3,30.7,35.5,1013.83,-32.43,0.79,1.17,23.5,41.7,33.5,0,no_anomaly,0.0,0,0,0,0,26.9123748,75.7873162,5.0,0.0
2024-04-23T18:59:03.200Z,MISSION_0018,32,0,takeoff,SITE_JAI_009,26.9123695,75.7873173,5.0,201.55,0.776,0.025,3.91,-4.9646,-2.073,201.5502,-0.18598,0.02585,-0.03916,0.98143,0.0424,-0.011,-9.8425,0.0116,-0.1623,-0.4103,0.1095,3,16,0.57,0.9,0.2,24.686,15.27,97.3,38.0,21414.0,7469,7714,7296,7153,54.8,54.8,58.9,52.0,2.93,2.758,2.665,2.583,0.5,57.4,30.6,34.6,1014.15,-27.15,-0.22,1.42,21.5,43.8,29.8,0,no_anomaly,0.0,0,0,0,0,26.9123695,75.7873173,5.0,0.0
2024-04-23T18:59:03.300Z,MISSION_0018,33,0,takeoff,SITE_JAI_009,26.9123681,75.7873142,5.0,200.27,1.176,0.087,3.89,-2.6101,-0.3527,200.2744,-0.17589,0.00704,-0.02188,0.98414,0.0224,0.0604,-9.8538,-0.4346,-0.0278,0.225,0.0828,3,13,0.74,0.93,0.33,24.626,20.44,97.3,39.0,21399.0,7742,7471,7579,7722,57.3,56.0,57.4,54.8,2.875,2.912,2.859,2.651,1.26,51.1,30.6,34.8,1013.81,-29.94,1.81,1.28,24.3,45.3,32.6,0,no_anomaly,0.0,0,0,0,0,26.9123681,75.7873142,5.0,0.0
2024-04-23T18:59:03.400Z,MISSION_0018,34,0,takeoff,SITE_JAI_009,26.9123694,75.7873062,5.0,201.16,0.96,0.062,3.48,1.8557,-4.1442,201.1556,-0.184,0.03257,0.02254,0.98213,0.1297,0.0322,-9.803,0.7948,-0.1071,-0.3679,0.1513,3,13,0.81,0.79,0.37,24.745,18.15,97.2,40.0,21384.0,7599,7441,7364,7448,57.0,57.8,53.5,55.0,2.489,2.837,2.736,2.727,1.87,60.8,30.6,34.2,1014.17,-24.32,0.77,1.12,24.5,36.4,34.6,0,no_anomaly,0.0,0,0,0,0,26.9123694,75.7873062,5.0,0.0
2024-04-23T18:59:03.500Z,MISSION_0018,35,0,takeoff,SITE_JAI_009,26.9123708,75.7873095,5.0,200.63,0.586,0.2,3.41,0.1917,-0.0113,200.6253,-0.17902,-0.0002,0.00166,0.98384,-0.0757,0.0201,-9.8321,-0.7616,-0.2559,0.0643,0.0512,3,14,0.61,0.77,0.2,24.657,20.3,97.1,38.2,21369.0,7278,7419,7504,7160,54.6,54.8,56.5,58.5,2.67,2.548,2.837,2.815,0.76,62.6,30.8,34.8,1013.97,-29.71,-0.3,1.28,24.2,39.5,33.4,0,no_anomaly,0.0,0,0,0,0,26.9123708,75.7873095,5.0,0.0
2024-04-23T18:59:03.600Z,MISSION_0018,36,0,takeoff,SITE_JAI_009,26.9123745,75.7873071,5.0,202.76,0.29,0.087,2.94,0.9063,-5.5308,202.7643,-0.19749,0.04574,0.01727,0.97909,0.15,0.0372,-9.8934,0.8331,-0.0314,0.1321,0.0571,3,17,0.71,0.61,0.26,24.754,17.3,97.1,38.6,21355.0,7486,7373,7211,7632,53.8,54.7,55.4,54.6,2.736,2.289,2.656,2.931,1.1,68.8,30.9,35.1,1014.11,-31.7,0.46,1.74,23.0,39.7,30.4,0,no_anomaly,0.0,0,0,0,0,26.9123745,75.7873071,5.0,0.0
2024-04-23T18:59:03.700Z,MISSION_0018,37,0,takeoff,SITE_JAI_009,26.912377,75.7873087,5.0,201.33,0.062,0.105,2.74,0.4971,-1.5823,201.3256,-0.18507,0.01277,0.00682,0.98262,-0.002,-0.1196,-9.8329,0.5731,0.0558,-0.3616,0.1368,3,19,0.59,1.15,0.3,24.696,16.16,97.0,38.9,21340.0,7544,7392,7598,7646,56.8,51.2,53.1,59.3,2.436,2.621,2.898,3.017,1.27,63.5,30.6,35.7,1014.15,-27.69,2.21,1.47,21.4,40.3,29.7,0,no_anomaly,0.0,0,0,0,0,26.912377,75.7873087,5.0,0.0
2024-04-23T18:59:03.800Z,MISSION_0018,38,0,takeoff,SITE_JAI_009,26.9123766,75.7873092,5.0,204.62,0.0,0.119,2.79,1.4539,-2.3145,204.6176,-0.21337,0.01703,0.0167,0.97668,0.0007,-0.0078,-9.8131,0.5846,0.1175,-0.3019,0.0979,3,13,0.57,0.79,0.24,24.74,21.93,96.9,39.2,21325.0,7266,7730,7345,7544,54.2,57.2,54.5,55.4,3.061,2.683,2.838,2.797,0.85,58.0,30.8,35.3,1013.49,-25.53,-0.91,1.65,24.8,43.3,30.8,0,no_anomaly,0.0,0,0,0,0,26.9123766,75.7873092,5.0,0.0
2024-04-23T18:59:03.900Z,MISSION_0018,39,0,takeoff,SITE_JAI_009,26.912378,75.7873052,5.0,204.25,0.016,0.129,2.52,0.5496,-3.2259,204.246,-0.21006,0.02651,0.0106,0.97727,-0.0437,-0.0064,-9.7219,0.2175,1.3555,0.0829,0.0115,3,17,0.68,1.19,0.2,24.701,13.7,96.9,38.5,21310.0,7297,7373,7321,7235,56.3,56.5,54.3,51.6,2.437,3.179,2.949,2.789,0.78,54.7,30.8,34.9,1014.01,-35.53,0.85,1.18,25.2,45.9,32.7,0,no_anomaly,0.0,0,0,0,0,26.912378,75.7873052,5.0,0.0
2024-04-23T18:59:04.000Z,MISSION_0018,40,0,takeoff,SITE_JAI_009,26.9123819,75.7873088,5.0,202.73,0.071,0.097,2.24,-2.9573,-4.1434,202.7348,-0.19599,0.04051,-0.01816,0.9796,-0.0132,0.0394,-9.7609,-1.6212,-0.6142,-0.138,0.1149,3,17,0.75,0.89,0.23,24.634,15.04,96.8,39.6,21296.0,7435,7173,7647,7298,53.8,57.1,55.4,55.4,3.077,2.884,3.145,2.89,0.8,66.8,30.5,34.4,1014.09,-25.71,1.05,1.53,27.2,39.3,32.3,0,no_anomaly,0.0,0,0,0,0,26.9123819,75.7873088,5.0,0.0
2024-04-23T18:59:04.100Z,MISSION_0018,41,0,takeoff,SITE_JAI_009,26.9123783,75.7873116,5.0,200.8,0.0,0.127,2.74,-0.2797,-1.4241,200.8042,-0.18051,0.01266,-0.00016,0.98349,-0.0135,0.0455,-9.7892,0.1299,0.4057,-0.4476,0.1701,3,12,0.84,1.1,0.29,24.741,21.91,96.7,38.6,21281.0,7326,7360,7228,7312,58.9,57.3,54.5,57.8,2.618,2.559,2.643,2.506,0.93,60.3,30.8,34.3,1013.9,-31.29,-0.6,1.65,25.8,41.7,34.6,0,no_anomaly,0.0,0,0,0,0,26.9123783,75.7873116,5.0,0.0
2024-04-23T18:59:04.200Z,MISSION_0018,42,0,takeoff,SITE_JAI_009,26.9123842,75.7873097,5.0,199.76,0.0,0.023,2.06,-1.0796,-3.2394,199.7632,-0.17127,0.02946,-0.00443,0.98477,-0.0797,-0.0406,-9.7989,0.1384,0.2846,-0.1854,0.1071,3,16,0.73,0.95,0.33,24.793,17.38,96.7,38.2,21266.0,7514,7305,7398,7312,57.0,57.4,55.0,53.7,2.726,2.766,2.585,2.788,1.12,62.6,30.3,34.9,1013.95,-29.3,0.95,1.5,23.7,37.3,34.4,0,no_anomaly,0.0,0,0,0,0,26.9123842,75.7873097,5.0,0.0
2024-04-23T18:59:04.300Z,MISSION_0018,43,0,takeoff,SITE_JAI_009,26.9123868,75.787312,5.0,199.26,0.336,0.088,1.99,1.8873,-1.8796,199.2606,-0.16751,0.01341,0.01898,0.9856,-0.1479,-0.0471,-9.7374,-0.7881,-0.2605,0.1809,0.1472,3,12,0.5,1.01,0.2,24.645,17.43,96.6,38.6,21251.0,7029,7451,7221,7567,53.0,58.4,55.9,56.1,2.671,2.707,2.645,2.83,0.33,54.5,30.8,34.7,1014.08,-26.95,-1.01,1.86,23.1,41.0,29.9,0,no_anomaly,0.0,0,0,0,0,26.9123868,75.787312,5.0,0.0
2024-04-23T18:59:04.400Z,MISSION_0018,44,0,takeoff,SITE_JAI_009,26.9123859,75.7873102,5.0,199.19,0.112,0.109,1.93,3.5601,-2.0819,199.1917,-0.16715,0.01273,0.03365,0.98528,-0.1074,-0.0273,-9.7909,0.6214,0.4822,0.0835,0.1385,3,10,0.68,1.11,0.2,24.725,15.15,96.5,37.9,21237.0,7190,7532,7504,7333,52.8,59.9,55.1,53.2,2.683,2.887,2.807,2.852,1.84,57.0,30.6,34.5,1014.22,-31.33,1.54,1.24,28.5,46.4,34.1,0,no_anomaly,0.0,0,0,0,0,26.9123859,75.7873102,5.0,0.0
2024-04-23T18:59:04.500Z,MISSION_0018,45,0,transit,SITE_JAI_009,26.9123827,75.7873107,5.5,199.52,0.23,0.142,2.26,-0.9184,-3.1721,199.5211,-0.16924,0.02864,-0.0032,0.98515,0.0563,0.0168,-9.8067,-0.4469,-0.5189,-0.108,0.1127,3,15,0.77,0.96,0.27,24.757,15.57,96.5,38.2,21222.0,7325,7312,7702,7557,54.0,55.0,56.3,55.3,2.916,2.594,3.082,2.663,0.32,54.3,31.2,34.5,1013.81,-23.87,-0.55,1.53,22.6,35.7,33.0,0,no_anomaly,0.0,0,0,0,0,26.9123827,75.7873107,5.5,0.0
2024-04-23T18:59:04.600Z,MISSION_0018,46,0,transit,SITE_JAI_009,26.9123769,75.7873103,6.0,200.52,0.378,0.042,2.81,0.507,-0.1925,200.5222,-0.17814,0.00086,0.00465,0.98399,0.017,-0.0158,-9.8989,0.1058,-0.1539,-0.1712,0.06,3,17,0.5,0.86,0.2,24.599,18.04,96.4,37.7,21207.0,7384,7483,7169,7205,54.7,52.8,51.2,56.0,2.858,2.643,2.443,2.684,0.29,61.1,30.8,34.6,1013.78,-30.56,-0.35,1.27,26.9,40.1,33.2,0,no_anomaly,0.0,0,0,0,0,26.9123769,75.7873103,6.0,0.0
2024-04-23T18:59:04.700Z,MISSION_0018,47,0,transit,SITE_JAI_009,26.9123791,75.7873092,6.5,198.74,0.745,0.07,2.54,3.6838,-0.4594,198.737,-0.16283,-0.00128,0.03237,0.98612,0.0928,0.0036,-9.7524,-0.5514,-0.3577,0.2227,0.0677,3,17,0.93,0.89,0.31,24.667,20.19,96.3,38.8,21193.0,7383,7230,7494,7210,56.9,52.8,56.3,58.0,2.828,2.766,2.777,2.952,1.4,47.9,31.0,35.5,1013.54,-29.1,-0.84,1.53,24.9,45.9,36.0,0,no_anomaly,0.0,0,0,0,0,26.9123791,75.7873092,6.5,0.0
2024-04-23T18:59:04.800Z,MISSION_0018,48,0,transit,SITE_JAI_009,26.9123811,75.7873113,7.0,199.24,0.848,0.116,2.45,0.311,-2.5894,199.2351,-0.16709,0.02182,0.00645,0.98568,0.0051,0.0308,-9.8795,-0.9283,-0.4198,0.3953,0.1117,3,13,0.72,1.18,0.2,24.708,15.79,96.3,38.1,21178.0,7568,7648,7393,7256,54.4,53.5,56.3,56.6,2.621,2.836,2.845,2.811,1.08,55.9,30.6,35.6,1013.84,-27.88,-1.25,1.22,28.6,39.5,33.6,0,no_anomaly,0.0,0,0,0,0,26.9123811,75.7873113,7.0,0.0
2024-04-23T18:59:04.900Z,MISSION_0018,49,0,transit,SITE_JAI_009,26.9123749,75.7873064,7.5,198.35,1.006,0.135,2.88,2.7506,-3.6326,198.3502,-0.16008,0.02746,0.02873,0.9863,0.0271,-0.0084,-9.7854,-0.4731,0.7015,-0.0529,0.0896,3,19,0.66,0.96,0.2,24.741,16.65,96.2,37.9,21163.0,7589,7442,7492,7258,56.1,49.1,54.5,53.1,2.836,2.746,2.869,2.979,0.2,64.5,30.9,34.6,1013.94,-28.15,1.15,2.12,23.7,39.0,32.3,0,no_anomaly,0.0,0,0,0,0,26.9123749,75.7873064,7.5,0.0
2024-04-23T18:59:05.000Z,MISSION_0018,50,0,transit,SITE_JAI_009,26.9123721,75.7873068,8.0,199.3,0.864,0.1,3.2,2.5527,-2.9936,199.3012,-0.16811,0.02201,0.02633,0.98517,0.0475,0.0431,-9.8195,-0.2317,-0.2261,-0.2341,0.1287,3,20,0.66,0.67,0.27,24.703,20.8,96.1,37.9,21148.0,7596,7435,7279,7164,54.8,58.2,54.6,54.1,2.544,2.96,2.792,2.788,1.06,51.5,31.1,35.3,1013.96,-30.55,1.45,1.37,24.8,40.1,32.6,0,no_anomaly,0.0,0,0,0,0,26.9123721,75.7873068,8.0,0.0
2024-04-23T18:59:05.100Z,MISSION_0018,51,0,transit,SITE_JAI_009,26.9123697,75.7873038,8.5,196.91,1.317,0.074,3.4,-2.2964,-2.7995,196.9096,-0.14647,0.0271,-0.01622,0.98871,0.0592,0.0546,-9.7181,0.0687,-0.1607,0.2847,0.1458,3,18,0.8,0.6,0.46,24.639,18.43,96.1,39.2,21134.0,7605,7352,7498,7407,54.8,53.8,56.0,56.4,2.568,2.858,3.058,3.116,1.63,60.2,31.0,34.3,1014.08,-23.68,0.23,1.72,23.4,42.7,34.0,0,no_anomaly,0.0,0,0,0,0,26.9123697,75.7873038,8.5,0.0
2024-04-23T18:59:05.200Z,MISSION_0018,52,0,transit,SITE_JAI_009,26.9123718,75.7873041,9.0,197.05,1.894,0.105,3.17,-0.2135,-5.435,197.0517,-0.148,0.04716,0.00519,0.98785,-0.0378,-0.0892,-9.7789,-0.7644,-0.2006,-0.0814,0.0788,3,15,0.69,0.6,0.34,24.742,18.75,96.0,38.7,21119.0,7223,7458,7581,7442,55.5,57.5,54.6,54.6,2.981,2.731,2.69,2.642,0.58,71.1,31.0,35.4,1013.85,-28.62,0.89,1.27,26.5,45.1,32.5,0,no_anomaly,0.0,0,0,0,0,26.9123718,75.7873041,9.0,0.0
2024-04-23T18:59:05.300Z,MISSION_0018,53,0,transit,SITE_JAI_009,26.9123748,75.7872988,9.5,196.13,1.45,0.106,2.8,-1.895,-1.185,196.1275,-0.14008,0.01256,-0.01492,0.98995,-0.0049,-0.0393,-9.7705,0.1064,-0.1194,-0.1691,0.0264,3,18,0.82,0.6,0.36,24.728,19.81,95.9,38.5,21104.0,7154,7692,7455,7341,55.4,53.9,50.9,55.1,2.909,2.774,2.698,2.982,1.9,49.0,30.8,35.0,1013.92,-30.71,0.5,1.0,23.6,42.4,31.2,0,no_anomaly,0.0,0,0,0,0,26.9123748,75.7872988,9.5,0.0
2024-04-23T18:59:05.400Z,MISSION_0018,54,0,transit,SITE_JAI_009,26.9123744,75.7872988,10.0,194.26,1.395,0.029,2.85,-0.5303,-2.1542,194.2561,-0.12398,0.01923,-0.00226,0.9921,0.1055,-0.0231,-9.7783,0.4758,-0.0746,0.0479,0.0917,3,13,0.72,0.74,0.35,24.666,24.12,95.9,40.2,21089.0,7407,7532,7625,7545,54.7,55.3,53.8,53.3,2.803,2.965,2.961,2.946,1.79,57.5,30.7,33.7,1014.23,-30.01,-0.85,1.26,26.7,36.2,31.4,0,no_anomaly,0.0,0,0,0,0,26.9123744,75.7872988,10.0,0.0
2024-04-23T18:59:05.500Z,MISSION_0018,55,0,transit,SITE_JAI_009,26.9123692,75.787304,10.5,194.64,1.443,0.067,3.46,-0.9536,-3.203,194.638,-0.12711,0.02878,-0.00469,0.99146,0.0858,-0.0616,-9.7209,-0.259,0.0618,0.2049,0.075,3,19,0.86,0.91,0.3,24.736,21.14,95.8,39.1,21075.0,6966,7508,7528,7485,55.2,57.8,54.3,57.3,2.813,2.724,2.675,2.808,0.76,46.5,30.7,35.4,1014.04,-30.13,-0.96,1.72,26.7,44.8,33.1,0,no_anomaly,0.0,0,0,0,0,26.9123692,75.787304,10.5,0.0
2024-04-23T18:59:05.600Z,MISSION_0018,56,0,transit,SITE_JAI_009,26.9123648,75.7873075,11.0,194.64,1.612,0.125,4.0,-0.2424,-1.3486,194.641,-0.12739,0.01194,-0.0006,0.99178,0.0116,0.0316,-9.8525,-0.4338,-0.0849,-0.1331,0.1151,3,11,0.5,1.15,0.2,24.6,23.1,95.7,39.2,21060.0,7418,7426,7434,7160,57.7,55.8,56.8,58.0,2.594,2.819,2.652,2.906,0.9,61.3,30.7,35.2,1013.52,-32.99,-0.1,1.44,27.3,42.0,33.5,0,no_anomaly,0.0,0,0,0,0,26.9123648,75.7873075,11.0,0.0
2024-04-23T18:59:05.700Z,MISSION_0018,57,0,transit,SITE_JAI_009,26.9123636,75.7873102,11.5,194.86,1.353,0.127,4.21,-1.6183,-0.9928,194.8648,-0.12922,0.01042,-0.01288,0.99148,0.0446,0.0298,-9.8413,0.6802,-0.8734,0.0843,0.1358,3,18,0.7,0.81,0.27,24.706,16.09,95.7,39.1,21045.0,7556,7239,7506,7576,56.2,54.9,54.2,56.2,2.975,2.655,2.71,2.953,1.28,63.4,30.6,35.1,1013.67,-27.61,-0.58,1.33,22.2,39.2,34.4,0,no_anomaly,0.0,0,0,0,0,26.9123636,75.7873102,11.5,0.0
2024-04-23T18:59:05.800Z,MISSION_0018,58,0,transit,SITE_JAI_009,26.9123619,75.7873129,12.0,196.79,0.968,-0.001,4.48,0.9951,-2.1228,196.7923,-0.14614,0.01706,0.01129,0.98905,0.1757,-0.0342,-9.8515,0.1598,0.1389,-0.2552,0.1536,3,11,0.72,0.6,0.39,24.69,14.38,95.6,39.2,21031.0,7535,7681,7265,7548,53.4,51.7,51.6,53.6,2.996,2.779,2.86,2.733,0.76,57.7,30.5,34.7,1014.04,-31.18,0.08,1.72,22.8,37.3,31.8,0,no_anomaly,0.0,0,0,0,0,26.9123619,75.7873129,12.0,0.0
2024-04-23T18:59:05.900Z,MISSION_0018,59,0,transit,SITE_JAI_009,26.9123591,75.7873162,12.5,197.78,0.815,0.161,4.89,0.4265,-1.6008,197.7764,-0.15454,0.01323,0.00583,0.98788,-0.0004,-0.0461,-9.8636,-0.1619,0.6138,-0.0635,0.1433,3,16,0.8,1.1,0.31,24.808,15.46,95.5,39.5,21016.0,7504,7418,7449,7589,55.4,57.1,55.9,53.9,2.395,3.008,3.018,2.94,0.99,66.8,30.4,35.8,1014.01,-27.82,-0.21,1.83,25.1,39.2,32.5,0,no_anomaly,0.0,0,0,0,0,26.9123591,75.7873162,12.5,0.0
2024-04-23T18:59:06.000Z,MISSION_0018,60,0,transit,SITE_JAI_009,26.912361,75.7873153,13.0,198.44,1.031,0.136,4.66,1.1052,-3.0986,198.4364,-0.16039,0.02514,0.01385,0.98664,0.1051,0.0759,-9.7499,-0.3602,0.5705,-0.3314,0.1342,3,10,0.78,0.89,0.37,24.729,24.08,95.5,39.5,21001.0,7563,7426,7350,7306,58.2,57.6,53.1,53.9,2.555,3.051,2.849,2.897,1.0,65.6,30.6,34.8,1013.97,-28.85,0.26,1.02,27.7,43.0,34.3,0,no_anomaly,0.0,0,0,0,0,26.912361,75.7873153,13.0,0.0
2024-04-23T18:59:06.100Z,MISSION_0018,61,0,transit,SITE_JAI_009,26.9123647,75.7873117,13.2,197.01,1.116,0.143,4.13,0.5419,-2.0572,197.0086,-0.14794,0.01705,0.00733,0.98882,-0.0037,-0.0065,-9.8766,1.5845,0.0098,0.1218,0.1176,3,12,0.68,0.85,0.25,24.637,17.42,95.4,37.6,20986.0,7474,7223,7282,7519,54.1,59.1,54.4,58.3,2.83,3.206,2.693,2.952,1.41,53.3,30.6,35.0,1013.98,-27.75,0.56,1.64,28.2,39.2,34.0,0,no_anomaly,0.0,0,0,0,0,26.9123647,75.7873117,13.2,0.0
2024-04-23T18:59:06.200Z,MISSION_0018,62,0,transit,SITE_JAI_009,26.9123625,75.787313,13.2,196.48,1.344,0.153,4.42,1.4511,-1.5603,196.4809,-0.14347,0.01166,0.01448,0.98948,0.0134,-0.0392,-9.8122,-0.0152,-0.4976,-0.6775,0.1212,3,11,0.71,0.83,0.2,24.709,19.11,95.3,39.3,20972.0,7275,7636,7575,7230,55.6,58.2,53.4,54.4,2.605,2.609,2.689,2.722,0.56,52.4,30.9,34.3,1014.06,-31.09,-1.31,1.73,25.5,39.6,34.0,0,no_anomaly,0.0,0,0,0,0,26.9123625,75.787313,13.2,0.0
2024-04-23T18:59:06.300Z,MISSION_0018,63,0,transit,SITE_JAI_009,26.9123602,75.7873142,13.2,196.25,1.165,0.164,4.7,-0.0344,-2.7029,196.2535,-0.14132,0.02339,0.00304,0.98968,-0.0789,-0.0113,-9.8091,0.1432,-0.2341,0.2261,0.1256,3,20,0.65,0.82,0.3,24.656,19.52,95.3,38.8,20957.0,7473,7431,7051,7245,60.2,59.0,55.3,54.2,2.745,3.077,2.564,2.8,1.22,56.5,30.8,34.1,1013.97,-24.68,-0.42,1.98,25.1,37.1,34.0,0,no_anomaly,0.0,0,0,0,0,26.9123602,75.7873142,13.2,0.0
2024-04-23T18:59:06.400Z,MISSION_0018,64,0,transit,SITE_JAI_009,26.9123629,75.7873121,13.2,195.47,0.68,0.119,4.35,-1.9492,-0.6069,195.471,-0.13449,0.00754,-0.01614,0.99075,-0.1314,0.021,-9.8515,1.1279,-0.7314,-0.1585,0.1146,3,10,0.64,0.66,0.29,24.741,17.46,95.2,39.8,20942.0,7351,7398,7527,7502,53.6,55.2,57.1,57.7,2.924,2.944,2.461,2.87,1.28,53.3,30.9,35.2,1014.11,-32.31,-0.23,1.12,28.5,43.4,35.4,0,no_anomaly,0.0,0,0,0,0,26.9123629,75.7873121,13.2,0.0
2024-04-23T18:59:06.500Z,MISSION_0018,65,0,transit,SITE_JAI_009,26.9123628,75.787314,13.2,196.46,0.411,0.066,4.43,-2.9372,-3.7273,196.4607,-0.14221,0.03584,-0.0207,0.98897,-0.0032,-0.019,-9.7956,-0.1583,0.4045,-0.2689,0.1488,3,13,0.63,0.81,0.36,24.685,20.94,95.1,38.6,20927.0,7527,7547,7279,7339,56.9,56.0,53.2,56.7,2.809,2.696,3.032,2.976,0.95,59.7,30.9,35.6,1013.89,-26.69,0.85,1.74,23.3,44.8,31.3,0,no_anomaly,0.0,0,0,0,0,26.9123628,75.787314,13.2,0.0
2024-04-23T18:59:06.600Z,MISSION_0018,66,0,transit,SITE_JAI_009,26.9123618,75.78731,13.2,198.75,0.846,0.058,4.4,0.1915,-0.9619,198.7532,-0.16293,0.00801,0.00302,0.9866,-0.0606,-0.0501,-9.7857,0.4858,-0.0151,-0.3238,0.1883,3,11,0.74,0.87,0.31,24.701,19.23,95.1,38.5,20913.0,7767,7782,7294,7584,58.6,56.9,53.3,54.9,3.051,2.795,3.068,2.873,0.25,70.0,30.7,34.5,1014.15,-28.87,-0.52,1.41,24.0,42.4,36.3,0,no_anomaly,0.0,0,0,0,0,26.9123618,75.78731,13.2,0.0
2024-04-23T18:59:06.700Z,MISSION_0018,67,0,transit,SITE_JAI_009,26.9123639,75.7873093,13.2,198.36,0.912,0.198,4.15,-1.0072,-1.0395,198.364,-0.15948,0.01036,-0.00723,0.98712,0.1748,-0.02,-9.7841,-0.1816,0.3332,0.6852,0.1471,3,20,0.76,1.24,0.38,24.704,17.32,95.0,39.0,20898.0,7554,7595,7311,7404,54.6,58.1,54.4,56.3,2.756,2.809,2.978,3.151,0.41,59.2,30.6,34.1,1013.91,-32.11,-1.98,1.49,23.6,40.2,32.2,0,no_anomaly,0.0,0,0,0,0,26.9123639,75.7873093,13.2,0.0
2024-04-23T18:59:06.800Z,MISSION_0018,68,0,transit,SITE_JAI_009,26.9123648,75.787314,13.2,200.02,1.318,0.086,4.22,-2.0328,-4.9746,200.0162,-0.17284,0.04581,-0.00991,0.98383,-0.079,0.0539,-9.7782,-1.2338,-0.6778,-0.2704,0.1062,3,10,0.63,0.74,0.25,24.591,21.47,94.9,39.6,20883.0,7534,7380,7611,7557,55.0,57.9,57.5,56.5,2.795,2.801,3.008,2.668,0.82,69.4,30.7,34.7,1013.79,-28.93,1.89,1.49,29.0,41.4,36.1,0,no_anomaly,0.0,0,0,0,0,26.9123648,75.787314,13.2,0.0
2024-04-23T18:59:06.900Z,MISSION_0018,69,0,transit,SITE_JAI_009,26.9123661,75.7873177,13.2,198.85,1.13,0.137,4.25,1.4436,-0.5453,198.8455,-0.16376,0.00263,0.01321,0.98641,0.0133,0.0181,-9.7393,-0.1331,1.286,0.0979,0.2102,3,19,0.6,1.03,0.27,24.688,20.45,94.9,39.0,20869.0,7532,7627,7699,7321,57.7,54.6,54.3,55.0,2.906,2.705,2.67,2.874,0.63,65.6,31.0,35.1,1014.05,-27.24,1.3,1.32,27.3,42.1,34.9,0,no_anomaly,0.0,0,0,0,0,26.9123661,75.7873177,13.2,0.0
2024-04-23T18:59:07.000Z,MISSION_0018,70,0,transit,SITE_JAI_009,26.9123618,75.787315,13.2,199.43,1.288,0.104,4.57,-0.1323,-1.7096,199.4301,-0.16871,0.0149,0.00138,0.98555,0.0293,-0.0183,-9.763,-0.1269,-0.1101,0.0573,0.0835,3,17,0.55,0.87,0.23,24.645,17.66,94.8,38.5,20854.0,7484,7582,7400,7456,54.2,57.7,58.4,58.8,2.739,2.871,2.681,2.818,0.92,59.8,30.5,34.8,1013.79,-34.75,-0.37,1.72,24.1,36.1,31.6,0,no_anomaly,0.0,0,0,0,0,26.9123618,75.787315,13.2,0.0
2024-04-23T18:59:07.100Z,MISSION_0018,71,0,transit,SITE_JAI_009,26.9123634,75.7873147,13.2,200.86,1.283,0.12,4.39,-2.2342,-3.2431,200.8624,-0.18041,0.03135,-0.01404,0.98299,-0.1724,0.0731,-9.9003,-0.5119,0.2437,-0.3474,0.0645,3,19,0.67,0.96,0.2,24.646,19.3,94.7,38.8,20839.0,7408,7443,7399,7242,56.0,55.7,56.2,57.8,3.244,2.989,2.812,2.728,0.59,47.8,30.8,33.4,1013.95,-29.2,-0.68,1.61,28.3,36.9,32.0,0,no_anomaly,0.0,0,0,0,0,26.9123634,75.7873147,13.2,0.0
2024-04-23T18:59:07.200Z,MISSION_0018,72,0,transit,SITE_JAI_009,26.9123654,75.787315,13.2,200.68,0.818,0.161,4.2,1.3091,-6.7365,200.683,-0.17985,0.05575,0.02177,0.98187,-0.0061,-0.0486,-9.8166,-0.3548,-0.1212,0.5303,0.1767,3,13,0.88,0.75,0.25,24.704,16.3,94.7,38.7,20824.0,7209,7549,7341,7423,57.6,57.2,55.5,51.9,2.977,3.053,2.773,2.869,0.88,59.3,30.7,35.6,1014.05,-27.56,0.5,1.09,23.9,44.6,35.3,0,no_anomaly,0.0,0,0,0,0,26.9123654,75.787315,13.2,0.0
2024-04-23T18:59:07.300Z,MISSION_0018,73,0,transit,SITE_JAI_009,26.9123667,75.7873164,13.2,198.33,0.746,0.026,4.13,-0.0006,-0.9474,198.3261,-0.15924,0.00816,0.00131,0.98721,-0.0207,0.0506,-9.7838,0.0995,0.1503,0.1933,0.0904,3,10,0.58,0.77,0.2,24.723,17.71,94.6,39.6,20810.0,7448,7701,7094,7419,59.2,54.0,52.1,57.0,2.625,2.832,2.739,3.063,1.52,59.4,30.8,34.7,1014.08,-24.05,0.34,1.53,26.1,43.0,34.8,0,no_anomaly,0.0,0,0,0,0,26.9123667,75.7873164,13.2,0.0
2024-04-23T18:59:07.400Z,MISSION_0018,74,0,transit,SITE_JAI_009,26.9123671,75.7873111,13.2,199.53,0.913,0.091,3.87,-2.4649,0.1539,199.5318,-0.16961,0.00232,-0.02142,0.98528,0.0932,0.0608,-9.7848,-0.5102,0.1066,-0.1718,0.1631,3,14,0.69,0.79,0.38,24.662,18.38,94.5,39.2,20795.0,7204,7356,7390,7336,58.4,55.4,52.2,58.7,2.556,2.78,2.713,2.542,0.55,57.8,30.7,34.7,1014.07,-30.21,0.87,1.52,23.5,45.2,34.2,0,no_anomaly,0.0,0,0,0,0,26.9123671,75.7873111,13.2,0.0
2024-04-23T18:59:07.500Z,MISSION_0018,75,0,transit,SITE_JAI_009,26.9123728,75.7873132,13.2,198.87,0.785,0.113,3.36,-2.9082,-1.9768,198.8695,-0.16342,0.02117,-0.0222,0.98608,0.112,-0.0058,-9.8142,-0.0603,-0.2345,0.1389,0.0692,3,11,0.66,0.74,0.36,24.643,16.61,94.5,38.2,20780.0,7355,7417,7292,7663,59.5,57.7,53.6,59.3,2.77,2.694,2.924,2.975,1.73,56.0,30.8,34.9,1013.81,-30.45,-0.56,1.6,26.3,37.3,31.3,0,no_anomaly,0.0,0,0,0,0,26.9123728,75.7873132,13.2,0.0
2024-04-23T18:59:07.600Z,MISSION_0018,76,0,transit,SITE_JAI_009,26.9123736,75.7873144,13.2,202.38,1.103,0.109,3.35,-2.2858,-1.6377,202.3773,-0.1937,0.01789,-0.01679,0.98075,-0.1344,-0.014,-9.7679,0.4934,-0.1963,-0.5387,0.0715,3,11,0.6,0.71,0.2,24.614,19.72,94.4,38.8,20765.0,7398,7491,7309,7427,56.1,57.0,54.4,58.2,2.873,2.895,2.961,3.04,1.35,53.7,30.7,34.5,1013.96,-24.71,-0.88,1.29,24.6,46.3,32.7,0,no_anomaly,0.0,0,0,0,0,26.9123736,75.7873144,13.2,0.0
2024-04-23T18:59:07.700Z,MISSION_0018,77,0,transit,SITE_JAI_009,26.9123764,75.7873093,13.2,203.18,1.142,0.077,2.83,4.3765,-0.3265,203.1821,-0.20088,-0.00488,0.03798,0.97887,-0.013,0.0157,-9.8364,0.2669,0.4103,0.0106,0.1942,3,19,0.79,0.92,0.37,24.652,21.14,94.3,38.5,20751.0,7183,7483,7429,7617,55.6,53.0,54.2,56.7,2.776,2.795,2.68,2.7,1.02,68.9,30.8,34.5,1013.82,-28.42,1.04,1.72,26.3,40.8,33.8,0,no_anomaly,0.0,0,0,0,0,26.9123764,75.7873093,13.2,0.0
2024-04-23T18:59:07.800Z,MISSION_0018,78,0,transit,SITE_JAI_009,26.9123776,75.7873103,13.2,202.94,1.063,0.13,2.75,0.7795,-2.3779,202.9364,-0.19892,0.01898,0.01079,0.97977,-0.0024,-0.0087,-9.8136,-0.3161,0.3419,-0.2808,0.1348,3,11,0.71,0.8,0.2,24.591,14.96,94.3,38.9,20736.0,7348,7008,7288,7594,56.2,57.8,56.3,56.0,2.654,2.614,3.167,3.08,0.87,59.0,30.6,35.6,1013.85,-31.8,0.56,1.46,29.0,44.9,35.4,0,no_anomaly,0.0,0,0,0,0,26.9123776,75.7873103,13.2,0.0
2024-04-23T18:59:07.900Z,MISSION_0018,79,0,transit,SITE_JAI_009,26.9123821,75.7873089,13.2,201.24,0.446,0.22,2.23,-0.1177,-3.3338,201.2412,-0.1842,0.02878,0.00435,0.98246,-0.0688,0.0148,-9.7678,-0.2649,-0.2591,-0.1473,0.128,3,13,0.76,0.87,0.45,24.706,18.97,94.2,38.8,20721.0,7323,7565,7592,7351,55.3,57.2,55.0,54.5,2.637,2.694,2.824,3.083,0.09,53.5,30.2,35.4,1014.14,-30.38,1.42,1.17,22.4,37.3,30.1,0,no_anomaly,0.0,0,0,0,0,26.9123821,75.7873089,13.2,0.0
2024-04-23T18:59:08.000Z,MISSION_0018,80,0,transit,SITE_JAI_009,26.9123801,75.7873069,13.2,198.53,0.095,0.102,2.35,0.2069,-1.6621,198.5259,-0.16097,0.01402,0.00412,0.98685,0.1468,-0.0575,-9.8285,0.6054,-0.1561,-0.0551,0.1276,3,19,0.7,0.72,0.2,24.601,16.29,94.1,38.2,20706.0,7369,7338,7323,7356,57.9,54.8,54.2,53.6,2.524,2.723,2.912,2.454,0.94,50.0,30.6,34.6,1014.33,-26.5,-0.82,2.08,24.4,41.9,30.3,0,no_anomaly,0.0,0,0,0,0,26.9123801,75.7873069,13.2,0.0
2024-04-23T18:59:08.100Z,MISSION_0018,81,0,transit,SITE_JAI_009,26.9123841,75.7873128,13.2,198.63,0.267,0.143,2.27,1.4889,2.3955,198.6309,-0.16155,-0.02273,0.00944,0.98656,0.0545,0.0029,-9.867,0.3826,-0.0742,0.4286,0.0064,3,20,0.64,1.16,0.2,24.639,13.59,94.1,39.1,20692.0,7350,7200,7746,7380,57.6,55.9,57.0,56.4,2.758,2.87,2.807,2.875,0.17,49.4,30.8,34.4,1014.03,-28.62,-0.2,1.33,24.5,44.2,32.1,0,no_anomaly,0.0,0,0,0,0,26.9123841,75.7873128,13.2,0.0
2024-04-23T18:59:08.200Z,MISSION_0018,82,0,transit,SITE_JAI_009,26.9123838,75.7873113,13.2,198.46,0.203,0.143,2.2,0.9056,-0.3972,198.4639,-0.16045,0.00215,0.00836,0.98701,-0.1155,-0.0361,-9.7245,0.5348,-0.8354,0.0833,0.1838,3,15,0.75,1.05,0.22,24.67,17.71,94.0,39.1,20677.0,7608,7270,7676,7619,56.6,53.1,56.3,56.3,2.502,2.609,2.803,2.788,1.19,66.1,31.0,35.1,1014.02,-30.51,0.9,1.28,23.4,45.6,32.6,0,no_anomaly,0.0,0,0,0,0,26.9123838,75.7873113,13.2,0.0
2024-04-23T18:59:08.300Z,MISSION_0018,83,0,transit,SITE_JAI_009,26.9123777,75.7873102,13.2,199.45,0.0,0.184,2.72,-4.3266,-0.6423,199.4483,-0.16857,0.0119,-0.03626,0.98495,-0.031,0.0401,-9.8367,1.1655,-0.6667,-0.4083,0.0526,3,19,0.57,1.07,0.22,24.645,18.45,93.9,39.4,20662.0,7228,7421,7368,7407,55.6,54.3,54.9,55.6,2.664,2.684,2.983,2.663,0.76,55.5,30.7,34.2,1013.85,-32.05,-0.08,1.35,28.9,43.1,34.7,0,no_anomaly,0.0,0,0,0,0,26.9123777,75.7873102,13.2,0.0
2024-04-23T18:59:08.400Z,MISSION_0018,84,0,transit,SITE_JAI_009,26.9123771,75.7873141,13.2,201.7,0.334,0.093,3.0,0.6824,-4.4409,201.7006,-0.18833,0.03693,0.01314,0.98132,0.0911,-0.0026,-9.8462,0.5609,-0.2708,-0.2038,0.0931,3,20,0.53,1.13,0.2,24.678,15.39,93.9,38.6,20648.0,7491,7524,7403,7660,56.5,57.7,55.7,57.3,2.736,2.793,2.941,2.754,0.6,61.5,30.5,35.4,1013.58,-33.9,-1.37,1.46,27.0,44.6,35.4,0,no_anomaly,0.0,0,0,0,0,26.9123771,75.7873141,13.2,0.0
2024-04-23T18:59:08.500Z,MISSION_0018,85,0,transit,SITE_JAI_009,26.9123756,75.787316,13.2,202.13,1.222,0.103,3.25,-1.0936,-0.9666,202.1332,-0.19185,0.01011,-0.00775,0.98134,-0.0068,0.0328,-9.8275,0.3553,0.4123,-0.1139,0.0236,3,15,0.66,1.21,0.24,24.603,20.5,93.8,38.9,20633.0,7558,7440,7568,7377,54.8,54.7,56.0,55.0,2.679,2.654,2.592,2.894,1.68,57.9,30.3,34.5,1013.85,-36.2,-0.62,1.13,25.1,40.2,32.9,0,no_anomaly,0.0,0,0,0,0,26.9123756,75.787316,13.2,0.0
2024-04-23T18:59:08.600Z,MISSION_0018,86,0,transit,SITE_JAI_009,26.9123799,75.7873125,13.2,201.95,1.193,0.129,2.63,1.1706,-6.8567,201.9499,-0.19063,0.05676,0.02139,0.97979,0.048,-0.0275,-9.8251,0.6265,-0.633,-0.326,0.2055,3,13,0.5,0.76,0.24,24.627,16.77,93.7,39.6,20618.0,7333,7488,7357,7625,56.4,57.3,56.6,56.2,2.682,2.781,2.765,2.252,0.82,52.2,30.6,34.2,1014.05,-34.03,1.21,1.43,23.4,39.8,32.5,0,no_anomaly,0.0,0,0,0,0,26.9123799,75.7873125,13.2,0.0
2024-04-23T18:59:08.700Z,MISSION_0018,87,0,transit,SITE_JAI_009,26.9123775,75.7873113,13.2,201.68,0.906,0.193,2.8,-1.4919,-0.6079,201.6791,-0.18797,0.00766,-0.01179,0.98207,-0.0744,-0.0731,-9.8883,-0.1478,-0.7785,0.1995,0.1088,3,15,0.72,0.88,0.2,24.689,20.61,93.7,38.9,20603.0,7486,7466,7627,7157,54.8,56.0,54.8,55.8,2.977,2.949,2.677,3.186,1.3,67.1,30.7,33.9,1013.78,-30.66,-0.08,1.0,27.3,42.1,33.1,0,no_anomaly,0.0,0,0,0,0,26.9123775,75.7873113,13.2,0.0
2024-04-23T18:59:08.800Z,MISSION_0018,88,0,transit,SITE_JAI_009,26.9123825,75.7873108,13.2,202.05,1.35,0.097,2.29,2.8575,-0.4646,202.0538,-0.19131,-0.00079,0.02525,0.9812,-0.0044,0.0226,-9.8494,-0.7452,0.6933,-0.1186,0.1123,3,13,0.68,0.85,0.31,24.599,17.99,93.6,39.3,20589.0,7312,7473,7529,7368,56.0,57.5,58.5,56.8,2.834,2.601,2.764,2.737,1.78,63.9,31.0,35.7,1014.17,-30.79,-0.86,1.3,26.4,41.1,32.0,0,no_anomaly,0.0,0,0,0,0,26.9123825,75.7873108,13.2,0.0
2024-04-23T18:59:08.900Z,MISSION_0018,89,1,transit,SITE_JAI_009,26.9123834,75.7873081,13.2,201.64,1.201,0.145,2.06,-0.2292,-2.8553,201.6352,-0.18758,0.02485,0.00271,0.98193,-0.0645,0.0296,-9.8409,-0.3506,-0.0866,-0.7178,0.0205,3,14,0.89,1.03,0.43,24.53,17.59,93.5,38.3,20574.0,7821,7411,7752,7494,58.5,59.4,53.9,58.0,2.613,2.424,2.793,2.877,1.25,54.1,30.5,34.8,1013.69,-32.76,0.22,1.27,23.9,36.3,30.7,0,no_anomaly,0.0,0,0,0,0,26.9123834,75.7873081,13.2,0.0
2024-04-23T18:59:09.000Z,MISSION_0018,90,1,transit,SITE_JAI_009,26.9123858,75.7873035,13.2,199.47,1.578,0.131,1.63,-1.8236,-0.0958,199.4684,-0.16904,0.00351,-0.01554,0.98548,-0.0466,0.0586,-9.8651,0.329,-0.696,0.052,0.0876,3,12,0.66,1.0,0.2,24.685,21.71,93.5,39.0,20559.0,7390,7293,7435,7434,52.6,57.1,53.4,56.2,2.829,2.682,2.722,2.598,1.12,58.4,30.5,34.4,1014.08,-32.62,-0.65,1.56,21.3,39.3,33.0,0,no_anomaly,0.0,0,0,0,0,26.9123858,75.7873035,13.2,0.0
2024-04-23T18:59:09.100Z,MISSION_0018,91,1,transit,SITE_JAI_009,26.9123847,75.7872991,13.2,199.16,2.126,-0.007,1.71,0.1405,0.1431,199.1561,-0.16639,-0.00144,0.001,0.98606,-0.0295,-0.0086,-9.8286,0.2859,-0.5402,0.4603,0.1104,3,10,0.82,1.01,0.33,24.556,18.69,93.4,38.3,20544.0,7436,7348,7455,7183,55.4,57.8,56.2,55.2,2.61,2.888,2.567,2.725,1.11,58.8,30.6,34.1,1013.68,-33.97,0.49,1.32,25.8,36.9,29.8,0,no_anomaly,0.0,0,0,0,0,26.9123847,75.7872991,13.2,0.0
2024-04-23T18:59:09.200Z,MISSION_0018,92,1,transit,SITE_JAI_009,26.9123856,75.7873017,13.2,198.74,2.04,0.132,1.61,0.3731,-2.1633,198.7357,-0.1628,0.0181,0.00628,0.98647,-0.0492,0.0123,-9.831,-0.6424,0.0894,0.4605,0.0651,3,16,0.76,0.88,0.2,24.595,17.11,93.3,38.8,20530.0,7498,7250,7425,7384,52.2,58.6,54.4,52.7,2.578,2.908,2.679,2.923,1.17,61.0,30.7,34.8,1014.08,-26.52,1.02,1.04,28.9,37.5,32.2,0,no_anomaly,0.0,0,0,0,0,26.9123856,75.7873017,13.2,0.0
2024-04-23T18:59:09.300Z,MISSION_0018,93,1,transit,SITE_JAI_009,26.912381,75.7872971,13.2,198.99,1.867,0.138,2.14,-2.0051,-2.5022,198.9947,-0.16456,0.02442,-0.01365,0.98597,0.0648,0.056,-9.7712,0.6731,0.9499,0.0425,0.053,3,17,0.84,0.63,0.36,24.62,16.84,93.2,38.9,20515.0,7295,7513,7479,7230,54.6,57.5,54.0,55.1,2.862,2.777,2.913,2.975,1.32,59.2,30.3,34.4,1013.99,-36.45,2.51,1.65,25.0,39.0,32.4,0,no_anomaly,0.0,0,0,0,0,26.912381,75.7872971,13.2,0.0
2024-04-23T18:59:09.400Z,MISSION_0018,94,1,transit,SITE_JAI_009,26.9123809,75.7873018,13.2,199.04,1.598,0.119,2.13,0.6785,-0.9623,199.0361,-0.1654,0.0073,0.00723,0.98617,0.0198,0.0112,-9.839,0.3376,0.4161,-0.4734,0.1457,3,19,0.76,0.97,0.27,24.509,16.39,93.2,38.9,20500.0,7494,7478,7225,7160,58.6,53.2,57.4,54.6,2.621,3.016,2.593,2.577,0.5,64.7,30.8,34.1,1013.94,-24.93,1.54,2.26,26.9,39.9,36.2,0,no_anomaly,0.0,0,0,0,0,26.9123809,75.7873018,13.2,0.0
2024-04-23T18:59:09.500Z,MISSION_0018,95,1,transit,SITE_JAI_009,26.9123779,75.7873037,13.2,197.13,1.291,0.127,2.49,-0.5573,-1.4307,197.1347,-0.1489,0.01307,-0.00295,0.98876,-0.0493,-0.0723,-9.7514,0.6838,-0.8563,-0.1007,0.1142,3,18,0.52,1.08,0.28,24.603,16.17,93.1,39.3,20486.0,7670,7650,7278,7431,56.3,53.7,55.4,55.9,3.051,2.495,2.638,2.894,0.49,64.2,31.1,35.8,1013.92,-31.01,-0.82,1.45,27.5,38.1,33.5,0,no_anomaly,0.0,0,0,0,0,26.9123779,75.7873037,13.2,0.0
2024-04-23T18:59:09.600Z,MISSION_0018,96,1,transit,SITE_JAI_009,26.9123783,75.7873062,13.2,198.17,1.182,0.086,2.52,2.4877,0.1296,198.1674,-0.15782,-0.00454,0.02126,0.98723,0.0433,-0.0193,-9.7537,-0.3133,-0.2849,-0.0925,0.1129,3,12,0.73,0.72,0.27,24.564,18.53,93.0,39.3,20471.0,7404,7410,7531,7391,57.6,55.4,56.2,59.1,2.669,2.907,2.666,2.918,1.27,59.4,30.6,34.7,1014.25,-31.39,-0.84,2.09,26.8,36.4,34.3,0,no_anomaly,0.0,0,0,0,0,26.9123783,75.7873062,13.2,0.0
2024-04-23T18:59:09.700Z,MISSION_0018,97,1,transit,SITE_JAI_009,26.9123835,75.7873054,13.2,199.31,1.468,0.054,1.93,0.9967,-2.5923,199.3078,-0.16784,0.02084,0.01237,0.98552,0.0243,0.0429,-9.7641,-0.3361,0.3999,-0.3886,0.0445,3,14,0.65,0.74,0.35,24.575,21.32,93.0,39.9,20456.0,7583,7373,7405,7163,53.3,58.1,57.7,55.6,2.772,2.739,3.009,2.914,1.07,64.9,30.5,35.6,1013.96,-33.44,1.21,1.8,26.4,43.0,36.6,0,no_anomaly,0.0,0,0,0,0,26.9123835,75.7873054,13.2,0.0
2024-04-23T18:59:09.800Z,MISSION_0018,98,1,transit,SITE_JAI_009,26.9123828,75.7873008,13.2,201.68,1.633,0.051,1.92,1.9617,-2.7864,201.6817,-0.18841,0.02066,0.02138,0.98164,-0.0943,-0.0085,-9.8803,-0.1117,-0.1461,0.551,0.0494,3,18,0.62,0.76,0.21,24.587,20.71,92.9,38.4,20441.0,7415,7543,7221,7455,55.8,57.3,54.7,57.3,2.502,2.753,2.859,2.748,1.49,69.0,30.9,35.0,1014.5,-32.93,1.95,1.66,28.4,40.5,34.1,0,no_anomaly,0.0,0,0,0,0,26.9123828,75.7873008,13.2,0.0
2024-04-23T18:59:09.900Z,MISSION_0018,99,1,transit,SITE_JAI_009,26.9123771,75.7873015,13.2,201.87,1.838,0.043,2.55,-0.1693,-2.253,201.8733,-0.18966,0.01958,0.00228,0.98165,0.0147,-0.0689,-9.7789,0.6554,-0.1063,-0.4147,0.1725,3,17,0.6,0.83,0.2,24.604,15.74,92.8,39.1,20427.0,7593,7529,7338,7486,56.7,57.8,56.5,56.1,2.641,2.891,3.236,2.979,0.11,61.6,30.9,35.3,1013.54,-30.13,0.67,1.62,24.9,37.2,33.2,0,no_anomaly,0.0,0,0,0,0,26.9123771,75.7873015,13.2,0.0
2024-04-23T18:59:10.000Z,MISSION_0018,100,1,transit,SITE_JAI_009,26.9123783,75.7872985,13.2,203.44,1.469,0.084,2.43,-2.6937,1.0072,203.4393,-0.20326,-0.00383,-0.0248,0.9788,-0.0697,-0.0392,-9.8864,1.0438,-0.2228,0.0953,0.1195,3,12,0.69,0.77,0.2,24.555,19.47,92.8,39.5,20412.0,7489,7179,7516,7324,55.2,52.2,52.8,53.5,2.682,2.755,2.979,2.929,1.61,64.0,30.7,34.6,1013.74,-25.32,0.01,1.55,25.3,39.8,31.6,0,no_anomaly,0.0,0,0,0,0,26.9123783,75.7872985,13.2,0.0
2024-04-23T18:59:10.100Z,MISSION_0018,101,1,transit,SITE_JAI_009,26.9123798,75.7872998,13.2,205.23,1.615,0.094,2.25,-2.9817,-0.238,205.2294,-0.21827,0.00771,-0.02494,0.97554,-0.0924,-0.0065,-9.7213,0.3659,0.1579,-0.1847,0.1876,3,14,0.73,0.86,0.44,24.668,20.38,92.7,39.5,20397.0,7759,7591,7566,7445,56.8,57.2,54.6,57.0,2.891,3.066,2.803,2.883,0.44,59.8,30.9,34.5,1013.85,-32.72,0.96,1.0,22.2,45.1,31.7,0,no_anomaly,0.0,0,0,0,0,26.9123798,75.7872998,13.2,0.0
2024-04-23T18:59:10.200Z,MISSION_0018,102,1,transit,SITE_JAI_009,26.9123817,75.7872975,13.2,203.73,1.159,0.103,2.05,-0.5929,-2.1879,203.7274,-0.20545,0.01975,-0.00114,0.97847,-0.0912,-0.0086,-9.7533,-0.8058,0.4615,-0.1003,0.1555,3,11,0.71,0.8,0.31,24.685,22.13,92.6,39.3,20382.0,7401,7287,7518,7502,57.8,54.8,56.5,57.7,2.703,2.747,2.846,2.809,1.97,58.7,30.9,34.7,1013.68,-29.29,0.0,1.48,25.4,44.5,33.8,0,no_anomaly,0.0,0,0,0,0,26.9123817,75.7872975,13.2,0.0
2024-04-23T18:59:10.300Z,MISSION_0018,103,1,transit,SITE_JAI_009,26.9123782,75.7872998,13.2,202.11,1.403,0.057,2.43,0.8723,-3.8764,202.1125,-0.19191,0.03173,0.01395,0.9808,-0.0701,0.0629,-9.8001,0.4067,0.0913,-0.2135,0.0756,3,18,0.74,0.99,0.43,24.605,19.91,92.6,38.7,20368.0,7727,7312,7396,7474,56.5,53.4,55.0,56.6,2.699,2.592,2.994,2.805,1.16,59.9,30.7,33.9,1013.97,-29.57,0.22,1.43,23.5,45.8,32.0,0,no_anomaly,0.0,0,0,0,0,26.9123782,75.7872998,13.2,0.0
2024-04-23T18:59:10.400Z,MISSION_0018,104,1,transit,SITE_JAI_009,26.912374,75.7872965,13.2,202.78,1.319,0.096,2.92,0.4442,-3.3294,202.782,-0.19753,0.02771,0.00954,0.97986,0.1382,0.1081,-9.8622,0.6365,-0.1142,0.2515,0.0331,3,11,0.76,0.9,0.41,24.68,16.8,92.5,39.1,20353.0,7457,7370,7627,7347,56.3,56.4,55.4,57.8,2.82,2.964,2.9,2.841,1.16,55.4,31.0,34.3,1014.06,-32.81,-0.18,1.33,26.8,39.7,31.3,0,no_anomaly,0.0,0,0,0,0,26.912374,75.7872965,13.2,0.0
2024-04-23T18:59:10.500Z,MISSION_0018,105,1,transit,SITE_JAI_009,26.912377,75.7872954,13.2,203.69,1.43,0.107,2.61,-0.5568,-3.1045,203.6904,-0.20506,0.02751,0.00081,0.97836,-0.0442,0.0571,-9.8463,-0.461,-0.1558,-0.5737,0.0383,3,20,0.82,1.11,0.42,24.606,19.5,92.4,38.8,20338.0,7373,7442,7257,7421,55.1,53.7,55.4,57.5,2.551,2.937,2.976,2.662,0.75,58.2,30.5,34.1,1014.21,-30.6,1.1,1.34,26.3,41.2,33.5,0,no_anomaly,0.0,0,0,0,0,26.912377,75.7872954,13.2,0.0
2024-04-23T18:59:10.600Z,MISSION_0018,106,1,transit,SITE_JAI_009,26.9123821,75.7872918,13.2,202.57,1.287,0.047,2.19,1.4513,-1.8385,202.575,-0.19589,0.01325,0.01556,0.98041,0.0638,0.0612,-9.779,-0.4394,0.2788,-0.0055,0.0722,3,11,0.51,1.22,0.24,24.607,20.05,92.4,39.9,20323.0,7438,7415,7519,7480,54.9,55.9,57.2,58.1,2.547,2.92,2.819,2.908,0.82,59.2,30.9,35.2,1013.94,-28.21,-1.25,1.38,27.0,46.2,36.5,0,no_anomaly,0.0,0,0,0,0,26.9123821,75.7872918,13.2,0.0
2024-04-23T18:59:10.700Z,MISSION_0018,107,1,orbit_base,SITE_JAI_009,26.9123202,75.7872945,13.5,201.57,1.2,0.079,8.91,-0.7514,-1.6858,201.5709,-0.18701,0.01568,-0.00369,0.98223,0.0491,0.0719,-9.8466,0.1538,0.1058,0.0057,0.0661,3,14,0.63,0.89,0.2,24.64,21.06,92.3,39.5,20309.0,7528,7201,7467,7358,57.1,57.4,62.0,53.8,2.792,2.753,2.952,2.768,0.41,64.0,30.7,35.3,1013.65,-30.9,-1.79,1.41,24.7,44.3,33.0,0,no_anomaly,0.0,0,0,0,0,26.9123202,75.7872945,13.5,0.0
2024-04-23T18:59:10.800Z,MISSION_0018,108,1,orbit_base,SITE_JAI_009,26.9123204,75.7872921,13.8,200.47,1.33,0.219,8.91,-0.2836,-2.7136,200.4666,-0.17755,0.02374,0.00177,0.98382,0.0686,0.0526,-9.7928,-0.0895,-0.3238,-0.0853,0.1233,3,13,0.68,0.75,0.32,24.638,17.31,92.2,38.6,20294.0,7289,7380,7179,7484,57.7,55.8,55.2,56.1,2.705,2.757,2.725,2.797,1.8,64.4,31.1,34.3,1013.88,-34.82,-0.46,1.4,23.6,39.8,34.2,0,no_anomaly,0.0,0,0,0,0,26.9123204,75.7872921,13.8,0.0
2024-04-23T18:59:10.900Z,MISSION_0018,109,1,orbit_base,SITE_JAI_009,26.9123207,75.7872898,14.1,200.42,1.129,0.119,8.91,3.6318,-2.1535,200.4182,-0.17771,0.01287,0.03451,0.98339,-0.0628,0.0457,-9.7778,0.2348,-0.1751,0.3806,0.1006,3,17,0.7,0.66,0.28,24.606,17.13,92.2,39.1,20279.0,7449,7437,7573,7622,49.9,56.8,53.2,59.5,2.721,2.789,2.506,2.632,1.21,57.2,30.8,34.2,1013.89,-25.9,0.35,1.53,24.7,35.8,34.1,0,no_anomaly,0.0,0,0,0,0,26.9123207,75.7872898,14.1,0.0
2024-04-23T18:59:11.000Z,MISSION_0018,110,1,orbit_base,SITE_JAI_009,26.912321,75.7872874,14.4,200.33,1.347,0.087,8.91,-0.7185,-1.8243,200.329,-0.17635,0.01678,-0.00336,0.98418,-0.0685,-0.0149,-9.7735,0.0784,0.3396,0.1463,0.1826,3,19,0.61,0.76,0.2,24.548,21.76,92.1,38.7,20265.0,7668,7542,7312,7255,51.9,54.8,57.6,56.7,2.805,2.693,2.843,2.75,0.58,61.0,31.0,34.5,1014.13,-31.65,0.64,1.0,25.2,43.1,32.6,0,no_anomaly,0.0,0,0,0,0,26.912321,75.7872874,14.4,0.0
2024-04-23T18:59:11.100Z,MISSION_0018,111,1,orbit_base,SITE_JAI_009,26.9123214,75.787285,14.7,199.61,1.211,0.103,8.91,-0.5804,-1.7294,199.6054,-0.17016,0.01573,-0.00242,0.98529,0.0868,0.1297,-9.8091,-1.2453,-0.3112,0.073,0.1138,3,15,0.72,0.6,0.32,24.561,14.25,92.0,38.6,20250.0,7531,7541,7861,7394,53.9,56.4,58.4,54.0,2.684,2.709,2.86,2.777,1.65,58.2,30.5,35.0,1014.04,-34.21,1.68,1.72,24.2,36.5,34.9,0,no_anomaly,0.0,0,0,0,0,26.9123214,75.787285,14.7,0.0
2024-04-23T18:59:11.200Z,MISSION_0018,112,1,orbit_base,SITE_JAI_009,26.9123219,75.7872827,15.0,197.68,1.221,0.126,8.91,1.0238,-1.5705,197.6777,-0.15376,0.01217,0.01093,0.98797,0.0321,-0.0118,-9.8431,-0.0827,-0.6173,-0.1042,0.1097,3,12,0.81,1.13,0.27,24.585,21.64,92.0,39.0,20235.0,7450,7716,7463,7223,62.7,55.5,55.4,53.2,2.874,2.933,2.909,2.989,1.06,58.0,31.0,34.5,1014.13,-27.09,-0.39,1.11,25.1,36.9,32.6,0,no_anomaly,0.0,0,0,0,0,26.9123219,75.7872827,15.0,0.0
2024-04-23T18:59:11.300Z,MISSION_0018,113,1,orbit_base,SITE_JAI_009,26.9123225,75.7872803,15.3,198.72,0.982,0.126,8.91,0.6375,-0.7675,198.7169,-0.16264,0.0057,0.00658,0.98665,-0.0434,-0.0764,-9.8299,-0.01,0.0868,-0.1644,0.0725,3,14,0.66,0.91,0.27,24.657,18.54,91.9,38.4,20220.0,7647,7273,7336,7349,58.8,58.8,59.5,53.5,2.68,2.691,2.978,2.85,0.72,56.2,30.5,34.3,1013.97,-29.12,0.54,2.06,25.9,38.0,32.7,0,no_anomaly,0.0,0,0,0,0,26.9123225,75.7872803,15.3,0.0
2024-04-23T18:59:11.400Z,MISSION_0018,114,1,orbit_base,SITE_JAI_009,26.9123231,75.787278,15.6,198.71,0.709,0.151,8.91,-1.2062,-2.6061,198.7138,-0.1623,0.02415,-0.00669,0.98642,0.0575,-0.0335,-9.8714,-0.4783,0.45,0.111,0.1504,3,16,0.75,0.99,0.21,24.623,18.15,91.8,38.3,20206.0,7510,7347,7559,7502,55.8,56.4,55.8,56.5,2.754,2.952,2.662,2.89,1.32,59.2,30.9,34.2,1014.0,-27.77,1.09,1.09,24.2,41.6,35.7,0,no_anomaly,0.0,0,0,0,0,26.9123231,75.787278,15.6,0.0
2024-04-23T18:59:11.500Z,MISSION_0018,115,1,orbit_base,SITE_JAI_009,26.9123238,75.7872757,15.9,195.74,0.981,0.052,8.91,0.3855,-0.3156,195.7383,-0.13692,0.00227,0.00371,0.99057,-0.1166,-0.0488,-9.8023,0.6201,0.3377,0.0743,0.0859,3,12,0.76,0.97,0.39,24.536,21.63,91.8,38.7,20191.0,7571,7607,7499,7381,56.9,58.4,58.6,55.1,2.87,2.978,2.843,2.875,0.9,51.3,30.7,34.2,1013.91,-27.61,0.48,1.16,26.3,42.9,33.7,0,no_anomaly,0.0,0,0,0,0,26.9123238,75.7872757,15.9,0.0
2024-04-23T18:59:11.600Z,MISSION_0018,116,1,orbit_base,SITE_JAI_009,26.9123245,75.7872734,16.2,192.21,1.117,0.111,8.91,0.0135,1.6726,192.2123,-0.10636,-0.01453,-0.00144,0.99422,0.0994,0.0832,-9.8149,0.4757,0.5052,0.5435,0.1223,3,14,0.67,0.78,0.27,24.671,19.04,91.7,39.6,20176.0,7538,7234,7201,7448,55.0,57.3,56.0,57.9,2.641,2.889,2.928,2.752,1.51,59.9,30.7,34.5,1013.78,-31.12,2.25,1.22,22.8,37.8,31.5,0,no_anomaly,0.0,0,0,0,0,26.9123245,75.7872734,16.2,0.0
2024-04-23T18:59:11.700Z,MISSION_0018,117,1,orbit_base,SITE_JAI_009,26.9123254,75.7872712,16.5,193.47,1.248,0.169,8.91,1.086,-2.2547,193.4709,-0.11744,0.01843,0.01172,0.99284,0.0325,-0.002,-9.7926,0.0441,-1.3999,0.0868,0.1857,3,11,0.84,0.97,0.31,24.483,19.67,91.6,38.9,20161.0,7578,7461,7452,7565,54.9,55.2,56.0,59.0,2.704,2.87,2.763,2.777,1.51,70.0,30.6,33.3,1013.85,-29.6,-1.78,1.76,25.7,46.0,35.3,0,no_anomaly,0.0,0,0,0,0,26.9123254,75.7872712,16.5,0.0
2024-04-23T18:59:11.800Z,MISSION_0018,118,1,orbit_base,SITE_JAI_009,26.9123263,75.787269,16.8,193.42,0.394,0.132,8.91,-1.7345,-0.132,193.4176,-0.11679,0.00291,-0.0149,0.99304,-0.006,0.0769,-9.7076,0.5034,0.6629,-0.8788,0.077,3,15,0.57,0.76,0.23,24.526,22.17,91.6,38.8,20147.0,7344,7374,7523,7418,57.6,50.6,55.5,53.4,2.987,2.745,2.868,2.588,0.48,53.5,30.7,34.4,1014.03,-29.18,-1.2,1.65,25.8,40.5,32.3,0,no_anomaly,0.0,0,0,0,0,26.9123263,75.787269,16.8,0.0
2024-04-23T18:59:11.900Z,MISSION_0018,119,1,orbit_base,SITE_JAI_009,26.9123272,75.7872668,17.1,193.74,0.342,0.142,8.91,-0.4782,-1.856,193.7417,-0.11955,0.01658,-0.0022,0.99269,-0.0122,0.045,-9.739,-0.1118,-0.0738,-0.2837,0.1249,3,19,0.78,1.09,0.32,24.595,17.2,91.5,39.7,20132.0,7617,7374,7469,7539,55.9,54.3,58.1,55.3,2.764,3.06,2.878,2.996,1.3,59.4,30.9,34.7,1013.77,-27.82,1.04,1.51,25.8,42.0,32.2,0,no_anomaly,0.0,0,0,0,0,26.9123272,75.7872668,17.1,0.0
2024-04-23T18:59:12.000Z,MISSION_0018,120,1,orbit_base,SITE_JAI_009,26.9123283,75.7872646,17.4,193.23,0.0,0.191,8.91,0.689,-5.8893,193.2311,-0.11536,0.05034,0.01188,0.99198,0.0022,-0.007,-9.8195,-0.5566,0.4032,0.5739,0.1171,3,15,0.63,0.6,0.28,24.634,19.88,91.4,38.1,20117.0,7454,7652,7441,7394,55.4,59.4,54.1,53.6,2.981,2.872,2.992,2.56,1.3,63.6,31.0,35.7,1013.67,-29.4,1.29,1.56,27.2,42.7,33.6,0,no_anomaly,0.0,0,0,0,0,26.9123283,75.7872646,17.4,0.0
2024-04-23T18:59:12.100Z,MISSION_0018,121,1,orbit_base,SITE_JAI_009,26.9123294,75.7872625,17.7,193.22,0.0,0.048,8.91,2.2069,-2.494,193.2249,-0.11552,0.0194,0.02163,0.99288,0.0786,0.0391,-9.8045,0.0027,-0.8131,0.1028,0.0608,3,16,0.69,0.66,0.27,24.579,15.59,91.4,39.1,20103.0,7332,7421,7543,7484,58.9,57.7,57.8,55.2,2.799,2.715,2.662,2.737,1.55,63.1,31.0,34.9,1013.77,-32.69,-0.67,1.44,25.7,43.6,33.1,0,no_anomaly,0.0,0,0,0,0,26.9123294,75.7872625,17.7,0.0
2024-04-23T18:59:12.200Z,MISSION_0018,122,1,orbit_base,SITE_JAI_009,26.9123305,75.7872604,18.0,193.73,0.287,0.101,8.91,2.1527,-0.4182,193.7286,-0.11956,0.00138,0.01909,0.99264,0.1411,0.0858,-9.9094,0.3062,-0.4343,0.1824,0.1242,3,15,0.77,0.74,0.2,24.664,21.34,91.3,39.0,20088.0,7469,7878,7487,7720,56.2,55.2,54.4,55.2,2.949,2.972,2.923,3.025,1.37,56.2,30.6,35.5,1014.13,-25.91,0.59,1.23,23.2,40.4,32.1,0,no_anomaly,0.0,0,0,0,0,26.9123305,75.7872604,18.0,0.0
2024-04-23T18:59:12.300Z,MISSION_0018,123,1,orbit_base,SITE_JAI_009,26.9123317,75.7872583,18.3,196.05,0.651,0.099,8.91,2.7693,-3.0186,196.0502,-0.14015,0.0227,0.0276,0.98949,0.1559,0.0148,-9.8318,-0.1501,0.2306,-0.1465,0.0913,3,10,0.64,1.01,0.21,24.61,19.14,91.2,39.4,20073.0,7786,7471,7597,7633,59.0,58.4,54.2,56.0,2.602,2.712,2.468,2.805,0.7,66.3,30.8,35.1,1013.94,-29.75,0.35,1.61,27.3,40.6,35.6,0,no_anomaly,0.0,0,0,0,0,26.9123317,75.7872583,18.3,0.0
2024-04-23T18:59:12.400Z,MISSION_0018,124,1,orbit_base,SITE_JAI_009,26.912333,75.7872563,18.6,193.24,0.632,0.199,8.91,2.8263,-0.8532,193.2399,-0.11543,0.00455,0.02536,0.99298,-0.0935,0.0091,-9.8748,0.0355,0.0547,-0.4558,0.0373,3,14,0.78,0.85,0.37,24.555,18.0,91.2,38.5,20058.0,7578,7437,7589,7619,53.8,57.0,52.9,57.7,2.938,2.819,2.737,2.771,0.88,53.8,31.0,34.3,1013.61,-31.15,0.26,1.61,28.9,41.4,36.0,0,no_anomaly,0.0,0,0,0,0,26.912333,75.7872563,18.6,0.0
2024-04-23T18:59:12.500Z,MISSION_0018,125,1,orbit_base,SITE_JAI_009,26.9123344,75.7872543,18.9,193.92,0.538,0.133,8.91,1.7757,-0.9886,193.9172,-0.12127,0.00669,0.01643,0.99246,-0.1081,0.0031,-9.7521,0.1457,0.3842,0.5721,0.1151,3,14,0.72,0.71,0.24,24.585,14.79,91.1,39.3,20044.0,7552,7461,7536,7319,53.4,53.6,54.6,57.0,2.758,2.754,2.787,2.667,0.98,58.0,31.1,34.1,1013.67,-28.53,1.31,2.38,25.2,40.5,35.6,0,no_anomaly,0.0,0,0,0,0,26.9123344,75.7872543,18.9,0.0
2024-04-23T18:59:12.600Z,MISSION_0018,126,1,orbit_base,SITE_JAI_009,26.9123358,75.7872523,19.2,197.18,0.475,0.124,8.91,0.6572,1.8407,197.1832,-0.14928,-0.01674,0.00327,0.98865,-0.0152,0.004,-9.7308,-1.2625,0.8126,0.0317,0.1222,3,17,0.74,0.68,0.41,24.568,18.2,91.0,39.4,20029.0,7564,7403,7439,7499,54.4,56.5,53.6,54.7,2.759,2.568,2.948,2.833,2.07,69.3,30.4,34.4,1013.7,-29.88,-0.8,1.41,24.9,42.3,32.9,0,no_anomaly,0.0,0,0,0,0,26.9123358,75.7872523,19.2,0.0
2024-04-23T18:59:12.700Z,MISSION_0018,127,1,orbit_base,SITE_JAI_009,26.9123372,75.7872504,19.5,197.98,0.437,0.064,8.91,-2.7018,-1.3208,197.9833,-0.15597,0.01507,-0.02148,0.98741,0.0136,-0.0032,-9.8647,-0.0084,0.4871,0.4091,0.0524,3,17,0.81,0.9,0.31,24.56,14.25,91.0,38.9,20014.0,7360,7477,7507,7526,57.6,58.5,55.0,54.4,2.908,2.624,2.968,2.815,0.93,57.9,30.9,34.9,1014.31,-31.51,0.35,1.7,22.7,43.4,34.0,0,no_anomaly,0.0,0,0,0,0,26.9123372,75.7872504,19.5,0.0
2024-04-23T18:59:12.800Z,MISSION_0018,128,1,orbit_base,SITE_JAI_009,26.9123387,75.7872486,19.8,198.91,0.848,0.111,8.91,-0.7488,-1.3292,198.9141,-0.16422,0.01251,-0.00454,0.98633,-0.0665,0.0476,-9.7183,-0.76,-0.5604,-0.0627,0.1886,3,16,0.57,1.13,0.2,24.467,16.43,90.9,39.5,19999.0,7490,7678,7483,7493,62.1,58.2,55.4,55.2,2.939,2.509,2.724,2.81,1.27,63.7,30.6,34.7,1014.09,-28.78,-0.04,1.25,26.3,44.3,34.1,0,no_anomaly,0.0,0,0,0,0,26.9123387,75.7872486,19.8,0.0
2024-04-23T18:59:12.900Z,MISSION_0018,129,1,orbit_base,SITE_JAI_009,26.9123403,75.7872467,20.1,200.43,1.075,0.217,8.91,3.2404,-3.5972,200.4265,-0.17803,0.02587,0.03337,0.98312,-0.0253,-0.0417,-9.8508,-0.3379,0.2354,0.5255,0.1617,3,20,0.62,0.98,0.25,24.617,17.5,90.8,39.6,19985.0,7234,7447,7277,7604,56.4,57.5,58.5,53.8,2.906,2.972,2.823,2.616,0.68,59.0,31.0,35.1,1013.47,-34.91,2.77,1.21,21.7,44.3,33.5,0,no_anomaly,0.0,0,0,0,0,26.9123403,75.7872467,20.1,0.0
