timestamp_utc,mission_id,frame_id,waypoint_id,inspection_phase,site_id,latitude_deg,longitude_deg,altitude_m,heading_deg,ground_speed_ms,vertical_speed_ms,distance_to_tower_m,roll_deg,pitch_deg,yaw_deg,quat_w,quat_x,quat_y,quat_z,accel_x_ms2,accel_y_ms2,accel_z_ms2,gyro_x_rads,gyro_y_rads,gyro_z_rads,vibration_level,gps_fix_type,gps_satellite_count,gps_hdop,gps_vdop,position_error_m,battery_voltage_v,battery_current_a,battery_remaining_pct,battery_temp_c,battery_capacity_mah,motor_fl_rpm,motor_fr_rpm,motor_rl_rpm,motor_rr_rpm,motor_fl_temp_c,motor_fr_temp_c,motor_rl_temp_c,motor_rr_temp_c,motor_fl_thrust_n,motor_fr_thrust_n,motor_rl_thrust_n,motor_rr_thrust_n,wind_speed_ms,wind_dir_deg,air_temp_c,humidity_pct,pressure_hpa,gimbal_pitch_deg,gimbal_roll_deg,zoom_factor,ir_temp_min_c,ir_temp_max_c,ir_temp_avg_c,anomaly_detected,anomaly_class,anomaly_confidence,anomaly_bbox_x,anomaly_bbox_y,anomaly_bbox_w,anomaly_bbox_h,anomaly_gps_lat,anomaly_gps_lon,anomaly_gps_alt_m,ir_temp_delta_c
2024-04-06T16:50:00.000Z,MISSION_0056,0,0,takeoff,SITE_PUN_007,18.5204014,73.8566983,1.5,318.65,0.0,0.18,0.25,-0.5833,-0.526,318.6495,-0.93557,0.00638,0.0025,0.35308,-0.0657,-0.0423,-9.7635,0.215,0.4011,-0.3473,0.2743,3,16,0.78,0.71,0.43,24.861,20.05,98.2,35.9,21602.0,8961,8746,8715,8856,50.4,53.6,56.6,54.4,2.699,2.882,2.845,2.842,4.06,102.9,28.7,52.9,1008.53,-33.41,-1.44,1.09,22.7,40.7,33.0,0,no_anomaly,0.0,0,0,0,0,18.5204014,73.8566983,1.5,0.0
2024-04-06T16:50:00.100Z,MISSION_0056,1,0,takeoff,SITE_PUN_007,18.5204022,73.8566942,3.0,322.31,0.0,0.117,0.69,1.8762,-1.7538,322.308,-0.94623,-0.01055,0.01977,0.32271,0.1695,0.0114,-9.8338,-1.0455,0.6442,0.0895,0.16,3,18,0.74,1.35,0.34,24.712,15.85,98.1,36.6,21589.0,8840,8934,8944,8794,52.9,53.9,56.4,48.8,2.798,2.46,2.901,3.036,3.53,123.4,28.5,53.8,1008.46,-26.46,-0.31,1.58,22.9,36.5,30.1,0,no_anomaly,0.0,0,0,0,0,18.5204022,73.8566942,3.0,0.0
2024-04-06T16:50:00.200Z,MISSION_0056,2,0,takeoff,SITE_PUN_007,18.5204001,73.856695,4.5,319.83,0.0,0.13,0.56,3.3863,-3.0435,319.8313,-0.93872,-0.01862,0.03507,0.3424,0.0885,0.0534,-9.8602,-0.3257,-0.3009,0.5341,0.1169,3,18,0.73,0.86,0.23,24.789,26.66,98.1,36.0,21577.0,8690,8915,8965,8862,53.0,57.5,53.1,55.4,2.957,2.957,2.602,3.011,3.7,104.5,28.4,52.8,1008.65,-31.01,0.92,1.4,20.7,37.5,27.7,0,no_anomaly,0.0,0,0,0,0,18.5204001,73.856695,4.5,0.0
2024-04-06T16:50:00.300Z,MISSION_0056,3,0,takeoff,SITE_PUN_007,18.5203988,73.8566913,5.0,317.9,0.164,0.179,0.98,-3.6165,-1.3904,317.904,-0.93261,0.0338,-1e-05,0.3593,-0.1639,-0.0378,-9.814,-0.304,0.0672,0.2254,0.1281,3,13,0.69,0.7,0.26,24.75,17.12,98.0,37.1,21565.0,8928,8663,8692,8620,57.1,53.3,51.3,51.7,2.643,2.801,2.721,2.913,3.97,108.9,28.3,53.1,1008.58,-29.5,0.62,1.85,20.4,40.2,28.7,0,no_anomaly,0.0,0,0,0,0,18.5203988,73.8566913,5.0,0.0
2024-04-06T16:50:00.400Z,MISSION_0056,4,0,takeoff,SITE_PUN_007,18.5204036,73.8566893,5.0,317.28,0.084,0.166,1.25,1.7604,-1.4657,317.2786,-0.93119,-0.00965,0.0175,0.36398,-0.1808,-0.0365,-9.7762,-0.4114,1.1516,0.3195,0.1305,3,15,0.51,1.12,0.23,24.772,15.15,98.0,37.0,21552.0,8885,8864,9116,8891,53.7,54.2,56.6,55.6,2.834,3.213,2.923,2.626,3.23,115.0,28.7,53.0,1008.05,-28.44,0.19,1.64,22.0,38.6,30.4,0,no_anomaly,0.0,0,0,0,0,18.5204036,73.8566893,5.0,0.0
2024-04-06T16:50:00.500Z,MISSION_0056,5,0,takeoff,SITE_PUN_007,18.5204025,73.8566938,5.0,319.06,0.279,0.023,0.74,-1.0658,-3.1019,319.0602,-0.93638,0.01817,0.0221,0.34981,0.1457,0.038,-9.8114,0.0047,0.2495,-0.1297,0.1199,3,20,0.73,0.98,0.35,24.721,16.57,97.9,36.6,21540.0,8920,8872,9131,8904,53.3,56.2,58.5,53.2,3.205,2.461,2.944,2.686,4.79,103.7,28.5,52.1,1008.14,-31.36,1.83,1.01,24.5,35.3,32.2,0,no_anomaly,0.0,0,0,0,0,18.5204025,73.8566938,5.0,0.0
2024-04-06T16:50:00.600Z,MISSION_0056,6,0,takeoff,SITE_PUN_007,18.5204058,73.8566918,5.0,318.34,0.0,0.064,1.12,-3.3933,-0.6426,318.3371,-0.93415,0.02967,-0.00529,0.35561,-0.0392,0.0315,-9.8198,-0.0041,0.4959,-0.3024,0.2038,3,10,0.76,0.92,0.44,24.715,16.88,97.9,35.7,21528.0,8834,8829,8585,8897,54.2,55.2,52.4,55.4,2.616,2.622,2.6,2.86,2.87,118.9,28.4,52.5,1008.3,-32.68,0.17,1.18,25.7,32.8,30.2,0,no_anomaly,0.0,0,0,0,0,18.5204058,73.8566918,5.0,0.0
2024-04-06T16:50:00.700Z,MISSION_0056,7,0,takeoff,SITE_PUN_007,18.5204096,73.8566913,5.0,319.76,0.575,0.104,1.44,-0.6704,-3.0359,319.7554,-0.93856,0.0146,0.02286,0.34404,0.0644,0.0348,-9.8025,0.1779,0.4945,-0.1325,0.208,3,13,0.8,1.07,0.24,24.737,13.9,97.8,35.4,21516.0,8719,8913,8865,8993,52.4,52.2,56.1,53.8,2.596,2.721,2.791,2.628,4.31,118.0,28.5,51.8,1008.36,-35.02,1.15,1.94,24.7,40.2,29.6,0,no_anomaly,0.0,0,0,0,0,18.5204096,73.8566913,5.0,0.0
2024-04-06T16:50:00.800Z,MISSION_0056,8,0,takeoff,SITE_PUN_007,18.5204047,73.8566967,5.0,317.61,0.329,0.05,0.64,1.4288,-3.7835,317.6147,-0.93194,0.00031,0.03528,0.3609,0.0924,-0.0415,-9.7917,-0.1523,-0.4799,0.182,0.0648,3,19,0.68,0.65,0.2,24.71,20.69,97.7,36.2,21503.0,8583,9018,8694,8748,54.0,53.8,56.9,52.7,3.135,2.873,3.015,2.817,4.14,107.1,28.3,51.9,1008.59,-23.94,0.41,1.19,23.6,42.2,28.4,0,no_anomaly,0.0,0,0,0,0,18.5204047,73.8566967,5.0,0.0
2024-04-06T16:50:00.900Z,MISSION_0056,9,0,takeoff,SITE_PUN_007,18.5204078,73.8566923,5.0,317.04,0.063,0.148,1.22,-6.1729,-1.5194,317.041,-0.92886,0.05495,-0.00739,0.36627,-0.1124,-0.0396,-9.7287,0.2037,0.8021,0.0392,0.1747,3,15,0.65,0.67,0.2,24.761,18.03,97.7,36.9,21491.0,8784,8675,8735,8943,51.1,54.5,53.7,54.3,2.786,2.493,2.696,3.041,3.67,115.2,28.4,52.2,1008.59,-30.54,1.68,1.61,21.7,41.4,30.2,0,no_anomaly,0.0,0,0,0,0,18.5204078,73.8566923,5.0,0.0
2024-04-06T16:50:01.000Z,MISSION_0056,10,0,takeoff,SITE_PUN_007,18.5204059,73.8566963,5.0,316.91,0.0,0.166,0.78,-1.0977,-0.5176,316.9123,-0.93007,0.01057,0.00068,0.36723,0.0367,0.0979,-9.7749,-0.4662,0.6448,-0.2431,0.1861,3,11,0.91,0.75,0.2,24.771,11.46,97.6,36.2,21479.0,8820,8715,8767,8721,52.1,52.6,54.8,53.1,2.798,2.766,3.064,2.847,4.25,111.1,28.5,52.7,1008.24,-30.06,0.53,1.23,24.9,32.9,28.4,0,no_anomaly,0.0,0,0,0,0,18.5204059,73.8566963,5.0,0.0
2024-04-06T16:50:01.100Z,MISSION_0056,11,0,takeoff,SITE_PUN_007,18.5204072,73.8567011,5.0,316.29,0.247,0.075,0.81,-0.0043,-3.4481,316.2877,-0.9277,0.01124,0.02791,0.37211,0.0125,0.0836,-9.8094,0.4966,0.2065,0.2434,0.1381,3,18,0.66,1.01,0.23,24.803,17.85,97.6,35.6,21467.0,8803,8658,9064,8867,53.9,52.7,52.3,52.4,2.71,2.739,2.942,2.849,4.14,104.0,28.4,52.9,1008.25,-30.89,0.13,1.17,22.7,42.0,29.8,0,no_anomaly,0.0,0,0,0,0,18.5204072,73.8567011,5.0,0.0
2024-04-06T16:50:01.200Z,MISSION_0056,12,0,takeoff,SITE_PUN_007,18.520411,73.8567009,5.0,317.69,0.337,0.174,1.23,1.8308,0.3187,317.6902,-0.93247,-0.0159,0.00317,0.36088,-0.293,-0.1277,-9.7697,0.2485,1.3727,0.2084,0.1831,3,11,0.57,1.0,0.2,24.696,17.53,97.5,36.9,21454.0,8789,8850,8833,8855,52.1,52.7,54.0,49.1,2.648,2.884,2.692,2.682,4.23,110.9,28.5,52.5,1008.41,-31.79,-0.11,1.83,25.0,38.7,30.1,0,no_anomaly,0.0,0,0,0,0,18.520411,73.8567009,5.0,0.0
2024-04-06T16:50:01.300Z,MISSION_0056,13,0,takeoff,SITE_PUN_007,18.5204104,73.8567035,5.0,317.71,0.115,0.119,1.22,-1.6888,0.005,317.7136,-0.93258,0.01373,-0.00536,0.36066,-0.1156,0.0474,-9.8254,0.608,-0.0645,0.1365,0.1815,3,19,0.62,0.98,0.34,24.765,19.44,97.5,36.3,21442.0,8535,8635,8761,8333,50.6,53.9,52.6,55.9,2.889,2.725,2.686,2.884,4.85,104.1,28.2,52.3,1008.54,-35.58,0.0,1.58,25.9,42.2,32.1,0,no_anomaly,0.0,0,0,0,0,18.5204104,73.8567035,5.0,0.0
2024-04-06T16:50:01.400Z,MISSION_0056,14,0,takeoff,SITE_PUN_007,18.5204094,73.8567078,5.0,318.07,0.289,0.114,1.36,-5.0689,-1.2583,318.0699,-0.93266,0.04521,-0.00558,0.35788,0.2143,-0.0772,-9.8259,-0.2114,0.2832,0.3832,0.1576,3,15,0.52,0.79,0.33,24.681,19.03,97.4,36.6,21430.0,8856,8812,9030,8715,53.6,52.8,54.7,51.6,3.082,2.692,2.629,2.927,3.88,114.9,28.4,52.3,1008.12,-24.82,-0.19,1.93,20.0,34.1,28.6,0,no_anomaly,0.0,0,0,0,0,18.5204094,73.8567078,5.0,0.0
2024-04-06T16:50:01.500Z,MISSION_0056,15,0,takeoff,SITE_PUN_007,18.5204078,73.8567124,5.0,318.07,0.0,0.085,1.64,-2.0919,-0.891,318.0682,-0.93356,0.01983,0.00073,0.35787,0.1685,0.0147,-9.7838,0.6987,-0.7024,0.1088,0.1736,3,12,0.76,0.83,0.41,24.744,21.6,97.4,36.5,21418.0,8923,8962,8705,8897,52.4,51.9,53.6,52.2,3.13,2.81,2.664,2.621,5.15,113.6,28.5,52.4,1008.31,-29.95,1.44,1.12,22.9,41.8,33.6,0,no_anomaly,0.0,0,0,0,0,18.5204078,73.8567124,5.0,0.0
2024-04-06T16:50:01.600Z,MISSION_0056,16,0,takeoff,SITE_PUN_007,18.5204071,73.8567133,5.0,317.47,0.0,0.088,1.68,-1.4938,-1.1262,317.4656,-0.93173,0.01571,0.00443,0.36279,-0.2188,-0.0003,-9.8336,0.1065,1.0462,-0.0953,0.1403,3,10,0.52,1.19,0.21,24.658,17.89,97.3,36.2,21405.0,8810,8295,8926,8597,51.8,55.5,55.6,55.7,2.834,3.089,2.773,2.656,3.96,107.1,28.2,52.2,1008.25,-29.49,0.73,1.41,25.6,43.0,31.5,0,no_anomaly,0.0,0,0,0,0,18.5204071,73.8567133,5.0,0.0
2024-04-06T16:50:01.700Z,MISSION_0056,17,0,takeoff,SITE_PUN_007,18.5204151,73.8567149,5.0,318.57,0.415,0.057,2.36,3.2288,-2.2228,318.5733,-0.93501,-0.01949,0.0281,0.35298,0.0233,0.0797,-9.6655,-0.6084,0.293,-0.1321,0.1972,3,13,0.81,0.9,0.24,24.624,18.47,97.2,36.7,21393.0,8770,8646,8722,8889,52.7,52.8,54.0,55.1,3.204,2.519,2.755,2.712,4.83,114.2,28.3,52.4,1008.43,-31.28,0.77,1.49,25.0,38.8,31.0,0,no_anomaly,0.0,0,0,0,0,18.5204151,73.8567149,5.0,0.0
2024-04-06T16:50:01.800Z,MISSION_0056,18,0,takeoff,SITE_PUN_007,18.5204161,73.8567173,5.0,319.68,0.208,0.047,2.62,-1.2094,-1.4023,319.6754,-0.93855,0.01412,0.00785,0.34476,0.011,-0.0701,-9.7683,0.1667,1.1328,-0.347,0.2542,3,15,0.56,0.72,0.25,24.739,20.75,97.2,35.8,21381.0,8604,8714,8999,9203,50.1,55.3,54.7,57.5,2.667,2.802,2.973,2.516,4.13,123.0,28.6,52.8,1008.1,-32.32,-1.4,1.0,22.9,42.2,27.9,0,no_anomaly,0.0,0,0,0,0,18.5204161,73.8567173,5.0,0.0
2024-04-06T16:50:01.900Z,MISSION_0056,19,0,takeoff,SITE_PUN_007,18.5204173,73.8567142,5.0,321.82,0.393,0.112,2.49,2.5667,-3.6293,321.8232,-0.94454,-0.0108,0.03724,0.32611,0.0483,-0.1064,-9.7912,-0.8189,-0.0428,0.3844,0.1451,3,14,0.6,0.84,0.2,24.779,15.84,97.1,36.6,21368.0,9103,8706,8889,8879,54.1,55.2,53.7,55.1,2.767,2.938,2.873,2.942,4.43,116.1,28.7,52.9,1008.1,-31.89,1.86,1.0,23.3,35.0,31.6,0,no_anomaly,0.0,0,0,0,0,18.5204173,73.8567142,5.0,0.0
2024-04-06T16:50:02.000Z,MISSION_0056,20,0,takeoff,SITE_PUN_007,18.5204152,73.8567132,5.0,318.79,0.581,0.06,2.24,2.0662,-0.56,318.7937,-0.93591,-0.01516,0.01092,0.35175,-0.1274,-0.0581,-9.8288,0.3505,-0.5283,-0.3774,0.1665,3,12,0.76,0.75,0.34,24.668,16.7,97.1,36.7,21356.0,8840,8630,8783,8938,51.4,51.3,54.0,53.9,2.76,2.928,2.897,3.009,3.42,105.7,28.5,52.6,1008.51,-31.27,0.05,1.55,25.0,34.9,30.1,0,no_anomaly,0.0,0,0,0,0,18.5204152,73.8567132,5.0,0.0
2024-04-06T16:50:02.100Z,MISSION_0056,21,0,takeoff,SITE_PUN_007,18.5204204,73.8567126,5.0,320.4,0.513,0.12,2.67,0.5703,-0.5039,320.3957,-0.94085,-0.00319,0.00582,0.33875,-0.0978,-0.0149,-9.7882,-0.4725,-0.8948,0.1128,0.1205,3,13,0.62,0.66,0.2,24.695,18.89,97.0,37.7,21344.0,9055,8901,8668,8884,52.8,53.8,51.9,51.0,3.008,2.825,2.555,2.833,3.36,106.5,28.4,52.7,1008.73,-29.17,-0.99,1.94,22.1,35.0,29.2,0,no_anomaly,0.0,0,0,0,0,18.5204204,73.8567126,5.0,0.0
2024-04-06T16:50:02.200Z,MISSION_0056,22,0,takeoff,SITE_PUN_007,18.5204201,73.8567158,5.0,321.7,0.731,0.112,2.85,-1.2229,-1.9462,321.7,-0.94441,0.01565,0.01254,0.32815,-0.145,-0.0104,-9.9189,-0.6702,0.421,0.1317,0.1459,3,17,0.62,1.03,0.24,24.688,13.67,97.0,36.8,21332.0,8750,8949,9081,8963,53.8,55.7,56.4,50.6,2.749,2.612,2.998,2.696,4.74,108.9,27.9,53.7,1008.37,-34.5,-0.78,1.51,22.7,34.0,29.8,0,no_anomaly,0.0,0,0,0,0,18.5204201,73.8567158,5.0,0.0
2024-04-06T16:50:02.300Z,MISSION_0056,23,0,takeoff,SITE_PUN_007,18.5204207,73.8567146,5.0,319.4,0.82,0.069,2.82,5.8267,-2.8771,319.4048,-0.93684,-0.03896,0.04114,0.34514,0.0428,-0.0764,-9.8871,0.1565,0.0078,0.1174,0.2989,3,10,0.9,0.96,0.42,24.736,21.42,96.9,35.7,21319.0,8606,8808,8627,9226,53.7,53.4,48.8,55.0,2.9,2.67,2.808,2.781,4.64,109.5,28.3,52.7,1008.65,-38.18,0.67,1.12,22.7,39.4,28.5,0,no_anomaly,0.0,0,0,0,0,18.5204207,73.8567146,5.0,0.0
2024-04-06T16:50:02.400Z,MISSION_0056,24,0,takeoff,SITE_PUN_007,18.5204182,73.8567127,5.0,317.07,0.65,0.102,2.47,-1.1456,-2.3735,317.0749,-0.93034,0.01688,0.01562,0.36599,-0.247,-0.0487,-9.8349,-0.2977,0.0001,0.058,0.1435,3,19,0.71,0.62,0.23,24.738,19.84,96.9,35.7,21307.0,8922,8917,8823,8819,53.4,56.8,53.3,56.6,2.934,2.704,2.951,2.891,4.87,105.1,28.3,52.7,1008.68,-26.46,0.02,1.4,24.6,36.5,32.4,0,no_anomaly,0.0,0,0,0,0,18.5204182,73.8567127,5.0,0.0
2024-04-06T16:50:02.500Z,MISSION_0056,25,0,takeoff,SITE_PUN_007,18.5204205,73.856712,5.0,317.66,0.779,0.187,2.65,0.4845,-3.0865,317.6637,-0.93222,0.00578,0.02664,0.36087,-0.0165,0.0801,-9.7526,0.6421,0.146,0.1386,0.2424,3,15,0.71,0.98,0.2,24.785,22.52,96.8,35.4,21295.0,8905,8964,8843,8947,49.8,55.1,52.6,54.1,2.695,2.687,2.596,2.744,4.47,108.4,28.2,53.0,1008.5,-27.48,-0.66,1.32,25.8,39.4,34.8,0,no_anomaly,0.0,0,0,0,0,18.5204205,73.856712,5.0,0.0
2024-04-06T16:50:02.600Z,MISSION_0056,26,0,takeoff,SITE_PUN_007,18.5204279,73.8567113,5.0,316.99,0.591,0.11,3.36,-0.5985,-0.2524,316.9887,-0.93036,0.00567,0.00013,0.3666,-0.2305,-0.0387,-9.8651,-0.0167,-0.2688,-0.1685,0.2015,3,20,0.74,1.01,0.25,24.674,14.75,96.7,36.5,21283.0,8797,8938,8905,8809,52.3,50.8,52.9,53.0,2.666,3.052,2.544,2.545,4.5,114.7,28.2,53.2,1008.32,-28.99,-0.31,1.59,22.6,38.7,34.1,0,no_anomaly,0.0,0,0,0,0,18.5204279,73.8567113,5.0,0.0
2024-04-06T16:50:02.700Z,MISSION_0056,27,0,takeoff,SITE_PUN_007,18.5204317,73.8567115,5.0,317.96,0.305,0.094,3.75,-0.2036,-4.6392,317.9636,-0.93267,0.01617,0.03714,0.35844,-0.2171,-0.1273,-9.8899,1.717,-0.8914,0.0618,0.2169,3,18,0.6,0.77,0.29,24.719,20.72,96.7,36.6,21270.0,8605,9094,8536,8967,54.8,52.7,58.0,55.9,2.988,2.84,2.872,2.884,3.87,104.1,28.2,53.1,1008.27,-30.88,0.25,1.65,23.7,41.3,35.3,0,no_anomaly,0.0,0,0,0,0,18.5204317,73.8567115,5.0,0.0
2024-04-06T16:50:02.800Z,MISSION_0056,28,0,takeoff,SITE_PUN_007,18.5204291,73.8567066,5.0,317.8,0.35,0.134,3.32,0.1125,-0.3119,317.8014,-0.93295,6e-05,0.00289,0.35998,0.1163,0.038,-9.7903,0.1902,-0.0399,0.032,0.1484,3,16,0.63,0.82,0.27,24.692,15.01,96.6,37.0,21258.0,8674,8816,8944,9019,50.3,53.6,52.9,55.9,2.907,2.72,2.873,2.791,4.61,112.6,28.3,52.1,1008.59,-24.43,-0.17,1.18,25.6,37.7,32.9,0,no_anomaly,0.0,0,0,0,0,18.5204291,73.8567066,5.0,0.0
2024-04-06T16:50:02.900Z,MISSION_0056,29,0,takeoff,SITE_PUN_007,18.5204357,73.8567071,5.0,317.67,1.167,0.077,4.05,-2.6062,-1.7407,317.6692,-0.93207,0.02669,0.00595,0.36125,-0.158,-0.0407,-9.8483,0.4766,0.2654,-0.3538,0.1423,3,11,0.64,1.02,0.35,24.72,18.53,96.6,36.7,21246.0,8766,8951,9161,8777,49.6,51.8,54.4,54.1,2.806,2.839,2.815,2.757,4.1,103.0,28.5,53.0,1008.21,-32.02,1.79,1.46,20.8,32.2,30.9,0,no_anomaly,0.0,0,0,0,0,18.5204357,73.8567071,5.0,0.0
2024-04-06T16:50:03.000Z,MISSION_0056,30,0,takeoff,SITE_PUN_007,18.5204371,73.8567011,5.0,317.88,1.11,0.152,4.14,-3.187,-3.3703,317.8839,-0.93216,0.0365,0.01745,0.35978,0.063,0.0415,-9.8673,-0.0131,-0.1927,-0.2311,0.2046,3,15,0.69,0.81,0.32,24.679,16.68,96.5,35.9,21234.0,8981,8833,8759,8772,51.4,51.4,53.6,51.8,2.878,2.869,2.762,2.99,4.64,113.6,28.8,52.4,1008.71,-27.0,-0.43,2.03,24.2,38.3,33.2,0,no_anomaly,0.0,0,0,0,0,18.5204371,73.8567011,5.0,0.0
2024-04-06T16:50:03.100Z,MISSION_0056,31,0,takeoff,SITE_PUN_007,18.5204373,73.8567083,5.0,316.82,1.301,-0.009,4.25,0.4033,-1.5222,316.8215,-0.92978,0.00161,0.01365,0.36787,-0.0684,-0.0386,-9.7257,0.5779,-0.8698,0.1811,0.1944,3,13,0.92,0.81,0.44,24.737,15.03,96.5,36.9,21221.0,9057,8706,8726,8918,51.5,55.3,55.6,53.5,2.831,2.513,2.743,2.66,4.48,107.5,28.4,51.9,1007.95,-30.3,0.94,1.68,26.9,37.5,30.8,0,no_anomaly,0.0,0,0,0,0,18.5204373,73.8567083,5.0,0.0
2024-04-06T16:50:03.200Z,MISSION_0056,32,0,takeoff,SITE_PUN_007,18.5204354,73.8567086,5.0,317.6,1.117,0.108,4.06,-2.2708,-3.4568,317.6021,-0.93151,0.02937,0.02095,0.36193,-0.123,0.0229,-9.7874,0.4524,-1.2179,0.264,0.2306,3,15,0.76,0.94,0.41,24.737,14.72,96.4,36.4,21209.0,8687,8948,8993,8614,55.3,56.0,51.2,53.9,2.758,2.914,2.593,2.987,3.92,112.0,28.4,51.7,1008.76,-27.43,0.98,1.1,28.1,38.9,32.7,0,no_anomaly,0.0,0,0,0,0,18.5204354,73.8567086,5.0,0.0
2024-04-06T16:50:03.300Z,MISSION_0056,33,0,takeoff,SITE_PUN_007,18.5204338,73.8567063,5.0,318.65,0.899,0.111,3.83,2.0167,-0.778,318.6548,-0.93549,-0.01407,0.01256,0.35285,-0.1057,0.0174,-9.7656,0.3085,-0.0895,-0.5057,0.1625,3,17,0.83,1.19,0.34,24.687,17.64,96.3,36.4,21197.0,8749,8899,8774,8885,50.4,52.8,51.4,52.7,2.976,2.712,2.899,2.744,4.43,104.8,28.0,52.2,1008.32,-26.7,1.44,1.36,24.6,35.5,29.6,0,no_anomaly,0.0,0,0,0,0,18.5204338,73.8567063,5.0,0.0
2024-04-06T16:50:03.400Z,MISSION_0056,34,0,takeoff,SITE_PUN_007,18.5204385,73.8567101,5.0,318.32,0.496,0.086,4.43,-2.855,-3.7114,318.3225,-0.93352,0.03479,0.0214,0.3562,-0.0734,-0.0203,-9.8462,-0.2103,-0.6219,0.0698,0.1678,3,17,0.7,0.9,0.25,24.667,16.95,96.3,36.9,21184.0,8919,8942,8938,8780,54.2,51.8,55.4,54.3,3.025,2.862,2.608,2.889,3.46,114.0,28.3,52.9,1008.28,-27.38,-0.39,1.32,27.3,38.3,33.9,0,no_anomaly,0.0,0,0,0,0,18.5204385,73.8567101,5.0,0.0
2024-04-06T16:50:03.500Z,MISSION_0056,35,0,takeoff,SITE_PUN_007,18.5204359,73.856708,5.0,315.75,0.536,0.075,4.1,-4.3254,-4.1337,315.7479,-0.92458,0.04851,0.01918,0.37739,-0.0721,-0.0044,-9.7947,-1.1197,0.126,0.3348,0.1736,3,10,0.82,0.95,0.35,24.634,14.32,96.2,36.9,21172.0,8885,9228,8935,8957,53.8,54.9,49.7,52.2,2.745,2.451,2.838,2.837,4.24,118.5,28.3,53.6,1008.68,-26.14,-2.0,1.49,25.4,36.0,33.2,0,no_anomaly,0.0,0,0,0,0,18.5204359,73.856708,5.0,0.0
2024-04-06T16:50:03.600Z,MISSION_0056,36,0,takeoff,SITE_PUN_007,18.5204361,73.8567068,5.0,313.42,0.287,0.154,4.08,-1.0754,-3.9985,313.4156,-0.91777,0.02241,0.02833,0.39546,-0.1602,-0.062,-9.7873,0.6061,-0.096,0.3759,0.1727,3,16,0.69,0.68,0.31,24.639,18.4,96.2,36.9,21160.0,9024,8992,8777,8827,53.0,51.4,51.9,49.9,2.61,2.934,2.83,2.649,3.92,114.2,28.5,52.3,1008.27,-28.16,-0.87,1.4,24.6,35.8,31.1,0,no_anomaly,0.0,0,0,0,0,18.5204361,73.8567068,5.0,0.0
2024-04-06T16:50:03.700Z,MISSION_0056,37,0,takeoff,SITE_PUN_007,18.5204366,73.8567088,5.0,311.43,0.577,0.016,4.19,-0.1299,-3.9575,311.4306,-0.91095,0.01523,0.03101,0.41106,-0.1618,-0.0199,-9.847,0.1747,-0.1799,-0.0001,0.222,3,12,0.82,0.83,0.41,24.617,16.35,96.1,36.7,21148.0,8726,8925,8880,8959,52.6,50.9,52.3,51.1,2.947,2.986,2.823,2.695,4.28,117.9,28.2,53.2,1008.44,-31.84,0.15,1.51,24.8,34.9,30.1,0,no_anomaly,0.0,0,0,0,0,18.5204366,73.8567088,5.0,0.0
2024-04-06T16:50:03.800Z,MISSION_0056,38,0,takeoff,SITE_PUN_007,18.5204316,73.85671,5.0,310.77,0.681,0.135,3.69,1.7785,-2.897,310.7747,-0.90891,-0.00358,0.02944,0.41594,0.0582,0.0388,-9.8703,-1.0204,-0.1284,-0.1956,0.1952,3,10,0.69,0.85,0.2,24.741,16.7,96.1,35.9,21135.0,8703,9139,9146,8630,56.8,53.0,53.8,55.7,2.605,2.696,2.967,2.88,4.86,116.9,28.5,51.9,1008.12,-27.89,1.21,1.15,23.8,36.4,31.1,0,no_anomaly,0.0,0,0,0,0,18.5204316,73.85671,5.0,0.0
2024-04-06T16:50:03.900Z,MISSION_0056,39,0,takeoff,SITE_PUN_007,18.5204329,73.8567096,5.0,313.16,0.887,0.062,3.81,-0.0019,-2.5532,313.1584,-0.91738,0.00887,0.02044,0.39738,-0.0286,-0.0968,-9.8825,-0.662,0.1113,-0.729,0.2114,3,16,0.69,1.05,0.35,24.687,20.46,96.0,36.5,21123.0,8887,8763,8970,9133,56.0,53.5,55.2,55.6,2.947,2.87,2.822,2.705,4.31,110.8,28.2,52.8,1008.56,-27.41,-1.22,1.51,24.5,39.1,30.5,0,no_anomaly,0.0,0,0,0,0,18.5204329,73.8567096,5.0,0.0
2024-04-06T16:50:04.000Z,MISSION_0056,40,0,transit,SITE_PUN_007,18.5204337,73.8567077,5.5,311.13,0.922,0.104,3.85,-0.6349,-1.9755,311.1292,-0.91024,0.01217,0.0134,0.41369,0.1356,0.0022,-9.7194,0.4468,-0.179,0.5629,0.1467,3,13,0.74,1.13,0.29,24.734,23.8,96.0,35.9,21111.0,8907,8880,8740,8813,55.4,55.3,51.7,54.3,2.837,2.79,2.491,2.882,4.39,110.0,28.1,53.2,1008.25,-27.52,-0.53,1.09,21.5,38.7,31.6,0,no_anomaly,0.0,0,0,0,0,18.5204337,73.8567077,5.5,0.0
2024-04-06T16:50:04.100Z,MISSION_0056,41,0,transit,SITE_PUN_007,18.5204327,73.8567044,6.0,311.8,1.03,0.083,3.67,-1.4318,-4.2149,311.7996,-0.91196,0.02641,0.02847,0.40845,-0.2453,-0.0376,-9.8628,-0.3539,-0.0254,0.0589,0.2481,3,15,0.88,0.6,0.49,24.703,21.62,95.9,37.0,21099.0,9026,9106,8808,8624,52.6,53.1,51.8,51.3,2.55,3.235,2.851,3.093,3.25,114.6,28.2,52.7,1008.3,-29.71,0.99,1.64,24.0,43.5,32.3,0,no_anomaly,0.0,0,0,0,0,18.5204327,73.8567044,6.0,0.0
2024-04-06T16:50:04.200Z,MISSION_0056,42,0,transit,SITE_PUN_007,18.5204327,73.8567037,6.5,311.66,1.259,0.105,3.66,-4.1278,-2.7653,311.6611,-0.91113,0.04272,0.00726,0.40984,-0.0579,-0.0421,-9.7822,-0.1171,0.0611,-0.1537,0.0634,3,20,0.67,0.63,0.33,24.683,21.59,95.8,36.5,21086.0,8767,9119,8744,8848,51.5,51.8,55.1,52.6,3.011,2.713,2.671,2.628,4.1,115.6,28.4,52.9,1008.61,-28.49,0.92,1.35,22.4,37.4,29.9,0,no_anomaly,0.0,0,0,0,0,18.5204327,73.8567037,6.5,0.0
2024-04-06T16:50:04.300Z,MISSION_0056,43,0,transit,SITE_PUN_007,18.5204392,73.8567108,7.0,308.96,1.113,0.097,4.52,0.2145,-1.9604,308.9597,-0.90231,0.00568,0.01624,0.43074,-0.124,0.0319,-9.7799,0.1483,-0.2638,-0.4585,0.2434,3,14,0.74,0.92,0.37,24.713,21.63,95.8,37.1,21074.0,8859,8766,8971,8750,54.2,54.3,55.0,48.6,2.815,2.763,3.049,2.886,3.88,105.2,28.6,53.2,1008.42,-28.03,-1.49,1.63,26.7,36.6,32.6,0,no_anomaly,0.0,0,0,0,0,18.5204392,73.8567108,7.0,0.0
2024-04-06T16:50:04.400Z,MISSION_0056,44,0,transit,SITE_PUN_007,18.5204419,73.8567063,7.5,312.27,1.281,0.06,4.71,1.1437,-3.2275,312.2725,-0.91422,0.00227,0.02979,0.40413,0.0121,0.027,-9.9062,-0.4789,0.0812,-0.2471,0.1846,3,14,0.66,1.05,0.25,24.702,17.24,95.7,36.2,21062.0,8761,8711,8792,8755,53.0,56.8,52.1,51.8,2.52,2.689,2.912,2.492,4.64,119.1,28.4,52.6,1008.19,-26.51,0.65,1.71,25.0,41.0,32.2,0,no_anomaly,0.0,0,0,0,0,18.5204419,73.8567063,7.5,0.0
2024-04-06T16:50:04.500Z,MISSION_0056,45,0,transit,SITE_PUN_007,18.5204418,73.8567084,8.0,310.76,1.219,0.128,4.74,-0.9545,-1.5432,310.7594,-0.90893,0.01318,0.00877,0.41665,0.1776,-0.0106,-9.735,-0.0024,-1.3102,0.2892,0.2068,3,11,0.57,1.05,0.22,24.598,15.95,95.7,36.2,21049.0,8774,8791,8802,8727,54.0,54.3,52.9,52.0,2.908,2.601,2.742,2.651,3.74,109.5,28.5,52.0,1008.63,-27.29,-0.47,1.0,19.8,37.6,29.0,0,no_anomaly,0.0,0,0,0,0,18.5204418,73.8567084,8.0,0.0
2024-04-06T16:50:04.600Z,MISSION_0056,46,0,transit,SITE_PUN_007,18.5204457,73.856709,8.5,310.54,1.23,0.012,5.18,-3.5664,-0.8229,310.5433,-0.90774,0.03127,-0.0065,0.41831,0.0161,-0.0099,-9.7719,-1.2293,0.1865,-0.5401,0.2058,3,13,0.83,0.92,0.33,24.71,19.4,95.6,36.8,21037.0,8796,8827,9129,8810,51.1,56.4,51.4,56.0,2.535,2.643,2.988,2.641,5.03,112.3,28.3,52.3,1008.28,-31.13,-0.52,1.44,21.9,37.9,31.1,0,no_anomaly,0.0,0,0,0,0,18.5204457,73.856709,8.5,0.0
2024-04-06T16:50:04.700Z,MISSION_0056,47,0,transit,SITE_PUN_007,18.5204434,73.8567136,9.0,309.36,1.638,0.061,5.06,-1.6721,-2.7182,309.3628,-0.90345,0.02333,0.0152,0.4278,0.0124,0.0123,-9.9105,-0.7568,0.308,-0.4509,0.1214,3,13,0.69,0.85,0.32,24.689,18.35,95.6,36.5,21025.0,8814,8913,9148,8777,49.5,49.5,51.1,52.4,2.574,2.658,2.597,2.752,3.61,108.1,28.6,52.4,1008.45,-27.17,-0.77,1.64,25.1,34.7,32.7,0,no_anomaly,0.0,0,0,0,0,18.5204434,73.8567136,9.0,0.0
2024-04-06T16:50:04.800Z,MISSION_0056,48,0,transit,SITE_PUN_007,18.5204439,73.8567111,9.5,312.41,1.84,0.104,5.04,0.5676,-3.8545,312.411,-0.91454,0.00904,0.03277,0.40307,0.0668,0.0373,-9.8735,-0.8764,-0.5248,0.022,0.1627,3,13,0.75,0.85,0.27,24.655,16.89,95.5,36.6,21013.0,8882,8826,8952,8680,50.8,54.5,53.2,50.6,2.935,2.817,2.76,2.554,3.27,110.2,28.3,53.4,1008.65,-30.67,0.46,1.23,22.2,34.1,30.3,0,no_anomaly,0.0,0,0,0,0,18.5204439,73.8567111,9.5,0.0
2024-04-06T16:50:04.900Z,MISSION_0056,49,0,transit,SITE_PUN_007,18.5204417,73.8567111,10.0,315.32,1.841,0.07,4.8,0.2487,-1.4165,315.3179,-0.92488,0.00269,0.01226,0.38006,-0.0129,-0.0119,-9.8822,-0.5028,-0.2491,0.1912,0.124,3,10,0.67,0.83,0.29,24.674,12.61,95.5,36.9,21000.0,8841,8817,8896,8805,54.3,52.5,54.1,51.8,2.987,2.887,2.839,2.591,4.32,112.0,28.4,53.0,1008.46,-28.53,-1.31,1.81,20.6,38.3,31.6,0,no_anomaly,0.0,0,0,0,0,18.5204417,73.8567111,10.0,0.0
2024-04-06T16:50:05.000Z,MISSION_0056,50,0,transit,SITE_PUN_007,18.5204455,73.8567137,10.5,316.44,1.899,0.118,5.29,-2.0248,-2.7079,316.435,-0.92804,0.02517,0.01538,0.37131,0.1518,0.0158,-9.7485,-0.0819,-0.7735,0.6577,0.2363,3,19,0.7,0.94,0.29,24.662,22.4,95.4,36.6,20988.0,8940,8812,8637,8937,51.8,52.3,52.5,57.0,2.936,2.883,2.893,2.883,4.36,114.3,28.1,53.6,1008.45,-25.58,1.03,1.79,20.9,35.5,29.1,0,no_anomaly,0.0,0,0,0,0,18.5204455,73.8567137,10.5,0.0
2024-04-06T16:50:05.100Z,MISSION_0056,51,0,transit,SITE_PUN_007,18.5204497,73.8567125,11.0,316.96,1.747,0.075,5.7,0.494,-3.471,316.9572,-0.92989,0.0071,0.02975,0.36656,-0.5225,-0.0296,-9.8541,-0.0226,-0.1058,-0.2686,0.1428,3,20,0.76,0.67,0.27,24.689,21.41,95.3,37.0,20976.0,8815,8472,8708,8912,52.8,54.8,52.5,51.3,2.936,2.996,2.614,2.735,2.78,113.2,28.3,53.0,1008.22,-30.14,-0.06,1.66,21.7,42.4,33.0,0,no_anomaly,0.0,0,0,0,0,18.5204497,73.8567125,11.0,0.0
2024-04-06T16:50:05.200Z,MISSION_0056,52,0,transit,SITE_PUN_007,18.5204497,73.8567118,11.5,317.3,1.501,0.026,5.69,0.9888,-1.3168,317.3045,-0.93133,-0.00385,0.01384,0.3639,0.0444,-0.0847,-9.8324,-0.4357,0.9086,0.129,0.1723,3,19,0.63,0.85,0.24,24.613,19.1,95.3,36.5,20964.0,9107,8984,8837,8751,52.1,53.8,51.7,53.6,2.557,2.765,3.044,2.773,4.69,110.4,28.3,52.0,1008.86,-27.2,-1.11,1.38,22.8,37.9,28.9,0,no_anomaly,0.0,0,0,0,0,18.5204497,73.8567118,11.5,0.0
2024-04-06T16:50:05.300Z,MISSION_0056,53,0,transit,SITE_PUN_007,18.5204479,73.8567091,12.0,316.33,1.187,0.102,5.43,-4.506,-4.4504,316.334,-0.92629,0.05089,0.02141,0.37275,-0.097,0.0135,-9.8059,-0.7544,0.2658,-0.2101,0.175,3,10,0.68,0.74,0.25,24.696,19.37,95.2,36.2,20951.0,8979,8825,9027,8931,52.7,50.4,59.0,52.7,2.649,2.973,2.927,2.863,3.84,113.9,28.5,53.1,1008.72,-30.49,-0.98,1.57,22.3,44.2,31.8,0,no_anomaly,0.0,0,0,0,0,18.5204479,73.8567091,12.0,0.0
2024-04-06T16:50:05.400Z,MISSION_0056,54,0,transit,SITE_PUN_007,18.5204397,73.8567085,12.0,316.81,0.641,0.169,4.52,1.2426,-2.4267,316.807,-0.92962,-0.00229,0.02368,0.36775,-0.0341,-0.0853,-9.7577,0.0504,-0.3119,0.2087,0.182,3,15,0.77,0.76,0.37,24.692,18.2,95.2,36.4,20939.0,8660,8672,8709,8911,58.8,52.8,54.9,51.0,2.805,2.93,2.734,2.955,3.54,110.4,28.6,52.7,1008.26,-27.32,-0.05,1.28,26.3,37.2,32.2,0,no_anomaly,0.0,0,0,0,0,18.5204397,73.8567085,12.0,0.0
2024-04-06T16:50:05.500Z,MISSION_0056,55,0,transit,SITE_PUN_007,18.5204405,73.8567124,12.0,316.4,1.043,0.083,4.72,-2.3414,-3.7636,316.4017,-0.92755,0.03115,0.0229,0.3717,0.0724,0.0258,-9.8085,-0.1503,0.0433,-0.0907,0.1833,3,12,0.76,0.98,0.27,24.769,20.22,95.1,35.9,20927.0,8827,8964,8960,8533,54.4,54.0,54.3,54.1,2.974,2.62,2.827,2.624,3.58,109.5,28.6,52.8,1008.62,-28.62,-0.66,1.81,22.1,41.1,32.4,0,no_anomaly,0.0,0,0,0,0,18.5204405,73.8567124,12.0,0.0
2024-04-06T16:50:05.600Z,MISSION_0056,56,0,transit,SITE_PUN_007,18.5204437,73.8567145,12.0,318.21,1.186,0.11,5.12,0.6556,-0.4837,318.2058,-0.93421,-0.00384,0.00598,0.35666,0.1411,0.0212,-9.836,-0.1224,0.3374,-0.396,0.1688,3,20,0.64,0.96,0.21,24.551,12.63,95.1,36.6,20915.0,8890,8816,9233,8785,52.0,55.0,50.0,52.5,2.596,2.902,2.903,2.635,4.35,116.3,28.6,52.8,1008.76,-31.77,-1.6,1.82,23.7,34.6,30.8,0,no_anomaly,0.0,0,0,0,0,18.5204437,73.8567145,12.0,0.0
2024-04-06T16:50:05.700Z,MISSION_0056,57,0,transit,SITE_PUN_007,18.5204466,73.8567152,12.0,318.5,0.878,0.179,5.46,-0.26,-1.8588,318.5017,-0.935,0.00787,0.01436,0.35426,-0.0846,-0.0827,-9.6985,0.2067,-0.0297,-0.2673,0.2145,3,17,0.66,0.95,0.26,24.684,10.97,95.0,36.5,20902.0,9072,8889,8824,8833,55.7,51.6,51.3,51.1,3.007,2.902,2.761,2.433,4.08,117.2,28.7,52.9,1007.82,-29.79,0.74,1.72,25.2,39.9,30.1,0,no_anomaly,0.0,0,0,0,0,18.5204466,73.8567152,12.0,0.0
2024-04-06T16:50:05.800Z,MISSION_0056,58,0,transit,SITE_PUN_007,18.5204492,73.8567136,12.0,318.17,0.788,0.138,5.68,-3.0621,-1.1632,318.1742,-0.93365,0.02858,-6e-05,0.35706,0.0046,-0.0791,-9.757,-0.3211,-0.2611,-0.1798,0.1829,3,10,0.65,0.8,0.2,24.688,20.47,95.0,37.0,20890.0,8875,8948,8992,8960,55.8,52.8,52.8,50.3,2.903,2.904,2.918,2.613,4.12,111.4,28.4,52.7,1008.48,-27.67,0.18,1.53,26.8,42.9,30.2,0,no_anomaly,0.0,0,0,0,0,18.5204492,73.8567136,12.0,0.0
2024-04-06T16:50:05.900Z,MISSION_0056,59,0,transit,SITE_PUN_007,18.5204482,73.8567151,12.0,321.71,0.3,0.148,5.62,2.9458,-1.0236,321.713,-0.94443,-0.02135,0.01686,0.3276,-0.1078,-0.0543,-9.8134,0.0882,0.0401,0.2439,0.2125,3,16,0.69,1.1,0.42,24.649,18.09,94.9,35.9,20878.0,8911,8802,8957,8925,54.0,51.7,48.5,50.7,2.879,2.715,3.068,2.804,3.82,105.6,28.6,53.4,1008.23,-29.5,0.15,1.13,26.4,34.5,31.0,0,no_anomaly,0.0,0,0,0,0,18.5204482,73.8567151,12.0,0.0
2024-04-06T16:50:06.000Z,MISSION_0056,60,0,transit,SITE_PUN_007,18.5204495,73.856712,12.0,322.9,0.0,0.049,5.67,-3.2293,-2.3732,322.905,-0.94729,0.03329,0.01066,0.31845,-0.0275,-0.0265,-9.8613,-0.2429,0.0886,-0.0092,0.1554,3,16,0.7,0.95,0.36,24.725,18.33,94.8,36.3,20865.0,8943,9025,8921,9143,56.3,53.3,57.4,52.3,2.798,2.836,2.913,3.023,4.84,114.0,28.3,52.6,1008.64,-32.16,1.05,1.46,20.7,36.0,29.2,0,no_anomaly,0.0,0,0,0,0,18.5204495,73.856712,12.0,0.0
2024-04-06T16:50:06.100Z,MISSION_0056,61,0,transit,SITE_PUN_007,18.520447,73.8567148,12.0,322.33,0.0,0.179,5.49,1.5178,-3.8319,322.3296,-0.94598,-0.00174,0.03591,0.32222,-0.1271,0.0016,-9.7473,0.4274,0.3105,0.1058,0.2646,3,16,0.82,1.02,0.34,24.656,17.6,94.8,36.7,20853.0,8401,8884,8850,9094,51.0,50.6,52.7,51.9,2.94,2.815,3.072,2.69,4.35,118.6,28.5,51.7,1008.62,-28.42,-0.39,2.05,25.7,40.8,29.4,0,no_anomaly,0.0,0,0,0,0,18.520447,73.8567148,12.0,0.0
2024-04-06T16:50:06.200Z,MISSION_0056,62,0,transit,SITE_PUN_007,18.5204464,73.8567151,12.0,323.94,0.293,0.076,5.43,0.08,-1.8778,323.9414,-0.95077,0.00441,0.0158,0.30945,0.1354,0.0492,-9.8769,-0.4823,0.0665,-0.3274,0.204,3,13,0.56,0.81,0.22,24.755,19.98,94.7,36.6,20841.0,9000,8821,8821,8742,57.7,55.6,51.9,55.2,2.777,2.75,2.785,2.903,4.67,111.0,28.4,52.6,1008.43,-24.07,-0.83,1.0,25.8,39.4,28.7,0,no_anomaly,0.0,0,0,0,0,18.5204464,73.8567151,12.0,0.0
2024-04-06T16:50:06.300Z,MISSION_0056,63,0,transit,SITE_PUN_007,18.5204442,73.8567149,12.0,323.91,0.213,0.072,5.2,0.3144,-1.7939,323.9112,-0.95071,0.00224,0.01573,0.30967,-0.1938,-0.0371,-9.8321,-0.0901,-0.2271,0.1041,0.243,3,15,0.59,0.99,0.27,24.665,21.69,94.7,36.6,20829.0,8794,8890,8855,8586,54.3,53.2,53.1,52.9,2.587,2.954,2.864,2.704,4.29,114.1,28.3,52.7,1008.66,-24.08,0.61,1.01,23.5,34.0,28.8,0,no_anomaly,0.0,0,0,0,0,18.5204442,73.8567149,12.0,0.0
2024-04-06T16:50:06.400Z,MISSION_0056,64,0,transit,SITE_PUN_007,18.520444,73.8567187,12.0,323.57,0.322,0.138,5.32,-0.4809,-3.9715,323.5672,-0.94926,0.01482,0.0316,0.31255,-0.0349,-0.0851,-9.7802,0.6323,0.7854,0.1446,0.2099,3,14,0.67,0.9,0.36,24.74,16.86,94.6,37.1,20816.0,8850,9024,8839,8900,54.4,50.7,53.5,53.7,2.872,2.771,3.054,2.979,3.9,113.6,28.5,51.8,1008.23,-26.5,-0.56,1.84,22.6,35.7,30.3,0,no_anomaly,0.0,0,0,0,0,18.520444,73.8567187,12.0,0.0
2024-04-06T16:50:06.500Z,MISSION_0056,65,0,transit,SITE_PUN_007,18.5204518,73.8567188,12.0,324.36,0.491,0.05,6.14,-5.1289,-1.9256,324.3623,-0.95071,0.04773,0.00229,0.30637,0.1459,-0.0681,-9.7565,-0.0297,-0.0739,0.2748,0.2074,3,19,0.6,1.0,0.29,24.704,19.54,94.6,36.8,20804.0,8896,8900,8680,8854,51.7,54.9,55.5,50.5,2.653,2.969,2.854,2.338,3.74,117.5,28.4,52.3,1008.44,-27.46,-1.42,1.18,22.0,34.3,28.3,0,no_anomaly,0.0,0,0,0,0,18.5204518,73.8567188,12.0,0.0
2024-04-06T16:50:06.600Z,MISSION_0056,66,0,transit,SITE_PUN_007,18.5204498,73.8567179,12.0,322.9,0.505,0.154,5.9,0.3487,-0.2475,322.8984,-0.94804,-0.0022,0.00302,0.31814,-0.0993,0.0763,-9.7649,-0.5538,0.2246,-0.2745,0.2101,3,16,0.58,0.93,0.28,24.613,21.01,94.5,36.5,20792.0,8751,8714,9278,9010,54.2,54.3,55.1,55.5,2.729,2.521,2.788,2.699,3.64,109.2,28.7,52.0,1008.7,-32.34,0.29,1.71,27.5,38.9,31.7,0,no_anomaly,0.0,0,0,0,0,18.5204498,73.8567179,12.0,0.0
2024-04-06T16:50:06.700Z,MISSION_0056,67,0,transit,SITE_PUN_007,18.5204531,73.8567225,12.0,322.52,0.723,0.126,6.42,4.5219,-0.9711,322.5152,-0.94631,-0.03464,0.02069,0.32074,0.0382,0.017,-9.779,0.0566,0.374,0.0677,0.1623,3,20,0.6,1.0,0.21,24.689,16.89,94.5,36.4,20780.0,8989,8752,8993,8812,52.7,53.4,56.6,51.9,2.837,3.033,3.175,2.811,4.32,113.5,28.5,52.9,1008.39,-30.3,-1.18,1.07,23.4,35.7,31.5,0,no_anomaly,0.0,0,0,0,0,18.5204531,73.8567225,12.0,0.0
2024-04-06T16:50:06.800Z,MISSION_0056,68,0,transit,SITE_PUN_007,18.5204563,73.8567204,12.0,320.91,0.473,0.16,6.66,-0.3216,1.6566,320.9065,-0.94228,-0.00219,-0.01456,0.3345,0.0065,-0.0891,-9.7547,0.2081,0.3383,-0.2383,0.1019,3,10,0.76,0.83,0.34,24.62,22.27,94.4,35.9,20767.0,8840,8957,8751,9160,53.9,53.6,53.7,57.7,2.712,2.65,2.997,3.001,4.72,108.3,28.4,52.1,1008.28,-28.85,-1.2,1.72,25.7,42.3,32.1,0,no_anomaly,0.0,0,0,0,0,18.5204563,73.8567204,12.0,0.0
2024-04-06T16:50:06.900Z,MISSION_0056,69,0,transit,SITE_PUN_007,18.5204503,73.8567248,12.0,321.43,0.679,0.205,6.24,-2.3768,-2.2407,321.4258,-0.94336,0.02603,0.0116,0.33055,-0.2506,-0.0465,-9.8588,-0.2539,0.5108,-0.2649,0.2104,3,16,0.67,1.32,0.3,24.594,17.73,94.3,37.0,20755.0,8730,9157,8922,9242,53.6,52.3,55.6,49.0,2.825,2.631,2.825,2.638,3.71,111.2,28.5,52.3,1008.47,-28.77,-1.99,1.44,26.4,37.3,33.8,0,no_anomaly,0.0,0,0,0,0,18.5204503,73.8567248,12.0,0.0
2024-04-06T16:50:07.000Z,MISSION_0056,70,0,transit,SITE_PUN_007,18.5204489,73.8567267,12.0,323.09,0.916,0.141,6.21,4.4582,-0.9,323.0888,-0.94792,-0.03441,0.01976,0.31603,0.0034,0.0225,-9.8152,-0.4195,0.0147,-0.1197,0.0938,3,12,0.75,0.88,0.32,24.601,22.49,94.3,37.4,20743.0,8746,9082,8889,9121,52.3,53.5,53.8,55.6,2.816,2.893,2.787,2.87,3.7,109.7,28.4,51.8,1008.08,-29.85,-0.55,1.26,22.7,34.2,31.9,0,no_anomaly,0.0,0,0,0,0,18.5204489,73.8567267,12.0,0.0
2024-04-06T16:50:07.100Z,MISSION_0056,71,0,transit,SITE_PUN_007,18.5204499,73.8567299,12.0,321.99,1.534,0.133,6.47,-3.6882,-0.6784,321.9924,-0.94493,0.03235,-0.00488,0.32564,-0.0531,-0.0952,-9.8257,0.815,0.6791,-0.4215,0.2039,3,13,0.61,0.99,0.29,24.631,15.6,94.2,37.2,20730.0,8918,8868,8665,8775,54.6,52.1,54.8,52.6,2.679,2.703,2.448,2.796,3.48,113.5,28.3,53.5,1008.55,-27.58,0.35,1.3,21.0,37.1,31.4,0,no_anomaly,0.0,0,0,0,0,18.5204499,73.8567299,12.0,0.0
2024-04-06T16:50:07.200Z,MISSION_0056,72,0,transit,SITE_PUN_007,18.5204511,73.8567321,12.0,322.65,1.528,0.055,6.72,-4.0733,-2.0058,322.6477,-0.9464,0.03926,0.00519,0.32056,0.092,0.0179,-9.8325,0.2202,-0.1615,0.0854,0.2206,3,17,0.67,0.9,0.22,24.657,18.75,94.2,37.3,20718.0,8958,8766,8934,8941,53.4,49.7,52.0,53.8,2.599,2.825,2.768,2.687,3.58,112.6,28.4,52.6,1008.57,-30.55,-1.47,1.55,23.5,35.8,32.1,0,no_anomaly,0.0,0,0,0,0,18.5204511,73.8567321,12.0,0.0
2024-04-06T16:50:07.300Z,MISSION_0056,73,0,transit,SITE_PUN_007,18.5204518,73.8567294,12.0,323.2,1.583,0.111,6.63,5.413,-3.5567,323.1971,-0.94782,-0.035,0.04431,0.31378,0.0367,0.0284,-9.8302,0.959,-0.1607,0.2745,0.1375,3,13,0.8,0.63,0.41,24.606,19.31,94.1,36.3,20706.0,8740,8812,8968,8822,55.0,57.6,52.0,53.1,3.052,2.819,2.639,2.493,4.67,111.8,28.6,53.1,1008.66,-25.84,-1.59,1.31,24.0,36.6,28.1,0,no_anomaly,0.0,0,0,0,0,18.5204518,73.8567294,12.0,0.0
2024-04-06T16:50:07.400Z,MISSION_0056,74,0,transit,SITE_PUN_007,18.5204519,73.8567297,12.0,324.43,1.768,0.103,6.66,-0.3842,-1.9072,324.4321,-0.95206,0.00828,0.01482,0.30544,0.1208,-0.012,-9.8287,0.2419,-0.3176,-0.1699,0.208,3,18,0.64,0.86,0.26,24.634,15.75,94.1,36.9,20694.0,8869,9032,8614,8928,50.0,52.4,50.6,50.6,2.662,2.979,2.852,2.649,3.34,108.4,28.7,53.0,1008.52,-27.89,2.6,1.29,22.2,43.3,32.5,0,no_anomaly,0.0,0,0,0,0,18.5204519,73.8567297,12.0,0.0
2024-04-06T16:50:07.500Z,MISSION_0056,75,0,transit,SITE_PUN_007,18.5204486,73.85673,12.0,326.1,1.81,0.083,6.36,4.1815,-1.8803,326.1029,-0.95598,-0.03011,0.02632,0.29071,0.1219,-0.0855,-9.7931,-0.5407,0.3907,0.4146,0.2039,3,14,0.65,0.98,0.2,24.632,15.4,94.0,36.6,20681.0,8843,9069,8956,8962,53.9,51.9,51.3,52.3,2.551,2.756,2.907,2.822,3.55,119.9,28.4,53.1,1008.13,-26.78,-0.07,1.33,25.4,40.9,30.4,0,no_anomaly,0.0,0,0,0,0,18.5204486,73.85673,12.0,0.0
2024-04-06T16:50:07.600Z,MISSION_0056,76,0,transit,SITE_PUN_007,18.5204464,73.8567277,12.0,328.77,1.756,0.079,6.02,-4.3707,-0.5907,328.7738,-0.96233,0.03811,-0.0053,0.26913,0.0163,0.064,-9.8023,0.8152,0.6312,0.0188,0.2303,3,14,0.63,0.85,0.25,24.699,18.67,94.0,35.6,20669.0,8882,9125,8934,8632,54.5,54.3,51.7,54.6,2.739,2.811,3.165,2.59,4.09,110.4,28.8,52.7,1008.11,-29.37,-0.31,1.0,25.3,41.4,29.6,0,no_anomaly,0.0,0,0,0,0,18.5204464,73.8567277,12.0,0.0
2024-04-06T16:50:07.700Z,MISSION_0056,77,0,transit,SITE_PUN_007,18.52044,73.8567277,12.0,330.61,1.43,0.126,5.42,-3.3195,-2.0717,330.6089,-0.96659,0.0326,0.01013,0.25404,-0.0453,-0.0739,-9.8295,0.2014,-0.1009,-0.1631,0.147,3,10,0.89,0.91,0.44,24.602,16.46,93.9,36.2,20657.0,9059,8827,8944,9032,54.9,55.3,49.3,56.3,2.657,2.939,2.95,2.892,4.18,109.9,28.5,52.8,1008.62,-33.62,0.97,1.36,25.4,39.7,29.5,0,no_anomaly,0.0,0,0,0,0,18.52044,73.8567277,12.0,0.0
2024-04-06T16:50:07.800Z,MISSION_0056,78,0,transit,SITE_PUN_007,18.5204414,73.8567282,12.0,329.92,1.425,0.103,5.57,2.022,-1.3423,329.9176,-0.96558,-0.014,0.01589,0.25926,-0.0833,-0.0114,-9.7586,0.3631,-0.0326,0.0238,0.1415,3,20,0.7,0.98,0.29,24.648,24.23,93.8,36.8,20645.0,9226,8760,8855,8912,53.6,54.3,54.6,55.0,2.844,2.701,2.844,2.774,4.11,105.5,28.3,52.7,1008.76,-26.21,1.43,1.96,25.2,42.5,32.0,0,no_anomaly,0.0,0,0,0,0,18.5204414,73.8567282,12.0,0.0
2024-04-06T16:50:07.900Z,MISSION_0056,79,1,transit,SITE_PUN_007,18.5204417,73.8567282,12.0,326.68,1.213,0.047,5.6,0.7152,-1.3014,326.6811,-0.95797,-0.00272,0.01267,0.28659,-0.2561,0.104,-9.8315,-0.0464,0.7108,-0.2123,0.2079,3,11,0.72,0.94,0.22,24.636,21.61,93.8,36.3,20632.0,9007,8946,8931,8836,50.6,53.9,56.3,56.1,2.821,2.767,2.825,2.938,4.54,103.4,28.5,52.5,1008.58,-30.89,0.49,1.39,27.3,38.9,30.9,0,no_anomaly,0.0,0,0,0,0,18.5204417,73.8567282,12.0,0.0
2024-04-06T16:50:08.000Z,MISSION_0056,80,1,transit,SITE_PUN_007,18.5204424,73.8567321,12.0,326.67,1.109,0.063,5.92,2.9059,1.0027,326.669,-0.95759,-0.0268,-0.00111,0.28689,-0.0978,-0.0901,-9.7446,-0.1958,-0.2335,-0.1504,0.1807,3,15,0.78,0.76,0.2,24.717,16.43,93.7,35.9,20620.0,9052,8836,8736,9058,53.5,54.7,49.2,53.8,2.802,2.949,2.815,2.897,3.61,116.0,28.3,52.0,1008.14,-29.66,0.04,1.21,23.3,37.8,33.0,0,no_anomaly,0.0,0,0,0,0,18.5204424,73.8567321,12.0,0.0
2024-04-06T16:50:08.100Z,MISSION_0056,81,1,transit,SITE_PUN_007,18.5204428,73.8567343,12.0,327.43,0.876,0.137,6.1,-2.8679,-0.0551,327.4316,-0.95958,0.02416,-0.00656,0.28033,-0.0113,-0.0309,-9.8784,-0.581,0.2793,-0.3062,0.2737,3,18,0.74,0.83,0.34,24.625,18.42,93.7,37.0,20608.0,8769,8640,8911,8857,53.4,50.6,54.2,53.9,2.691,2.948,2.975,2.853,3.13,105.1,29.0,52.8,1008.52,-28.3,-0.34,1.47,22.5,32.7,32.3,0,no_anomaly,0.0,0,0,0,0,18.5204428,73.8567343,12.0,0.0
2024-04-06T16:50:08.200Z,MISSION_0056,82,1,transit,SITE_PUN_007,18.5204442,73.8567403,12.0,327.57,0.924,0.105,6.65,2.5274,-3.1716,327.5726,-0.9598,-0.01344,0.03272,0.27846,0.0222,-0.0245,-9.8182,0.1325,0.4444,-0.1194,0.2528,3,19,0.66,0.85,0.28,24.627,13.9,93.6,37.0,20596.0,8784,9001,8974,8789,57.4,60.6,53.9,51.1,2.789,2.874,2.796,2.897,3.73,117.3,28.2,52.3,1008.54,-27.04,1.15,1.49,24.9,40.9,31.2,0,no_anomaly,0.0,0,0,0,0,18.5204442,73.8567403,12.0,0.0
2024-04-06T16:50:08.300Z,MISSION_0056,83,1,transit,SITE_PUN_007,18.5204455,73.8567418,12.0,325.92,0.689,0.102,6.87,1.5977,-2.4715,325.9159,-0.95586,-0.00701,0.0247,0.29269,0.2895,0.0231,-9.8893,-0.91,0.3091,0.0873,0.0509,3,15,0.72,0.75,0.32,24.655,18.84,93.6,37.1,20583.0,8743,8789,8948,8947,53.0,53.5,55.1,51.1,2.742,2.869,2.838,2.889,3.75,109.9,28.5,52.9,1008.5,-31.09,0.12,1.29,25.8,42.8,33.8,0,no_anomaly,0.0,0,0,0,0,18.5204455,73.8567418,12.0,0.0
2024-04-06T16:50:08.400Z,MISSION_0056,84,1,transit,SITE_PUN_007,18.5204435,73.8567416,12.0,325.12,0.833,0.114,6.7,-3.8056,-1.7509,325.1203,-0.95324,0.03625,0.00462,0.29999,-0.067,-0.0313,-9.8581,-0.1918,0.1588,-0.3788,0.2306,3,15,0.69,0.85,0.28,24.574,23.49,93.5,36.7,20571.0,8762,8977,8751,8940,53.5,55.2,52.5,54.1,2.647,2.774,2.759,2.912,4.85,102.8,28.3,52.5,1008.66,-30.93,-0.17,1.24,25.8,33.7,32.9,0,no_anomaly,0.0,0,0,0,0,18.5204435,73.8567416,12.0,0.0
2024-04-06T16:50:08.500Z,MISSION_0056,85,1,transit,SITE_PUN_007,18.5204408,73.856741,12.0,324.41,0.574,0.088,6.44,1.9009,-0.3754,324.4148,-0.95205,-0.01479,0.00819,0.30548,-0.0945,0.109,-9.755,-0.8258,-0.058,-0.1984,0.097,3,12,0.57,1.13,0.31,24.617,10.86,93.4,35.9,20559.0,9142,8962,8936,8822,57.7,49.0,51.9,51.9,2.767,2.734,2.679,2.718,4.55,117.5,28.3,52.6,1008.47,-39.26,-1.5,1.87,25.8,36.8,34.4,0,no_anomaly,0.0,0,0,0,0,18.5204408,73.856741,12.0,0.0
2024-04-06T16:50:08.600Z,MISSION_0056,86,1,transit,SITE_PUN_007,18.5204409,73.8567354,12.0,324.48,1.028,0.152,6.02,-1.5916,-3.1086,324.4803,-0.95179,0.02149,0.02159,0.30525,-0.0132,0.0577,-9.8109,-0.1114,0.4802,0.172,0.2027,3,13,0.77,0.94,0.37,24.652,13.39,93.4,36.0,20546.0,8909,8686,8858,8857,55.6,52.9,52.5,54.2,2.824,2.667,2.516,2.827,3.75,105.6,28.2,52.3,1008.68,-23.33,0.21,1.37,20.5,33.8,28.0,0,no_anomaly,0.0,0,0,0,0,18.5204409,73.8567354,12.0,0.0
2024-04-06T16:50:08.700Z,MISSION_0056,87,1,transit,SITE_PUN_007,18.5204365,73.8567324,12.0,325.3,0.71,0.161,5.44,-2.2079,-3.6623,325.2954,-0.95364,0.02791,0.02475,0.29863,-0.0849,-0.0686,-9.8665,-0.5097,0.2235,0.2954,0.2023,3,14,0.55,0.84,0.2,24.64,19.08,93.3,37.0,20534.0,8830,8944,9053,8890,53.2,49.9,51.1,53.5,2.851,2.991,2.633,2.97,4.69,115.9,28.2,52.7,1008.82,-32.87,0.1,1.23,24.4,42.0,29.2,0,no_anomaly,0.0,0,0,0,0,18.5204365,73.8567324,12.0,0.0
2024-04-06T16:50:08.800Z,MISSION_0056,88,1,transit,SITE_PUN_007,18.5204378,73.8567317,12.0,322.63,0.814,0.097,5.49,1.8714,-2.2983,322.6319,-0.94709,-0.00904,0.02423,0.31993,-0.105,-0.0598,-9.7879,-0.204,-0.9547,0.1103,0.1645,3,16,0.87,1.0,0.43,24.608,17.02,93.3,36.8,20522.0,8756,8660,8867,8999,54.0,48.0,52.8,56.6,2.535,2.839,2.801,3.133,4.28,107.3,28.6,52.3,1008.47,-25.37,-0.18,1.6,21.9,40.2,29.7,0,no_anomaly,0.0,0,0,0,0,18.5204378,73.8567317,12.0,0.0
2024-04-06T16:50:08.900Z,MISSION_0056,89,1,transit,SITE_PUN_007,18.5204364,73.8567342,12.0,323.38,0.729,0.152,5.56,2.1322,-1.1191,323.3803,-0.94922,-0.0146,0.01511,0.31391,0.2377,0.0477,-9.7847,0.5151,0.4239,-0.3911,0.1051,3,16,0.67,0.88,0.2,24.604,21.45,93.2,37.2,20510.0,8937,8852,8980,9046,51.7,54.3,54.7,55.0,2.713,2.852,2.531,2.585,4.14,115.6,28.1,52.6,1008.25,-34.39,0.66,2.01,25.1,40.1,27.9,0,no_anomaly,0.0,0,0,0,0,18.5204364,73.8567342,12.0,0.0
2024-04-06T16:50:09.000Z,MISSION_0056,90,1,transit,SITE_PUN_007,18.5204352,73.8567331,12.0,324.37,0.631,0.094,5.38,-0.2446,-0.0177,324.3661,-0.95204,0.00208,-0.00051,0.30598,-0.2277,0.0736,-9.8032,-0.3912,0.1507,0.5673,0.1952,3,12,0.74,0.87,0.29,24.555,12.26,93.2,36.4,20497.0,8867,8820,9057,9170,52.9,54.8,51.5,54.2,2.754,2.527,3.038,2.639,4.19,106.5,27.8,52.7,1008.72,-31.03,1.08,1.41,23.1,34.4,30.1,0,no_anomaly,0.0,0,0,0,0,18.5204352,73.8567331,12.0,0.0
2024-04-06T16:50:09.100Z,MISSION_0056,91,1,transit,SITE_PUN_007,18.5204324,73.8567282,12.0,326.86,0.0,0.112,4.78,1.073,-2.9549,326.8613,-0.95818,-0.00162,0.02738,0.28484,-0.0111,-0.0119,-9.698,0.248,0.0863,-0.1382,0.1397,3,18,0.71,1.07,0.27,24.595,17.86,93.1,35.6,20485.0,8900,8749,9074,8869,52.5,53.2,56.7,52.3,2.604,2.72,2.719,2.736,4.11,110.2,28.3,52.5,1008.37,-26.6,-0.3,1.6,22.3,43.0,33.1,0,no_anomaly,0.0,0,0,0,0,18.5204324,73.8567282,12.0,0.0
2024-04-06T16:50:09.200Z,MISSION_0056,92,1,transit,SITE_PUN_007,18.5204343,73.8567289,12.0,327.49,0.248,0.051,4.99,-1.3582,-1.2249,327.4871,-0.95986,0.01437,0.00694,0.28002,0.1472,-0.1062,-9.8539,-0.7112,0.5879,0.1434,0.1387,3,14,0.65,0.6,0.34,24.53,17.37,93.1,36.4,20473.0,8911,8962,9078,8825,52.6,51.1,52.7,54.3,2.579,2.736,2.851,2.609,4.53,115.2,28.4,52.9,1008.33,-25.22,2.4,1.93,26.0,38.4,34.3,0,no_anomaly,0.0,0,0,0,0,18.5204343,73.8567289,12.0,0.0
2024-04-06T16:50:09.300Z,MISSION_0056,93,1,transit,SITE_PUN_007,18.5204351,73.8567309,12.0,326.81,0.135,0.085,5.21,-0.122,-0.7218,326.8056,-0.95832,0.00282,0.00573,0.28564,-0.0236,0.049,-9.7809,-0.5785,0.5253,-0.1851,0.2312,3,20,0.71,0.67,0.29,24.59,17.52,93.0,36.6,20461.0,8835,8794,9195,8710,52.4,53.5,52.9,51.4,2.452,2.982,2.929,2.7,4.1,114.4,28.5,52.4,1007.95,-28.16,-0.7,1.43,24.1,39.8,33.0,0,no_anomaly,0.0,0,0,0,0,18.5204351,73.8567309,12.0,0.0
2024-04-06T16:50:09.400Z,MISSION_0056,94,1,orbit_base,SITE_PUN_007,18.5203241,73.8567253,12.3,324.36,0.025,0.146,8.91,-0.9988,-2.4553,324.3604,-0.95171,0.01485,0.01773,0.30612,-0.0752,0.0038,-9.7622,0.0391,0.187,0.0749,0.1811,3,10,0.72,0.98,0.33,24.579,19.42,92.9,36.8,20448.0,8767,8938,8845,8889,50.7,55.7,53.3,52.6,2.844,2.812,2.885,2.657,4.15,126.5,28.3,53.1,1008.33,-28.92,0.24,1.47,27.1,38.4,30.5,0,no_anomaly,0.0,0,0,0,0,18.5203241,73.8567253,12.3,0.0
2024-04-06T16:50:09.500Z,MISSION_0056,95,1,orbit_base,SITE_PUN_007,18.5203234,73.856723,12.6,324.5,0.0,0.081,8.91,-3.0071,-0.5713,324.5032,-0.95202,0.02651,-0.00325,0.30485,-0.1878,0.0498,-9.7906,0.0713,-0.328,-0.4716,0.2155,3,10,0.69,0.87,0.36,24.597,19.52,92.9,35.9,20436.0,8678,8872,8622,8799,53.8,55.9,54.7,52.3,2.748,2.654,2.514,2.745,4.05,113.1,28.7,53.0,1008.52,-33.43,-0.41,2.02,23.9,41.6,32.6,0,no_anomaly,0.0,0,0,0,0,18.5203234,73.856723,12.6,0.0
2024-04-06T16:50:09.600Z,MISSION_0056,96,1,orbit_base,SITE_PUN_007,18.5203227,73.8567207,12.9,325.1,0.372,0.064,8.91,-2.5733,-4.2485,325.1023,-0.95284,0.03252,0.02862,0.30037,-0.2598,0.0289,-9.7883,-0.815,0.5273,0.2123,0.2137,3,10,0.61,0.84,0.2,24.478,19.05,92.8,37.9,20424.0,8853,8858,8840,8766,53.8,56.0,53.7,52.0,2.91,2.862,2.596,2.619,4.06,109.8,28.4,52.8,1008.14,-32.58,-1.0,1.48,21.7,38.4,29.5,0,no_anomaly,0.0,0,0,0,0,18.5203227,73.8567207,12.9,0.0
2024-04-06T16:50:09.700Z,MISSION_0056,97,1,orbit_base,SITE_PUN_007,18.5203221,73.8567184,13.2,327.12,0.567,0.156,8.91,-5.4536,-3.877,327.1208,-0.95703,0.05517,0.01895,0.28407,0.1214,0.0521,-9.7424,0.209,0.9552,-0.44,0.0939,3,15,0.53,0.63,0.3,24.521,21.02,92.8,36.0,20412.0,8571,8817,9143,9165,54.5,52.6,53.5,51.6,2.869,2.703,3.064,2.719,3.86,120.0,28.7,52.0,1008.41,-30.56,0.32,1.74,18.8,41.4,28.3,0,no_anomaly,0.0,0,0,0,0,18.5203221,73.8567184,13.2,0.0
2024-04-06T16:50:09.800Z,MISSION_0056,98,1,orbit_base,SITE_PUN_007,18.5203216,73.856716,13.5,325.64,1.018,0.146,8.91,0.2632,-0.3854,325.6373,-0.95537,-0.0012,0.00389,0.29539,-0.0045,-0.0274,-9.8316,-0.47,-0.222,0.1579,0.1894,3,10,0.81,0.85,0.41,24.566,17.6,92.7,37.3,20399.0,8853,8851,8981,8868,53.5,49.7,55.1,54.1,2.398,2.93,2.663,2.813,4.05,110.2,28.3,52.0,1008.29,-22.75,-0.3,1.69,25.7,35.6,31.2,0,no_anomaly,0.0,0,0,0,0,18.5203216,73.856716,13.5,0.0
2024-04-06T16:50:09.900Z,MISSION_0056,99,1,orbit_base,SITE_PUN_007,18.5203212,73.8567137,13.8,324.83,0.917,0.143,8.91,3.7323,-3.6291,324.8312,-0.9526,-0.02147,0.04,0.30082,-0.064,-0.0033,-9.7761,0.0103,0.1403,0.2834,0.2375,3,17,0.66,0.89,0.2,24.583,18.01,92.7,36.9,20387.0,9019,9142,8794,8951,53.5,48.1,52.2,51.9,2.948,2.862,2.799,2.605,4.38,122.0,28.8,52.2,1008.46,-36.79,0.67,1.69,26.5,38.8,30.1,0,no_anomaly,0.0,0,0,0,0,18.5203212,73.8567137,13.8,0.0
2024-04-06T16:50:10.000Z,MISSION_0056,100,1,orbit_base,SITE_PUN_007,18.5203208,73.8567113,14.1,325.43,0.814,0.183,8.91,-0.4888,-3.4824,325.4273,-0.95434,0.0131,0.02775,0.29713,0.0559,-0.0696,-9.8257,-0.1344,0.0404,-0.0821,0.1722,3,15,0.65,0.76,0.2,24.644,15.91,92.6,36.1,20375.0,8907,8656,8665,8922,52.0,52.0,52.5,54.8,2.694,2.461,2.65,2.71,4.61,114.4,28.4,53.4,1008.71,-33.08,0.12,1.27,23.8,38.1,31.3,0,no_anomaly,0.0,0,0,0,0,18.5203208,73.8567113,14.1,0.0
2024-04-06T16:50:10.100Z,MISSION_0056,101,1,orbit_base,SITE_PUN_007,18.5203205,73.8567089,14.4,324.39,1.451,0.142,8.91,3.0964,-2.0209,324.3899,-0.95175,-0.02033,0.02504,0.30517,-0.0345,-0.0864,-9.7349,0.1979,0.9731,0.2858,0.1853,3,16,0.62,1.0,0.26,24.6,13.54,92.6,37.6,20362.0,8895,8770,9042,8982,52.1,53.9,53.6,52.4,2.884,2.84,2.686,2.843,3.39,113.7,28.5,53.0,1008.59,-31.41,1.74,1.28,20.9,38.6,29.8,0,no_anomaly,0.0,0,0,0,0,18.5203205,73.8567089,14.4,0.0
2024-04-06T16:50:10.200Z,MISSION_0056,102,1,orbit_base,SITE_PUN_007,18.5203203,73.8567065,14.7,321.93,1.369,0.068,8.91,-2.8734,-1.9236,321.9319,-0.94476,0.02917,0.00769,0.32638,-0.0236,-0.0242,-9.7583,0.7317,0.7936,0.0167,0.1712,3,13,0.8,0.88,0.4,24.689,17.19,92.5,35.5,20350.0,8802,8700,8722,8780,52.5,54.1,53.8,50.6,2.681,2.79,2.93,2.701,4.67,117.4,28.3,53.0,1008.54,-33.13,0.85,1.0,26.2,39.4,29.5,0,no_anomaly,0.0,0,0,0,0,18.5203203,73.8567065,14.7,0.0
2024-04-06T16:50:10.300Z,MISSION_0056,103,1,orbit_base,SITE_PUN_007,18.5203201,73.8567041,15.0,320.59,1.165,0.139,8.91,-0.025,-0.3706,320.5898,-0.94144,0.0013,0.00297,0.33718,-0.0067,0.0193,-9.8451,0.0383,-0.2833,-0.3126,0.1791,3,17,0.74,1.0,0.32,24.637,18.28,92.4,36.3,20338.0,8793,8936,8846,8725,54.9,56.7,54.0,50.4,2.803,2.749,2.334,2.885,4.13,109.1,28.3,53.6,1008.41,-30.08,0.75,1.78,21.1,35.0,29.8,0,no_anomaly,0.0,0,0,0,0,18.5203201,73.8567041,15.0,0.0
2024-04-06T16:50:10.400Z,MISSION_0056,104,1,orbit_base,SITE_PUN_007,18.52032,73.8567017,15.3,322.5,1.001,0.109,8.91,-4.7817,-2.5719,322.4981,-0.94556,0.0467,0.00783,0.32198,-0.2284,-0.0539,-9.8342,-0.4551,0.5665,-0.0279,0.1478,3,18,0.74,1.03,0.33,24.564,17.84,92.4,37.1,20326.0,9027,9102,8681,8732,51.3,49.6,57.2,50.9,2.802,2.827,3.042,2.673,4.66,117.8,28.2,53.7,1008.33,-28.45,-0.58,1.53,24.7,37.7,32.8,0,no_anomaly,0.0,0,0,0,0,18.52032,73.8567017,15.3,0.0
2024-04-06T16:50:10.500Z,MISSION_0056,105,1,orbit_base,SITE_PUN_007,18.52032,73.8566993,15.6,321.66,0.899,0.107,8.91,0.7282,0.1177,321.6596,-0.94453,-0.00634,0.00112,0.32837,-0.1086,0.0922,-9.81,0.1298,0.2202,0.3141,0.2148,3,11,0.59,0.8,0.22,24.509,16.98,92.3,36.9,20313.0,8746,8625,8571,8779,53.5,48.8,51.3,56.1,3.062,2.76,2.76,2.9,3.54,115.7,28.3,51.5,1007.9,-32.86,-0.47,1.46,23.3,39.5,31.8,0,no_anomaly,0.0,0,0,0,0,18.52032,73.8566993,15.6,0.0
2024-04-06T16:50:10.600Z,MISSION_0056,106,1,orbit_base,SITE_PUN_007,18.5203201,73.8566969,15.9,321.05,0.96,0.02,8.91,0.124,-1.9816,321.0549,-0.94267,0.00474,0.01666,0.33329,-0.1949,0.0782,-9.8416,-0.631,0.2017,0.5585,0.0755,3,16,0.55,1.03,0.2,24.577,15.28,92.3,35.8,20301.0,8690,8908,8735,8797,57.2,57.9,57.4,55.1,2.679,2.764,2.65,2.683,4.64,116.1,28.8,52.6,1008.36,-31.77,0.07,1.43,21.3,38.7,27.1,0,no_anomaly,0.0,0,0,0,0,18.5203201,73.8566969,15.9,0.0
2024-04-06T16:50:10.700Z,MISSION_0056,107,1,orbit_base,SITE_PUN_007,18.5203202,73.8566945,16.2,321.89,1.263,0.14,8.91,-0.4051,-4.7498,321.8946,-0.94435,0.01687,0.03801,0.32629,0.104,-0.0438,-9.9109,0.4972,-0.1562,-0.2475,0.1779,3,11,0.85,1.11,0.26,24.638,29.01,92.2,35.9,20289.0,8696,9175,8744,8846,52.6,53.3,55.0,51.0,2.691,2.74,2.704,2.989,4.32,115.7,28.6,54.1,1008.57,-32.15,0.63,1.5,27.7,41.8,33.5,0,no_anomaly,0.0,0,0,0,0,18.5203202,73.8566945,16.2,0.0
2024-04-06T16:50:10.800Z,MISSION_0056,108,1,orbit_base,SITE_PUN_007,18.5203204,73.8566921,16.5,323.59,1.104,0.104,8.91,-1.7142,-4.3734,323.587,-0.94896,0.02612,0.03157,0.31272,0.1552,0.0222,-9.8024,-0.2349,0.6545,0.2269,0.1484,3,13,0.63,0.98,0.29,24.586,19.04,92.2,35.9,20277.0,8809,8951,8894,8849,51.8,55.4,49.7,56.6,2.94,2.713,2.746,2.734,4.22,102.6,28.4,52.8,1008.27,-31.47,-0.59,1.76,20.5,40.4,29.6,0,no_anomaly,0.0,0,0,0,0,18.5203204,73.8566921,16.5,0.0
2024-04-06T16:50:10.900Z,MISSION_0056,109,1,orbit_base,SITE_PUN_007,18.5203207,73.8566898,16.8,322.55,1.214,0.068,8.91,-2.4418,-3.0969,322.5507,-0.94633,0.02884,0.01875,0.32138,-0.204,0.0669,-9.8535,0.3094,0.791,0.8935,0.1982,3,19,0.5,0.84,0.26,24.605,21.83,92.1,36.1,20264.0,8794,9038,8665,8768,54.2,54.6,54.9,56.1,3.062,2.683,2.81,2.868,4.14,108.8,28.5,52.9,1008.25,-28.75,-1.87,1.67,20.2,33.9,32.6,0,no_anomaly,0.0,0,0,0,0,18.5203207,73.8566898,16.8,0.0
2024-04-06T16:50:11.000Z,MISSION_0056,110,1,orbit_base,SITE_PUN_007,18.520321,73.8566874,17.1,323.55,1.207,0.06,8.91,-2.2162,-3.1206,323.5495,-0.94914,0.02688,0.01981,0.31308,0.0071,-0.0294,-9.8157,-0.2583,-0.386,0.361,0.2274,3,12,0.61,0.82,0.2,24.553,16.71,92.1,36.6,20252.0,8874,8779,8831,9191,52.2,52.6,52.5,57.7,2.96,2.82,3.023,2.823,4.74,108.2,28.7,52.8,1008.54,-27.29,-0.08,1.14,21.3,41.3,29.1,0,no_anomaly,0.0,0,0,0,0,18.520321,73.8566874,17.1,0.0
2024-04-06T16:50:11.100Z,MISSION_0056,111,1,orbit_base,SITE_PUN_007,18.5203214,73.856685,17.4,323.75,0.718,0.13,8.91,2.8486,-1.9303,323.7452,-0.95007,-0.01838,0.02374,0.31059,-0.0948,-0.0076,-9.8545,0.4384,0.7173,-0.064,0.1227,3,18,0.71,0.89,0.42,24.605,21.31,92.0,35.9,20240.0,8651,9043,8851,8989,51.4,55.8,54.0,54.5,2.676,2.829,2.808,2.697,3.11,106.1,28.5,52.1,1008.24,-30.65,0.69,1.75,25.3,37.7,29.9,0,no_anomaly,0.0,0,0,0,0,18.5203214,73.856685,17.4,0.0
2024-04-06T16:50:11.200Z,MISSION_0056,112,1,orbit_base,SITE_PUN_007,18.5203219,73.8566827,17.7,321.43,1.22,0.044,8.91,-3.1539,-2.4716,321.4309,-0.94312,0.03309,0.01126,0.33062,-0.0688,-0.0035,-9.7128,0.0011,-0.6039,-0.2538,0.1559,3,18,0.58,0.66,0.36,24.552,23.23,91.9,36.4,20227.0,9039,8711,8901,8849,51.4,50.9,52.7,53.9,2.959,2.552,2.685,2.736,5.06,114.1,28.2,53.0,1008.24,-27.47,-0.03,1.38,21.8,34.7,32.0,0,no_anomaly,0.0,0,0,0,0,18.5203219,73.8566827,17.7,0.0
2024-04-06T16:50:11.300Z,MISSION_0056,113,1,orbit_base,SITE_PUN_007,18.5203225,73.8566803,18.0,320.04,1.23,0.095,8.91,1.7958,-3.7602,320.0374,-0.93936,-0.00351,0.03618,0.341,-0.0191,-0.0094,-9.7496,-0.7854,0.3338,0.5012,0.1289,3,11,0.74,0.99,0.37,24.601,19.98,91.9,36.8,20215.0,8812,9193,8850,8876,52.8,55.3,55.2,47.9,2.833,2.867,2.669,2.907,3.18,107.5,28.4,52.6,1008.66,-25.07,-0.85,1.46,21.2,36.7,26.8,0,no_anomaly,0.0,0,0,0,0,18.5203225,73.8566803,18.0,0.0
2024-04-06T16:50:11.400Z,MISSION_0056,114,1,orbit_base,SITE_PUN_007,18.5203231,73.856678,18.3,318.11,1.703,0.205,8.91,-1.6339,0.2069,318.1101,-0.93384,0.01267,-0.00678,0.35741,0.0348,-0.025,-9.8641,-0.4974,-0.8774,0.4401,0.2051,3,12,0.66,0.77,0.33,24.602,15.44,91.8,37.4,20203.0,9021,8805,9008,8771,53.0,54.0,54.4,52.7,2.715,3.022,3.077,3.011,3.7,103.5,28.6,52.6,1008.53,-24.53,0.94,1.76,23.6,40.2,34.2,0,no_anomaly,0.0,0,0,0,0,18.5203231,73.856678,18.3,0.0
2024-04-06T16:50:11.500Z,MISSION_0056,115,1,orbit_base,SITE_PUN_007,18.5203238,73.8566757,18.6,316.64,1.633,0.129,8.91,-2.0115,-3.949,316.6408,-0.92835,0.02903,0.02553,0.3697,-0.1688,0.0518,-9.8301,0.3506,-0.1172,0.0739,0.2325,3,18,0.67,1.18,0.22,24.555,14.87,91.8,37.3,20191.0,8895,8867,8934,8735,55.2,52.4,54.6,52.5,2.611,2.905,2.876,2.562,4.02,114.5,28.4,53.4,1008.79,-29.8,-0.16,1.64,23.9,39.3,27.6,0,no_anomaly,0.0,0,0,0,0,18.5203238,73.8566757,18.6,0.0
2024-04-06T16:50:11.600Z,MISSION_0056,116,1,orbit_base,SITE_PUN_007,18.5203245,73.8566734,18.9,315.98,1.234,0.195,8.91,-1.2743,-1.0915,315.9752,-0.92696,0.01388,0.00466,0.37487,0.0031,-0.0393,-9.7102,-0.8678,0.0943,0.2839,0.1997,3,12,0.62,0.68,0.22,24.661,15.96,91.7,37.1,20178.0,8775,8974,8867,8863,51.8,57.4,53.8,54.2,2.71,2.961,3.075,2.861,3.92,118.9,28.4,53.0,1008.57,-34.33,1.36,1.0,23.2,44.7,35.6,0,no_anomaly,0.0,0,0,0,0,18.5203245,73.8566734,18.9,0.0
2024-04-06T16:50:11.700Z,MISSION_0056,117,1,orbit_base,SITE_PUN_007,18.5203254,73.8566712,19.2,316.35,1.01,0.088,8.91,5.7018,-2.0396,316.3486,-0.92735,-0.03956,0.03499,0.37044,0.1532,0.0027,-9.8603,0.4489,0.4421,-0.2206,0.1948,3,13,0.71,1.18,0.24,24.566,17.73,91.7,37.6,20166.0,8838,9008,8880,8850,51.3,52.3,56.0,51.3,2.946,2.948,2.961,2.64,4.43,112.2,28.2,52.9,1008.27,-32.68,0.52,1.61,24.0,33.7,28.6,0,no_anomaly,0.0,0,0,0,0,18.5203254,73.8566712,19.2,0.0
2024-04-06T16:50:11.800Z,MISSION_0056,118,1,orbit_base,SITE_PUN_007,18.5203263,73.856669,19.5,317.9,0.502,0.095,8.91,-0.216,-2.7582,317.9028,-0.93299,0.0104,0.02178,0.3591,0.1175,0.0654,-9.7443,0.9931,0.2681,0.1658,0.2191,3,10,0.75,0.91,0.2,24.585,18.58,91.6,36.4,20154.0,8823,8998,9027,8759,55.1,58.1,53.9,55.8,2.683,2.854,2.901,2.682,4.16,112.5,28.8,52.7,1008.38,-30.87,-0.75,1.39,23.5,38.5,33.8,0,no_anomaly,0.0,0,0,0,0,18.5203263,73.856669,19.5,0.0
2024-04-06T16:50:11.900Z,MISSION_0056,119,1,orbit_base,SITE_PUN_007,18.5203272,73.8566668,19.8,320.33,0.812,0.091,8.91,-2.9407,-1.5246,320.3336,-0.94018,0.02865,0.00381,0.33946,0.0706,0.0394,-9.8139,0.0818,-0.384,-0.0149,0.1774,3,15,0.75,0.9,0.21,24.561,20.57,91.6,37.1,20142.0,8688,8876,9006,8909,51.9,57.0,55.0,52.4,2.856,3.138,2.919,2.722,4.45,114.1,28.5,53.4,1008.4,-34.63,1.43,1.33,24.8,42.0,30.6,0,no_anomaly,0.0,0,0,0,0,18.5203272,73.8566668,19.8,0.0
2024-04-06T16:50:12.000Z,MISSION_0056,120,1,orbit_base,SITE_PUN_007,18.5203283,73.8566646,20.1,320.23,0.978,0.125,8.91,-3.4646,-0.8611,320.2296,-0.93984,0.03098,-0.00322,0.34019,0.0519,0.0024,-9.8096,0.3287,-0.6951,0.4942,0.1501,3,11,0.65,0.79,0.25,24.629,16.28,91.5,36.8,20129.0,9187,9173,9054,8831,55.8,55.4,53.2,53.5,2.655,2.831,2.67,2.718,3.54,109.6,28.4,52.9,1008.42,-24.69,-0.66,1.27,24.6,36.9,32.2,0,no_anomaly,0.0,0,0,0,0,18.5203283,73.8566646,20.1,0.0
2024-04-06T16:50:12.100Z,MISSION_0056,121,1,orbit_base,SITE_PUN_007,18.5203294,73.8566625,20.4,320.77,1.179,0.023,8.91,-0.409,0.2669,320.7687,-0.94196,0.00258,-0.00339,0.3357,-0.0291,-0.0162,-9.8027,0.2188,0.4003,0.3485,0.256,3,14,0.68,0.8,0.34,24.609,19.49,91.4,37.3,20117.0,8774,8660,9002,8800,59.0,51.7,52.5,52.7,2.71,2.483,2.706,2.563,4.16,114.6,28.4,52.5,1008.32,-34.45,-1.34,1.52,25.4,42.7,30.3,0,no_anomaly,0.0,0,0,0,0,18.5203294,73.8566625,20.4,0.0
2024-04-06T16:50:12.200Z,MISSION_0056,122,1,orbit_base,SITE_PUN_007,18.5203305,73.8566604,20.7,321.01,1.629,0.022,8.91,-0.2941,-3.61,321.01,-0.94217,0.01293,0.02884,0.33363,-0.0685,-0.0014,-9.8604,-0.1745,0.0395,0.0275,0.1777,3,13,0.71,1.01,0.33,24.543,20.15,91.4,36.6,20105.0,8605,8582,8699,8953,57.9,57.5,53.8,54.7,2.86,2.881,2.854,2.685,3.87,105.0,28.7,52.8,1008.37,-25.6,0.83,1.52,24.5,34.2,30.3,0,no_anomaly,0.0,0,0,0,0,18.5203305,73.8566604,20.7,0.0
2024-04-06T16:50:12.300Z,MISSION_0056,123,1,orbit_base,SITE_PUN_007,18.5203317,73.8566583,21.0,322.17,1.906,0.123,8.91,-1.5237,-0.1477,322.1731,-0.94592,0.013,-0.00309,0.32413,-0.2327,0.0833,-9.8569,0.8591,0.5037,-0.2725,0.2104,3,17,0.73,0.81,0.32,24.483,25.1,91.3,37.2,20093.0,8950,9125,8813,8903,52.5,56.6,50.9,51.8,2.804,2.855,2.742,2.889,3.77,117.0,28.3,53.8,1008.34,-34.25,0.41,1.69,22.0,40.7,29.9,0,no_anomaly,0.0,0,0,0,0,18.5203317,73.8566583,21.0,0.0
2024-04-06T16:50:12.400Z,MISSION_0056,124,1,orbit_base,SITE_PUN_007,18.520333,73.8566563,21.3,322.69,2.408,0.144,8.91,2.3511,-3.9537,322.6869,-0.94692,-0.00839,0.03923,0.31897,-0.0573,-0.0109,-9.7556,-0.1533,-0.1082,0.322,0.1193,3,19,0.66,0.87,0.28,24.597,18.99,91.3,36.7,20080.0,9155,9025,9323,8894,56.2,52.8,53.5,55.6,2.527,2.87,2.554,2.712,4.22,114.8,28.3,53.0,1008.6,-30.7,-0.38,1.55,25.9,37.0,31.1,0,no_anomaly,0.0,0,0,0,0,18.520333,73.8566563,21.3,0.0
2024-04-06T16:50:12.500Z,MISSION_0056,125,1,orbit_base,SITE_PUN_007,18.5203344,73.8566543,21.6,322.29,2.058,0.055,8.91,-1.5612,0.0389,322.2876,-0.94625,0.01278,-0.00472,0.32316,0.1093,0.0056,-9.7678,-0.3589,0.2203,0.4423,0.1776,3,16,0.82,1.04,0.3,24.592,16.06,91.2,37.5,20068.0,8977,8989,9160,8946,54.6,53.0,55.3,52.8,3.019,2.932,2.841,2.745,3.54,114.6,28.6,53.2,1008.6,-30.46,-0.57,1.35,24.9,35.6,31.6,0,no_anomaly,0.0,0,0,0,0,18.5203344,73.8566543,21.6,0.0
2024-04-06T16:50:12.600Z,MISSION_0056,126,1,orbit_base,SITE_PUN_007,18.5203358,73.8566523,21.9,320.58,2.159,-0.029,8.91,3.7323,-1.0995,320.5767,-0.94096,-0.02742,0.02001,0.3368,0.0668,-0.0103,-9.819,0.0551,-1.3669,-0.2952,0.2423,3,17,0.8,0.91,0.39,24.525,21.55,91.2,36.2,20056.0,8967,8948,8924,9070,52.2,53.2,55.6,51.2,3.055,2.791,2.789,2.993,4.85,111.5,28.7,53.1,1008.31,-23.88,0.71,1.52,21.5,41.4,31.5,0,no_anomaly,0.0,0,0,0,0,18.5203358,73.8566523,21.9,0.0
2024-04-06T16:50:12.700Z,MISSION_0056,127,1,orbit_base,SITE_PUN_007,18.5203372,73.8566504,22.2,320.91,1.592,0.116,8.91,-0.8132,0.3834,320.9079,-0.94235,0.00557,-0.00553,0.33453,0.3156,-0.0158,-9.8561,0.1021,0.61,0.0815,0.1304,3,17,0.73,0.81,0.23,24.553,18.14,91.1,36.9,20043.0,8850,8826,8702,8924,55.2,52.3,52.5,54.1,2.828,2.635,2.764,2.947,3.57,116.5,28.0,53.2,1008.66,-26.13,-0.77,1.84,20.6,41.6,29.8,0,no_anomaly,0.0,0,0,0,0,18.5203372,73.8566504,22.2,0.0
2024-04-06T16:50:12.800Z,MISSION_0056,128,1,orbit_base,SITE_PUN_007,18.5203387,73.8566486,22.5,321.89,1.705,0.091,8.91,-2.5818,-6.3481,321.8941,-0.94312,0.03933,0.04498,0.32704,0.0824,0.0425,-9.866,0.6232,0.5013,-0.0282,0.2046,3,13,0.71,0.87,0.36,24.553,15.3,91.1,36.2,20031.0,8672,8855,8608,8870,54.6,54.1,51.0,55.1,2.95,3.062,2.611,2.921,4.34,103.2,28.7,52.6,1008.47,-28.34,0.89,1.63,25.2,41.0,33.4,0,no_anomaly,0.0,0,0,0,0,18.5203387,73.8566486,22.5,0.0
