timestamp_utc,mission_id,frame_id,waypoint_id,inspection_phase,site_id,latitude_deg,longitude_deg,altitude_m,heading_deg,ground_speed_ms,vertical_speed_ms,distance_to_tower_m,roll_deg,pitch_deg,yaw_deg,quat_w,quat_x,quat_y,quat_z,accel_x_ms2,accel_y_ms2,accel_z_ms2,gyro_x_rads,gyro_y_rads,gyro_z_rads,vibration_level,gps_fix_type,gps_satellite_count,gps_hdop,gps_vdop,position_error_m,battery_voltage_v,battery_current_a,battery_remaining_pct,battery_temp_c,battery_capacity_mah,motor_fl_rpm,motor_fr_rpm,motor_rl_rpm,motor_rr_rpm,motor_fl_temp_c,motor_fr_temp_c,motor_rl_temp_c,motor_rr_temp_c,motor_fl_thrust_n,motor_fr_thrust_n,motor_rl_thrust_n,motor_rr_thrust_n,wind_speed_ms,wind_dir_deg,air_temp_c,humidity_pct,pressure_hpa,gimbal_pitch_deg,gimbal_roll_deg,zoom_factor,ir_temp_min_c,ir_temp_max_c,ir_temp_avg_c,anomaly_detected,anomaly_class,anomaly_confidence,anomaly_bbox_x,anomaly_bbox_y,anomaly_bbox_w,anomaly_bbox_h,anomaly_gps_lat,anomaly_gps_lon,anomaly_gps_alt_m,ir_temp_delta_c
2024-12-19T17:22:00.000Z,MISSION_0005,0,0,takeoff,SITE_KOL_006,22.5726008,88.3639042,1.5,230.27,0.108,0.132,0.47,-2.9702,1.3003,230.2671,-0.42483,0.00074,-0.02828,0.90483,-0.1347,-0.0249,-9.7742,-0.2396,0.5183,-0.0612,0.1446,3,12,0.87,0.83,0.24,24.775,16.6,98.3,43.3,21630.0,7462,7618,7359,7298,59.0,57.6,62.2,58.1,2.701,2.662,2.715,2.897,4.09,245.1,35.2,40.2,1014.35,-32.01,-2.14,1.43,30.9,40.2,37.9,0,no_anomaly,0.0,0,0,0,0,22.5726008,88.3639042,1.5,0.0
2024-12-19T17:22:00.100Z,MISSION_0005,1,0,takeoff,SITE_KOL_006,22.5726034,88.3639075,3.0,231.22,0.0,0.163,0.92,-3.4942,-0.7516,231.2196,-0.43185,0.01909,-0.02466,0.90141,-0.0342,0.0693,-9.8188,0.3442,-0.3437,0.0493,0.1627,3,17,0.63,0.93,0.38,24.808,24.24,98.3,42.4,21618.0,7593,7315,7376,7334,62.2,61.0,59.5,57.4,2.887,2.916,2.748,2.925,4.49,238.6,35.1,40.4,1014.13,-30.95,0.65,1.69,30.0,47.0,35.2,0,no_anomaly,0.0,0,0,0,0,22.5726034,88.3639075,3.0,0.0
2024-12-19T17:22:00.200Z,MISSION_0005,2,0,takeoff,SITE_KOL_006,22.5725997,88.3639092,4.5,233.67,0.0,0.087,1.02,2.0429,0.6194,233.6687,-0.45125,-0.01287,0.01347,0.8922,-0.1742,0.0174,-9.8306,-0.2222,-0.4674,0.4119,0.2196,3,11,0.61,0.76,0.2,24.789,19.71,98.2,43.5,21606.0,7207,7568,7373,7211,58.1,60.8,62.2,58.3,2.516,2.713,2.835,2.67,2.45,244.3,35.2,41.0,1014.44,-27.01,1.53,1.67,30.3,48.4,36.4,0,no_anomaly,0.0,0,0,0,0,22.5725997,88.3639092,4.5,0.0
2024-12-19T17:22:00.300Z,MISSION_0005,3,0,takeoff,SITE_KOL_006,22.5725983,88.3639089,5.0,230.23,0.121,0.123,1.01,-2.987,0.4308,230.2284,-0.42437,0.00766,-0.02519,0.90511,0.0455,-0.043,-9.7791,-0.9666,-0.2095,0.4523,0.141,3,11,0.74,0.9,0.29,24.737,23.61,98.2,43.1,21594.0,7415,7514,7253,7384,60.4,60.5,63.1,60.3,2.765,2.706,2.862,2.632,3.69,230.3,35.0,40.7,1014.19,-28.61,-0.11,1.77,30.0,40.4,38.9,0,no_anomaly,0.0,0,0,0,0,22.5725983,88.3639089,5.0,0.0
2024-12-19T17:22:00.400Z,MISSION_0005,4,0,takeoff,SITE_KOL_006,22.5726,88.3639079,5.0,229.93,0.576,0.106,0.88,-1.4846,-3.8316,229.9267,-0.42137,0.03577,0.00237,0.90618,-0.0671,-0.0776,-9.757,-0.2201,0.1889,0.0438,0.2031,3,10,0.57,0.86,0.26,24.794,20.09,98.1,44.2,21582.0,7508,7501,7629,7523,62.5,59.8,56.9,61.6,2.775,2.904,2.654,2.865,3.77,237.3,35.0,40.6,1014.2,-33.01,0.12,1.93,31.6,46.6,36.6,0,no_anomaly,0.0,0,0,0,0,22.5726,88.3639079,5.0,0.0
2024-12-19T17:22:00.500Z,MISSION_0005,5,0,takeoff,SITE_KOL_006,22.5725982,88.3639049,5.0,228.45,0.916,0.069,0.58,-5.7459,-2.6084,228.4504,-0.40866,0.04129,-0.03637,0.91103,-0.195,-0.0005,-9.8054,0.0469,-0.403,-0.0967,0.2739,3,15,0.78,0.87,0.29,24.714,19.8,98.0,42.9,21570.0,7597,7387,7410,7424,61.3,61.1,63.1,56.3,2.707,2.844,2.794,2.888,4.07,236.1,35.3,40.3,1014.23,-29.19,0.38,1.67,29.8,50.0,39.5,0,no_anomaly,0.0,0,0,0,0,22.5725982,88.3639049,5.0,0.0
2024-12-19T17:22:00.600Z,MISSION_0005,6,0,takeoff,SITE_KOL_006,22.5725961,88.3639083,5.0,228.93,1.244,0.077,1.02,-2.2266,-2.2065,228.9255,-0.41361,0.02557,-0.00971,0.91005,-0.1814,-0.0526,-9.7988,0.1401,0.2607,-0.0208,0.1494,3,13,0.52,0.91,0.2,24.706,22.37,98.0,43.6,21558.0,7367,7358,7470,7566,57.6,58.5,61.4,58.2,2.918,2.672,2.869,2.785,4.17,235.1,35.0,40.8,1013.79,-33.13,-0.72,1.38,32.6,47.0,39.4,0,no_anomaly,0.0,0,0,0,0,22.5725961,88.3639083,5.0,0.0
2024-12-19T17:22:00.700Z,MISSION_0005,7,0,takeoff,SITE_KOL_006,22.5726005,88.3639044,5.0,228.43,1.48,0.052,0.49,0.9736,-1.597,228.4266,-0.41019,0.00923,0.01346,0.91186,0.1932,0.0491,-9.7647,0.0557,-0.9949,-0.1212,0.1873,3,10,0.65,0.9,0.33,24.741,20.5,97.9,42.9,21546.0,7408,7143,7373,7325,59.9,62.1,60.1,62.4,2.641,2.763,2.802,3.087,3.83,232.9,35.0,40.4,1013.93,-34.39,0.09,1.84,31.8,42.5,37.5,0,no_anomaly,0.0,0,0,0,0,22.5726005,88.3639044,5.0,0.0
2024-12-19T17:22:00.800Z,MISSION_0005,8,0,takeoff,SITE_KOL_006,22.5725988,88.3639053,5.0,228.49,1.25,0.081,0.6,-1.5828,-2.7123,228.4851,-0.41015,0.02725,-0.00287,0.91161,-0.1194,-0.0223,-9.9097,0.5403,-0.108,0.2449,0.2499,3,13,0.72,1.02,0.44,24.744,20.68,97.9,43.6,21534.0,7269,7582,7069,7755,58.0,62.5,59.7,59.0,2.653,2.89,2.999,2.731,3.94,239.3,35.4,41.1,1014.19,-29.32,-0.25,1.45,27.8,44.6,35.3,0,no_anomaly,0.0,0,0,0,0,22.5725988,88.3639053,5.0,0.0
2024-12-19T17:22:00.900Z,MISSION_0005,9,0,takeoff,SITE_KOL_006,22.5726016,88.3639083,5.0,229.03,1.316,0.17,0.94,-5.1936,-1.1734,229.0267,-0.41404,0.0281,-0.03698,0.90908,-0.3102,0.0049,-9.7997,0.4813,-0.0462,-0.6327,0.142,3,20,0.82,0.71,0.26,24.797,24.63,97.8,43.2,21522.0,7605,7425,6954,7434,60.7,58.5,58.7,60.1,2.998,2.774,2.656,2.877,5.08,235.7,35.1,40.4,1013.96,-28.17,1.2,1.4,28.2,47.9,35.6,0,no_anomaly,0.0,0,0,0,0,22.5726016,88.3639083,5.0,0.0
2024-12-19T17:22:01.000Z,MISSION_0005,10,0,takeoff,SITE_KOL_006,22.5725977,88.363911,5.0,230.77,1.045,0.033,1.25,-0.6517,-0.8357,230.7737,-0.42867,0.00903,-0.00201,0.90341,-0.1386,0.0876,-9.7661,-0.365,-0.1213,-0.1777,0.1634,3,14,0.64,0.81,0.26,24.801,16.34,97.8,43.5,21510.0,7631,7358,7661,7188,59.1,63.0,60.2,61.0,2.841,3.167,2.738,2.54,2.64,235.5,35.1,40.5,1014.4,-26.89,-0.88,1.65,31.4,40.4,34.6,0,no_anomaly,0.0,0,0,0,0,22.5725977,88.363911,5.0,0.0
2024-12-19T17:22:01.100Z,MISSION_0005,11,0,takeoff,SITE_KOL_006,22.5725998,88.3639101,5.0,230.66,1.017,0.136,1.12,-5.5016,-4.6805,230.66,-0.42521,0.05738,-0.02589,0.9029,-0.0531,-0.0361,-9.7408,-0.4034,-0.6152,0.314,0.0701,3,18,0.84,0.73,0.3,24.738,17.06,97.7,43.4,21498.0,7343,7593,7443,7552,59.2,59.9,61.2,60.2,2.567,3.039,2.866,3.06,3.51,227.2,35.3,40.5,1014.23,-27.57,1.84,1.16,28.4,45.8,35.2,0,no_anomaly,0.0,0,0,0,0,22.5725998,88.3639101,5.0,0.0
2024-12-19T17:22:01.200Z,MISSION_0005,12,0,takeoff,SITE_KOL_006,22.5725993,88.363914,5.0,229.75,1.232,0.084,1.57,-3.8887,-2.5029,229.7484,-0.41961,0.03407,-0.02159,0.90681,-0.179,0.0429,-9.779,0.6483,0.8884,-0.1766,0.1491,3,15,0.5,0.9,0.24,24.697,16.01,97.7,42.8,21486.0,7407,7626,7555,7661,57.7,58.9,61.1,58.5,2.808,2.881,2.884,2.785,3.34,229.9,34.8,40.5,1014.07,-32.14,1.43,1.95,29.6,47.5,38.4,0,no_anomaly,0.0,0,0,0,0,22.5725993,88.363914,5.0,0.0
2024-12-19T17:22:01.300Z,MISSION_0005,13,0,takeoff,SITE_KOL_006,22.5726025,88.3639182,5.0,227.44,1.142,0.091,2.04,4.1562,-2.9082,227.4357,-0.40268,0.00864,0.04339,0.91427,0.0169,0.0467,-9.7708,0.2752,-0.1773,0.2031,0.1167,3,12,0.87,0.99,0.33,24.733,14.48,97.6,43.4,21474.0,7399,7616,7469,7410,62.8,60.4,60.7,59.8,2.73,2.74,2.823,3.137,3.62,233.1,35.1,40.7,1014.06,-30.51,0.68,1.35,32.8,43.6,36.3,0,no_anomaly,0.0,0,0,0,0,22.5726025,88.3639182,5.0,0.0
2024-12-19T17:22:01.400Z,MISSION_0005,14,0,takeoff,SITE_KOL_006,22.5726028,88.3639173,5.0,228.04,1.022,0.162,1.95,5.8052,-5.2849,228.0384,-0.40822,0.02147,0.06495,0.91032,0.1242,-0.0316,-9.8083,0.0707,0.2524,0.2937,0.1541,3,19,0.66,0.77,0.36,24.686,20.81,97.6,42.8,21462.0,7453,7252,7260,7724,61.6,59.5,62.3,62.9,2.965,2.777,2.711,2.876,3.43,231.1,35.3,40.8,1014.3,-25.99,-1.64,2.03,31.8,48.4,39.9,0,no_anomaly,0.0,0,0,0,0,22.5726028,88.3639173,5.0,0.0
2024-12-19T17:22:01.500Z,MISSION_0005,15,0,takeoff,SITE_KOL_006,22.5726018,88.363918,5.0,226.86,1.386,0.054,2.02,-3.487,0.0792,226.856,-0.39743,0.01146,-0.02819,0.91713,-0.0696,0.0964,-9.7615,-0.1411,-0.2788,-0.3166,0.2034,3,15,0.87,0.79,0.24,24.786,20.32,97.5,43.6,21450.0,7393,7638,7153,7518,61.1,60.6,56.7,61.5,3.004,2.754,2.852,2.83,4.32,234.1,35.3,39.9,1014.41,-29.77,-1.21,1.04,28.4,48.1,35.0,0,no_anomaly,0.0,0,0,0,0,22.5726018,88.363918,5.0,0.0
2024-12-19T17:22:01.600Z,MISSION_0005,16,0,takeoff,SITE_KOL_006,22.5726041,88.3639236,5.0,226.32,1.545,0.142,2.67,3.1481,-0.3723,226.3152,-0.39319,-0.00782,0.02653,0.91904,0.0184,0.0255,-9.6985,-0.9146,0.5428,-0.636,0.2476,3,20,0.89,0.87,0.48,24.778,24.37,97.4,43.6,21438.0,7681,7524,7448,7556,59.1,62.7,58.5,61.4,2.606,2.583,2.913,2.553,3.93,218.2,35.3,40.8,1013.98,-26.85,-0.86,1.63,33.6,49.9,39.2,0,no_anomaly,0.0,0,0,0,0,22.5726041,88.3639236,5.0,0.0
2024-12-19T17:22:01.700Z,MISSION_0005,17,0,takeoff,SITE_KOL_006,22.5725987,88.3639295,5.0,225.22,1.569,0.091,3.29,-0.8659,0.7083,225.2227,-0.3845,-0.0028,-0.00935,0.92307,0.0677,0.034,-9.8502,0.5043,0.5654,0.1683,0.1213,3,19,0.72,1.0,0.32,24.727,15.73,97.4,43.4,21426.0,7247,7354,7257,7400,59.7,59.6,57.4,63.3,2.733,2.741,2.603,2.639,4.02,243.3,35.4,40.5,1014.52,-28.76,0.04,1.73,29.4,41.3,38.5,0,no_anomaly,0.0,0,0,0,0,22.5725987,88.3639295,5.0,0.0
2024-12-19T17:22:01.800Z,MISSION_0005,18,0,takeoff,SITE_KOL_006,22.5725973,88.363928,5.0,223.39,1.598,0.142,3.13,5.1433,0.5037,223.3918,-0.36912,-0.02067,0.04007,0.92829,0.0627,0.0091,-9.8846,0.3142,-0.3392,0.2223,0.224,3,17,1.02,0.86,0.47,24.764,18.05,97.3,43.6,21414.0,7460,7522,7313,7219,59.6,59.9,59.8,58.4,2.921,2.794,3.066,2.744,4.35,242.2,35.3,40.3,1014.1,-31.77,0.47,1.65,26.9,46.6,34.9,0,no_anomaly,0.0,0,0,0,0,22.5725973,88.363928,5.0,0.0
2024-12-19T17:22:01.900Z,MISSION_0005,19,0,takeoff,SITE_KOL_006,22.5725973,88.36393,5.0,223.22,1.218,0.095,3.35,0.8821,-2.3963,223.2177,-0.36833,0.01661,0.01486,0.92943,0.0107,0.0125,-9.7335,-0.7142,0.6276,0.2946,0.1358,3,17,0.82,0.76,0.37,24.69,18.31,97.3,43.6,21402.0,7463,7401,7457,7348,60.2,61.1,61.7,55.8,2.907,2.576,2.777,2.772,2.78,244.6,35.3,40.6,1013.88,-31.99,-0.72,2.25,30.8,41.2,35.6,0,no_anomaly,0.0,0,0,0,0,22.5725973,88.36393,5.0,0.0
2024-12-19T17:22:02.000Z,MISSION_0005,20,0,takeoff,SITE_KOL_006,22.5725951,88.3639309,5.0,224.61,1.683,0.125,3.49,-0.2431,-0.6977,224.6112,-0.37953,0.00644,0.00035,0.92516,0.1301,0.0588,-9.8146,0.1685,0.2054,0.1222,0.2338,3,15,0.69,0.96,0.3,24.666,18.58,97.2,43.7,21390.0,7481,7218,7519,7520,61.0,63.0,62.3,59.2,2.909,2.991,2.784,2.961,3.96,229.8,35.0,41.0,1013.94,-34.26,-0.51,1.21,32.2,47.9,39.4,0,no_anomaly,0.0,0,0,0,0,22.5725951,88.3639309,5.0,0.0
2024-12-19T17:22:02.100Z,MISSION_0005,21,0,takeoff,SITE_KOL_006,22.5725918,88.363935,5.0,222.26,1.831,0.119,4.01,-1.9703,-2.0912,222.2595,-0.36007,0.02322,-0.00946,0.93259,-0.1004,-0.0655,-9.8997,0.6345,1.1664,0.4031,0.2346,3,12,0.65,0.97,0.2,24.84,13.63,97.2,43.6,21378.0,7558,7481,7470,7291,56.6,61.7,62.3,61.2,2.546,2.753,2.731,2.412,3.73,234.9,35.3,41.4,1014.01,-24.33,0.45,1.04,31.5,40.1,39.5,0,no_anomaly,0.0,0,0,0,0,22.5725918,88.363935,5.0,0.0
2024-12-19T17:22:02.200Z,MISSION_0005,22,0,takeoff,SITE_KOL_006,22.5725955,88.3639333,5.0,219.93,1.529,0.089,3.74,0.2891,-3.0424,219.927,-0.34136,0.02409,0.01143,0.93955,0.1804,0.0728,-9.7613,-0.7935,0.073,-0.0736,0.1691,3,12,0.7,0.93,0.36,24.756,19.53,97.1,43.3,21366.0,7088,7543,7373,7275,62.8,59.7,62.5,61.5,2.587,2.73,2.568,2.698,4.99,236.3,35.1,40.4,1014.27,-34.05,-0.17,1.52,31.3,48.3,38.1,0,no_anomaly,0.0,0,0,0,0,22.5725955,88.3639333,5.0,0.0
2024-12-19T17:22:02.300Z,MISSION_0005,23,0,takeoff,SITE_KOL_006,22.5725944,88.3639355,5.0,220.12,2.156,0.088,4.0,-0.2088,-1.36,220.1187,-0.34295,0.01177,0.00236,0.93928,-0.0911,-0.0524,-9.7731,0.4956,0.5646,0.1145,0.1656,3,16,0.71,0.92,0.2,24.768,15.79,97.1,43.6,21354.0,7122,7605,7321,7424,58.9,62.7,59.4,59.7,2.899,2.626,2.739,2.977,4.48,237.3,35.0,41.0,1014.43,-30.39,0.55,1.62,31.9,45.8,37.1,0,no_anomaly,0.0,0,0,0,0,22.5725944,88.3639355,5.0,0.0
2024-12-19T17:22:02.400Z,MISSION_0005,24,0,takeoff,SITE_KOL_006,22.572594,88.3639367,5.0,222.57,2.061,0.054,4.14,1.9289,-1.4279,222.5684,-0.36311,0.0055,0.0202,0.93151,-0.1655,0.0768,-9.8251,-0.7608,0.1835,-0.8421,0.0744,3,18,0.71,0.97,0.28,24.697,20.56,97.0,43.8,21342.0,7444,7473,7237,7238,62.3,61.5,62.2,59.2,2.772,3.056,2.826,2.935,3.78,242.0,35.4,39.3,1014.18,-25.21,1.88,1.83,29.0,39.6,37.0,0,no_anomaly,0.0,0,0,0,0,22.572594,88.3639367,5.0,0.0
2024-12-19T17:22:02.500Z,MISSION_0005,25,0,takeoff,SITE_KOL_006,22.5725927,88.3639384,5.0,221.54,2.397,0.157,4.35,3.7652,-4.088,221.5351,-0.35526,0.02169,0.04334,0.93351,-0.21,-0.0617,-9.8617,-1.1379,0.5552,0.2804,0.156,3,10,0.68,0.7,0.26,24.626,15.99,97.0,43.3,21330.0,7438,7373,7573,7608,61.5,59.7,60.8,60.6,2.367,2.7,2.745,2.738,4.33,240.9,35.2,40.9,1014.28,-33.18,0.05,1.18,30.6,47.4,35.6,0,no_anomaly,0.0,0,0,0,0,22.5725927,88.3639384,5.0,0.0
2024-12-19T17:22:02.600Z,MISSION_0005,26,0,takeoff,SITE_KOL_006,22.5725956,88.363939,5.0,220.82,2.586,0.065,4.37,-0.4815,-1.0686,220.8176,-0.34866,0.0102,-0.00069,0.93719,-0.0324,0.0033,-9.7791,-0.9644,-0.7612,-0.2529,0.141,3,16,0.73,0.74,0.39,24.686,20.47,96.9,42.9,21318.0,7515,7092,7515,7380,61.9,60.0,61.8,58.1,2.583,2.781,2.997,2.708,3.77,223.7,35.5,40.6,1014.35,-27.93,0.37,2.04,27.2,39.6,35.5,0,no_anomaly,0.0,0,0,0,0,22.5725956,88.363939,5.0,0.0
2024-12-19T17:22:02.700Z,MISSION_0005,27,0,takeoff,SITE_KOL_006,22.5725918,88.3639335,5.0,218.21,2.391,0.13,3.84,1.592,-1.6846,218.2086,-0.32741,0.00934,0.01794,0.94466,0.3068,-0.0343,-9.7483,-0.0072,-0.0463,-0.4722,0.2844,3,12,0.85,1.08,0.39,24.613,21.68,96.8,43.3,21306.0,7534,7622,7588,7513,61.1,59.9,58.5,60.0,2.509,2.63,2.781,2.438,2.87,228.7,35.6,39.9,1013.92,-30.6,0.59,1.46,26.8,44.3,38.7,0,no_anomaly,0.0,0,0,0,0,22.5725918,88.3639335,5.0,0.0
2024-12-19T17:22:02.800Z,MISSION_0005,28,0,takeoff,SITE_KOL_006,22.5725921,88.3639406,5.0,217.94,2.616,0.128,4.6,-3.497,-0.613,217.9355,-0.32473,0.01497,-0.02712,0.9453,0.1468,-0.0341,-9.8899,0.8662,-0.2581,-0.0089,0.1682,3,11,0.69,0.87,0.28,24.682,18.43,96.8,43.6,21294.0,7422,7503,7493,7572,61.0,57.6,59.0,61.7,3.054,2.866,2.844,2.629,3.36,236.9,35.7,41.3,1014.21,-35.63,2.2,2.02,31.8,43.4,40.1,0,no_anomaly,0.0,0,0,0,0,22.5725921,88.3639406,5.0,0.0
2024-12-19T17:22:02.900Z,MISSION_0005,29,0,takeoff,SITE_KOL_006,22.572593,88.3639437,5.0,219.14,2.671,0.098,4.93,5.3092,-4.179,219.1371,-0.33594,0.01882,0.05581,0.94004,0.0232,0.0495,-9.9007,-0.2206,-0.1216,-0.216,0.2831,3,20,0.68,0.98,0.39,24.697,19.68,96.7,42.6,21282.0,7188,7127,7513,7475,60.1,59.4,57.1,58.7,2.554,2.956,2.676,2.977,4.09,239.2,35.3,40.6,1014.02,-30.24,0.58,1.25,28.4,39.3,37.7,0,no_anomaly,0.0,0,0,0,0,22.572593,88.3639437,5.0,0.0
2024-12-19T17:22:03.000Z,MISSION_0005,30,0,takeoff,SITE_KOL_006,22.572593,88.3639472,5.0,218.31,2.448,0.078,5.31,3.3767,-0.9704,218.3094,-0.3282,-0.00167,0.03061,0.94411,-0.2128,-0.0233,-9.7696,0.7489,-0.5517,-0.2236,0.1467,3,14,0.58,1.12,0.2,24.661,22.83,96.7,43.3,21270.0,7307,7470,7473,7148,59.2,60.9,60.2,60.4,2.876,2.823,2.694,2.888,4.49,239.1,35.6,40.3,1014.07,-27.02,-0.89,1.42,32.9,40.7,35.2,0,no_anomaly,0.0,0,0,0,0,22.572593,88.3639472,5.0,0.0
2024-12-19T17:22:03.100Z,MISSION_0005,31,0,takeoff,SITE_KOL_006,22.5725919,88.3639504,5.0,218.28,2.194,0.105,5.68,-0.3813,-2.1983,218.2755,-0.32772,0.01921,0.00315,0.94458,-0.1917,0.0057,-9.7975,-0.774,0.0736,0.3033,0.1391,3,15,0.73,1.13,0.41,24.746,23.62,96.6,43.8,21258.0,7201,7437,7464,7524,57.6,60.8,57.3,61.6,2.605,2.575,2.668,2.661,3.24,237.3,35.3,40.7,1014.11,-28.89,-0.24,1.42,26.1,42.6,36.1,0,no_anomaly,0.0,0,0,0,0,22.5725919,88.3639504,5.0,0.0
2024-12-19T17:22:03.200Z,MISSION_0005,32,0,takeoff,SITE_KOL_006,22.5725956,88.3639487,5.0,218.2,2.273,0.091,5.44,-2.0777,-1.4524,218.1958,-0.32689,0.01791,-0.01298,0.9448,-0.1149,0.0248,-9.8225,-1.4218,0.477,-0.1165,0.2283,3,20,0.71,1.31,0.2,24.759,20.68,96.6,42.9,21246.0,7268,7611,7208,7533,62.4,61.8,57.3,58.9,2.636,2.95,2.904,2.692,3.35,241.6,35.4,41.1,1014.29,-29.09,1.52,1.33,30.1,44.0,38.7,0,no_anomaly,0.0,0,0,0,0,22.5725956,88.3639487,5.0,0.0
2024-12-19T17:22:03.300Z,MISSION_0005,33,0,takeoff,SITE_KOL_006,22.5725961,88.3639501,5.0,218.33,2.19,0.058,5.6,5.5435,0.0766,218.3256,-0.32784,-0.0165,0.04546,0.9435,0.0829,-0.0082,-9.8693,0.0052,-0.5621,0.1711,0.1959,3,19,0.76,0.99,0.22,24.73,21.74,96.5,43.5,21234.0,7413,7287,7229,7227,63.2,58.6,62.0,61.0,2.646,2.707,2.632,2.841,3.66,234.9,35.4,41.0,1014.34,-33.75,2.4,1.13,33.0,44.8,38.8,0,no_anomaly,0.0,0,0,0,0,22.5725961,88.3639501,5.0,0.0
2024-12-19T17:22:03.400Z,MISSION_0005,34,0,takeoff,SITE_KOL_006,22.5725935,88.3639496,5.0,217.87,2.163,-0.005,5.57,-0.5976,-4.3351,217.8723,-0.32409,0.03747,0.00734,0.94526,-0.0065,-0.0136,-9.816,-0.5914,-0.9998,-0.181,0.1013,3,15,0.6,0.97,0.28,24.671,18.77,96.5,42.3,21222.0,7432,7507,7224,7156,63.8,61.4,62.8,62.9,2.721,2.515,2.571,3.025,3.58,238.3,35.1,40.1,1013.91,-31.24,1.42,1.49,29.0,42.5,34.1,0,no_anomaly,0.0,0,0,0,0,22.5725935,88.3639496,5.0,0.0
2024-12-19T17:22:03.500Z,MISSION_0005,35,0,takeoff,SITE_KOL_006,22.5725943,88.3639466,5.0,216.3,2.499,0.086,5.23,0.9028,-2.8218,216.3033,-0.31161,0.02094,0.01515,0.94986,0.012,0.0117,-9.8323,-0.2509,0.9176,-0.0626,0.2405,3,13,0.67,0.92,0.23,24.696,20.02,96.4,44.4,21210.0,7560,7576,7217,7354,57.6,63.1,58.9,60.1,2.743,2.527,2.861,2.884,3.16,240.2,35.4,39.9,1013.97,-27.36,-0.45,1.26,31.7,48.7,35.9,0,no_anomaly,0.0,0,0,0,0,22.5725943,88.3639466,5.0,0.0
2024-12-19T17:22:03.600Z,MISSION_0005,36,0,takeoff,SITE_KOL_006,22.5725977,88.3639497,5.0,216.2,2.19,0.043,5.54,-3.5392,-2.2088,216.1992,-0.3099,0.0279,-0.02336,0.95007,-0.1266,-0.0087,-9.8167,0.3498,-0.1945,0.3898,0.1721,3,14,0.83,1.08,0.31,24.704,18.11,96.4,43.6,21198.0,7485,7427,7425,7435,62.7,61.9,62.9,59.7,2.69,2.642,2.766,2.816,3.92,233.5,34.9,40.3,1014.24,-30.72,-0.43,2.01,30.7,40.5,35.7,0,no_anomaly,0.0,0,0,0,0,22.5725977,88.3639497,5.0,0.0
2024-12-19T17:22:03.700Z,MISSION_0005,37,0,takeoff,SITE_KOL_006,22.5725961,88.3639474,5.0,215.92,2.385,0.233,5.3,2.6879,-2.048,215.9201,-0.30862,0.00976,0.02782,0.95073,0.1353,-0.0316,-9.7995,-0.193,-0.0661,-0.1849,0.1846,3,10,0.8,0.77,0.33,24.663,17.67,96.3,44.2,21186.0,7427,7524,7360,7379,56.7,59.9,62.4,60.4,2.726,2.931,2.624,2.949,3.29,230.7,35.3,40.2,1014.41,-29.8,0.72,1.33,29.6,49.2,38.8,0,no_anomaly,0.0,0,0,0,0,22.5725961,88.3639474,5.0,0.0
2024-12-19T17:22:03.800Z,MISSION_0005,38,0,takeoff,SITE_KOL_006,22.572598,88.3639512,5.0,215.4,2.989,0.045,5.71,0.2356,-2.5529,215.399,-0.30399,0.0206,0.00873,0.95241,-0.0272,-0.0543,-9.7988,0.0416,-0.2839,-0.124,0.2761,3,10,0.7,0.65,0.2,24.746,22.05,96.2,43.3,21174.0,7379,7548,7344,7332,58.4,62.3,62.2,62.4,3.063,3.007,2.803,2.83,3.05,233.4,35.2,40.4,1014.2,-30.03,-0.34,1.78,31.9,48.2,38.8,0,no_anomaly,0.0,0,0,0,0,22.572598,88.3639512,5.0,0.0
2024-12-19T17:22:03.900Z,MISSION_0005,39,0,takeoff,SITE_KOL_006,22.5725972,88.3639517,5.0,216.31,3.202,0.131,5.77,-0.3341,-2.8778,216.3123,-0.31144,0.02477,0.00506,0.94993,0.1687,-0.046,-9.7714,-1.0266,-0.652,-0.2431,0.1649,3,16,0.74,0.91,0.3,24.735,25.45,96.2,44.5,21162.0,7288,7374,7227,7591,58.9,62.5,60.7,61.6,2.963,2.867,2.483,2.67,4.51,237.3,35.2,40.5,1014.16,-27.66,-0.12,2.02,31.6,43.0,39.0,0,no_anomaly,0.0,0,0,0,0,22.5725972,88.3639517,5.0,0.0
2024-12-19T17:22:04.000Z,MISSION_0005,40,0,takeoff,SITE_KOL_006,22.5725972,88.3639542,5.0,216.81,2.747,0.123,6.04,2.1731,-3.1796,216.8092,-0.31605,0.02033,0.02674,0.94815,-0.1358,0.0019,-9.7162,0.7673,0.5867,-0.44,0.2142,3,11,0.66,0.82,0.2,24.585,20.66,96.1,43.3,21150.0,7437,7405,7415,7436,60.4,64.2,60.7,60.8,2.668,2.907,2.62,2.852,4.49,239.7,35.4,40.6,1014.1,-31.39,-0.57,1.92,30.2,44.3,35.3,0,no_anomaly,0.0,0,0,0,0,22.5725972,88.3639542,5.0,0.0
2024-12-19T17:22:04.100Z,MISSION_0005,41,0,takeoff,SITE_KOL_006,22.5725985,88.3639532,5.0,217.51,2.812,0.044,5.92,0.546,0.1529,217.514,-0.32155,-0.0028,0.00408,0.94688,-0.0816,0.0087,-9.8375,0.0779,0.5674,0.0123,0.1718,3,10,0.54,0.87,0.2,24.629,18.12,96.1,43.5,21138.0,7520,7676,7456,7809,59.4,59.4,64.0,58.6,2.77,2.797,2.821,2.678,3.93,242.6,35.5,40.6,1014.32,-27.56,0.54,1.61,28.4,46.6,36.8,0,no_anomaly,0.0,0,0,0,0,22.5725985,88.3639532,5.0,0.0
2024-12-19T17:22:04.200Z,MISSION_0005,42,0,takeoff,SITE_KOL_006,22.5725988,88.3639492,5.0,217.74,2.852,0.169,5.48,1.9039,0.8557,217.7415,-0.32326,-0.01244,0.01331,0.94613,0.1969,0.0208,-9.8145,-0.1017,-0.293,0.5056,0.2997,3,17,0.83,0.93,0.23,24.677,24.2,96.0,43.0,21126.0,7283,7299,7284,7386,60.3,60.8,60.7,61.0,2.814,2.82,2.781,2.725,5.15,233.9,35.2,40.1,1014.39,-29.91,-0.02,2.03,32.7,46.3,39.7,0,no_anomaly,0.0,0,0,0,0,22.5725988,88.3639492,5.0,0.0
2024-12-19T17:22:04.300Z,MISSION_0005,43,0,takeoff,SITE_KOL_006,22.5725963,88.3639538,5.0,217.14,2.844,0.091,6.0,-0.1624,-3.1164,217.1414,-0.31832,0.02623,0.00732,0.94759,0.2559,-0.0084,-9.8861,0.3685,-0.7901,-0.0729,0.1297,3,11,0.7,1.16,0.31,24.626,15.45,96.0,43.7,21114.0,7567,7341,7550,7236,61.6,62.7,62.4,61.7,2.522,2.725,2.754,2.749,3.25,247.7,35.5,40.3,1014.18,-32.98,-1.19,1.31,28.6,48.5,38.8,0,no_anomaly,0.0,0,0,0,0,22.5725963,88.3639538,5.0,0.0
2024-12-19T17:22:04.400Z,MISSION_0005,44,0,takeoff,SITE_KOL_006,22.5725977,88.3639508,5.0,215.55,3.209,0.239,5.66,-4.5438,-3.1354,215.5475,-0.30387,0.03813,-0.02939,0.9515,0.0964,0.044,-9.8003,-0.1447,1.1569,0.1618,0.2545,3,13,0.74,0.84,0.41,24.63,18.06,95.9,43.6,21102.0,7555,7261,7304,7337,60.3,57.4,58.7,57.4,2.663,2.8,2.747,3.08,3.88,237.0,35.1,40.9,1014.2,-28.61,-0.49,1.84,29.8,43.9,35.4,0,no_anomaly,0.0,0,0,0,0,22.5725977,88.3639508,5.0,0.0
2024-12-19T17:22:04.500Z,MISSION_0005,45,0,takeoff,SITE_KOL_006,22.5725949,88.3639456,5.0,215.84,3.68,0.118,5.11,2.2858,-0.1687,215.8414,-0.30767,-0.00474,0.01943,0.95128,-0.0159,-0.0014,-9.7796,0.3623,-0.4459,-0.3979,0.1325,3,10,0.53,0.89,0.22,24.674,23.64,95.9,43.2,21090.0,7193,7406,7213,7358,61.0,61.1,59.6,60.0,2.685,2.775,2.883,2.87,3.52,235.1,35.3,41.0,1014.39,-27.19,0.77,1.44,30.4,42.4,35.5,0,no_anomaly,0.0,0,0,0,0,22.5725949,88.3639456,5.0,0.0
2024-12-19T17:22:04.600Z,MISSION_0005,46,0,takeoff,SITE_KOL_006,22.5725954,88.3639502,5.0,216.25,3.34,0.053,5.61,0.8702,-1.4782,216.2472,-0.31113,0.0099,0.01123,0.95025,0.008,0.0284,-9.8582,-0.1806,-0.3558,0.2741,0.1284,3,10,0.72,0.87,0.25,24.758,26.72,95.8,43.1,21078.0,7288,7523,7224,7522,64.3,60.7,62.2,64.4,2.865,2.797,2.766,2.72,3.44,231.9,35.4,40.2,1014.2,-31.17,0.11,1.31,27.7,42.5,39.5,0,no_anomaly,0.0,0,0,0,0,22.5725954,88.3639502,5.0,0.0
2024-12-19T17:22:04.700Z,MISSION_0005,47,0,takeoff,SITE_KOL_006,22.5725945,88.3639552,5.0,216.65,3.413,0.025,6.18,2.0237,1.1495,216.6464,-0.31414,-0.01507,0.01361,0.94916,-0.0091,-0.0707,-9.8496,-0.2736,-0.4115,-0.2811,0.2231,3,14,0.78,1.04,0.22,24.702,20.63,95.8,43.0,21066.0,7368,7312,7313,7149,57.3,60.5,59.4,63.8,3.021,2.969,3.092,2.891,3.23,233.2,35.2,40.0,1014.23,-27.82,0.7,1.45,31.3,43.3,38.3,0,no_anomaly,0.0,0,0,0,0,22.5725945,88.3639552,5.0,0.0
2024-12-19T17:22:04.800Z,MISSION_0005,48,0,takeoff,SITE_KOL_006,22.5725922,88.3639543,5.0,218.22,3.378,0.044,6.1,-7.9688,-3.6908,218.2231,-0.32433,0.05309,-0.0551,0.94284,0.0428,0.1112,-9.801,-0.3499,-0.3118,-0.1651,0.2196,3,11,0.6,0.82,0.26,24.738,20.46,95.7,43.3,21054.0,7241,7233,7602,7346,63.6,60.1,62.3,56.9,2.715,2.671,3.007,2.94,3.2,236.5,35.0,40.4,1014.76,-33.51,0.32,2.15,30.8,42.3,39.8,0,no_anomaly,0.0,0,0,0,0,22.5725922,88.3639543,5.0,0.0
2024-12-19T17:22:04.900Z,MISSION_0005,49,0,takeoff,SITE_KOL_006,22.5725924,88.3639516,5.0,216.93,3.616,0.173,5.81,1.8675,-3.7407,216.9273,-0.317,0.0258,0.02578,0.94773,-0.0177,-0.0792,-9.8339,-0.869,-0.3177,0.1003,0.2323,3,12,0.78,0.96,0.43,24.672,21.95,95.6,43.7,21042.0,7578,7271,7340,7432,62.2,60.6,56.8,62.3,2.697,2.832,2.896,2.56,2.68,234.4,35.3,41.4,1013.97,-27.29,0.05,1.41,31.8,49.5,39.3,0,no_anomaly,0.0,0,0,0,0,22.5725924,88.3639516,5.0,0.0
2024-12-19T17:22:05.000Z,MISSION_0005,50,0,takeoff,SITE_KOL_006,22.5725864,88.3639479,5.0,218.06,3.389,0.075,5.55,0.7181,-2.0612,218.0609,-0.32612,0.01496,0.01179,0.94514,0.0387,0.0579,-9.8178,0.6419,-0.7598,0.0465,0.2813,3,17,0.82,1.01,0.3,24.712,22.75,95.6,43.3,21030.0,7654,7434,7548,7627,58.2,63.7,60.1,56.7,2.948,2.605,3.026,2.543,3.01,230.2,35.0,40.7,1014.48,-32.47,-0.1,1.0,30.9,44.7,36.7,0,no_anomaly,0.0,0,0,0,0,22.5725864,88.3639479,5.0,0.0
2024-12-19T17:22:05.100Z,MISSION_0005,51,0,takeoff,SITE_KOL_006,22.5725904,88.3639489,5.0,217.46,2.998,0.007,5.55,-3.0973,0.3419,217.462,-0.32108,0.00585,-0.02655,0.94666,0.0537,-0.0035,-9.7958,-0.6763,0.2192,-0.1346,0.1137,3,10,0.66,0.93,0.26,24.731,16.86,95.5,43.5,21018.0,7352,7399,7634,7532,61.4,63.9,57.8,60.7,2.67,2.461,2.771,2.906,3.03,236.0,35.2,39.9,1014.4,-27.99,-0.36,1.06,33.5,47.3,38.4,0,no_anomaly,0.0,0,0,0,0,22.5725904,88.3639489,5.0,0.0
2024-12-19T17:22:05.200Z,MISSION_0005,52,0,takeoff,SITE_KOL_006,22.5725932,88.3639491,5.0,216.36,3.394,0.118,5.52,0.3391,-3.9297,216.3644,-0.31195,0.03165,0.01351,0.94947,0.0318,-0.0459,-9.8706,-0.5593,0.5192,-0.2818,0.1016,3,20,0.64,1.27,0.27,24.739,23.43,95.5,44.1,21006.0,7544,7507,7337,7433,59.8,59.5,60.8,61.3,2.761,2.618,2.823,2.826,3.74,238.6,35.4,40.1,1014.17,-25.59,-0.36,1.7,29.6,49.2,39.5,0,no_anomaly,0.0,0,0,0,0,22.5725932,88.3639491,5.0,0.0
2024-12-19T17:22:05.300Z,MISSION_0005,53,0,takeoff,SITE_KOL_006,22.572593,88.3639469,5.0,216.77,3.65,0.062,5.28,0.2033,-3.259,216.7679,-0.3153,0.02643,0.01065,0.94856,0.1663,-0.0044,-9.8685,-0.1451,-0.4716,0.0545,0.1686,3,12,0.7,0.72,0.27,24.684,17.84,95.4,43.7,20993.0,7507,7388,7610,7390,58.2,60.6,60.0,62.7,2.825,3.023,2.796,2.705,3.68,243.0,35.3,40.0,1014.68,-28.93,-0.45,1.4,27.3,48.5,36.5,0,no_anomaly,0.0,0,0,0,0,22.572593,88.3639469,5.0,0.0
2024-12-19T17:22:05.400Z,MISSION_0005,54,0,takeoff,SITE_KOL_006,22.572594,88.3639496,5.0,217.39,3.623,0.025,5.57,4.844,-2.9226,217.3911,-0.32117,0.01059,0.04818,0.94574,0.0302,-0.0007,-9.7351,0.7445,0.4867,0.1389,0.2468,3,14,0.69,1.13,0.37,24.691,21.26,95.4,43.1,20981.0,7384,7505,7520,7462,58.1,61.6,61.3,60.5,2.739,2.779,3.154,2.742,3.69,233.2,35.3,40.4,1014.28,-27.57,0.76,1.48,28.3,49.2,37.5,0,no_anomaly,0.0,0,0,0,0,22.572594,88.3639496,5.0,0.0
2024-12-19T17:22:05.500Z,MISSION_0005,55,0,takeoff,SITE_KOL_006,22.5725874,88.3639473,5.0,218.05,3.556,0.088,5.44,1.4101,-3.903,218.0491,-0.32616,0.02818,0.02273,0.94462,-0.0627,-0.0043,-9.7195,-0.1862,0.334,0.1831,0.1036,3,12,0.8,1.19,0.2,24.655,16.41,95.3,43.7,20969.0,7710,7567,7223,7564,63.7,57.4,61.3,59.8,2.381,2.906,2.964,2.645,4.56,239.5,35.0,40.2,1014.31,-20.99,-0.26,1.14,32.6,45.9,37.7,0,no_anomaly,0.0,0,0,0,0,22.5725874,88.3639473,5.0,0.0
2024-12-19T17:22:05.600Z,MISSION_0005,56,0,takeoff,SITE_KOL_006,22.5725865,88.3639404,5.0,216.84,3.783,0.104,4.74,-2.9861,-1.0628,216.8368,-0.3156,0.01703,-0.02179,0.94849,-0.1491,0.038,-9.7817,-0.4946,-0.5191,0.4342,0.1147,3,12,0.57,0.93,0.28,24.65,19.68,95.3,43.4,20957.0,7388,7459,7707,7563,59.8,59.4,61.1,62.5,2.759,2.969,2.693,2.861,3.37,234.9,35.2,40.6,1014.47,-27.08,-0.3,1.39,29.2,45.2,35.6,0,no_anomaly,0.0,0,0,0,0,22.5725865,88.3639404,5.0,0.0
2024-12-19T17:22:05.700Z,MISSION_0005,57,0,takeoff,SITE_KOL_006,22.5725842,88.3639424,5.0,218.12,3.593,0.021,5.04,2.4369,-0.1004,218.1215,-0.32651,-0.00612,0.02038,0.94495,-0.0899,-0.0708,-9.797,-0.1372,0.4634,-0.6189,0.3204,3,14,0.5,0.75,0.21,24.683,17.53,95.2,44.2,20945.0,7252,7586,7383,7372,60.5,61.8,58.2,60.3,2.633,3.024,2.857,2.789,2.12,233.9,35.2,40.7,1014.39,-32.08,0.69,1.44,32.1,45.7,38.0,0,no_anomaly,0.0,0,0,0,0,22.5725842,88.3639424,5.0,0.0
2024-12-19T17:22:05.800Z,MISSION_0005,58,0,takeoff,SITE_KOL_006,22.5725871,88.3639446,5.0,216.76,3.1,0.029,5.16,1.23,-1.8007,216.7604,-0.31542,0.01153,0.01514,0.94876,0.3443,-0.0442,-9.886,0.4343,0.0347,-0.1335,0.0995,3,15,0.66,0.82,0.34,24.707,20.95,95.2,43.9,20933.0,7435,7435,7352,7294,61.4,63.3,59.7,60.2,2.833,2.929,2.938,2.917,4.39,235.0,35.4,41.1,1013.9,-28.1,-0.87,1.0,27.8,38.8,33.9,0,no_anomaly,0.0,0,0,0,0,22.5725871,88.3639446,5.0,0.0
2024-12-19T17:22:05.900Z,MISSION_0005,59,0,takeoff,SITE_KOL_006,22.5725925,88.3639443,5.0,215.27,2.923,0.15,5.0,-0.6099,-1.8803,215.2739,-0.30286,0.01725,-0.0001,0.95288,-0.118,-0.0071,-9.8044,0.704,0.6407,-0.0708,0.2289,3,11,0.72,0.92,0.23,24.712,21.5,95.1,42.6,20921.0,7346,7511,7338,7683,58.2,58.2,61.8,59.6,2.67,2.777,2.903,3.072,4.24,242.2,35.2,40.0,1013.95,-29.65,0.38,1.81,33.7,46.9,39.3,0,no_anomaly,0.0,0,0,0,0,22.5725925,88.3639443,5.0,0.0
2024-12-19T17:22:06.000Z,MISSION_0005,60,0,takeoff,SITE_KOL_006,22.5725922,88.3639401,5.0,215.0,2.782,0.068,4.54,0.8633,1.5589,214.9988,-0.30056,-0.01524,0.00309,0.95364,-0.0717,-0.0136,-9.8249,-0.0233,-0.801,-0.0159,0.2903,3,11,0.9,0.91,0.45,24.669,19.65,95.0,43.8,20909.0,7417,7667,7156,7312,61.4,57.7,58.3,60.3,2.473,2.573,2.589,2.819,3.53,235.8,35.2,39.5,1013.87,-30.73,1.09,1.15,28.2,41.1,39.4,0,no_anomaly,0.0,0,0,0,0,22.5725922,88.3639401,5.0,0.0
2024-12-19T17:22:06.100Z,MISSION_0005,61,0,takeoff,SITE_KOL_006,22.572592,88.3639419,5.0,211.3,2.541,0.055,4.75,-2.8586,-2.1187,211.2968,-0.26916,0.02452,-0.01903,0.9626,0.1552,0.0069,-9.824,-0.4124,0.0462,0.6725,0.2045,3,14,0.68,0.65,0.38,24.705,20.4,95.0,43.9,20897.0,7689,7311,7520,7600,59.5,61.6,58.8,60.3,2.837,2.718,2.65,2.765,4.44,237.5,35.0,40.9,1013.96,-25.88,-2.0,1.54,29.2,45.2,39.4,0,no_anomaly,0.0,0,0,0,0,22.572592,88.3639419,5.0,0.0
2024-12-19T17:22:06.200Z,MISSION_0005,62,0,takeoff,SITE_KOL_006,22.5725921,88.3639428,5.0,211.77,2.447,0.053,4.84,3.1407,0.9874,211.7676,-0.27335,-0.01578,0.024,0.96149,0.1102,-0.0525,-9.7807,-0.116,0.5795,-0.0851,0.294,3,11,0.7,1.09,0.25,24.587,16.77,94.9,43.7,20885.0,7670,7375,7223,7531,56.4,63.5,59.0,62.3,2.759,2.694,2.753,2.931,4.39,237.4,35.2,40.0,1014.09,-28.28,0.92,1.0,28.9,46.5,39.3,0,no_anomaly,0.0,0,0,0,0,22.5725921,88.3639428,5.0,0.0
2024-12-19T17:22:06.300Z,MISSION_0005,63,0,takeoff,SITE_KOL_006,22.5725922,88.3639438,5.0,212.27,2.427,0.131,4.95,0.7845,-1.1551,212.2736,-0.27798,0.00778,0.00938,0.96051,0.0386,-0.0158,-9.8237,0.001,1.2636,-0.4221,0.1881,3,20,0.7,0.87,0.2,24.714,24.75,94.9,43.9,20873.0,7300,7294,7569,7421,58.0,62.7,59.2,60.9,3.055,2.766,2.443,2.508,3.38,231.8,35.3,40.0,1014.17,-31.05,0.29,2.07,29.2,46.1,36.9,0,no_anomaly,0.0,0,0,0,0,22.5725922,88.3639438,5.0,0.0
2024-12-19T17:22:06.400Z,MISSION_0005,64,0,takeoff,SITE_KOL_006,22.5725877,88.363943,5.0,212.26,2.421,0.076,4.98,1.9904,0.6354,212.2567,-0.27765,-0.01015,0.01514,0.96051,-0.1307,-0.0401,-9.8502,0.0715,0.2847,0.5373,0.1258,3,20,0.59,0.84,0.3,24.669,23.0,94.8,43.0,20861.0,7409,7271,7375,7331,57.9,61.3,64.0,59.8,2.545,2.675,2.781,2.762,4.27,228.1,35.4,40.6,1014.34,-29.43,-1.05,1.28,26.4,40.0,38.3,0,no_anomaly,0.0,0,0,0,0,22.5725877,88.363943,5.0,0.0
2024-12-19T17:22:06.500Z,MISSION_0005,65,0,takeoff,SITE_KOL_006,22.5725851,88.3639408,5.0,210.63,2.971,0.07,4.84,3.9472,-2.1264,210.6251,-0.2645,0.00879,0.03811,0.96359,0.0731,0.0553,-9.7259,-0.987,0.7684,0.0457,0.1589,3,10,0.6,0.95,0.33,24.62,20.82,94.8,43.6,20849.0,7652,7458,7392,7335,58.6,56.6,57.4,57.4,2.783,2.845,2.772,2.708,2.77,236.4,34.9,39.4,1013.95,-28.12,-0.75,1.65,31.2,45.8,34.9,0,no_anomaly,0.0,0,0,0,0,22.5725851,88.3639408,5.0,0.0
2024-12-19T17:22:06.600Z,MISSION_0005,66,0,takeoff,SITE_KOL_006,22.5725821,88.3639427,5.0,211.2,3.126,0.1,5.15,-4.2773,-1.9812,211.1978,-0.26805,0.02667,-0.03129,0.96253,-0.0869,0.045,-9.8296,0.7004,-0.8439,-0.1487,0.1306,3,19,0.83,0.61,0.2,24.655,20.3,94.7,43.1,20837.0,7375,7518,7429,7366,60.8,57.1,61.6,58.0,2.906,2.746,2.761,2.975,3.94,240.9,35.1,41.4,1014.12,-33.99,2.08,1.59,32.5,49.6,40.4,0,no_anomaly,0.0,0,0,0,0,22.5725821,88.3639427,5.0,0.0
2024-12-19T17:22:06.700Z,MISSION_0005,67,0,takeoff,SITE_KOL_006,22.572582,88.3639435,5.0,213.2,3.27,0.124,5.24,0.0399,0.02,213.2043,-0.28572,-0.00027,0.00028,0.95831,-0.2005,0.0113,-9.8509,-0.7886,0.4461,-0.5637,0.1443,3,16,0.5,0.71,0.2,24.635,22.58,94.7,45.0,20825.0,7153,7325,7314,7343,63.2,60.4,61.7,58.3,2.501,2.991,3.082,2.778,4.29,238.8,35.2,40.3,1014.09,-27.46,-0.73,2.02,28.6,45.6,37.7,0,no_anomaly,0.0,0,0,0,0,22.572582,88.3639435,5.0,0.0
2024-12-19T17:22:06.800Z,MISSION_0005,68,0,takeoff,SITE_KOL_006,22.5725902,88.3639425,5.0,213.63,3.13,0.153,4.86,1.3657,-1.2225,213.6277,-0.28935,0.00676,0.01449,0.95709,-0.0214,-0.0794,-9.7806,0.6042,-0.2663,-0.0373,0.0948,3,13,0.56,0.7,0.21,24.653,17.79,94.6,42.8,20813.0,7248,7249,7391,7334,59.9,62.1,60.7,60.4,2.986,2.723,2.88,2.835,4.48,235.6,35.2,40.1,1014.16,-26.57,-1.75,1.48,28.7,41.6,37.6,0,no_anomaly,0.0,0,0,0,0,22.5725902,88.3639425,5.0,0.0
2024-12-19T17:22:06.900Z,MISSION_0005,69,0,takeoff,SITE_KOL_006,22.5725882,88.363939,5.0,214.51,3.336,0.093,4.53,-0.9085,-2.2282,214.506,-0.29638,0.02092,-0.0018,0.95484,0.0364,0.0597,-9.8446,-0.1137,0.3817,-0.2383,0.1872,3,20,0.71,0.95,0.29,24.636,21.86,94.6,42.9,20801.0,7533,7214,7405,7612,63.1,62.3,61.5,60.7,2.674,2.988,2.849,3.289,4.02,243.5,35.3,41.1,1014.06,-27.12,0.15,1.79,32.5,44.4,38.2,0,no_anomaly,0.0,0,0,0,0,22.5725882,88.363939,5.0,0.0
2024-12-19T17:22:07.000Z,MISSION_0005,70,0,takeoff,SITE_KOL_006,22.5725887,88.3639356,5.0,214.46,3.205,0.126,4.16,-0.2695,-3.289,214.4592,-0.29601,0.02811,0.00625,0.95475,-0.1534,0.057,-9.7452,-0.1381,-0.9198,-0.1822,0.1873,3,14,0.86,0.73,0.28,24.603,21.03,94.5,43.3,20789.0,7199,7395,7397,7481,60.2,58.3,59.0,59.1,2.84,2.599,2.57,3.109,3.96,235.9,35.4,40.9,1013.99,-36.68,0.31,1.55,33.6,50.2,40.9,0,no_anomaly,0.0,0,0,0,0,22.5725887,88.3639356,5.0,0.0
2024-12-19T17:22:07.100Z,MISSION_0005,71,0,takeoff,SITE_KOL_006,22.5725886,88.3639346,5.0,215.97,3.422,0.095,4.06,1.5429,-0.7856,215.9668,-0.30879,0.00236,0.01492,0.95101,-0.0088,0.0445,-9.782,-0.0595,-0.4039,-0.116,0.2079,3,12,0.6,1.17,0.21,24.614,18.72,94.4,44.0,20777.0,7245,7651,7588,7701,61.6,61.0,57.0,60.7,2.609,2.941,2.779,2.601,4.03,233.4,35.5,40.7,1014.14,-26.74,-0.33,1.02,31.3,42.5,34.9,0,no_anomaly,0.0,0,0,0,0,22.5725886,88.3639346,5.0,0.0
2024-12-19T17:22:07.200Z,MISSION_0005,72,0,takeoff,SITE_KOL_006,22.5725886,88.3639387,5.0,217.02,3.709,0.083,4.49,1.5847,-2.0599,217.0221,-0.31764,0.01265,0.01882,0.94794,0.038,-0.0055,-9.813,-0.5289,-1.1711,-0.3717,0.1601,3,17,0.72,0.85,0.41,24.652,14.18,94.4,43.2,20765.0,7582,7553,7347,7824,59.9,61.5,63.4,60.4,2.784,2.772,2.87,2.805,3.27,237.7,35.5,40.2,1014.37,-31.89,0.05,1.75,29.7,42.6,39.3,0,no_anomaly,0.0,0,0,0,0,22.5725886,88.3639387,5.0,0.0
2024-12-19T17:22:07.300Z,MISSION_0005,73,0,takeoff,SITE_KOL_006,22.5725895,88.3639373,5.0,217.11,3.726,0.125,4.32,1.8458,1.1787,217.1074,-0.31798,-0.01487,0.012,0.94791,0.0769,-0.0331,-9.8311,0.7442,-1.5426,0.099,0.1847,3,15,0.54,0.92,0.2,24.662,22.96,94.3,43.0,20753.0,7461,7365,7509,7358,59.2,59.7,61.7,61.3,3.029,2.807,2.852,2.83,3.22,238.9,35.6,40.8,1014.23,-26.71,0.51,1.47,31.8,43.5,39.9,0,no_anomaly,0.0,0,0,0,0,22.5725895,88.3639373,5.0,0.0
2024-12-19T17:22:07.400Z,MISSION_0005,74,0,takeoff,SITE_KOL_006,22.5725922,88.3639419,5.0,217.2,3.678,0.131,4.75,1.2793,-1.4929,217.1959,-0.31902,0.00879,0.01473,0.94759,0.0771,-0.0525,-9.8692,-0.6842,-0.7007,0.2554,0.2842,3,18,0.6,0.77,0.33,24.689,18.08,94.3,43.0,20741.0,7611,7221,7444,7528,60.5,59.8,60.7,62.0,3.021,2.582,2.729,3.023,4.61,239.6,35.0,40.9,1014.21,-33.0,-0.83,1.51,29.6,46.5,38.5,0,no_anomaly,0.0,0,0,0,0,22.5725922,88.3639419,5.0,0.0
2024-12-19T17:22:07.500Z,MISSION_0005,75,0,takeoff,SITE_KOL_006,22.5725925,88.3639436,5.0,217.46,3.427,0.093,4.92,3.3588,-3.9408,217.4551,-0.3217,0.02314,0.03877,0.94577,-0.0026,-0.1403,-9.787,0.2765,-0.3565,-0.0414,0.2222,3,11,0.65,0.65,0.2,24.591,25.82,94.2,44.1,20729.0,7273,7204,7562,7273,59.7,60.9,61.2,58.5,2.752,2.861,2.493,2.772,4.51,237.4,35.0,40.9,1014.32,-32.47,-0.36,1.73,28.3,45.7,36.3,0,no_anomaly,0.0,0,0,0,0,22.5725925,88.3639436,5.0,0.0
2024-12-19T17:22:07.600Z,MISSION_0005,76,0,takeoff,SITE_KOL_006,22.5725864,88.3639458,5.0,217.16,3.22,0.073,5.32,0.1924,-3.4036,217.1582,-0.31852,0.02762,0.01105,0.94745,0.0746,-0.0212,-9.6477,0.8547,-0.4305,0.3753,0.1443,3,14,0.57,0.7,0.29,24.583,21.28,94.2,42.9,20717.0,7461,7304,7573,7442,59.9,60.4,58.3,60.2,2.662,2.703,2.826,2.758,4.46,234.1,35.5,40.7,1013.83,-28.35,-0.6,1.67,31.5,43.8,39.4,0,no_anomaly,0.0,0,0,0,0,22.5725864,88.3639458,5.0,0.0
2024-12-19T17:22:07.700Z,MISSION_0005,77,0,takeoff,SITE_KOL_006,22.5725908,88.3639443,5.0,216.88,3.405,0.124,5.04,0.5642,-3.0699,216.8783,-0.3163,0.02385,0.01314,0.94827,-0.1729,-0.0784,-9.803,-0.2394,0.3943,-0.3484,0.1149,3,20,0.52,0.85,0.27,24.673,21.42,94.1,43.6,20705.0,7186,7161,7347,7584,61.2,60.1,59.5,61.6,2.764,2.987,2.871,2.99,4.21,237.9,35.1,40.5,1013.84,-26.29,-0.06,1.0,31.8,41.8,34.9,0,no_anomaly,0.0,0,0,0,0,22.5725908,88.3639443,5.0,0.0
2024-12-19T17:22:07.800Z,MISSION_0005,78,0,takeoff,SITE_KOL_006,22.5725992,88.3639462,5.0,218.5,3.924,0.095,5.15,-6.6071,-1.6027,218.4974,-0.32833,0.03218,-0.0498,0.9427,-0.0405,-0.0086,-9.83,-0.0173,-0.1588,0.2586,0.1544,3,17,0.65,0.63,0.3,24.64,16.6,94.1,44.1,20693.0,7112,7737,7332,7581,61.6,59.7,58.6,61.8,2.82,2.717,2.821,2.855,4.45,234.6,35.1,40.1,1014.09,-28.62,0.12,1.44,29.4,46.7,37.2,0,no_anomaly,0.0,0,0,0,0,22.5725992,88.3639462,5.0,0.0
2024-12-19T17:22:07.900Z,MISSION_0005,79,0,takeoff,SITE_KOL_006,22.5725989,88.3639477,5.0,217.4,4.216,0.173,5.31,-0.8482,-1.326,217.3989,-0.32049,0.01333,-0.0033,0.94715,-0.1643,-0.0321,-9.8764,0.5248,-0.3334,0.017,0.2036,3,11,0.6,0.6,0.23,24.583,20.02,94.0,43.3,20681.0,7428,7461,7548,7426,63.1,62.0,62.0,60.3,2.821,2.715,2.926,2.783,3.51,232.3,35.0,40.2,1014.15,-32.44,-0.12,1.47,29.9,47.8,37.7,0,no_anomaly,0.0,0,0,0,0,22.5725989,88.3639477,5.0,0.0
2024-12-19T17:22:08.000Z,MISSION_0005,80,0,takeoff,SITE_KOL_006,22.5725971,88.3639472,5.0,216.99,4.535,0.115,5.27,-3.0456,-2.1455,216.9887,-0.31657,0.02618,-0.01926,0.94801,0.2245,0.0432,-9.8509,0.5658,0.4603,-0.0124,0.2147,3,20,0.7,0.93,0.41,24.686,21.54,94.0,43.6,20669.0,7162,7353,7199,7502,62.8,61.8,62.6,59.9,2.723,3.153,2.594,2.76,3.53,229.6,35.1,40.4,1014.54,-29.59,-3.03,1.22,33.7,48.9,39.0,0,no_anomaly,0.0,0,0,0,0,22.5725971,88.3639472,5.0,0.0
2024-12-19T17:22:08.100Z,MISSION_0005,81,0,takeoff,SITE_KOL_006,22.5726018,88.3639495,5.0,215.85,4.733,0.188,5.51,2.0351,-2.7356,215.8479,-0.30802,0.01724,0.02424,0.95091,0.1367,-0.038,-9.7748,-0.0194,0.2047,0.2054,0.1785,3,11,0.83,1.3,0.4,24.598,16.91,93.9,42.5,20657.0,7522,7481,7677,7177,58.8,58.7,63.4,61.1,2.491,2.699,2.709,3.06,4.28,235.0,35.2,40.6,1013.95,-29.0,-1.33,1.55,28.0,49.1,37.8,0,no_anomaly,0.0,0,0,0,0,22.5726018,88.3639495,5.0,0.0
2024-12-19T17:22:08.200Z,MISSION_0005,82,0,takeoff,SITE_KOL_006,22.5725971,88.3639471,5.0,215.56,4.578,0.074,5.25,2.2338,-3.0226,215.5638,-0.30572,0.01916,0.02661,0.95156,0.0272,0.0088,-9.7914,-0.2167,0.6699,-0.0178,0.2095,3,11,0.94,0.77,0.33,24.582,20.12,93.8,43.9,20645.0,7260,7479,7643,7577,64.1,57.3,61.9,59.8,2.757,2.701,2.839,2.834,3.75,227.8,35.0,41.1,1013.93,-27.39,0.22,1.29,32.0,47.3,39.2,0,no_anomaly,0.0,0,0,0,0,22.5725971,88.3639471,5.0,0.0
2024-12-19T17:22:08.300Z,MISSION_0005,83,0,takeoff,SITE_KOL_006,22.5725998,88.3639473,5.0,215.07,4.569,0.077,5.27,-1.0362,-1.9016,215.0722,-0.30111,0.01855,-0.00362,0.9534,-0.2509,0.0392,-9.7152,-0.1601,-0.1513,-0.0322,0.1794,3,19,0.62,0.83,0.29,24.645,20.94,93.8,43.7,20633.0,7565,7295,7431,7661,60.2,62.4,65.9,59.5,2.733,2.908,2.626,2.962,4.8,243.2,35.6,40.4,1014.05,-30.22,1.05,1.75,29.6,44.7,39.6,0,no_anomaly,0.0,0,0,0,0,22.5725998,88.3639473,5.0,0.0
2024-12-19T17:22:08.400Z,MISSION_0005,84,0,takeoff,SITE_KOL_006,22.5726039,88.3639452,5.0,216.62,4.821,0.128,5.06,2.753,-0.9939,216.6191,-0.31425,0.00069,0.02553,0.949,0.0468,0.0838,-9.8435,0.1625,-0.0463,0.0996,0.2023,3,19,0.6,0.89,0.35,24.706,18.84,93.7,43.8,20621.0,7468,7595,7493,7418,59.0,62.0,61.4,61.2,2.76,2.844,2.913,2.921,3.29,231.7,35.0,40.2,1014.04,-25.07,-0.32,1.1,28.9,40.0,34.1,0,no_anomaly,0.0,0,0,0,0,22.5726039,88.3639452,5.0,0.0
2024-12-19T17:22:08.500Z,MISSION_0005,85,0,takeoff,SITE_KOL_006,22.5725983,88.3639475,5.0,219.69,4.29,0.084,5.29,0.6028,-2.2582,219.6923,-0.33952,0.01675,0.01164,0.94038,0.1488,0.0362,-9.7688,-0.677,0.0438,-0.1871,0.1424,3,17,0.71,0.94,0.37,24.611,17.68,93.7,43.3,20609.0,7524,7492,7383,7444,59.0,59.5,60.0,55.9,2.732,2.643,2.702,2.93,3.95,232.7,35.2,41.1,1014.17,-30.23,-1.54,1.49,27.3,47.3,37.7,0,no_anomaly,0.0,0,0,0,0,22.5725983,88.3639475,5.0,0.0
2024-12-19T17:22:08.600Z,MISSION_0005,86,0,takeoff,SITE_KOL_006,22.572601,88.3639502,5.0,217.87,4.564,0.104,5.59,0.8204,-2.5629,217.8696,-0.32455,0.01883,0.01403,0.94558,-0.0184,0.0494,-9.7768,-0.7022,-0.3095,-0.288,0.1291,3,20,0.62,0.91,0.33,24.671,21.06,93.6,43.4,20597.0,7444,7439,7526,7543,62.3,60.4,58.1,59.8,2.812,2.495,2.499,2.656,3.73,230.4,35.2,39.6,1014.32,-32.54,-1.72,1.4,29.9,43.3,38.7,0,no_anomaly,0.0,0,0,0,0,22.572601,88.3639502,5.0,0.0
2024-12-19T17:22:08.700Z,MISSION_0005,87,0,takeoff,SITE_KOL_006,22.5726023,88.3639498,5.0,216.9,4.349,0.069,5.55,-2.8402,-2.5459,216.8996,-0.31578,0.02891,-0.01647,0.94825,-0.1937,0.0795,-9.8007,0.3749,0.0047,-0.0585,0.1862,3,10,0.9,0.87,0.2,24.677,16.58,93.6,43.8,20585.0,7181,7181,7515,7469,59.7,59.2,58.4,59.4,2.844,2.588,2.582,2.972,3.4,237.7,35.3,41.0,1014.34,-31.53,-0.48,1.0,28.7,49.1,40.4,0,no_anomaly,0.0,0,0,0,0,22.5726023,88.3639498,5.0,0.0
2024-12-19T17:22:08.800Z,MISSION_0005,88,0,takeoff,SITE_KOL_006,22.5726054,88.3639508,5.0,217.82,3.984,0.078,5.69,1.4517,-1.9335,217.8202,-0.32421,0.01186,0.01745,0.94575,0.0278,0.0417,-9.7756,-0.5765,-0.1568,0.5543,0.1339,3,16,0.69,0.88,0.3,24.703,18.88,93.5,44.3,20573.0,7496,7445,7406,7531,61.3,58.0,58.1,63.1,3.043,2.382,2.729,2.951,3.23,236.9,35.5,40.8,1014.02,-28.34,0.38,1.45,27.5,42.9,35.5,0,no_anomaly,0.0,0,0,0,0,22.5726054,88.3639508,5.0,0.0
2024-12-19T17:22:08.900Z,MISSION_0005,89,0,transit,SITE_KOL_006,22.5726044,88.3639508,5.5,217.77,3.914,0.069,5.68,-0.1882,-1.7233,217.7654,-0.32357,0.01476,0.00331,0.94608,0.1137,-0.0632,-9.801,0.0542,0.6365,0.1767,0.2263,3,11,0.76,0.84,0.29,24.658,24.75,93.5,43.8,20561.0,7496,7633,7497,7126,57.4,58.4,59.6,62.8,3.119,2.851,2.833,2.701,3.97,242.5,35.0,39.8,1014.09,-32.16,-0.29,1.0,31.4,49.9,37.9,0,no_anomaly,0.0,0,0,0,0,22.5726044,88.3639508,5.5,0.0
2024-12-19T17:22:09.000Z,MISSION_0005,90,0,transit,SITE_KOL_006,22.5726073,88.3639539,6.0,217.51,3.438,0.024,6.06,-0.3992,-0.4495,217.5142,-0.32154,0.00483,-0.00204,0.94688,-0.2628,0.0156,-9.7764,0.6926,0.4619,0.3962,0.1509,3,18,0.8,0.64,0.3,24.731,20.44,93.4,43.1,20549.0,7784,7500,7612,7397,57.7,60.1,61.4,56.2,2.275,3.018,3.075,2.735,3.87,230.7,35.1,40.2,1014.04,-28.83,1.18,1.71,29.6,43.4,40.9,0,no_anomaly,0.0,0,0,0,0,22.5726073,88.3639539,6.0,0.0
2024-12-19T17:22:09.100Z,MISSION_0005,91,0,transit,SITE_KOL_006,22.5726111,88.3639542,6.5,216.22,3.185,0.046,6.16,-1.5963,-1.8611,216.2212,-0.31057,0.01976,-0.00819,0.95031,-0.1191,-0.0254,-9.8397,0.0584,0.4508,0.2174,0.1952,3,18,0.66,0.76,0.24,24.646,21.69,93.3,43.3,20537.0,7512,7466,7444,7539,62.8,62.2,57.3,59.6,3.159,2.814,2.929,2.685,3.99,229.8,35.0,40.1,1014.21,-31.86,-1.34,1.1,29.3,47.9,36.3,0,no_anomaly,0.0,0,0,0,0,22.5726111,88.3639542,6.5,0.0
2024-12-19T17:22:09.200Z,MISSION_0005,92,0,transit,SITE_KOL_006,22.5726122,88.3639522,7.0,215.06,3.283,0.047,5.96,-0.5574,-1.4297,215.0641,-0.30115,0.01336,-0.00088,0.95348,0.0873,0.0037,-9.8156,0.5486,-0.7125,0.5475,0.1836,3,10,0.65,0.9,0.27,24.647,20.28,93.3,44.5,20525.0,7359,7437,7133,7870,60.6,60.3,62.1,61.8,2.648,2.956,2.707,2.573,3.48,235.1,35.2,40.4,1013.76,-30.12,-0.91,1.37,28.4,42.9,35.5,0,no_anomaly,0.0,0,0,0,0,22.5726122,88.3639522,7.0,0.0
2024-12-19T17:22:09.300Z,MISSION_0005,93,0,transit,SITE_KOL_006,22.5726102,88.3639496,7.5,214.26,2.959,0.108,5.64,0.3342,-2.0701,214.2578,-0.29452,0.0164,0.00811,0.95547,0.0055,0.0153,-9.8103,0.4824,-0.7116,-0.2562,0.2073,3,17,0.76,1.18,0.2,24.547,19.96,93.2,42.3,20513.0,7317,7438,7389,7602,62.9,59.2,58.1,58.9,2.758,3.146,2.995,2.597,4.0,235.8,35.4,39.8,1014.17,-31.03,1.51,1.26,30.8,46.4,38.9,0,no_anomaly,0.0,0,0,0,0,22.5726102,88.3639496,7.5,0.0
2024-12-19T17:22:09.400Z,MISSION_0005,94,0,transit,SITE_KOL_006,22.5726133,88.3639522,8.0,216.43,2.616,0.188,5.99,-0.5123,-2.074,216.432,-0.31247,0.01859,0.00141,0.94974,0.1551,-0.003,-9.7768,0.1562,0.7545,0.1278,0.1857,3,12,0.7,0.83,0.4,24.622,17.46,93.2,44.2,20501.0,7311,7432,7423,7401,60.6,61.6,59.2,59.8,2.757,3.026,2.795,2.786,3.75,241.3,35.2,40.3,1014.21,-28.75,-0.44,1.97,28.8,44.6,36.2,0,no_anomaly,0.0,0,0,0,0,22.5726133,88.3639522,8.0,0.0
2024-12-19T17:22:09.500Z,MISSION_0005,95,0,transit,SITE_KOL_006,22.5726081,88.3639486,8.5,216.36,2.779,0.151,5.48,0.9862,-2.1711,216.3586,-0.31208,0.01531,0.01409,0.94983,0.0515,-0.0512,-9.7447,-0.4095,0.1688,0.4979,0.2074,3,19,0.91,0.8,0.2,24.689,19.24,93.1,43.4,20489.0,7499,7596,7487,7364,61.5,58.5,57.3,60.9,2.689,2.797,2.644,2.954,3.41,235.4,35.6,40.2,1014.05,-28.22,-0.08,1.37,32.2,49.3,40.0,0,no_anomaly,0.0,0,0,0,0,22.5726081,88.3639486,8.5,0.0
2024-12-19T17:22:09.600Z,MISSION_0005,96,0,transit,SITE_KOL_006,22.572609,88.3639519,9.0,215.27,3.405,0.057,5.87,-0.7074,-1.4079,215.2661,-0.30282,0.01358,-0.00216,0.95295,0.1509,-0.0242,-9.8693,0.9179,0.24,0.2857,0.1844,3,12,0.92,0.71,0.31,24.649,15.7,93.1,43.2,20477.0,7469,7301,7399,7216,60.7,61.3,60.2,62.3,2.99,2.632,2.906,2.901,4.63,233.8,35.2,41.3,1014.12,-29.0,0.08,1.54,29.3,44.4,38.5,0,no_anomaly,0.0,0,0,0,0,22.572609,88.3639519,9.0,0.0
2024-12-19T17:22:09.700Z,MISSION_0005,97,0,transit,SITE_KOL_006,22.5726102,88.3639536,9.5,216.01,3.465,0.103,6.07,-2.6796,2.2619,216.0117,-0.30941,-0.01154,-0.02833,0.95044,-0.0243,0.0204,-9.8103,0.7166,-0.2848,-0.0843,0.2089,3,14,0.71,0.92,0.29,24.673,21.53,93.0,43.6,20465.0,7406,7701,7557,7419,63.3,56.2,60.0,58.1,2.516,2.842,3.188,2.825,4.4,231.6,35.2,40.7,1014.42,-33.16,0.97,1.46,28.2,45.9,37.0,0,no_anomaly,0.0,0,0,0,0,22.5726102,88.3639536,9.5,0.0
2024-12-19T17:22:09.800Z,MISSION_0005,98,0,transit,SITE_KOL_006,22.572613,88.3639562,10.0,216.17,3.84,0.064,6.42,5.0666,-0.5971,216.175,-0.31038,-0.00877,0.04363,0.94957,0.2029,-0.0434,-9.7645,-0.1308,-1.108,0.3361,0.1627,3,18,0.84,0.98,0.41,24.589,15.66,93.0,44.1,20453.0,7465,7523,7563,7402,59.0,60.5,59.5,57.3,2.612,2.711,2.986,2.645,4.73,230.3,35.1,41.0,1014.25,-31.25,-2.19,1.99,29.8,44.9,34.6,0,no_anomaly,0.0,0,0,0,0,22.572613,88.3639562,10.0,0.0
2024-12-19T17:22:09.900Z,MISSION_0005,99,0,transit,SITE_KOL_006,22.5726162,88.3639584,10.5,218.02,3.6,0.141,6.74,3.132,-0.6324,218.0241,-0.32578,-0.00369,0.02763,0.94503,-0.0736,-0.0426,-9.8159,0.0477,-0.1671,-0.5287,0.206,3,20,0.68,0.73,0.2,24.642,20.26,92.9,43.0,20441.0,7399,7506,7427,7595,59.1,63.0,59.6,62.8,2.725,2.805,2.653,3.111,3.78,230.5,35.0,40.4,1014.1,-31.01,0.81,1.17,27.8,45.1,38.6,0,no_anomaly,0.0,0,0,0,0,22.5726162,88.3639584,10.5,0.0
2024-12-19T17:22:10.000Z,MISSION_0005,100,0,transit,SITE_KOL_006,22.5726129,88.3639527,11.0,219.79,3.817,0.17,6.04,3.2611,-2.3352,219.7886,-0.34062,0.00947,0.03368,0.93955,0.0505,0.0149,-9.8033,-1.6746,0.0739,-0.0484,0.1077,3,14,0.54,0.95,0.22,24.629,23.25,92.9,44.2,20429.0,7334,7419,7562,7716,63.1,59.9,60.4,61.8,2.7,3.024,2.933,2.702,4.06,242.2,34.7,39.6,1014.42,-27.69,-0.1,1.34,32.1,42.9,37.9,0,no_anomaly,0.0,0,0,0,0,22.5726129,88.3639527,11.0,0.0
2024-12-19T17:22:10.100Z,MISSION_0005,101,0,transit,SITE_KOL_006,22.572611,88.3639482,11.5,220.46,3.851,0.158,5.51,-0.9764,-2.8975,220.456,-0.34543,0.02667,0.00075,0.93806,0.0296,0.0673,-9.8266,-0.3441,0.5266,-0.6342,0.1778,3,14,0.71,1.1,0.4,24.645,24.96,92.8,44.3,20417.0,7398,7475,7289,7290,59.3,60.9,61.0,58.6,2.74,2.821,2.743,2.74,4.15,232.8,34.7,41.4,1014.39,-31.87,0.42,1.58,28.1,41.4,38.4,0,no_anomaly,0.0,0,0,0,0,22.572611,88.3639482,11.5,0.0
2024-12-19T17:22:10.200Z,MISSION_0005,102,0,transit,SITE_KOL_006,22.5726101,88.3639474,12.0,218.41,3.772,0.065,5.4,1.0859,-1.7252,218.412,-0.32905,0.0111,0.0139,0.94415,0.1038,-0.0515,-9.8396,0.0748,1.0916,0.1536,0.159,3,11,0.79,1.03,0.38,24.586,21.48,92.7,43.5,20405.0,7582,7500,7703,7304,59.7,59.1,59.7,62.8,2.642,2.876,2.81,2.352,3.71,230.3,35.0,40.9,1014.22,-35.61,0.42,1.6,32.6,42.2,41.2,0,no_anomaly,0.0,0,0,0,0,22.5726101,88.3639474,12.0,0.0
2024-12-19T17:22:10.300Z,MISSION_0005,103,0,transit,SITE_KOL_006,22.5726115,88.3639464,12.5,217.56,3.557,0.122,5.32,0.3785,-0.7379,217.5572,-0.32192,0.00503,0.0052,0.94674,0.0125,0.0157,-9.8837,-0.0252,-0.1124,-0.18,0.2152,3,20,0.78,0.92,0.41,24.644,19.42,92.7,43.6,20393.0,7217,7550,7572,7647,59.6,61.1,60.9,58.7,2.845,2.761,3.054,2.836,4.57,233.0,35.4,41.1,1014.37,-32.05,1.32,1.8,31.8,45.1,38.6,0,no_anomaly,0.0,0,0,0,0,22.5726115,88.3639464,12.5,0.0
2024-12-19T17:22:10.400Z,MISSION_0005,104,0,transit,SITE_KOL_006,22.5726084,88.3639465,13.0,217.25,3.368,0.047,5.26,5.357,-2.9194,217.2516,-0.32006,0.00919,0.0524,0.9459,0.2247,0.0462,-9.7605,-0.3408,-0.1092,0.1937,0.1818,3,18,0.65,0.85,0.28,24.525,20.32,92.6,43.6,20381.0,7507,7270,7577,7345,59.7,62.5,58.2,60.8,2.74,2.959,2.925,2.969,3.78,234.7,35.4,40.5,1014.28,-30.12,0.21,1.12,31.3,44.9,38.5,0,no_anomaly,0.0,0,0,0,0,22.5726084,88.3639465,13.0,0.0
2024-12-19T17:22:10.500Z,MISSION_0005,105,0,transit,SITE_KOL_006,22.5726092,88.3639485,13.5,217.79,3.535,0.128,5.49,4.2584,-2.2373,217.7913,-0.32425,0.00643,0.04146,0.94504,0.2581,0.022,-9.7913,0.1232,-0.1067,-0.5784,0.2629,3,11,0.71,0.62,0.2,24.672,22.04,92.6,43.5,20369.0,7582,7466,7530,7442,59.5,62.9,60.4,57.2,2.837,2.829,2.867,2.622,4.29,238.3,35.3,40.7,1014.21,-24.8,-0.39,1.47,27.8,44.1,38.5,0,no_anomaly,0.0,0,0,0,0,22.5726092,88.3639485,13.5,0.0
2024-12-19T17:22:10.600Z,MISSION_0005,106,0,transit,SITE_KOL_006,22.5726051,88.3639492,14.0,215.69,3.577,0.093,5.5,0.8261,-1.1877,215.6869,-0.30646,0.00766,0.01004,0.9518,0.1386,-0.0204,-9.8051,1.1358,0.0094,0.0694,0.1067,3,20,0.6,0.94,0.2,24.59,25.36,92.5,43.4,20357.0,7427,7600,7410,7615,66.9,58.9,59.4,60.9,2.858,2.641,2.852,2.989,3.71,244.3,35.5,40.7,1014.19,-24.35,-0.26,1.29,29.9,44.9,37.3,0,no_anomaly,0.0,0,0,0,0,22.5726051,88.3639492,14.0,0.0
2024-12-19T17:22:10.700Z,MISSION_0005,107,0,transit,SITE_KOL_006,22.5726076,88.3639476,14.5,215.25,3.533,0.094,5.37,-1.3512,-2.5094,215.2483,-0.30243,0.02444,-0.00461,0.95285,0.1362,0.0093,-9.735,-0.4869,-1.0661,-0.2038,0.1605,3,10,0.71,0.78,0.27,24.655,21.23,92.5,43.8,20345.0,7023,7403,7757,7539,58.8,59.3,61.8,59.2,2.977,2.696,2.797,3.013,4.25,240.8,35.1,40.6,1013.98,-29.17,-0.21,1.74,29.7,51.2,40.5,0,no_anomaly,0.0,0,0,0,0,22.5726076,88.3639476,14.5,0.0
2024-12-19T17:22:10.800Z,MISSION_0005,108,0,transit,SITE_KOL_006,22.5726044,88.3639463,15.0,215.71,3.305,0.05,5.18,-1.8537,-2.1489,215.7107,-0.30623,0.02281,-0.00965,0.95163,0.1131,0.0719,-9.8553,0.7285,-0.242,0.5536,0.2279,3,14,0.67,0.78,0.21,24.555,25.21,92.4,43.5,20333.0,7272,7259,7507,7409,63.1,59.7,60.0,60.4,2.905,2.84,2.925,3.038,3.54,234.7,35.3,39.4,1014.19,-28.88,1.01,1.83,29.5,45.2,39.2,0,no_anomaly,0.0,0,0,0,0,22.5726044,88.3639463,15.0,0.0
2024-12-19T17:22:10.900Z,MISSION_0005,109,0,transit,SITE_KOL_006,22.5726078,88.3639415,15.5,216.56,3.212,0.157,4.7,1.2663,-1.9077,216.5607,-0.31378,0.01234,0.01571,0.94929,0.0152,-0.0198,-9.7941,0.2879,-0.0941,-0.4389,0.2021,3,14,0.89,0.86,0.31,24.638,16.97,92.4,43.5,20321.0,7426,7479,7417,7506,61.5,61.3,61.9,62.5,2.978,2.771,2.613,2.77,3.55,230.2,35.3,40.7,1014.17,-27.0,0.31,1.2,29.5,46.4,38.5,0,no_anomaly,0.0,0,0,0,0,22.5726078,88.3639415,15.5,0.0
2024-12-19T17:22:11.000Z,MISSION_0005,110,0,transit,SITE_KOL_006,22.5726086,88.3639404,16.0,215.04,2.983,0.185,4.6,-3.2936,-1.696,215.0423,-0.3005,0.02276,-0.02295,0.95324,0.0743,-0.0683,-9.795,0.57,0.5545,0.6216,0.1296,3,18,0.67,0.84,0.28,24.622,13.92,92.3,44.0,20309.0,7499,7607,7636,7267,60.9,56.8,63.2,62.3,2.684,2.766,2.71,2.965,3.44,228.8,34.9,40.8,1014.39,-34.06,-0.41,1.19,30.7,40.3,34.7,0,no_anomaly,0.0,0,0,0,0,22.5726086,88.3639404,16.0,0.0
2024-12-19T17:22:11.100Z,MISSION_0005,111,0,transit,SITE_KOL_006,22.5726062,88.3639418,16.5,214.41,3.202,0.057,4.7,-3.1071,-1.7535,214.4093,-0.29525,0.02263,-0.02137,0.95491,-0.1817,0.0407,-9.833,1.4851,-0.6237,-0.1311,0.1967,3,18,0.68,0.71,0.25,24.559,19.64,92.3,44.4,20296.0,7354,7754,7473,7346,61.1,61.3,62.4,64.2,2.802,2.881,2.86,2.507,3.91,244.5,35.2,40.3,1013.81,-28.76,-2.07,1.74,33.5,46.4,38.3,0,no_anomaly,0.0,0,0,0,0,22.5726062,88.3639418,16.5,0.0
2024-12-19T17:22:11.200Z,MISSION_0005,112,0,transit,SITE_KOL_006,22.5726033,88.3639433,17.0,216.41,3.127,0.082,4.84,-5.7092,-2.3374,216.4106,-0.31101,0.03491,-0.04093,0.94888,-0.0616,0.0626,-9.7655,0.4068,0.1593,-0.0966,0.1417,3,15,0.77,1.13,0.2,24.532,22.35,92.2,42.9,20284.0,7446,7349,7408,7748,55.6,56.0,64.1,61.2,2.871,3.03,2.92,2.774,4.67,236.9,35.0,40.3,1014.01,-25.49,-1.21,1.37,28.5,41.4,37.1,0,no_anomaly,0.0,0,0,0,0,22.5726033,88.3639433,17.0,0.0
2024-12-19T17:22:11.300Z,MISSION_0005,113,0,transit,SITE_KOL_006,22.5726066,88.3639413,17.5,217.22,3.239,0.147,4.65,-2.9043,-4.1037,217.2166,-0.31793,0.042,-0.01258,0.9471,-0.0181,0.0586,-9.7463,-0.1333,-0.2036,0.3901,0.2251,3,14,0.55,0.98,0.23,24.555,20.52,92.1,43.7,20272.0,7512,7122,7395,7801,61.1,62.3,60.8,63.0,2.906,2.88,2.381,2.937,3.79,239.2,35.2,41.1,1014.09,-26.08,0.8,1.4,31.0,42.5,38.8,0,no_anomaly,0.0,0,0,0,0,22.5726066,88.3639413,17.5,0.0
2024-12-19T17:22:11.400Z,MISSION_0005,114,0,transit,SITE_KOL_006,22.5726111,88.3639407,18.0,218.1,3.601,0.22,4.7,-0.6442,-2.6669,218.0994,-0.32617,0.02383,0.00228,0.94501,0.0691,0.0155,-9.8902,0.2699,-0.137,0.1763,0.1505,3,19,0.56,0.94,0.31,24.609,20.2,92.1,43.9,20260.0,7484,7469,7507,7626,58.7,62.7,61.3,57.9,2.779,2.776,2.592,2.767,3.96,238.6,35.2,40.6,1014.25,-31.3,1.86,1.79,27.4,48.0,36.5,0,no_anomaly,0.0,0,0,0,0,22.5726111,88.3639407,18.0,0.0
2024-12-19T17:22:11.500Z,MISSION_0005,115,0,transit,SITE_KOL_006,22.5726128,88.3639406,18.5,217.51,3.691,0.059,4.74,-1.1791,-3.1612,217.5059,-0.32108,0.02942,-0.00087,0.94659,-0.0218,-0.0348,-9.8554,-0.2337,0.2047,0.2323,0.1157,3,16,0.68,0.82,0.24,24.734,22.71,92.0,43.4,20248.0,7427,7382,7269,7612,59.0,61.2,53.7,60.1,2.804,2.638,2.84,2.97,4.38,241.7,35.0,41.6,1014.28,-28.39,-0.71,1.9,29.6,44.9,37.9,0,no_anomaly,0.0,0,0,0,0,22.5726128,88.3639406,18.5,0.0
2024-12-19T17:22:11.600Z,MISSION_0005,116,0,transit,SITE_KOL_006,22.5726164,88.3639379,19.0,216.32,3.682,0.061,4.6,-5.1764,-4.4842,216.3204,-0.30944,0.0512,-0.03069,0.94904,0.0933,-0.0688,-9.7884,0.0112,0.728,-0.0467,0.109,3,16,0.83,0.75,0.34,24.571,19.82,92.0,44.1,20236.0,7574,7483,7542,7213,58.7,58.8,58.3,60.8,2.604,2.667,3.144,2.817,3.27,236.7,35.5,41.3,1014.25,-27.04,-0.01,2.09,32.2,42.6,37.4,0,no_anomaly,0.0,0,0,0,0,22.5726164,88.3639379,19.0,0.0
2024-12-19T17:22:11.700Z,MISSION_0005,117,0,transit,SITE_KOL_006,22.5726161,88.3639394,19.2,215.81,3.581,0.111,4.73,0.7514,-2.7764,215.8129,-0.30752,0.02104,0.01369,0.95121,0.0651,-0.0252,-9.7,-0.0841,-0.5112,-0.0715,0.1855,3,18,0.76,0.6,0.28,24.458,21.62,91.9,43.3,20224.0,7622,7465,7401,7430,62.6,61.7,62.5,58.0,2.85,3.059,2.841,2.901,4.21,238.9,35.0,41.4,1014.61,-30.56,0.45,1.26,31.9,47.3,38.7,0,no_anomaly,0.0,0,0,0,0,22.5726161,88.3639394,19.2,0.0
2024-12-19T17:22:11.800Z,MISSION_0005,118,0,transit,SITE_KOL_006,22.5726163,88.3639348,19.2,216.5,3.024,0.091,4.28,-4.027,-0.5371,216.496,-0.31278,0.01545,-0.0319,0.94916,0.0268,-0.0237,-9.7065,-0.2234,0.0148,0.5559,0.1729,3,19,0.67,1.05,0.2,24.606,21.78,91.9,43.7,20212.0,7661,7391,7789,7393,62.2,60.9,62.4,60.9,2.563,2.754,2.686,2.994,3.36,238.8,35.0,40.1,1014.57,-30.72,-0.86,1.82,28.6,41.5,35.9,0,no_anomaly,0.0,0,0,0,0,22.5726163,88.3639348,19.2,0.0
2024-12-19T17:22:11.900Z,MISSION_0005,119,0,transit,SITE_KOL_006,22.5726201,88.36393,19.2,217.44,2.79,0.066,4.02,0.9573,-0.5744,217.4411,-0.32098,0.00207,0.00952,0.94704,-0.1259,-0.0139,-9.8053,0.3446,-0.7177,-0.2771,0.2318,3,11,0.57,0.88,0.2,24.63,17.76,91.8,43.7,20200.0,7488,7208,7504,7473,58.3,58.7,61.1,59.9,2.785,2.707,2.657,2.763,4.36,235.8,35.1,39.9,1014.33,-30.71,0.42,1.6,29.1,47.2,38.2,0,no_anomaly,0.0,0,0,0,0,22.5726201,88.36393,19.2,0.0
2024-12-19T17:22:12.000Z,MISSION_0005,120,0,transit,SITE_KOL_006,22.5726192,88.3639359,19.2,216.66,3.065,0.171,4.53,-0.8003,-2.0017,216.6602,-0.31432,0.01878,-0.00114,0.94913,-0.0398,-0.0194,-9.7501,0.1012,-0.2623,-0.5178,0.1505,3,15,0.78,0.84,0.26,24.606,15.06,91.8,45.0,20188.0,7766,7636,7579,7294,56.8,60.8,63.2,60.3,2.699,2.754,2.709,2.93,3.32,237.3,34.9,41.4,1013.98,-30.29,2.68,1.26,29.2,50.1,38.4,0,no_anomaly,0.0,0,0,0,0,22.5726192,88.3639359,19.2,0.0
2024-12-19T17:22:12.100Z,MISSION_0005,121,0,transit,SITE_KOL_006,22.5726163,88.3639392,19.2,216.05,3.2,0.101,4.72,0.3508,0.2814,216.0514,-0.30943,-0.00328,0.00215,0.95091,-0.1978,-0.0087,-9.824,0.3421,0.3307,-0.0911,0.2061,3,12,0.84,0.87,0.36,24.611,22.52,91.7,44.5,20176.0,7488,7573,7514,7298,61.6,58.2,59.5,58.2,2.743,2.424,2.824,2.618,3.51,232.1,35.2,40.1,1014.34,-30.27,1.19,1.64,27.2,48.9,38.7,0,no_anomaly,0.0,0,0,0,0,22.5726163,88.3639392,19.2,0.0
2024-12-19T17:22:12.200Z,MISSION_0005,122,0,transit,SITE_KOL_006,22.572619,88.3639445,19.2,215.22,3.139,0.105,5.39,-3.1718,-3.6759,215.2179,-0.3014,0.03893,-0.01667,0.95256,0.1401,0.0381,-9.7838,0.6591,0.6452,-0.105,0.1459,3,11,0.74,0.82,0.23,24.518,21.69,91.7,43.2,20164.0,7570,7491,7800,7557,57.9,60.1,61.3,59.4,2.879,2.748,2.821,2.891,3.96,230.5,35.1,40.6,1014.6,-34.4,2.3,1.0,32.6,45.8,38.1,0,no_anomaly,0.0,0,0,0,0,22.572619,88.3639445,19.2,0.0
2024-12-19T17:22:12.300Z,MISSION_0005,123,0,transit,SITE_KOL_006,22.5726234,88.3639412,19.2,216.05,3.149,0.078,5.27,-0.5149,-3.8437,216.0468,-0.30909,0.03328,0.00611,0.95043,0.2598,0.0895,-9.8525,0.6847,0.5067,-0.0426,0.2391,3,10,0.68,0.94,0.2,24.523,21.61,91.6,44.0,20152.0,7431,7682,7251,7358,63.2,61.5,59.6,61.2,2.91,3.031,2.624,2.927,3.99,241.1,35.5,40.4,1014.23,-32.4,-0.02,1.59,29.8,48.7,34.1,0,no_anomaly,0.0,0,0,0,0,22.5726234,88.3639412,19.2,0.0
2024-12-19T17:22:12.400Z,MISSION_0005,124,0,transit,SITE_KOL_006,22.5726182,88.3639438,19.2,212.95,2.989,0.049,5.28,1.8102,0.0427,212.9522,-0.28357,-0.00484,0.01504,0.95882,-0.1515,-0.028,-9.7806,-1.0254,0.231,-0.2915,0.1995,3,14,0.8,1.07,0.35,24.582,21.96,91.5,43.2,20140.0,7408,7590,7515,7816,62.4,58.4,58.8,60.1,3.045,2.83,2.661,2.887,3.91,244.9,35.0,41.0,1014.14,-31.72,-0.36,1.0,29.9,43.9,35.8,0,no_anomaly,0.0,0,0,0,0,22.5726182,88.3639438,19.2,0.0
2024-12-19T17:22:12.500Z,MISSION_0005,125,0,transit,SITE_KOL_006,22.5726206,88.3639417,19.2,212.87,2.427,0.069,5.17,-2.1847,-1.2347,212.8681,-0.28265,0.01573,-0.01524,0.95897,-0.3251,-0.0297,-9.8047,0.0978,0.128,0.0819,0.2204,3,10,0.73,1.14,0.26,24.642,18.98,91.5,44.1,20128.0,7590,7448,7426,7549,63.9,61.1,62.2,63.7,2.886,2.833,2.848,2.599,3.31,239.7,35.2,41.5,1014.03,-31.29,-0.22,1.43,28.0,44.1,40.2,0,no_anomaly,0.0,0,0,0,0,22.5726206,88.3639417,19.2,0.0
2024-12-19T17:22:12.600Z,MISSION_0005,126,0,transit,SITE_KOL_006,22.5726221,88.3639428,19.2,211.59,2.66,0.167,5.36,-1.2232,-2.6471,211.5938,-0.2719,0.02513,-0.00398,0.96199,0.0135,0.0422,-9.698,0.0357,0.6348,0.4146,0.2412,3,14,0.75,0.87,0.32,24.582,21.58,91.4,43.9,20116.0,7487,7653,7401,7309,62.3,61.3,61.6,59.1,2.746,2.904,2.816,3.015,4.16,241.1,35.2,40.8,1013.95,-25.61,1.59,1.73,31.4,44.0,39.5,0,no_anomaly,0.0,0,0,0,0,22.5726221,88.3639428,19.2,0.0
2024-12-19T17:22:12.700Z,MISSION_0005,127,0,transit,SITE_KOL_006,22.5726212,88.3639425,19.2,213.21,2.431,0.058,5.29,-1.1736,-2.5785,213.2071,-0.28544,0.02449,-0.00338,0.95808,0.263,0.0141,-9.8073,-0.8454,-0.51,-0.0476,0.1322,3,16,0.78,0.9,0.23,24.518,18.42,91.4,42.9,20104.0,7566,7372,7504,7562,63.3,58.7,61.6,60.6,2.689,2.612,2.872,2.913,3.17,228.7,34.6,40.6,1014.16,-31.88,-1.38,1.74,33.5,42.7,38.3,0,no_anomaly,0.0,0,0,0,0,22.5726212,88.3639425,19.2,0.0
2024-12-19T17:22:12.800Z,MISSION_0005,128,0,transit,SITE_KOL_006,22.5726276,88.363941,19.2,214.13,2.289,0.069,5.5,-0.7899,-2.7844,214.1326,-0.29322,0.02525,0.00054,0.95571,0.0307,-0.012,-9.7511,0.4934,-0.8611,0.296,0.1043,3,14,0.73,0.92,0.24,24.623,22.52,91.3,42.7,20092.0,7324,7268,7339,7354,59.9,61.5,62.2,58.4,2.905,3.083,2.962,2.894,4.15,236.1,35.2,40.1,1014.48,-29.34,0.73,1.04,30.6,47.1,36.3,0,no_anomaly,0.0,0,0,0,0,22.5726276,88.363941,19.2,0.0
2024-12-19T17:22:12.900Z,MISSION_0005,129,0,transit,SITE_KOL_006,22.5726305,88.3639492,19.2,213.49,2.131,0.042,6.44,-1.4617,-0.7006,213.4935,-0.28804,0.00953,-0.01045,0.95751,0.2086,-0.061,-9.8354,-0.7917,0.2013,-0.2084,0.1161,3,11,0.56,0.77,0.23,24.627,16.79,91.3,43.8,20080.0,7396,7288,7739,7781,64.9,58.6,60.5,58.5,2.622,2.928,2.741,2.75,4.21,233.0,35.4,40.8,1014.11,-34.34,1.56,1.62,31.5,48.8,40.8,0,no_anomaly,0.0,0,0,0,0,22.5726305,88.3639492,19.2,0.0
