timestamp_utc,mission_id,frame_id,waypoint_id,inspection_phase,site_id,latitude_deg,longitude_deg,altitude_m,heading_deg,ground_speed_ms,vertical_speed_ms,distance_to_tower_m,roll_deg,pitch_deg,yaw_deg,quat_w,quat_x,quat_y,quat_z,accel_x_ms2,accel_y_ms2,accel_z_ms2,gyro_x_rads,gyro_y_rads,gyro_z_rads,vibration_level,gps_fix_type,gps_satellite_count,gps_hdop,gps_vdop,position_error_m,battery_voltage_v,battery_current_a,battery_remaining_pct,battery_temp_c,battery_capacity_mah,motor_fl_rpm,motor_fr_rpm,motor_rl_rpm,motor_rr_rpm,motor_fl_temp_c,motor_fr_temp_c,motor_rl_temp_c,motor_rr_temp_c,motor_fl_thrust_n,motor_fr_thrust_n,motor_rl_thrust_n,motor_rr_thrust_n,wind_speed_ms,wind_dir_deg,air_temp_c,humidity_pct,pressure_hpa,gimbal_pitch_deg,gimbal_roll_deg,zoom_factor,ir_temp_min_c,ir_temp_max_c,ir_temp_avg_c,anomaly_detected,anomaly_class,anomaly_confidence,anomaly_bbox_x,anomaly_bbox_y,anomaly_bbox_w,anomaly_bbox_h,anomaly_gps_lat,anomaly_gps_lon,anomaly_gps_alt_m,ir_temp_delta_c
2024-07-19T10:53:00.000Z,MISSION_0064,0,0,takeoff,SITE_HYD_005,17.3850008,78.4866986,1.5,104.91,0.0,0.086,0.18,-0.3607,-0.7045,104.9142,0.60936,0.00296,-0.00624,0.79287,-0.0186,0.103,-9.7721,-0.2124,0.5602,-0.0604,0.21,3,12,0.72,0.96,0.29,24.621,18.15,97.0,47.7,21348.0,7886,8118,7523,8201,61.7,64.0,62.3,61.2,2.894,3.124,2.892,2.682,5.08,327.3,39.4,56.1,1018.4,-37.29,0.26,1.54,33.9,46.9,39.2,0,no_anomaly,0.0,0,0,0,0,17.3850008,78.4866986,1.5,0.0
2024-07-19T10:53:00.100Z,MISSION_0064,1,0,takeoff,SITE_HYD_005,17.3850042,78.4866957,3.0,102.76,0.148,0.107,0.66,2.2683,-1.9649,102.7579,0.62369,0.02575,0.00476,0.78123,0.2227,0.0096,-9.7655,0.7345,-0.8329,0.2149,0.2646,3,12,0.64,0.95,0.22,24.688,17.4,97.0,46.9,21331.0,7780,7874,7897,7962,67.6,68.5,63.5,63.6,2.68,2.587,2.817,2.762,5.53,328.6,39.6,55.0,1018.07,-26.64,-1.35,1.12,35.7,47.7,39.8,0,no_anomaly,0.0,0,0,0,0,17.3850042,78.4866957,3.0,0.0
2024-07-19T10:53:00.200Z,MISSION_0064,2,0,takeoff,SITE_HYD_005,17.3850068,78.4866966,4.5,101.7,0.377,0.042,0.85,-1.5236,0.0788,101.7031,0.63127,-0.00893,-0.00988,0.77545,0.0479,-0.0261,-9.9203,0.2383,0.5799,0.0482,0.0921,3,13,0.76,0.91,0.38,24.698,16.25,96.9,47.8,21313.0,7825,8054,7665,7773,63.0,67.1,63.7,63.6,2.556,2.865,2.499,2.691,4.91,329.0,39.7,55.7,1018.19,-29.5,0.21,1.47,35.5,45.9,38.3,0,no_anomaly,0.0,0,0,0,0,17.3850068,78.4866966,4.5,0.0
2024-07-19T10:53:00.300Z,MISSION_0064,3,0,takeoff,SITE_HYD_005,17.3850058,78.4866973,5.0,106.79,1.012,0.101,0.71,-3.0239,-1.0009,106.7939,0.59622,-0.00872,-0.02639,0.80234,0.4186,-0.0749,-9.8331,0.3089,-0.3403,0.1079,0.0845,3,13,0.75,1.13,0.38,24.668,21.69,96.8,47.4,21295.0,7920,8126,7943,7903,65.4,63.0,63.9,61.8,2.421,2.927,2.797,2.786,4.94,329.8,39.6,56.0,1018.31,-34.55,0.04,1.31,34.7,44.5,41.2,0,no_anomaly,0.0,0,0,0,0,17.3850058,78.4866973,5.0,0.0
2024-07-19T10:53:00.400Z,MISSION_0064,4,0,takeoff,SITE_HYD_005,17.3850058,78.4867022,5.0,106.76,1.083,0.147,0.7,-2.35,-1.0873,106.7601,0.59651,-0.00462,-0.02212,0.80229,0.2527,0.0628,-9.8928,0.3309,-0.4188,0.183,0.2405,3,14,0.74,0.6,0.22,24.729,14.53,96.7,47.2,21277.0,7867,7648,7937,7818,63.8,62.1,61.2,65.0,2.939,2.922,2.748,2.521,5.47,329.5,39.2,54.9,1018.17,-30.7,-0.29,1.37,33.6,48.2,42.4,0,no_anomaly,0.0,0,0,0,0,17.3850058,78.4867022,5.0,0.0
2024-07-19T10:53:00.500Z,MISSION_0064,5,0,takeoff,SITE_HYD_005,17.3850021,78.4867004,5.0,105.95,0.722,0.121,0.24,-1.1119,-2.1784,105.9492,0.60218,0.00933,-0.01919,0.79808,0.0833,0.0697,-9.8527,-0.529,-0.3253,-0.282,0.233,3,18,0.78,0.76,0.35,24.773,19.16,96.6,47.2,21259.0,7597,8037,8185,7816,65.3,61.7,64.5,65.2,2.897,3.085,2.948,2.949,5.4,331.3,39.2,56.1,1018.33,-30.93,0.14,1.46,31.8,45.0,39.3,0,no_anomaly,0.0,0,0,0,0,17.3850021,78.4867004,5.0,0.0
2024-07-19T10:53:00.600Z,MISSION_0064,6,0,takeoff,SITE_HYD_005,17.3850056,78.4867053,5.0,106.54,1.075,0.122,0.86,0.3876,-3.0362,106.5427,0.59774,0.02326,-0.01313,0.80124,0.0913,0.0527,-9.9504,-0.297,-0.7899,0.0092,0.2809,3,13,0.52,1.1,0.2,24.685,21.35,96.6,48.3,21241.0,7602,7883,8163,7729,61.4,64.3,64.4,64.6,2.769,3.152,2.881,2.731,4.48,330.9,39.6,55.5,1018.55,-26.46,-1.24,1.31,33.2,45.4,40.2,0,no_anomaly,0.0,0,0,0,0,17.3850056,78.4867053,5.0,0.0
2024-07-19T10:53:00.700Z,MISSION_0064,7,0,takeoff,SITE_HYD_005,17.3850072,78.4867024,5.0,105.08,1.88,0.067,0.84,-2.7671,-4.1848,105.0832,0.6083,0.0143,-0.04135,0.7925,0.1079,-0.0176,-9.8031,0.006,0.8645,0.3226,0.2753,3,18,0.87,1.15,0.35,24.698,18.5,96.5,48.4,21224.0,7983,7881,7931,8019,63.4,64.3,65.3,66.0,2.591,2.631,2.576,2.919,5.34,331.9,39.1,55.3,1018.59,-26.43,0.83,1.6,31.7,49.5,41.4,0,no_anomaly,0.0,0,0,0,0,17.3850072,78.4867024,5.0,0.0
2024-07-19T10:53:00.800Z,MISSION_0064,8,0,takeoff,SITE_HYD_005,17.3850102,78.4867005,5.0,105.61,1.931,0.024,1.14,-0.638,-3.9249,105.6116,0.60431,0.02391,-0.02513,0.796,-0.0493,0.0242,-9.7826,-0.1135,-0.264,-0.1283,0.2017,3,10,0.78,0.86,0.28,24.623,15.45,96.4,47.3,21206.0,7886,8251,8042,8238,61.9,63.2,60.3,63.0,2.913,2.852,3.206,2.869,5.53,329.4,39.1,55.8,1018.17,-28.58,0.77,1.71,32.1,45.4,42.5,0,no_anomaly,0.0,0,0,0,0,17.3850102,78.4867005,5.0,0.0
2024-07-19T10:53:00.900Z,MISSION_0064,9,0,takeoff,SITE_HYD_005,17.3850032,78.4867016,5.0,107.47,2.153,0.066,0.4,4.6694,-1.0696,107.4664,0.59072,0.03162,0.02733,0.80579,-0.0545,0.0575,-9.7721,-0.4294,0.556,0.1562,0.0995,3,16,0.65,0.9,0.35,24.744,15.88,96.3,46.7,21188.0,7767,7918,8191,7830,63.8,66.0,69.0,66.0,2.774,2.788,2.694,2.704,5.82,323.5,39.6,55.4,1018.36,-28.27,0.27,1.42,36.4,50.5,41.5,0,no_anomaly,0.0,0,0,0,0,17.3850032,78.4867016,5.0,0.0
2024-07-19T10:53:01.000Z,MISSION_0064,10,0,takeoff,SITE_HYD_005,17.384998,78.486704,5.0,107.64,2.03,0.112,0.5,3.4934,-0.0104,107.6374,0.59007,0.01807,0.02455,0.80678,-0.3658,-0.0132,-9.8169,-1.0328,-0.5692,0.0104,0.1598,3,15,0.64,0.76,0.31,24.702,20.2,96.2,48.1,21170.0,8082,7857,8041,7802,64.5,64.6,60.6,66.5,2.759,2.766,2.779,3.072,5.02,316.7,39.3,55.9,1018.31,-26.72,-0.02,1.28,31.7,47.1,43.2,0,no_anomaly,0.0,0,0,0,0,17.384998,78.486704,5.0,0.0
2024-07-19T10:53:01.100Z,MISSION_0064,11,0,takeoff,SITE_HYD_005,17.384996,78.4867061,5.0,107.12,1.69,0.048,0.82,-3.8397,-1.2832,107.1168,0.59393,-0.0109,-0.0336,0.80374,-0.139,0.0404,-9.8897,0.7933,-0.0743,0.3116,0.1393,3,16,0.68,0.96,0.23,24.675,18.36,96.1,46.4,21152.0,8284,7978,7742,7973,64.5,65.0,64.4,65.5,2.725,2.822,2.487,2.814,5.05,325.8,39.1,55.3,1018.47,-28.29,-0.31,1.56,37.3,54.0,43.4,0,no_anomaly,0.0,0,0,0,0,17.384996,78.4867061,5.0,0.0
2024-07-19T10:53:01.200Z,MISSION_0064,12,0,takeoff,SITE_HYD_005,17.3849971,78.4867057,5.0,106.64,1.465,0.092,0.72,-6.4252,-2.0267,106.6389,0.59712,-0.01931,-0.05548,0.8,-0.0688,0.0281,-9.7771,-0.7444,0.1815,-0.2357,0.2186,3,20,0.71,1.14,0.23,24.607,18.61,96.1,47.7,21134.0,7904,7852,8041,7652,67.2,65.8,60.1,67.6,2.86,2.872,2.664,2.587,6.42,322.8,39.7,56.1,1018.28,-31.74,0.33,1.43,33.8,50.8,40.6,0,no_anomaly,0.0,0,0,0,0,17.3849971,78.4867057,5.0,0.0
2024-07-19T10:53:01.300Z,MISSION_0064,13,0,takeoff,SITE_HYD_005,17.3850016,78.4867097,5.0,106.73,1.562,0.121,1.09,3.8466,-1.1066,106.7278,0.59611,0.02777,0.02117,0.80215,0.1113,0.0827,-9.7906,-0.2617,0.0056,0.1997,0.2084,3,18,0.92,0.82,0.43,24.703,17.41,96.0,47.0,21117.0,7950,7755,7613,8005,62.7,61.9,63.3,63.1,2.78,2.928,2.864,2.777,5.21,321.6,39.5,55.4,1018.3,-32.27,2.25,1.78,37.3,46.9,39.7,0,no_anomaly,0.0,0,0,0,0,17.3850016,78.4867097,5.0,0.0
2024-07-19T10:53:01.400Z,MISSION_0064,14,0,takeoff,SITE_HYD_005,17.3850011,78.4867105,5.0,107.72,1.351,0.116,1.18,1.5428,-1.0472,107.7226,0.58956,0.01532,0.00548,0.80756,-0.0057,0.0446,-9.8531,0.2083,-0.8733,-0.1452,0.1293,3,11,0.78,0.69,0.25,24.775,20.12,95.9,47.6,21099.0,7732,7888,8177,8082,64.7,64.3,62.8,62.8,3.212,2.833,2.834,2.941,5.33,330.6,39.3,55.9,1018.58,-30.58,-0.88,1.49,35.1,53.2,44.1,0,no_anomaly,0.0,0,0,0,0,17.3850011,78.4867105,5.0,0.0
2024-07-19T10:53:01.500Z,MISSION_0064,15,0,takeoff,SITE_HYD_005,17.3850012,78.4867124,5.0,107.29,1.152,0.014,1.38,2.3643,-0.6085,107.2929,0.59254,0.0165,0.01347,0.80526,-0.0105,0.055,-9.7477,0.2745,0.3942,0.4132,0.1567,3,19,0.76,0.83,0.31,24.661,18.78,95.8,46.8,21081.0,7986,7755,7943,7744,63.1,63.8,67.6,65.4,2.594,2.743,2.721,2.857,4.86,327.5,39.3,54.9,1018.08,-34.97,0.54,1.06,34.4,50.1,39.1,0,no_anomaly,0.0,0,0,0,0,17.3850012,78.4867124,5.0,0.0
2024-07-19T10:53:01.600Z,MISSION_0064,16,0,takeoff,SITE_HYD_005,17.3850008,78.486708,5.0,108.89,1.518,0.125,0.9,-5.0515,-2.5451,108.8918,0.58156,-0.00757,-0.04874,0.81201,0.2964,-0.0359,-9.8519,0.3597,0.0498,-0.0623,0.2066,3,10,0.73,0.91,0.2,24.695,19.12,95.7,47.0,21063.0,7710,7888,7772,8017,64.4,66.3,66.4,66.3,2.795,2.819,3.0,2.947,5.05,321.1,39.5,56.1,1018.25,-29.38,0.97,1.59,30.7,44.2,39.3,0,no_anomaly,0.0,0,0,0,0,17.3850008,78.486708,5.0,0.0
2024-07-19T10:53:01.700Z,MISSION_0064,17,0,takeoff,SITE_HYD_005,17.3849998,78.4867067,5.0,110.42,1.682,0.114,0.74,-0.4223,-1.7782,110.4236,0.57052,0.01064,-0.01188,0.82113,-0.1155,-0.019,-9.7391,0.0197,0.3018,-0.0743,0.205,3,17,0.61,0.98,0.29,24.693,18.04,95.7,47.7,21045.0,7937,7884,8044,7612,69.3,66.0,62.9,65.5,2.803,2.74,2.772,3.105,5.09,331.5,39.7,56.0,1017.92,-28.43,-2.04,1.65,36.6,54.1,44.8,0,no_anomaly,0.0,0,0,0,0,17.3849998,78.4867067,5.0,0.0
2024-07-19T10:53:01.800Z,MISSION_0064,18,0,takeoff,SITE_HYD_005,17.3849985,78.4867062,5.0,110.46,1.568,0.09,0.71,-1.2034,-3.1765,110.4585,0.57028,0.01678,-0.02443,0.82091,0.0763,-0.0312,-9.8547,0.2588,-0.6363,0.0289,0.2311,3,11,0.82,0.87,0.43,24.695,23.56,95.6,48.0,21027.0,7743,7728,7713,7992,63.8,62.7,65.1,60.8,2.821,2.657,2.748,2.827,5.63,330.3,39.2,55.4,1018.31,-31.48,-0.85,1.34,36.1,49.0,45.7,0,no_anomaly,0.0,0,0,0,0,17.3849985,78.4867062,5.0,0.0
2024-07-19T10:53:01.900Z,MISSION_0064,19,0,takeoff,SITE_HYD_005,17.3850022,78.4867018,5.0,111.59,1.277,0.163,0.32,-0.6544,-2.3475,111.5889,0.56213,0.01373,-0.01624,0.82677,0.1085,-0.0218,-9.8044,0.3323,-0.7552,0.1899,0.227,3,18,0.78,0.99,0.32,24.724,21.09,95.5,47.2,21010.0,7826,7950,7988,7670,67.0,62.2,66.1,66.2,2.758,2.887,2.648,2.926,5.88,328.7,39.3,55.8,1018.51,-31.73,-1.49,1.58,34.9,43.6,42.9,0,no_anomaly,0.0,0,0,0,0,17.3850022,78.4867018,5.0,0.0
2024-07-19T10:53:02.000Z,MISSION_0064,20,0,takeoff,SITE_HYD_005,17.3850057,78.4867063,5.0,113.0,1.022,0.086,0.95,-1.8032,-0.3747,112.9971,0.55193,-0.00596,-0.01493,0.83374,-0.0636,0.0371,-9.8207,0.326,1.1151,0.2525,0.3127,3,12,0.6,0.65,0.21,24.824,19.61,95.4,47.1,20992.0,7976,8033,7781,8069,60.4,67.5,67.9,65.6,2.518,2.685,2.545,3.115,5.42,329.2,39.5,55.5,1018.19,-33.01,-1.96,1.99,33.1,49.5,43.7,0,no_anomaly,0.0,0,0,0,0,17.3850057,78.4867063,5.0,0.0
2024-07-19T10:53:02.100Z,MISSION_0064,21,0,takeoff,SITE_HYD_005,17.3850069,78.4867029,5.0,110.4,0.922,0.065,0.84,-2.8547,-4.67,110.3962,0.57092,0.01924,-0.04368,0.81961,-0.2252,-0.0282,-9.8223,-0.6298,0.7787,0.1778,0.2328,3,16,0.74,0.67,0.32,24.737,15.81,95.3,46.9,20974.0,8015,7821,7903,7926,65.4,69.5,65.2,64.5,2.595,2.492,2.439,2.777,5.22,320.9,39.5,56.2,1018.36,-25.58,1.07,1.75,38.3,47.9,44.3,0,no_anomaly,0.0,0,0,0,0,17.3850069,78.4867029,5.0,0.0
2024-07-19T10:53:02.200Z,MISSION_0064,22,0,takeoff,SITE_HYD_005,17.3850128,78.4867038,5.0,109.19,1.061,0.16,1.49,-7.1233,-1.9897,109.1911,0.57902,-0.02186,-0.06067,0.81276,-0.2057,0.0654,-9.7817,-0.4684,-0.516,-0.0006,0.1866,3,14,0.72,0.97,0.31,24.714,23.73,95.3,47.2,20956.0,7872,7788,7967,7577,62.1,61.9,65.5,67.3,2.863,2.768,2.685,2.782,5.67,331.9,39.5,55.5,1018.21,-35.0,0.96,1.0,35.4,54.2,42.9,0,no_anomaly,0.0,0,0,0,0,17.3850128,78.4867038,5.0,0.0
2024-07-19T10:53:02.300Z,MISSION_0064,23,0,takeoff,SITE_HYD_005,17.3850115,78.4867054,5.0,109.39,0.998,0.068,1.42,3.5381,-1.7948,109.3928,0.57717,0.03061,0.01614,0.81589,-0.0233,-0.0015,-9.7506,-0.7922,-0.2181,0.0494,0.2295,3,10,0.73,0.74,0.23,24.706,19.07,95.2,47.1,20938.0,7996,7770,7884,7971,65.3,62.5,61.8,63.1,2.555,2.85,2.852,2.789,4.25,326.9,39.2,55.0,1018.45,-26.77,1.25,1.29,34.3,45.0,41.5,0,no_anomaly,0.0,0,0,0,0,17.3850115,78.4867054,5.0,0.0
2024-07-19T10:53:02.400Z,MISSION_0064,24,0,takeoff,SITE_HYD_005,17.3850106,78.486699,5.0,109.22,0.878,0.039,1.18,-2.0339,-4.1568,109.2181,0.57921,0.01929,-0.03546,0.81418,0.0325,0.0249,-9.8609,0.2022,0.095,-0.2512,0.2338,3,10,0.72,0.91,0.24,24.719,21.11,95.1,48.0,20921.0,7914,7693,7923,7966,62.5,68.1,66.6,63.9,2.659,2.767,2.606,2.992,5.22,322.9,39.3,55.4,1018.42,-25.34,-0.53,1.54,37.9,46.9,43.0,0,no_anomaly,0.0,0,0,0,0,17.3850106,78.486699,5.0,0.0
2024-07-19T10:53:02.500Z,MISSION_0064,25,0,takeoff,SITE_HYD_005,17.3850094,78.4867001,5.0,108.93,0.651,0.05,1.05,2.5492,-3.4085,108.9324,0.58024,0.03712,0.00081,0.8136,0.2418,0.0322,-9.8518,-0.5582,-0.2578,-0.0449,0.2322,3,17,0.7,0.85,0.28,24.699,16.5,95.0,47.0,20903.0,8165,7819,7739,7908,67.6,62.4,61.2,65.2,2.612,2.937,2.619,2.984,5.5,330.1,39.4,55.0,1018.38,-32.6,-1.12,1.38,30.8,46.2,42.0,0,no_anomaly,0.0,0,0,0,0,17.3850094,78.4867001,5.0,0.0
2024-07-19T10:53:02.600Z,MISSION_0064,26,0,takeoff,SITE_HYD_005,17.385006,78.4866993,5.0,110.21,0.677,0.032,0.67,-3.8379,-6.7132,110.2128,0.57236,0.02887,-0.06089,0.81723,-0.0034,-0.0844,-9.7334,0.4282,0.3292,-0.144,0.2162,3,20,0.6,1.02,0.29,24.593,17.22,94.9,47.5,20885.0,7649,8052,7817,8177,63.6,66.5,66.1,63.9,2.617,2.841,2.834,2.668,4.26,325.6,39.3,55.9,1018.38,-29.19,0.0,1.51,34.7,49.5,41.2,0,no_anomaly,0.0,0,0,0,0,17.385006,78.4866993,5.0,0.0
2024-07-19T10:53:02.700Z,MISSION_0064,27,0,takeoff,SITE_HYD_005,17.3850115,78.4866983,5.0,111.37,0.7,0.107,1.3,-2.7612,0.8152,111.3684,0.56343,-0.01946,-0.01589,0.82578,-0.0214,0.0007,-9.7719,0.224,0.3539,-0.0131,0.2786,3,18,0.74,0.82,0.32,24.588,21.98,94.9,47.3,20867.0,7969,7911,7865,7691,65.7,62.0,63.2,65.8,2.823,3.056,2.479,2.63,6.23,327.0,39.6,55.8,1018.42,-32.11,-2.8,1.03,34.0,49.8,42.0,0,no_anomaly,0.0,0,0,0,0,17.3850115,78.4866983,5.0,0.0
2024-07-19T10:53:02.800Z,MISSION_0064,28,0,takeoff,SITE_HYD_005,17.3850091,78.4866985,5.0,113.13,0.56,0.157,1.03,1.8607,-2.0847,113.1255,0.55061,0.02412,0.00352,0.8344,-0.2752,-0.0424,-9.7522,-0.443,-0.1191,0.3311,0.2761,3,13,0.83,0.8,0.23,24.697,18.04,94.8,47.5,20849.0,7927,8155,7554,7914,64.7,63.9,64.0,64.1,3.137,2.873,2.73,2.926,6.4,330.1,39.2,55.1,1018.34,-20.24,0.41,1.33,34.8,49.8,42.2,0,no_anomaly,0.0,0,0,0,0,17.3850091,78.4866985,5.0,0.0
2024-07-19T10:53:02.900Z,MISSION_0064,29,0,takeoff,SITE_HYD_005,17.3850105,78.4867,5.0,114.05,0.132,0.084,1.17,2.2934,-4.8976,114.0529,0.54293,0.04672,-0.00648,0.83845,0.1705,-0.1303,-9.7901,1.0102,-0.4238,-0.1194,0.254,3,13,0.5,0.9,0.2,24.628,20.66,94.7,47.3,20831.0,7863,7968,7971,7861,63.3,64.8,63.6,65.5,2.595,2.982,2.793,2.934,6.39,324.3,39.5,56.2,1018.12,-30.95,-1.75,1.56,36.5,46.7,40.3,0,no_anomaly,0.0,0,0,0,0,17.3850105,78.4867,5.0,0.0
2024-07-19T10:53:03.000Z,MISSION_0064,30,0,takeoff,SITE_HYD_005,17.3850084,78.4867005,5.0,112.68,0.528,0.064,0.93,-1.3488,0.2306,112.6823,0.55419,-0.0082,-0.00868,0.83231,-0.144,0.0163,-9.8323,-0.038,-0.0567,0.3789,0.1947,3,18,0.67,1.21,0.2,24.64,16.76,94.6,47.2,20814.0,8116,7845,7761,7770,63.8,65.4,62.1,65.5,2.671,2.77,2.887,2.923,4.81,326.8,39.8,55.7,1018.34,-28.36,-0.84,1.33,32.0,49.8,40.4,0,no_anomaly,0.0,0,0,0,0,17.3850084,78.4867005,5.0,0.0
2024-07-19T10:53:03.100Z,MISSION_0064,31,0,takeoff,SITE_HYD_005,17.3850071,78.4867021,5.0,113.71,0.436,0.086,0.82,-4.0528,-1.3504,113.7063,0.54676,-0.00947,-0.03604,0.83646,0.2598,0.0137,-9.7652,-0.2613,0.57,0.1759,0.1877,3,14,0.77,0.91,0.3,24.723,13.3,94.5,46.6,20796.0,7582,8338,7858,8040,66.4,64.4,63.2,63.0,2.512,2.609,2.786,2.724,6.33,322.6,39.7,56.0,1017.94,-31.4,-0.25,1.61,33.6,46.7,38.8,0,no_anomaly,0.0,0,0,0,0,17.3850071,78.4867021,5.0,0.0
2024-07-19T10:53:03.200Z,MISSION_0064,32,0,takeoff,SITE_HYD_005,17.3850072,78.4866975,5.0,117.8,0.331,0.016,0.85,-2.35,-3.4165,117.7963,0.51675,0.01493,-0.03295,0.85537,0.0524,0.1407,-9.7932,-0.0267,0.4633,-0.0259,0.2545,3,17,0.65,1.09,0.25,24.627,15.78,94.4,47.5,20778.0,7807,7908,7889,8163,66.3,64.0,65.7,64.1,2.758,2.719,2.877,2.875,4.55,322.5,39.4,55.2,1018.48,-30.32,-1.36,1.23,33.7,51.1,42.9,0,no_anomaly,0.0,0,0,0,0,17.3850072,78.4866975,5.0,0.0
2024-07-19T10:53:03.300Z,MISSION_0064,33,0,takeoff,SITE_HYD_005,17.3850065,78.4866994,5.0,117.2,0.0,0.182,0.73,-0.8812,-1.9989,117.1985,0.52104,0.01088,-0.01565,0.85332,0.1749,0.0633,-9.844,-0.1679,0.0474,-0.1117,0.1554,3,16,0.68,1.01,0.2,24.593,19.89,94.4,47.3,20760.0,7745,7991,7868,8022,65.2,62.1,63.9,63.6,2.686,2.801,2.467,2.949,4.36,331.0,39.3,55.4,1018.53,-35.5,0.24,1.16,35.0,49.4,41.9,0,no_anomaly,0.0,0,0,0,0,17.3850065,78.4866994,5.0,0.0
2024-07-19T10:53:03.400Z,MISSION_0064,34,0,takeoff,SITE_HYD_005,17.3850026,78.4867019,5.0,117.6,0.0,0.069,0.36,-0.5113,-0.93,117.5991,0.51804,0.00463,-0.00802,0.8553,0.0793,-0.0422,-9.8226,-0.4014,-0.4562,-0.4346,0.2146,3,18,0.67,0.78,0.36,24.626,19.45,94.3,48.0,20742.0,7979,7748,7925,8132,67.1,63.0,60.1,63.8,2.945,2.989,2.509,2.718,4.62,328.8,39.5,56.0,1018.49,-28.5,-1.63,1.88,33.9,52.5,42.0,0,no_anomaly,0.0,0,0,0,0,17.3850026,78.4867019,5.0,0.0
2024-07-19T10:53:03.500Z,MISSION_0064,35,0,takeoff,SITE_HYD_005,17.3850073,78.486703,5.0,117.28,0.034,0.09,0.88,-3.0174,-4.0169,117.276,0.52073,0.01622,-0.0407,0.8526,-0.0386,-0.0038,-9.7187,-0.1608,0.0165,-0.2705,0.1977,3,13,0.77,1.0,0.39,24.611,16.21,94.2,47.6,20724.0,7705,8007,8177,8161,63.1,64.9,60.6,67.4,2.746,2.993,2.847,2.945,6.34,326.8,39.0,55.7,1018.54,-32.43,0.04,1.28,32.3,54.7,43.6,0,no_anomaly,0.0,0,0,0,0,17.3850073,78.486703,5.0,0.0
2024-07-19T10:53:03.600Z,MISSION_0064,36,0,takeoff,SITE_HYD_005,17.3850128,78.4867042,5.0,118.37,0.0,-0.003,1.5,0.4715,-4.727,118.369,0.51169,0.03752,-0.0176,0.85817,-0.2267,-0.1009,-9.7758,-0.0202,0.0158,0.1924,0.1363,3,20,0.66,0.89,0.32,24.593,18.55,94.1,46.5,20707.0,7991,7813,7997,7822,68.8,65.1,59.2,63.0,2.773,2.865,2.921,2.901,5.94,322.9,39.2,56.2,1018.36,-23.95,0.24,1.43,37.1,46.7,41.0,0,no_anomaly,0.0,0,0,0,0,17.3850128,78.4867042,5.0,0.0
2024-07-19T10:53:03.700Z,MISSION_0064,37,0,takeoff,SITE_HYD_005,17.385017,78.4867048,5.0,114.94,0.128,0.021,1.96,-6.5562,-1.9104,114.9427,0.53757,-0.01671,-0.05715,0.84111,-0.0065,-0.0492,-9.7715,1.1502,-0.124,-0.0681,0.2259,3,20,0.8,1.29,0.44,24.623,22.34,94.0,47.5,20689.0,7930,7935,7629,7756,65.3,65.6,62.7,65.1,2.774,2.801,3.009,2.845,5.17,326.8,39.3,56.1,1018.19,-32.71,-0.14,1.82,34.3,43.2,41.2,0,no_anomaly,0.0,0,0,0,0,17.385017,78.4867048,5.0,0.0
2024-07-19T10:53:03.800Z,MISSION_0064,38,0,takeoff,SITE_HYD_005,17.3850182,78.4867096,5.0,114.92,0.0,0.147,2.29,-0.6724,-1.5503,114.9196,0.5379,0.00825,-0.01222,0.84288,-0.0832,0.0504,-9.8123,-0.7673,0.0987,0.5192,0.197,3,18,0.63,0.79,0.2,24.669,16.81,94.0,47.1,20671.0,7732,8369,7716,7968,65.5,66.4,64.9,64.3,2.492,2.861,2.601,2.73,5.16,325.3,39.3,56.1,1018.34,-31.32,0.11,1.48,33.3,48.8,42.4,0,no_anomaly,0.0,0,0,0,0,17.3850182,78.4867096,5.0,0.0
2024-07-19T10:53:03.900Z,MISSION_0064,39,0,takeoff,SITE_HYD_005,17.3850178,78.486707,5.0,113.72,0.245,-0.023,2.13,2.0489,-2.9753,113.7216,0.54601,0.03151,0.00078,0.83718,0.0694,0.0491,-9.8414,-0.4311,0.4024,0.1003,0.2222,3,17,0.69,0.95,0.29,24.607,15.68,93.9,47.9,20653.0,7961,7903,7975,7811,66.6,66.5,61.2,66.6,2.926,2.731,2.626,2.687,4.94,318.2,39.3,55.0,1018.3,-27.41,2.42,1.67,37.1,51.3,41.4,0,no_anomaly,0.0,0,0,0,0,17.3850178,78.486707,5.0,0.0
2024-07-19T10:53:04.000Z,MISSION_0064,40,0,takeoff,SITE_HYD_005,17.3850263,78.4867012,5.0,114.65,0.032,0.058,2.94,2.3276,-2.9654,114.6531,0.53912,0.03274,0.00313,0.84159,0.0687,0.1148,-9.7527,-0.2301,0.1868,-0.0314,0.152,3,17,0.88,0.65,0.38,24.7,15.91,93.8,47.7,20635.0,7904,8064,7816,7797,60.1,65.2,65.5,63.1,2.961,2.685,2.743,2.726,4.78,322.5,39.4,56.1,1018.18,-30.68,-0.53,1.7,32.3,44.8,40.6,0,no_anomaly,0.0,0,0,0,0,17.3850263,78.4867012,5.0,0.0
2024-07-19T10:53:04.100Z,MISSION_0064,41,0,takeoff,SITE_HYD_005,17.385023,78.4867006,5.0,116.73,0.549,0.2,2.56,-0.8848,-4.0873,116.7312,0.52438,0.02631,-0.02527,0.8507,-0.0347,0.054,-9.8259,0.7564,0.0972,0.6428,0.2464,3,20,0.88,1.01,0.37,24.513,16.28,93.7,47.1,20617.0,7739,7914,7821,7908,67.0,64.5,66.8,62.6,2.716,2.92,2.629,2.545,4.64,326.7,39.0,55.6,1018.17,-31.76,-0.27,1.58,36.1,49.2,39.7,0,no_anomaly,0.0,0,0,0,0,17.385023,78.4867006,5.0,0.0
2024-07-19T10:53:04.200Z,MISSION_0064,42,0,takeoff,SITE_HYD_005,17.3850258,78.4866994,5.0,115.29,0.254,-0.002,2.87,0.4275,-1.9654,115.2872,0.53505,0.01648,-0.00603,0.84464,-0.2268,-0.0171,-9.878,0.2631,-0.3099,0.033,0.0786,3,16,0.6,0.89,0.2,24.682,12.81,93.6,47.0,20600.0,8057,7841,7837,7796,62.6,65.9,63.2,62.5,3.057,2.849,2.821,2.904,4.65,332.9,39.3,56.5,1018.21,-31.47,0.7,1.28,37.2,51.2,44.6,0,no_anomaly,0.0,0,0,0,0,17.3850258,78.4866994,5.0,0.0
2024-07-19T10:53:04.300Z,MISSION_0064,43,0,takeoff,SITE_HYD_005,17.3850277,78.4867007,5.0,115.96,0.435,0.087,3.08,-0.172,-1.5119,115.961,0.53018,0.01039,-0.00827,0.84778,-0.0278,-0.0831,-9.8477,0.0404,0.4701,-0.5376,0.223,3,10,0.76,0.88,0.27,24.678,20.03,93.6,47.7,20582.0,7802,7920,7860,7758,63.0,62.2,64.3,64.0,2.778,2.989,2.555,2.921,4.83,323.9,39.2,55.4,1018.41,-32.15,0.56,1.97,33.3,51.3,41.7,0,no_anomaly,0.0,0,0,0,0,17.3850277,78.4867007,5.0,0.0
2024-07-19T10:53:04.400Z,MISSION_0064,44,0,takeoff,SITE_HYD_005,17.3850266,78.4867018,5.0,116.36,0.72,0.091,2.97,-5.1769,-6.3807,116.3637,0.52801,0.02347,-0.06763,0.84622,0.0063,-0.0505,-9.8144,0.0549,0.3316,-0.2209,0.2049,3,16,0.84,0.79,0.35,24.627,14.14,93.5,47.6,20564.0,7767,7905,7822,7925,64.0,63.5,61.0,68.1,2.994,2.652,2.645,2.887,4.02,329.2,39.4,55.8,1018.64,-32.72,2.72,1.53,37.5,48.5,41.4,0,no_anomaly,0.0,0,0,0,0,17.3850266,78.4867018,5.0,0.0
2024-07-19T10:53:04.500Z,MISSION_0064,45,0,takeoff,SITE_HYD_005,17.3850291,78.4867024,5.0,116.69,0.972,0.068,3.25,-2.3022,-1.5076,116.6928,0.52486,0.00066,-0.024,0.85085,0.0979,-0.0053,-9.9164,-0.2946,-0.3764,0.7204,0.2169,3,18,0.62,0.68,0.2,24.61,20.73,93.4,47.9,20546.0,7794,8070,7709,7926,61.5,62.7,65.5,63.6,2.851,2.988,2.957,3.066,5.82,328.9,39.4,55.7,1018.11,-27.54,0.58,1.3,34.9,49.1,42.4,0,no_anomaly,0.0,0,0,0,0,17.3850291,78.4867024,5.0,0.0
2024-07-19T10:53:04.600Z,MISSION_0064,46,0,takeoff,SITE_HYD_005,17.3850303,78.4866992,5.0,115.93,1.452,0.115,3.38,1.7502,-2.9593,115.9337,0.52984,0.02999,-0.00075,0.84757,-0.0501,0.0171,-9.8425,-0.0757,0.4,0.427,0.2247,3,17,0.75,1.04,0.31,24.634,19.83,93.3,47.7,20528.0,7769,7928,7922,7807,67.6,64.2,66.3,64.7,2.74,3.023,2.637,3.094,4.93,322.6,39.2,55.9,1018.24,-24.78,0.09,1.34,33.5,47.5,42.2,0,no_anomaly,0.0,0,0,0,0,17.3850303,78.4866992,5.0,0.0
2024-07-19T10:53:04.700Z,MISSION_0064,47,0,takeoff,SITE_HYD_005,17.3850339,78.4866982,5.0,115.69,1.983,0.001,3.78,0.2324,-1.4721,115.6864,0.53217,0.01195,-0.00512,0.84654,-0.0271,0.0268,-9.7102,0.1074,-0.5009,-0.1437,0.2584,3,15,0.81,0.93,0.32,24.591,22.62,93.2,48.2,20511.0,8176,7998,7574,7961,66.4,65.0,64.1,64.4,2.697,2.681,2.699,2.863,5.61,331.8,39.7,56.6,1018.42,-32.86,0.67,1.49,34.3,46.1,40.6,0,no_anomaly,0.0,0,0,0,0,17.3850339,78.4866982,5.0,0.0
2024-07-19T10:53:04.800Z,MISSION_0064,48,0,takeoff,SITE_HYD_005,17.3850306,78.4867002,5.0,115.81,2.083,0.109,3.41,-4.3703,-0.8199,115.8075,0.53117,-0.0142,-0.0361,0.84637,-0.1932,0.0469,-9.7964,-0.5075,0.4092,0.2423,0.1284,3,16,0.5,0.93,0.2,24.577,21.8,93.1,46.9,20493.0,7915,7973,7925,7803,64.9,64.4,63.8,65.9,2.957,2.631,2.728,3.028,5.52,325.2,39.2,56.0,1018.2,-25.75,-1.92,1.53,32.9,49.8,40.7,0,no_anomaly,0.0,0,0,0,0,17.3850306,78.4867002,5.0,0.0
2024-07-19T10:53:04.900Z,MISSION_0064,49,0,takeoff,SITE_HYD_005,17.3850348,78.4867,5.0,116.05,1.912,0.112,3.88,1.1978,-1.8612,116.0468,0.52933,0.01931,0.00027,0.8482,-0.1534,-0.0402,-9.7994,0.5437,-0.1863,-0.3536,0.1368,3,18,0.63,1.04,0.23,24.657,20.29,93.1,47.5,20475.0,7877,8051,7997,7882,63.7,65.7,65.6,64.9,2.963,2.694,2.59,2.52,4.78,320.6,39.1,55.9,1018.22,-33.38,0.17,1.57,32.4,53.8,42.0,0,no_anomaly,0.0,0,0,0,0,17.3850348,78.4867,5.0,0.0
2024-07-19T10:53:05.000Z,MISSION_0064,50,0,takeoff,SITE_HYD_005,17.3850363,78.4866987,5.0,117.11,2.295,0.018,4.04,-6.8967,-2.5456,117.1092,0.52175,-0.01245,-0.06287,0.85069,-0.1196,-0.0504,-9.7995,-0.646,0.0436,-0.5631,0.1726,3,11,0.76,0.74,0.32,24.591,17.13,93.0,47.4,20457.0,7972,8062,7874,8171,64.5,60.6,62.1,60.8,2.658,2.861,2.756,2.535,4.44,316.5,39.4,54.9,1018.13,-25.3,1.98,1.16,33.6,53.9,42.7,0,no_anomaly,0.0,0,0,0,0,17.3850363,78.4866987,5.0,0.0
2024-07-19T10:53:05.100Z,MISSION_0064,51,0,takeoff,SITE_HYD_005,17.3850369,78.4866973,5.0,116.62,2.47,0.071,4.12,-3.1252,-0.3687,116.6234,0.52517,-0.01159,-0.02489,0.85055,0.1648,-0.0521,-9.8409,-0.1459,0.5333,-0.3266,0.0988,3,15,0.72,0.85,0.42,24.606,21.03,92.9,47.5,20439.0,8072,8017,7808,8077,67.3,65.5,65.0,63.1,2.817,2.844,2.855,2.8,4.43,326.5,39.4,55.8,1018.97,-26.43,-0.09,1.91,35.4,53.3,43.9,0,no_anomaly,0.0,0,0,0,0,17.3850369,78.4866973,5.0,0.0
2024-07-19T10:53:05.200Z,MISSION_0064,52,0,takeoff,SITE_HYD_005,17.3850403,78.4866975,5.0,117.29,2.4,0.077,4.49,0.4729,-1.7521,117.2902,0.52022,0.0152,-0.00443,0.85389,0.0872,-0.0384,-9.7556,-0.1864,0.1873,-0.0213,0.2306,3,11,0.7,1.02,0.27,24.567,21.72,92.8,47.3,20421.0,7950,7827,7806,8155,62.4,65.4,63.0,63.0,2.662,2.742,2.828,2.903,4.99,337.4,39.1,56.1,1018.59,-32.07,2.11,2.0,37.2,50.3,43.0,0,no_anomaly,0.0,0,0,0,0,17.3850403,78.4866975,5.0,0.0
2024-07-19T10:53:05.300Z,MISSION_0064,53,0,takeoff,SITE_HYD_005,17.3850371,78.4866992,5.0,118.93,2.403,0.144,4.13,-4.6795,-1.3903,118.9274,0.50805,-0.0103,-0.04132,0.86027,0.0011,0.0149,-9.9085,-0.0621,0.5519,-0.2174,0.1722,3,12,0.66,0.7,0.2,24.691,14.47,92.7,48.1,20404.0,7957,7992,8183,8002,62.8,64.4,63.5,64.7,2.796,2.591,2.678,2.522,5.38,328.0,39.0,56.1,1018.19,-30.0,-0.06,1.95,36.0,51.3,42.1,0,no_anomaly,0.0,0,0,0,0,17.3850371,78.4866992,5.0,0.0
2024-07-19T10:53:05.400Z,MISSION_0064,54,0,takeoff,SITE_HYD_005,17.3850383,78.4867021,5.0,118.29,2.299,0.024,4.27,2.5627,-0.8911,118.2907,0.51257,0.01814,0.01521,0.85832,0.0906,-0.0597,-9.7875,0.6477,-0.7538,-0.3031,0.2986,3,17,0.7,0.99,0.34,24.606,14.54,92.7,47.2,20386.0,7778,8112,8094,8131,63.6,63.2,62.9,64.6,2.599,2.717,2.803,2.965,5.76,327.1,39.1,55.9,1018.14,-28.06,2.53,1.41,33.8,49.5,42.2,0,no_anomaly,0.0,0,0,0,0,17.3850383,78.4867021,5.0,0.0
2024-07-19T10:53:05.500Z,MISSION_0064,55,0,takeoff,SITE_HYD_005,17.3850306,78.4867008,5.0,120.82,1.905,0.117,3.4,0.8642,-1.1228,120.8193,0.49369,0.01224,0.00172,0.86955,-0.0322,-0.0638,-9.8641,-0.5491,-0.6056,0.1532,0.1744,3,10,0.6,0.86,0.32,24.649,19.09,92.6,47.3,20368.0,7970,7854,8027,7976,62.2,62.7,64.0,65.0,2.878,2.808,2.874,2.861,5.96,329.5,39.4,56.3,1018.52,-21.95,-2.14,1.78,37.0,54.1,40.5,0,no_anomaly,0.0,0,0,0,0,17.3850306,78.4867008,5.0,0.0
2024-07-19T10:53:05.600Z,MISSION_0064,56,0,takeoff,SITE_HYD_005,17.3850339,78.4867057,5.0,121.71,1.476,0.143,3.82,0.1538,-1.6488,121.7125,0.48693,0.01322,-0.00584,0.87332,-0.1252,0.0181,-9.8206,-0.2059,0.1603,-0.4433,0.2294,3,15,0.71,0.94,0.34,24.677,20.81,92.5,46.7,20350.0,7982,7931,8055,7701,63.7,63.0,64.2,61.9,2.586,2.724,2.938,2.346,5.54,326.2,39.3,55.6,1018.49,-32.41,0.5,1.0,33.0,49.9,40.8,0,no_anomaly,0.0,0,0,0,0,17.3850339,78.4867057,5.0,0.0
2024-07-19T10:53:05.700Z,MISSION_0064,57,0,takeoff,SITE_HYD_005,17.3850352,78.4867064,5.0,117.1,1.668,0.163,3.99,1.3585,-2.2005,117.0964,0.52145,0.02256,9e-05,0.85298,0.0909,0.0581,-9.7889,-0.5488,0.1206,0.0522,0.1804,3,19,0.79,0.97,0.2,24.714,19.06,92.4,47.0,20332.0,7806,7885,7922,7792,67.6,65.4,66.1,63.1,3.113,2.598,2.675,2.741,5.14,333.7,39.4,55.7,1018.38,-33.23,-0.39,1.0,33.9,45.6,41.8,0,no_anomaly,0.0,0,0,0,0,17.3850352,78.4867064,5.0,0.0
2024-07-19T10:53:05.800Z,MISSION_0064,58,0,takeoff,SITE_HYD_005,17.3850377,78.4867122,5.0,116.02,1.919,0.04,4.42,-3.6038,-0.7848,116.016,0.52971,-0.01085,-0.03029,0.84757,0.1356,0.0683,-9.8412,-0.3107,0.4508,0.3528,0.2299,3,15,0.54,1.19,0.21,24.629,19.31,92.3,47.2,20314.0,8067,7997,8162,7896,62.3,63.5,62.1,67.0,2.99,2.722,2.583,2.893,5.68,320.7,39.2,56.0,1018.6,-25.69,-1.04,1.82,28.9,50.9,36.8,0,no_anomaly,0.0,0,0,0,0,17.3850377,78.4867122,5.0,0.0
2024-07-19T10:53:05.900Z,MISSION_0064,59,0,takeoff,SITE_HYD_005,17.3850334,78.4867088,5.0,117.33,1.87,0.086,3.84,4.0541,-2.4598,117.3283,0.51896,0.03671,0.01905,0.8538,0.015,0.0393,-9.8372,-0.492,-0.3825,0.331,0.2764,3,19,0.67,0.81,0.25,24.575,21.16,92.3,47.0,20297.0,7774,7959,7850,7771,65.7,62.1,65.8,63.5,2.67,3.054,2.901,2.81,4.79,327.0,39.3,54.9,1018.61,-28.49,-0.74,1.19,34.0,47.9,43.8,0,no_anomaly,0.0,0,0,0,0,17.3850334,78.4867088,5.0,0.0
2024-07-19T10:53:06.000Z,MISSION_0064,60,0,takeoff,SITE_HYD_005,17.3850359,78.4867057,5.0,115.85,1.881,0.069,4.05,0.7474,-1.7055,115.8461,0.53091,0.01607,-0.00238,0.84728,0.1178,0.0335,-9.7637,0.3392,0.773,-0.0293,0.1989,3,12,0.58,0.95,0.25,24.684,22.73,92.2,46.4,20279.0,8000,7739,8031,7822,66.2,63.4,65.9,66.7,2.735,2.844,2.669,2.577,4.97,336.4,39.4,55.9,1018.34,-31.37,-0.89,1.16,34.2,53.8,40.3,0,no_anomaly,0.0,0,0,0,0,17.3850359,78.4867057,5.0,0.0
2024-07-19T10:53:06.100Z,MISSION_0064,61,0,takeoff,SITE_HYD_005,17.3850379,78.4867067,5.0,115.73,1.775,0.136,4.29,2.4494,-2.6043,115.7263,0.53127,0.03061,0.00601,0.84663,0.1291,-0.0667,-9.7766,-0.0318,-0.3422,-0.0516,0.2143,3,12,0.58,0.89,0.21,24.605,18.66,92.1,47.2,20261.0,8014,8017,7709,7989,67.3,64.7,62.1,65.1,2.682,2.704,2.931,2.565,5.85,327.9,38.9,55.8,1018.25,-28.83,-1.08,1.46,36.3,48.1,39.3,0,no_anomaly,0.0,0,0,0,0,17.3850379,78.4867067,5.0,0.0
2024-07-19T10:53:06.200Z,MISSION_0064,62,0,takeoff,SITE_HYD_005,17.3850413,78.4867068,5.0,115.83,2.269,0.077,4.66,0.891,-3.4682,115.8326,0.5307,0.02977,-0.00949,0.84698,-0.1178,0.0148,-9.8627,-0.3992,0.3497,-0.254,0.1964,3,12,0.74,0.96,0.3,24.615,20.33,92.0,47.1,20243.0,7979,8081,7774,8201,64.1,62.9,65.0,67.6,2.642,2.977,3.005,2.875,5.51,326.7,39.0,55.5,1018.39,-28.64,0.31,1.11,33.0,47.8,45.3,0,no_anomaly,0.0,0,0,0,0,17.3850413,78.4867068,5.0,0.0
2024-07-19T10:53:06.300Z,MISSION_0064,63,0,takeoff,SITE_HYD_005,17.3850395,78.4867068,5.0,114.11,2.573,0.102,4.47,2.2024,-3.2987,114.1098,0.54305,0.0346,0.00047,0.83899,0.1826,-0.0313,-9.7844,0.5201,1.4212,-0.431,0.2405,3,17,0.68,1.02,0.33,24.571,17.28,91.9,47.5,20225.0,7832,8131,7811,7722,66.1,58.4,64.2,65.1,2.604,2.91,2.728,2.834,4.99,324.5,39.0,56.3,1018.19,-29.18,0.27,1.25,38.1,51.9,41.2,0,no_anomaly,0.0,0,0,0,0,17.3850395,78.4867068,5.0,0.0
2024-07-19T10:53:06.400Z,MISSION_0064,64,0,takeoff,SITE_HYD_005,17.38504,78.4867057,5.0,113.8,2.722,0.107,4.5,-2.1247,-3.8043,113.7957,0.54625,0.01768,-0.03365,0.83676,-0.273,-0.0386,-9.8885,-0.3796,-0.5889,-0.2245,0.2519,3,15,0.75,0.89,0.59,24.602,20.15,91.9,47.7,20207.0,7746,8099,7784,7866,64.4,63.4,65.0,63.5,2.72,2.892,2.749,2.587,5.52,324.2,39.4,55.4,1018.32,-27.21,-1.36,1.41,36.2,47.1,42.2,0,no_anomaly,0.0,0,0,0,0,17.38504,78.4867057,5.0,0.0
2024-07-19T10:53:06.500Z,MISSION_0064,65,0,takeoff,SITE_HYD_005,17.3850402,78.4867069,5.0,114.36,3.222,0.133,4.54,-0.6659,-1.104,114.3579,0.54203,0.00495,-0.01011,0.84028,-0.2002,-0.0116,-9.7961,-0.472,0.8507,0.101,0.2235,3,16,0.57,0.93,0.29,24.631,16.37,91.8,47.9,20190.0,7874,8028,7911,7737,62.3,64.5,60.3,61.9,2.535,2.698,2.764,2.7,4.91,322.2,39.4,55.9,1018.46,-26.21,0.71,1.38,36.3,50.2,44.0,0,no_anomaly,0.0,0,0,0,0,17.3850402,78.4867069,5.0,0.0
2024-07-19T10:53:06.600Z,MISSION_0064,66,0,takeoff,SITE_HYD_005,17.38504,78.4867052,5.0,110.8,3.775,0.058,4.49,-1.7542,-2.7262,110.804,0.56789,0.01089,-0.0261,0.82262,0.0101,-0.0543,-9.7326,-1.1943,-0.5136,-0.5466,0.203,3,20,0.94,0.84,0.38,24.534,20.18,91.7,48.4,20172.0,7840,7886,8006,8043,66.5,61.9,63.4,68.6,2.89,2.657,2.931,2.722,4.36,340.2,39.4,55.6,1018.57,-35.99,-0.1,1.47,34.7,45.2,40.9,0,no_anomaly,0.0,0,0,0,0,17.38504,78.4867052,5.0,0.0
2024-07-19T10:53:06.700Z,MISSION_0064,67,0,takeoff,SITE_HYD_005,17.385036,78.4867068,5.0,108.6,3.893,0.072,4.08,-5.6994,-2.4903,108.596,0.58359,-0.01138,-0.05303,0.81024,-0.0878,-0.0299,-9.7155,-0.1762,0.6989,-0.3128,0.2884,3,11,0.64,0.75,0.2,24.582,16.73,91.6,47.3,20154.0,7631,7814,8054,8121,63.4,64.1,64.5,64.5,2.653,2.803,2.84,2.89,5.41,329.4,39.4,55.9,1018.18,-31.88,1.67,1.64,34.0,48.0,41.8,0,no_anomaly,0.0,0,0,0,0,17.385036,78.4867068,5.0,0.0
2024-07-19T10:53:06.800Z,MISSION_0064,68,0,takeoff,SITE_HYD_005,17.3850332,78.4867115,5.0,106.7,3.588,0.159,3.91,0.3098,-2.0944,106.697,0.5968,0.01628,-0.00874,0.80217,0.025,0.0732,-9.7776,0.2698,0.1243,0.0915,0.2757,3,11,0.68,1.05,0.48,24.508,20.64,91.5,46.6,20136.0,7888,7796,7637,8030,68.4,62.8,62.5,65.4,2.437,2.899,3.125,3.146,5.22,336.0,39.4,55.2,1017.88,-26.47,1.15,1.72,34.0,47.7,41.1,0,no_anomaly,0.0,0,0,0,0,17.3850332,78.4867115,5.0,0.0
2024-07-19T10:53:06.900Z,MISSION_0064,69,0,takeoff,SITE_HYD_005,17.3850315,78.4867148,5.0,106.46,3.802,0.062,3.87,2.4207,-3.6318,106.459,0.59764,0.03802,-0.00205,0.80086,-0.2039,-0.0196,-9.7798,-0.128,0.7005,-0.3576,0.2218,3,13,0.54,0.96,0.21,24.559,17.15,91.4,48.2,20118.0,7875,8045,7993,8111,68.2,61.9,62.9,67.6,2.768,2.665,2.621,3.084,5.06,320.8,39.3,55.9,1018.27,-29.2,-0.0,1.8,35.9,48.3,43.8,0,no_anomaly,0.0,0,0,0,0,17.3850315,78.4867148,5.0,0.0
2024-07-19T10:53:07.000Z,MISSION_0064,70,0,takeoff,SITE_HYD_005,17.3850294,78.4867116,5.0,102.43,4.39,0.139,3.52,-1.1711,-0.8236,102.43,0.62641,-0.0008,-0.01247,0.7794,0.051,0.0071,-9.8161,1.0906,0.1207,-0.2102,0.2987,3,11,0.55,0.97,0.21,24.624,21.12,91.4,48.6,20100.0,7885,7960,7997,7744,64.4,64.4,64.3,64.4,2.823,2.812,2.585,2.887,6.01,331.2,39.7,54.6,1018.56,-27.87,-0.04,1.45,29.9,48.7,42.6,0,no_anomaly,0.0,0,0,0,0,17.3850294,78.4867116,5.0,0.0
2024-07-19T10:53:07.100Z,MISSION_0064,71,0,takeoff,SITE_HYD_005,17.3850294,78.4867113,5.0,104.85,4.301,0.011,3.51,2.1918,0.0273,104.8505,0.60969,0.01147,0.0153,0.79241,0.0861,-0.0356,-9.8914,0.2425,0.002,0.0898,0.1668,3,14,0.71,0.89,0.39,24.585,20.65,91.3,47.4,20083.0,7646,7920,8021,8073,69.0,65.6,67.6,65.0,2.631,2.753,2.7,2.729,5.5,325.7,39.2,56.2,1018.5,-28.59,1.49,1.22,29.8,51.9,39.9,0,no_anomaly,0.0,0,0,0,0,17.3850294,78.4867113,5.0,0.0
2024-07-19T10:53:07.200Z,MISSION_0064,72,0,takeoff,SITE_HYD_005,17.3850329,78.4867177,5.0,103.98,4.629,0.025,4.16,2.6702,-0.5966,103.9832,0.61551,0.01845,0.01515,0.78777,-0.5792,-0.03,-9.7852,-0.0956,-0.2992,-0.1311,0.1147,3,10,0.81,1.05,0.36,24.57,20.34,91.2,48.1,20065.0,7957,7674,7906,7610,68.3,64.3,66.3,64.6,2.742,2.512,2.609,2.754,5.82,338.1,39.2,55.9,1018.47,-28.77,0.81,1.73,36.5,50.3,41.6,0,no_anomaly,0.0,0,0,0,0,17.3850329,78.4867177,5.0,0.0
2024-07-19T10:53:07.300Z,MISSION_0064,73,0,takeoff,SITE_HYD_005,17.3850367,78.4867153,5.0,104.09,4.615,0.092,4.43,4.7484,0.595,104.0936,0.61465,0.02139,0.03586,0.78769,0.2508,0.0918,-9.8618,-0.1406,0.1204,0.0265,0.1739,3,16,0.75,1.05,0.2,24.537,14.31,91.1,48.1,20047.0,7774,7632,8052,7882,66.2,62.6,67.1,63.4,2.628,2.695,2.756,2.777,5.34,324.0,39.5,56.0,1017.91,-36.15,-0.81,1.41,34.5,45.7,41.2,0,no_anomaly,0.0,0,0,0,0,17.3850367,78.4867153,5.0,0.0
2024-07-19T10:53:07.400Z,MISSION_0064,74,0,takeoff,SITE_HYD_005,17.3850372,78.4867122,5.0,104.1,3.955,0.125,4.36,4.5835,-2.5509,104.1008,0.61362,0.04212,0.01785,0.78827,0.1143,-0.0997,-9.7898,0.2216,0.0698,0.091,0.2841,3,13,0.72,0.78,0.27,24.629,18.37,91.0,47.8,20029.0,7796,8146,7810,7999,63.8,64.8,64.9,62.7,2.721,2.74,2.666,2.797,5.47,331.1,39.3,55.6,1018.5,-32.98,-1.69,1.04,31.1,51.8,42.1,0,no_anomaly,0.0,0,0,0,0,17.3850372,78.4867122,5.0,0.0
2024-07-19T10:53:07.500Z,MISSION_0064,75,0,takeoff,SITE_HYD_005,17.3850337,78.4867085,5.0,105.88,4.294,0.103,3.87,-3.3274,-2.6303,105.8811,0.60276,0.00082,-0.03699,0.79706,0.1732,0.0066,-9.834,0.4883,0.1674,-0.3245,0.1634,3,20,0.51,0.77,0.2,24.59,21.19,91.0,48.6,20011.0,7927,7955,7651,7912,65.0,63.4,61.5,66.0,2.658,2.657,2.571,2.738,4.73,319.9,39.8,55.9,1018.37,-21.5,1.65,1.09,36.3,51.4,40.2,0,no_anomaly,0.0,0,0,0,0,17.3850337,78.4867085,5.0,0.0
2024-07-19T10:53:07.600Z,MISSION_0064,76,0,takeoff,SITE_HYD_005,17.3850317,78.4867093,5.0,104.23,4.242,0.096,3.67,-4.3594,-1.1904,104.2256,0.61394,-0.01516,-0.03639,0.78837,0.1331,-0.006,-9.8288,-0.7449,0.4216,0.3112,0.1269,3,17,0.62,0.87,0.2,24.59,16.66,90.9,47.4,19994.0,7947,7833,8036,7850,63.0,64.8,67.8,64.3,2.965,2.476,2.803,2.999,5.87,329.9,39.3,55.6,1018.54,-31.91,0.06,1.49,35.7,51.5,42.7,0,no_anomaly,0.0,0,0,0,0,17.3850317,78.4867093,5.0,0.0
2024-07-19T10:53:07.700Z,MISSION_0064,77,0,takeoff,SITE_HYD_005,17.3850326,78.4867131,5.0,106.28,4.227,0.015,3.91,-0.2197,-1.2283,106.2812,0.59983,0.00743,-0.00796,0.80005,-0.1207,0.0655,-9.7201,0.0704,-0.1217,0.1683,0.2611,3,13,0.75,0.91,0.32,24.599,23.27,90.8,47.2,19976.0,7980,7728,7598,8063,65.3,64.8,67.5,62.2,2.794,2.837,2.619,2.736,4.8,321.0,39.7,56.0,1018.33,-29.57,-1.28,1.71,33.8,44.5,39.5,0,no_anomaly,0.0,0,0,0,0,17.3850326,78.4867131,5.0,0.0
2024-07-19T10:53:07.800Z,MISSION_0064,78,0,takeoff,SITE_HYD_005,17.3850278,78.4867171,5.0,106.62,4.161,0.184,3.63,-2.2653,-0.768,106.6215,0.59745,-0.00644,-0.01985,0.80163,0.0827,-0.0234,-9.8426,-0.347,0.1209,-0.1581,0.1815,3,19,0.74,1.1,0.45,24.545,22.54,90.7,47.3,19958.0,7765,7827,7740,7718,66.9,64.7,62.5,66.3,2.827,2.828,2.748,2.567,5.65,331.0,39.3,55.1,1018.18,-32.68,1.97,1.0,31.4,53.0,42.7,0,no_anomaly,0.0,0,0,0,0,17.3850278,78.4867171,5.0,0.0
2024-07-19T10:53:07.900Z,MISSION_0064,79,0,takeoff,SITE_HYD_005,17.3850273,78.4867211,5.0,103.48,3.727,0.095,3.83,2.8327,-1.5319,103.4782,0.61874,0.0258,0.01113,0.78509,0.2441,-0.0039,-9.8035,0.1643,-0.4051,-0.2743,0.2202,3,18,0.72,1.06,0.2,24.485,20.59,90.6,47.7,19940.0,7905,7777,7863,7910,57.6,63.1,65.5,64.9,2.737,2.722,2.939,2.932,5.33,317.3,39.6,56.5,1018.37,-36.68,-1.75,1.73,31.8,52.5,42.1,0,no_anomaly,0.0,0,0,0,0,17.3850273,78.4867211,5.0,0.0
2024-07-19T10:53:08.000Z,MISSION_0064,80,0,takeoff,SITE_HYD_005,17.3850234,78.4867212,5.0,102.29,3.089,0.151,3.51,0.4379,-0.547,102.2939,0.6273,0.00611,-2e-05,0.77875,0.0596,-0.059,-9.8224,0.3842,-0.9485,0.4123,0.1658,3,14,0.65,1.07,0.2,24.652,12.47,90.6,47.3,19922.0,8140,7856,7775,7984,65.4,66.6,66.0,65.8,2.895,2.555,2.54,2.688,5.53,332.3,38.9,55.9,1018.55,-35.62,-0.02,1.7,39.2,54.7,42.1,0,no_anomaly,0.0,0,0,0,0,17.3850234,78.4867212,5.0,0.0
2024-07-19T10:53:08.100Z,MISSION_0064,81,0,takeoff,SITE_HYD_005,17.3850281,78.4867206,5.0,102.43,2.613,0.083,3.88,6.4481,-1.9556,102.4339,0.62454,0.0485,0.03316,0.77878,-0.1966,0.0289,-9.7802,0.2417,-0.0136,0.0263,0.2561,3,16,0.69,0.97,0.39,24.468,18.76,90.5,48.2,19904.0,7797,7979,7918,8042,62.2,66.7,68.0,60.8,2.828,2.965,2.92,2.729,5.3,326.9,39.4,55.4,1018.34,-29.27,-0.17,1.66,37.4,52.4,40.4,0,no_anomaly,0.0,0,0,0,0,17.3850281,78.4867206,5.0,0.0
2024-07-19T10:53:08.200Z,MISSION_0064,82,0,takeoff,SITE_HYD_005,17.3850336,78.4867167,5.0,102.47,2.586,0.073,4.18,3.3217,-2.0065,102.469,0.62538,0.03179,0.01164,0.77959,0.1626,-0.0396,-9.8615,0.4588,-0.0628,-0.6619,0.2273,3,11,0.62,0.89,0.23,24.506,18.6,90.4,48.1,19887.0,8044,7960,7843,7651,64.8,61.3,64.4,65.9,2.883,2.616,2.771,2.858,5.87,329.1,39.4,56.3,1018.52,-31.65,0.21,1.17,32.6,53.1,39.2,0,no_anomaly,0.0,0,0,0,0,17.3850336,78.4867167,5.0,0.0
2024-07-19T10:53:08.300Z,MISSION_0064,83,0,transit,SITE_HYD_005,17.3850331,78.4867149,5.5,101.78,2.653,0.127,4.04,6.814,-0.3663,101.7785,0.62956,0.03996,0.0441,0.77467,0.1168,-0.0418,-9.733,0.2144,-0.2389,-0.3558,0.205,3,10,0.75,1.16,0.28,24.574,21.58,90.3,47.0,19869.0,7965,8143,8209,7965,65.4,68.3,64.4,63.2,2.654,3.06,2.97,2.803,4.6,333.9,38.9,55.4,1018.28,-30.47,-0.93,1.6,35.3,49.3,45.6,0,no_anomaly,0.0,0,0,0,0,17.3850331,78.4867149,5.5,0.0
2024-07-19T10:53:08.400Z,MISSION_0064,84,0,transit,SITE_HYD_005,17.385033,78.486715,6.0,101.48,3.056,0.06,4.04,3.0406,-2.2929,101.4797,0.63208,0.03227,0.00788,0.77419,0.2126,0.0198,-9.8207,-0.3327,0.2624,0.143,0.1689,3,13,0.77,0.97,0.28,24.502,17.71,90.2,47.2,19851.0,7884,7976,7997,8092,65.9,67.4,64.7,66.4,2.77,2.764,3.079,2.966,4.75,323.2,39.4,55.6,1018.27,-28.79,-0.47,1.66,31.8,53.8,44.1,0,no_anomaly,0.0,0,0,0,0,17.385033,78.486715,6.0,0.0
2024-07-19T10:53:08.500Z,MISSION_0064,85,0,transit,SITE_HYD_005,17.3850404,78.4867172,6.5,103.02,3.063,0.114,4.88,-0.6848,-3.4042,103.0238,0.62221,0.01953,-0.02316,0.78227,-0.1507,0.0035,-9.8159,-1.4565,-0.3066,0.1881,0.1761,3,17,0.74,0.82,0.32,24.584,20.76,90.2,48.1,19833.0,7811,7937,7846,8179,67.0,65.4,63.9,67.1,2.757,2.851,2.927,2.763,4.99,326.8,39.3,56.5,1018.32,-35.58,1.26,1.75,34.0,54.2,40.9,0,no_anomaly,0.0,0,0,0,0,17.3850404,78.4867172,6.5,0.0
2024-07-19T10:53:08.600Z,MISSION_0064,86,0,transit,SITE_HYD_005,17.3850348,78.4867166,7.0,101.78,2.742,0.049,4.29,-0.7377,-2.7998,101.7764,0.63076,0.0149,-0.0204,0.77557,0.0262,-0.0428,-9.8531,-0.4971,0.6456,0.3595,0.1985,3,11,0.71,0.76,0.31,24.538,20.78,90.1,47.0,19815.0,7722,7723,7855,7671,64.2,67.3,64.1,64.6,3.146,2.901,2.714,2.695,5.2,330.6,39.3,56.5,1018.22,-34.44,0.64,1.26,37.5,50.6,40.7,0,no_anomaly,0.0,0,0,0,0,17.3850348,78.4867166,7.0,0.0
2024-07-19T10:53:08.700Z,MISSION_0064,87,0,transit,SITE_HYD_005,17.385032,78.4867182,7.5,103.72,2.726,0.069,4.09,-0.9588,-3.0368,103.7242,0.61749,0.01568,-0.02294,0.78609,0.0791,-0.008,-9.7698,-0.3275,0.8221,0.3117,0.2471,3,16,0.5,0.89,0.25,24.627,19.12,90.0,47.5,19797.0,7672,7930,7914,8376,65.0,63.6,67.1,63.2,3.172,2.976,2.55,2.834,4.28,332.6,39.1,55.4,1018.4,-26.56,0.39,1.42,33.1,46.3,39.4,0,no_anomaly,0.0,0,0,0,0,17.385032,78.4867182,7.5,0.0
2024-07-19T10:53:08.800Z,MISSION_0064,88,0,transit,SITE_HYD_005,17.3850273,78.4867174,8.0,106.49,2.386,0.177,3.61,-3.5352,-1.9857,106.4883,0.59846,-0.00458,-0.03507,0.80037,0.3439,0.0274,-9.8766,-0.1995,-0.4733,-0.4647,0.1833,3,12,0.79,1.11,0.24,24.514,21.97,89.9,47.0,19780.0,8299,7942,7635,8209,63.1,68.2,67.1,64.6,2.801,2.776,2.886,2.855,5.96,327.2,39.3,55.5,1018.62,-28.81,1.03,1.0,33.6,47.6,39.7,0,no_anomaly,0.0,0,0,0,0,17.3850273,78.4867174,8.0,0.0
2024-07-19T10:53:08.900Z,MISSION_0064,89,0,transit,SITE_HYD_005,17.3850261,78.4867187,8.5,105.37,2.26,0.159,3.57,-0.9068,-2.3776,105.3654,0.60621,0.0117,-0.01887,0.795,-0.0965,-0.0585,-9.8699,-0.1032,0.0548,0.2154,0.1564,3,10,0.75,0.99,0.26,24.44,20.0,89.8,48.2,19762.0,8031,7934,7961,7861,65.8,65.6,66.8,66.6,2.601,2.551,2.732,2.737,6.09,327.4,39.2,55.6,1018.6,-33.37,0.31,1.21,35.2,50.4,42.7,0,no_anomaly,0.0,0,0,0,0,17.3850261,78.4867187,8.5,0.0
2024-07-19T10:53:09.000Z,MISSION_0064,90,0,transit,SITE_HYD_005,17.3850273,78.4867196,9.0,107.82,1.839,0.061,3.74,-3.4605,-1.7377,107.825,0.58905,-0.00553,-0.03333,0.80739,0.1911,0.0125,-9.8471,0.5114,-0.5639,0.2182,0.2579,3,14,0.68,1.04,0.24,24.621,21.31,89.7,48.4,19744.0,7873,7886,7818,7652,64.2,66.1,64.3,64.9,2.886,2.945,2.687,2.773,4.99,323.2,39.4,55.8,1018.79,-29.09,1.26,1.86,33.1,54.9,42.0,0,no_anomaly,0.0,0,0,0,0,17.3850273,78.4867196,9.0,0.0
2024-07-19T10:53:09.100Z,MISSION_0064,91,0,transit,SITE_HYD_005,17.3850271,78.4867193,9.5,110.93,1.763,0.076,3.7,2.5407,-0.3849,110.9302,0.5667,0.01533,0.01636,0.82362,-0.1616,0.0254,-9.8434,-0.5154,0.2211,0.6722,0.1747,3,20,0.58,0.78,0.2,24.582,13.46,89.7,47.4,19726.0,7811,8149,7968,8175,61.2,61.2,66.1,61.4,2.906,2.761,2.956,2.76,5.45,318.1,39.5,56.1,1018.09,-27.64,-0.05,1.57,32.6,53.4,42.1,0,no_anomaly,0.0,0,0,0,0,17.3850271,78.4867193,9.5,0.0
2024-07-19T10:53:09.200Z,MISSION_0064,92,0,transit,SITE_HYD_005,17.3850252,78.4867201,10.0,109.3,1.636,0.137,3.59,3.1027,-2.3109,109.2995,0.5778,0.0321,0.01041,0.81548,-0.0157,0.0101,-9.7805,-0.2134,-0.0106,-0.5056,0.1365,3,20,0.67,0.89,0.25,24.527,14.51,89.6,47.9,19708.0,7761,8007,8014,7766,65.9,67.6,64.5,62.7,2.899,2.837,2.686,3.057,6.03,337.8,39.3,55.4,1018.46,-31.9,-0.59,1.49,36.9,49.0,40.2,0,no_anomaly,0.0,0,0,0,0,17.3850252,78.4867201,10.0,0.0
2024-07-19T10:53:09.300Z,MISSION_0064,93,0,transit,SITE_HYD_005,17.3850257,78.4867244,10.5,112.51,1.675,0.105,3.95,1.4855,0.2356,112.5101,0.55547,0.00549,0.01192,0.83143,-0.1873,-0.0395,-9.8789,-1.0713,0.4047,-0.129,0.1284,3,20,0.84,0.72,0.36,24.535,16.87,89.5,47.5,19690.0,8004,7846,7934,7950,62.5,63.4,62.4,64.4,2.95,2.815,2.779,2.704,5.72,328.8,39.4,55.7,1018.26,-29.01,0.66,1.64,31.7,52.8,38.0,0,no_anomaly,0.0,0,0,0,0,17.3850257,78.4867244,10.5,0.0
2024-07-19T10:53:09.400Z,MISSION_0064,94,0,transit,SITE_HYD_005,17.3850247,78.4867273,11.0,111.48,1.59,0.033,4.1,0.1678,-5.6557,111.4755,0.56224,0.0416,-0.02657,0.8255,0.0808,0.0076,-9.7575,-0.628,-0.0205,0.232,0.2438,3,18,0.58,1.2,0.2,24.424,15.43,89.4,47.5,19673.0,7954,8096,7916,7925,63.6,63.3,63.3,65.8,2.531,2.807,2.799,2.649,4.42,329.9,39.8,55.8,1018.68,-33.02,2.82,1.38,34.1,52.4,45.2,0,no_anomaly,0.0,0,0,0,0,17.3850247,78.4867273,11.0,0.0
2024-07-19T10:53:09.500Z,MISSION_0064,95,0,transit,SITE_HYD_005,17.3850225,78.4867303,11.5,109.96,1.238,0.1,4.21,-1.3625,-1.2113,109.9557,0.57392,0.00183,-0.0158,0.81875,0.0102,0.0558,-9.8194,-0.1221,-0.3154,-0.2606,0.0899,3,11,0.75,0.81,0.32,24.485,19.9,89.3,48.3,19655.0,7920,7827,7801,7680,64.9,61.7,64.2,64.7,2.959,2.74,2.919,2.823,5.82,323.9,39.4,55.3,1018.2,-30.3,-0.84,1.8,31.1,50.1,39.2,0,no_anomaly,0.0,0,0,0,0,17.3850225,78.4867303,11.5,0.0
2024-07-19T10:53:09.600Z,MISSION_0064,96,0,transit,SITE_HYD_005,17.3850222,78.486732,12.0,108.74,1.193,0.127,4.34,2.1679,-1.3537,108.7443,0.58219,0.02062,0.0085,0.81275,0.1364,-0.0225,-9.7813,-0.9953,0.6929,-0.3533,0.1657,3,17,0.68,0.94,0.34,24.518,19.81,89.3,47.6,19637.0,7963,7733,7924,8003,65.3,63.8,63.7,61.0,3.0,2.837,2.82,2.741,6.43,324.3,39.4,55.6,1018.14,-30.87,-0.07,1.26,33.3,46.1,42.5,0,no_anomaly,0.0,0,0,0,0,17.3850222,78.486732,12.0,0.0
2024-07-19T10:53:09.700Z,MISSION_0064,97,0,transit,SITE_HYD_005,17.3850194,78.4867294,12.5,108.57,1.496,0.013,3.92,-4.1523,-3.6244,108.5676,0.58403,0.00452,-0.04785,0.81031,0.0931,0.0518,-9.7841,0.1505,-0.7489,-0.1264,0.1399,3,20,0.78,1.21,0.36,24.541,22.09,89.2,47.7,19619.0,8086,8048,7924,7965,62.7,65.1,65.4,63.5,2.793,2.9,2.975,2.854,4.46,324.3,39.2,55.2,1018.36,-27.4,-0.89,1.71,33.7,45.0,44.0,0,no_anomaly,0.0,0,0,0,0,17.3850194,78.4867294,12.5,0.0
2024-07-19T10:53:09.800Z,MISSION_0064,98,0,transit,SITE_HYD_005,17.3850202,78.486728,13.0,105.83,1.281,0.106,3.84,-2.5335,-1.4223,105.8284,0.60304,-0.00343,-0.02512,0.79731,-0.0871,-0.0179,-9.8026,-0.055,-0.6034,-0.0607,0.1968,3,11,0.52,0.92,0.2,24.479,24.26,89.1,48.0,19601.0,7907,7780,8064,7879,65.9,63.3,62.6,65.3,2.771,2.877,2.76,2.752,4.39,328.3,39.2,56.5,1018.54,-27.5,-0.15,1.53,31.2,46.4,39.5,0,no_anomaly,0.0,0,0,0,0,17.3850202,78.486728,13.0,0.0
2024-07-19T10:53:09.900Z,MISSION_0064,99,0,transit,SITE_HYD_005,17.3850198,78.4867297,13.5,105.61,0.951,0.08,3.97,6.2065,-1.5313,105.6149,0.60298,0.04335,0.03505,0.79581,-0.1306,-0.0687,-9.8157,0.0499,0.4569,-0.4835,0.1475,3,12,0.5,0.86,0.25,24.532,17.02,89.0,46.8,19584.0,7845,8031,8159,7759,65.3,65.4,66.0,64.6,2.756,2.948,2.647,2.713,5.79,321.3,39.2,55.1,1018.48,-31.89,-0.66,1.28,34.0,46.6,41.7,0,no_anomaly,0.0,0,0,0,0,17.3850198,78.4867297,13.5,0.0
2024-07-19T10:53:10.000Z,MISSION_0064,100,0,transit,SITE_HYD_005,17.3850213,78.4867336,14.0,104.94,1.214,0.087,4.43,-2.8644,-1.9983,104.9385,0.60925,-0.0014,-0.03044,0.79239,-0.0966,0.0287,-9.7388,-0.3513,0.7362,-0.4664,0.1821,3,15,0.77,0.92,0.35,24.605,19.96,88.9,48.0,19566.0,7870,7950,7761,8077,63.0,60.5,67.2,65.4,2.943,2.666,2.901,2.987,5.51,333.2,39.5,55.6,1018.41,-30.3,-0.49,1.47,35.8,50.1,40.3,0,no_anomaly,0.0,0,0,0,0,17.3850213,78.4867336,14.0,0.0
2024-07-19T10:53:10.100Z,MISSION_0064,101,0,transit,SITE_HYD_005,17.3850193,78.486739,14.5,104.83,1.185,0.097,4.85,5.8542,0.8688,104.8341,0.6094,0.02514,0.04508,0.79118,0.1876,0.0596,-9.8133,-0.1137,0.2896,-0.5235,0.2044,3,11,0.89,0.99,0.59,24.635,19.25,88.9,47.7,19548.0,7700,8035,8237,7714,64.9,64.3,61.0,61.8,2.751,2.788,2.83,3.046,6.32,331.0,39.5,55.7,1018.33,-25.71,0.79,1.23,34.3,49.0,39.8,0,no_anomaly,0.0,0,0,0,0,17.3850193,78.486739,14.5,0.0
2024-07-19T10:53:10.200Z,MISSION_0064,102,0,transit,SITE_HYD_005,17.3850217,78.4867372,15.0,105.72,0.969,0.086,4.79,-5.323,0.0825,105.7202,0.60309,-0.02861,-0.03658,0.79632,0.3872,-0.0794,-9.7864,-0.0224,0.0702,0.1061,0.1963,3,11,0.81,1.36,0.52,24.555,15.84,88.8,48.5,19530.0,8158,8105,7979,7811,62.6,64.3,63.3,63.9,2.804,2.882,2.669,3.143,4.73,325.8,39.2,56.3,1018.52,-32.33,0.2,1.71,34.3,48.0,42.9,0,no_anomaly,0.0,0,0,0,0,17.3850217,78.4867372,15.0,0.0
2024-07-19T10:53:10.300Z,MISSION_0064,103,0,transit,SITE_HYD_005,17.3850239,78.4867381,15.5,106.41,1.372,0.179,5.01,5.6696,-2.6995,106.4088,0.59713,0.04845,0.0255,0.80027,-0.0844,0.0593,-9.8097,0.1827,0.2315,-0.122,0.1948,3,15,0.62,1.02,0.25,24.578,19.62,88.7,47.0,19512.0,8058,7972,7637,7744,63.1,65.5,64.2,66.8,2.67,2.574,2.721,2.861,5.36,325.4,39.1,55.6,1018.38,-34.97,-0.97,1.45,32.5,48.0,42.3,0,no_anomaly,0.0,0,0,0,0,17.3850239,78.4867381,15.5,0.0
2024-07-19T10:53:10.400Z,MISSION_0064,104,0,transit,SITE_HYD_005,17.3850199,78.4867372,16.0,105.04,1.161,0.125,4.7,1.0979,-0.1126,105.035,0.60848,0.00661,0.007,0.79351,0.1033,0.0362,-9.7687,0.4203,-0.1658,0.2865,0.2197,3,10,0.61,0.71,0.2,24.474,20.94,88.6,49.0,19494.0,7815,7915,7964,8077,65.4,62.9,63.2,62.8,2.884,2.835,2.882,2.771,4.07,330.6,39.2,55.0,1018.0,-27.2,-0.8,1.76,30.9,49.1,39.1,0,no_anomaly,0.0,0,0,0,0,17.3850199,78.4867372,16.0,0.0
2024-07-19T10:53:10.500Z,MISSION_0064,105,0,transit,SITE_HYD_005,17.3850206,78.4867386,16.5,105.43,0.871,0.091,4.87,3.6394,0.4494,105.4288,0.60558,0.01612,0.02764,0.79514,-0.0568,-0.0307,-9.8772,0.5809,-0.0834,-0.2131,0.1638,3,16,0.7,1.0,0.22,24.522,21.45,88.5,47.0,19477.0,7667,7824,7789,7918,68.7,66.6,67.4,65.9,2.802,2.745,2.686,2.889,5.5,328.2,39.1,55.9,1018.52,-27.64,0.13,1.71,31.6,44.9,41.7,0,no_anomaly,0.0,0,0,0,0,17.3850206,78.4867386,16.5,0.0
2024-07-19T10:53:10.600Z,MISSION_0064,106,0,transit,SITE_HYD_005,17.385013,78.4867392,17.0,104.54,1.122,0.188,4.59,-5.518,-1.2062,104.5366,0.61162,-0.02114,-0.0445,0.78961,0.2365,0.0454,-9.8273,-0.5571,-0.0248,-0.1265,0.1655,3,15,0.61,0.94,0.42,24.589,17.1,88.4,47.6,19459.0,8030,7495,8092,8038,66.0,60.5,64.0,64.5,2.864,2.564,2.806,2.661,5.63,315.8,39.6,56.1,1018.47,-34.95,-1.65,1.53,31.5,50.3,43.2,0,no_anomaly,0.0,0,0,0,0,17.385013,78.4867392,17.0,0.0
2024-07-19T10:53:10.700Z,MISSION_0064,107,0,transit,SITE_HYD_005,17.385015,78.4867389,17.5,104.45,1.421,0.131,4.64,3.381,-2.2654,104.4529,0.6117,0.03369,0.01121,0.7903,-0.115,-0.0619,-9.8029,0.3388,-0.8441,-0.2827,0.2087,3,20,0.75,0.95,0.32,24.491,18.02,88.4,47.6,19441.0,7858,7968,8152,7934,67.7,64.8,64.6,61.6,2.637,2.522,2.714,2.925,6.5,321.5,38.9,55.5,1018.34,-26.62,1.46,1.54,32.5,46.9,41.7,0,no_anomaly,0.0,0,0,0,0,17.385015,78.4867389,17.5,0.0
2024-07-19T10:53:10.800Z,MISSION_0064,108,0,transit,SITE_HYD_005,17.3850118,78.4867391,18.0,103.26,1.651,0.06,4.54,1.194,1.3432,103.2579,0.62077,-0.00272,0.01544,0.78383,0.0907,0.002,-9.8009,0.0551,0.1783,-0.5271,0.2078,3,12,0.65,0.84,0.3,24.486,18.52,88.3,47.8,19423.0,7836,8193,8080,8035,63.3,64.0,62.0,63.9,3.007,2.69,2.834,2.765,5.29,321.5,39.3,56.0,1018.11,-33.79,0.17,1.19,36.5,53.4,41.5,0,no_anomaly,0.0,0,0,0,0,17.3850118,78.4867391,18.0,0.0
2024-07-19T10:53:10.900Z,MISSION_0064,109,0,transit,SITE_HYD_005,17.385012,78.4867356,18.5,102.71,1.573,0.084,4.18,4.7388,-0.2966,102.7073,0.62389,0.02784,0.03067,0.78041,0.2354,-0.0152,-9.8569,-0.334,-0.4622,0.0188,0.1793,3,17,0.69,0.9,0.32,24.427,16.84,88.2,47.8,19405.0,7846,7968,7908,8131,64.3,64.1,63.9,64.8,2.899,2.502,2.97,2.824,5.08,328.0,39.2,55.5,1018.58,-28.73,-1.53,1.99,32.1,52.1,40.0,0,no_anomaly,0.0,0,0,0,0,17.385012,78.4867356,18.5,0.0
2024-07-19T10:53:11.000Z,MISSION_0064,110,0,transit,SITE_HYD_005,17.3850111,78.4867331,19.0,103.41,1.494,0.066,3.89,3.5563,-3.4735,103.4116,0.61838,0.043,0.00557,0.78468,0.2215,-0.0103,-9.8847,0.5981,-0.4461,-0.0853,0.3231,3,20,0.74,0.68,0.39,24.481,14.24,88.1,47.6,19387.0,8058,8146,7462,7980,66.7,65.4,64.4,67.5,3.034,2.814,3.214,2.628,4.9,326.7,39.5,55.8,1018.52,-27.05,-0.46,1.69,32.6,43.6,39.1,0,no_anomaly,0.0,0,0,0,0,17.3850111,78.4867331,19.0,0.0
2024-07-19T10:53:11.100Z,MISSION_0064,111,0,transit,SITE_HYD_005,17.3850091,78.4867306,19.5,101.32,0.767,0.138,3.55,-1.5834,-5.4645,101.3195,0.63365,0.02811,-0.04089,0.77202,-0.0903,-0.0215,-9.81,-0.7456,-0.2904,-0.0073,0.1551,3,15,0.82,0.88,0.3,24.448,19.8,88.0,48.0,19370.0,7890,8034,7922,8200,65.2,65.8,62.7,62.9,2.939,2.716,2.622,2.449,5.77,320.9,39.3,55.4,1018.37,-30.14,0.28,1.08,30.2,45.9,40.5,0,no_anomaly,0.0,0,0,0,0,17.3850091,78.4867306,19.5,0.0
2024-07-19T10:53:11.200Z,MISSION_0064,112,0,transit,SITE_HYD_005,17.3850084,78.4867277,20.0,99.88,0.947,0.091,3.22,0.1034,-2.8151,99.8824,0.64336,0.01938,-0.01512,0.76517,0.0948,0.0375,-9.7838,0.0895,-0.6255,-0.0617,0.2094,3,11,0.61,0.94,0.21,24.492,22.01,88.0,47.5,19352.0,8007,7899,8157,7631,63.3,65.3,67.3,63.1,2.871,2.967,2.858,2.596,4.53,327.7,39.4,56.7,1018.4,-26.72,0.53,1.39,36.0,48.4,39.6,0,no_anomaly,0.0,0,0,0,0,17.3850084,78.4867277,20.0,0.0
2024-07-19T10:53:11.300Z,MISSION_0064,113,0,transit,SITE_HYD_005,17.3850083,78.4867273,20.5,100.65,0.416,0.151,3.18,-0.0035,-5.7291,100.6481,0.63765,0.03844,-0.03193,0.7687,-0.0955,-0.0291,-9.8056,0.531,0.0242,-0.2404,0.2094,3,16,0.53,0.67,0.22,24.459,23.12,87.9,48.1,19334.0,8028,8023,7878,7838,63.9,66.0,60.6,66.7,2.876,2.962,3.092,2.993,5.36,322.5,39.6,56.0,1018.16,-32.83,0.52,1.36,33.5,46.3,39.0,0,no_anomaly,0.0,0,0,0,0,17.3850083,78.4867273,20.5,0.0
2024-07-19T10:53:11.400Z,MISSION_0064,114,0,transit,SITE_HYD_005,17.3850104,78.486731,21.0,102.86,0.596,0.12,3.64,-0.5496,-4.8142,102.8581,0.62308,0.02985,-0.02993,0.78101,0.0431,-0.0166,-9.7365,0.0616,-0.6346,0.2181,0.2539,3,14,0.77,1.05,0.28,24.431,19.91,87.8,47.1,19316.0,7871,7738,8347,8058,63.8,65.0,64.1,67.2,2.599,2.685,2.922,2.691,5.04,330.8,39.5,55.9,1018.25,-30.97,-0.32,1.72,33.4,44.8,40.4,0,no_anomaly,0.0,0,0,0,0,17.3850104,78.486731,21.0,0.0
2024-07-19T10:53:11.500Z,MISSION_0064,115,0,transit,SITE_HYD_005,17.3850096,78.486731,21.5,102.04,0.553,0.051,3.61,-0.1745,-2.3256,102.0409,0.62894,0.01482,-0.01395,0.77719,0.032,0.0729,-9.8383,0.742,0.3396,0.0977,0.2437,3,14,0.68,0.96,0.23,24.501,18.87,87.7,47.0,19298.0,7651,7765,8155,8125,62.4,66.1,60.8,64.4,3.009,3.013,2.598,2.843,5.38,316.3,39.3,55.9,1018.0,-25.09,0.46,1.47,36.3,45.9,43.6,0,no_anomaly,0.0,0,0,0,0,17.3850096,78.486731,21.5,0.0
2024-07-19T10:53:11.600Z,MISSION_0064,116,0,transit,SITE_HYD_005,17.3850154,78.4867297,22.0,100.97,0.642,-0.047,3.72,-0.6281,-1.3316,100.9667,0.6363,0.00548,-0.01162,0.77134,-0.3344,-0.0165,-9.7773,0.0043,0.5457,-0.4258,0.2142,3,18,0.55,1.04,0.31,24.562,17.85,87.6,48.5,19280.0,8208,7894,7853,7790,61.5,65.8,62.9,64.6,2.769,3.017,2.9,2.804,5.02,330.9,39.3,55.9,1018.5,-32.06,1.11,1.92,32.6,43.7,39.8,0,no_anomaly,0.0,0,0,0,0,17.3850154,78.4867297,22.0,0.0
2024-07-19T10:53:11.700Z,MISSION_0064,117,0,transit,SITE_HYD_005,17.3850097,78.4867363,22.5,100.38,0.927,0.168,4.19,-4.4046,-1.7223,100.3835,0.64012,-0.01306,-0.03913,0.76717,0.0285,0.0201,-9.8467,0.375,0.4601,0.1859,0.2527,3,12,0.77,1.16,0.23,24.452,15.17,87.6,48.5,19263.0,8023,8149,8133,8207,65.0,67.3,65.2,62.3,2.605,2.662,2.539,2.69,6.31,319.1,39.4,55.6,1018.15,-30.1,-1.24,1.41,33.9,51.1,42.1,0,no_anomaly,0.0,0,0,0,0,17.3850097,78.4867363,22.5,0.0
2024-07-19T10:53:11.800Z,MISSION_0064,118,0,transit,SITE_HYD_005,17.3850079,78.4867373,23.0,102.15,1.059,0.178,4.24,-3.3518,-3.0032,102.1468,0.62844,0.00201,-0.0392,0.77687,-0.1745,0.0664,-9.6979,-0.0383,0.3794,-0.4491,0.2212,3,19,0.67,0.78,0.23,24.545,25.03,87.5,48.0,19245.0,7896,8079,7951,7860,65.6,66.1,64.4,61.6,2.722,2.84,2.987,2.766,5.55,326.8,39.2,56.1,1018.27,-29.57,1.95,1.16,36.3,49.3,42.5,0,no_anomaly,0.0,0,0,0,0,17.3850079,78.4867373,23.0,0.0
2024-07-19T10:53:11.900Z,MISSION_0064,119,0,transit,SITE_HYD_005,17.3850077,78.4867328,23.5,100.61,1.05,0.188,3.75,0.2705,-1.3625,100.6118,0.63862,0.01066,-0.00578,0.76943,-0.0146,0.0338,-9.7043,0.2949,0.2152,0.2271,0.0972,3,18,0.67,1.05,0.29,24.483,14.01,87.4,47.6,19227.0,7985,7619,8217,7820,65.4,64.5,65.0,62.1,3.027,2.747,2.869,2.866,4.18,323.4,39.4,55.6,1018.36,-30.28,-0.44,1.2,35.2,51.4,43.8,0,no_anomaly,0.0,0,0,0,0,17.3850077,78.4867328,23.5,0.0
2024-07-19T10:53:12.000Z,MISSION_0064,120,0,transit,SITE_HYD_005,17.3850031,78.4867308,24.0,99.28,1.036,0.069,3.45,0.9493,-3.7243,99.2841,0.64699,0.03012,-0.01473,0.76176,0.17,0.0131,-9.7706,-0.932,0.071,-0.6145,0.3206,3,15,0.78,1.13,0.29,24.436,17.74,87.3,48.4,19209.0,7861,7859,7762,7910,61.9,69.0,69.8,62.1,2.696,2.684,2.585,3.022,4.93,332.0,39.4,55.6,1018.17,-29.91,-1.0,1.05,31.7,50.0,39.2,0,no_anomaly,0.0,0,0,0,0,17.3850031,78.4867308,24.0,0.0
2024-07-19T10:53:12.100Z,MISSION_0064,121,0,transit,SITE_HYD_005,17.3850075,78.4867378,24.0,98.61,0.935,0.202,4.29,0.0483,-0.5854,98.6112,0.65201,0.00415,-0.00301,0.75819,0.1117,-0.0043,-9.8053,0.2929,-0.2894,0.1838,0.1694,3,19,0.82,1.2,0.4,24.433,20.37,87.2,48.2,19191.0,7876,7960,7845,7798,62.9,66.7,65.8,64.5,2.964,2.622,2.874,2.702,4.82,323.7,39.6,55.8,1018.42,-32.31,0.09,1.3,36.2,49.5,41.8,0,no_anomaly,0.0,0,0,0,0,17.3850075,78.4867378,24.0,0.0
2024-07-19T10:53:12.200Z,MISSION_0064,122,0,transit,SITE_HYD_005,17.3850097,78.4867411,24.0,97.01,1.059,0.086,4.7,0.6611,1.2756,97.0051,0.66258,-0.00451,0.0117,0.74888,0.0215,0.0222,-9.799,0.5721,0.631,0.1574,0.1414,3,13,0.57,1.09,0.2,24.455,14.18,87.2,48.0,19173.0,7888,8224,7739,7962,64.2,64.0,61.9,64.6,2.766,2.805,3.103,2.64,5.27,321.9,39.5,56.2,1018.23,-35.12,-0.32,1.4,31.5,43.7,41.8,0,no_anomaly,0.0,0,0,0,0,17.3850097,78.4867411,24.0,0.0
2024-07-19T10:53:12.300Z,MISSION_0064,123,0,transit,SITE_HYD_005,17.3850129,78.4867449,24.0,95.42,1.623,0.133,5.2,4.5848,-1.3756,95.4222,0.67193,0.03579,0.02152,0.73944,0.0394,0.0125,-9.8246,0.1059,-0.2809,-0.5957,0.1168,3,18,0.74,0.88,0.25,24.504,19.36,87.1,47.3,19156.0,7992,8097,7887,7808,66.1,63.7,64.8,63.2,2.886,2.968,2.785,2.886,4.48,328.4,39.5,55.3,1018.64,-29.89,2.49,1.6,35.1,48.9,41.1,0,no_anomaly,0.0,0,0,0,0,17.3850129,78.4867449,24.0,0.0
2024-07-19T10:53:12.400Z,MISSION_0064,124,0,transit,SITE_HYD_005,17.3850136,78.4867453,24.0,95.42,1.647,0.122,5.26,1.2667,-0.8796,95.4238,0.67273,0.01312,0.00301,0.73976,0.016,0.0163,-9.7385,0.7411,-0.1415,0.3701,0.201,3,17,0.73,1.0,0.21,24.492,14.98,87.0,47.7,19138.0,8110,7905,8170,8158,62.9,67.2,60.2,63.1,2.735,2.976,2.869,2.687,5.48,327.1,39.4,56.3,1017.88,-27.6,-0.26,1.77,37.1,54.8,45.3,0,no_anomaly,0.0,0,0,0,0,17.3850136,78.4867453,24.0,0.0
2024-07-19T10:53:12.500Z,MISSION_0064,125,0,transit,SITE_HYD_005,17.3850156,78.4867469,24.0,94.38,1.568,0.162,5.5,-0.1833,-1.2188,94.3754,0.67957,0.00672,-0.0084,0.73353,-0.0229,0.0259,-9.7949,-0.4167,0.3252,0.2831,0.2485,3,13,0.85,0.88,0.29,24.453,23.13,86.9,48.6,19120.0,8073,7933,7818,8004,64.2,67.1,67.5,63.4,2.78,2.897,2.986,2.731,5.39,328.9,39.3,55.7,1018.29,-32.86,-0.64,1.51,37.4,53.2,43.3,0,no_anomaly,0.0,0,0,0,0,17.3850156,78.4867469,24.0,0.0
2024-07-19T10:53:12.600Z,MISSION_0064,126,0,transit,SITE_HYD_005,17.3850112,78.4867484,24.0,97.11,1.304,0.11,5.53,-2.7997,0.04,97.1112,0.66169,-0.01643,-0.01808,0.74938,-0.0424,-0.0196,-9.8428,-0.7042,-0.249,-0.2041,0.1803,3,10,0.72,1.15,0.36,24.476,21.14,86.8,48.8,19102.0,7731,7941,8170,7930,64.2,63.7,62.9,63.7,2.922,2.595,2.775,2.65,4.69,321.8,39.7,56.1,1018.1,-31.54,-0.02,1.68,37.3,52.2,41.6,0,no_anomaly,0.0,0,0,0,0,17.3850112,78.4867484,24.0,0.0
2024-07-19T10:53:12.700Z,MISSION_0064,127,0,transit,SITE_HYD_005,17.3850092,78.486749,24.0,95.78,0.938,0.108,5.55,-1.6883,-1.1907,95.7801,0.67056,-0.00217,-0.0179,0.74164,-0.2783,0.0397,-9.7806,-0.1084,-0.1867,0.1762,0.197,3,13,0.59,0.81,0.23,24.423,18.22,86.7,48.0,19084.0,8098,8013,8227,7870,64.7,64.7,61.7,68.5,2.661,2.691,2.915,2.861,4.78,318.7,39.5,55.5,1018.21,-24.64,0.55,1.35,34.5,49.4,41.3,0,no_anomaly,0.0,0,0,0,0,17.3850092,78.486749,24.0,0.0
2024-07-19T10:53:12.800Z,MISSION_0064,128,0,transit,SITE_HYD_005,17.3850086,78.4867452,24.0,98.06,1.029,0.199,5.12,-7.8284,-1.058,98.0593,0.65459,-0.0378,-0.05758,0.75284,-0.08,-0.0103,-9.7991,0.8697,0.0268,-0.2173,0.2013,3,19,0.75,0.93,0.3,24.487,18.96,86.7,47.8,19067.0,7927,8218,7984,8094,64.8,62.0,62.0,64.7,3.009,2.655,2.492,2.669,4.12,336.7,39.1,55.7,1018.21,-32.65,1.17,1.22,35.7,53.8,44.3,0,no_anomaly,0.0,0,0,0,0,17.3850086,78.4867452,24.0,0.0
2024-07-19T10:53:12.900Z,MISSION_0064,129,0,transit,SITE_HYD_005,17.3850053,78.4867385,24.0,97.36,1.101,0.169,4.32,0.9688,-2.0779,97.3646,0.65999,0.0192,-0.00562,0.75101,0.1292,-0.0152,-9.8254,0.2234,0.6522,0.046,0.1485,3,14,0.7,0.82,0.28,24.413,18.6,86.6,49.0,19049.0,8009,8148,7765,7852,65.4,64.8,66.8,63.9,2.898,2.672,2.858,2.72,4.52,324.8,39.2,56.6,1018.64,-30.21,-0.63,1.43,35.6,51.7,41.6,0,no_anomaly,0.0,0,0,0,0,17.3850053,78.4867385,24.0,0.0
