timestamp_utc,mission_id,frame_id,waypoint_id,inspection_phase,site_id,latitude_deg,longitude_deg,altitude_m,heading_deg,ground_speed_ms,vertical_speed_ms,distance_to_tower_m,roll_deg,pitch_deg,yaw_deg,quat_w,quat_x,quat_y,quat_z,accel_x_ms2,accel_y_ms2,accel_z_ms2,gyro_x_rads,gyro_y_rads,gyro_z_rads,vibration_level,gps_fix_type,gps_satellite_count,gps_hdop,gps_vdop,position_error_m,battery_voltage_v,battery_current_a,battery_remaining_pct,battery_temp_c,battery_capacity_mah,motor_fl_rpm,motor_fr_rpm,motor_rl_rpm,motor_rr_rpm,motor_fl_temp_c,motor_fr_temp_c,motor_rl_temp_c,motor_rr_temp_c,motor_fl_thrust_n,motor_fr_thrust_n,motor_rl_thrust_n,motor_rr_thrust_n,wind_speed_ms,wind_dir_deg,air_temp_c,humidity_pct,pressure_hpa,gimbal_pitch_deg,gimbal_roll_deg,zoom_factor,ir_temp_min_c,ir_temp_max_c,ir_temp_avg_c,anomaly_detected,anomaly_class,anomaly_confidence,anomaly_bbox_x,anomaly_bbox_y,anomaly_bbox_w,anomaly_bbox_h,anomaly_gps_lat,anomaly_gps_lon,anomaly_gps_alt_m,ir_temp_delta_c
2024-01-02T12:11:00.000Z,MISSION_0069,0,0,takeoff,SITE_LKN_010,26.846703,80.9462001,1.5,41.92,0.0,0.134,0.33,3.8004,-0.6407,41.9247,0.93322,0.03296,0.00664,0.35773,-0.2441,-0.0443,-9.7928,-1.2143,-0.0874,-0.2767,0.2768,3,14,0.64,0.85,0.29,24.663,15.17,95.2,46.4,20944.0,7209,7223,7025,7423,63.4,57.8,63.5,62.9,2.843,2.711,2.792,2.842,6.69,102.6,37.6,56.9,1008.35,-30.24,0.27,1.28,36.0,50.2,40.9,0,no_anomaly,0.0,0,0,0,0,26.846703,80.9462001,1.5,0.0
2024-01-02T12:11:00.100Z,MISSION_0069,1,0,takeoff,SITE_LKN_010,26.8467022,80.9462003,3.0,41.2,0.0,0.167,0.25,-2.2944,-1.8718,41.1992,0.93586,-0.01299,-0.02233,0.35141,0.3774,0.006,-9.7455,-0.1814,0.0163,0.3804,0.2366,3,15,0.62,0.94,0.22,24.649,20.82,95.1,45.3,20925.0,7247,7335,7330,7550,60.4,62.7,65.1,63.2,2.88,2.724,2.583,2.63,6.32,105.9,37.4,57.2,1008.14,-30.86,-0.95,1.89,31.3,53.5,43.2,0,no_anomaly,0.0,0,0,0,0,26.8467022,80.9462003,3.0,0.0
2024-01-02T12:11:00.200Z,MISSION_0069,2,0,takeoff,SITE_LKN_010,26.8467056,80.9462021,4.5,40.05,0.0,0.055,0.66,0.3792,-0.5283,40.0453,0.93954,0.00469,-0.0032,0.3424,0.2427,0.1098,-9.8076,-0.3463,-0.889,-0.4745,0.2108,3,16,0.91,1.06,0.42,24.657,18.48,95.0,46.2,20906.0,7480,7153,7259,7418,63.3,62.5,61.0,67.3,2.842,2.664,3.098,2.756,6.61,112.7,37.4,57.6,1008.26,-29.35,-1.58,1.45,34.7,50.0,42.4,0,no_anomaly,0.0,0,0,0,0,26.8467056,80.9462021,4.5,0.0
2024-01-02T12:11:00.300Z,MISSION_0069,3,0,takeoff,SITE_LKN_010,26.8467083,80.9462027,5.0,38.44,0.072,0.128,0.97,-3.9821,-2.8487,38.44,0.94368,-0.02462,-0.03489,0.32808,-0.0428,0.1205,-9.8603,-0.0738,-0.8761,-0.3142,0.2624,3,12,0.76,0.89,0.4,24.629,23.11,94.9,46.1,20886.0,6996,7415,7396,7222,61.0,62.7,60.0,61.3,2.956,2.769,2.971,2.839,6.8,106.5,37.8,56.9,1008.05,-30.58,-0.11,1.42,33.6,48.9,37.8,0,no_anomaly,0.0,0,0,0,0,26.8467083,80.9462027,5.0,0.0
2024-01-02T12:11:00.400Z,MISSION_0069,4,0,takeoff,SITE_LKN_010,26.8467109,80.9462043,5.0,38.66,0.184,0.185,1.3,3.035,-3.77,38.6615,0.94249,0.03586,-0.02227,0.33155,0.0616,0.0332,-9.7799,-0.0827,0.4486,-0.4943,0.302,3,16,0.61,1.0,0.33,24.637,8.83,94.8,45.7,20867.0,6897,7078,7621,7236,66.8,59.8,65.9,61.9,3.08,2.807,2.899,2.829,6.69,116.4,37.7,57.1,1008.18,-28.48,0.65,1.44,29.5,46.9,41.2,0,no_anomaly,0.0,0,0,0,0,26.8467109,80.9462043,5.0,0.0
2024-01-02T12:11:00.500Z,MISSION_0069,5,0,takeoff,SITE_LKN_010,26.8467169,80.9462038,5.0,38.74,0.196,0.115,1.93,-4.413,-2.6966,38.7445,0.94272,-0.02851,-0.03495,0.33051,-0.0339,0.0811,-9.8652,0.6367,-0.0945,-0.0856,0.1737,3,11,0.56,1.13,0.2,24.669,17.33,94.8,45.7,20847.0,7143,7373,6958,7212,60.9,59.9,66.4,65.7,3.029,2.872,2.884,2.798,6.76,111.2,37.5,56.7,1008.28,-26.45,0.31,1.39,31.6,44.8,41.1,0,no_anomaly,0.0,0,0,0,0,26.8467169,80.9462038,5.0,0.0
2024-01-02T12:11:00.600Z,MISSION_0069,6,0,takeoff,SITE_LKN_010,26.8467201,80.9462021,5.0,40.09,0.074,0.087,2.25,-3.4763,-3.0625,40.091,0.93893,-0.01933,-0.03549,0.34172,0.0089,-0.0613,-9.9056,-0.2918,0.2536,-0.5342,0.2784,3,15,0.77,0.8,0.31,24.623,20.08,94.7,45.3,20828.0,7309,7251,7571,7328,62.8,63.4,61.4,64.3,3.228,2.836,2.642,2.822,7.47,111.1,37.7,56.4,1008.37,-30.41,-0.9,1.86,31.4,48.2,40.2,0,no_anomaly,0.0,0,0,0,0,26.8467201,80.9462021,5.0,0.0
2024-01-02T12:11:00.700Z,MISSION_0069,7,0,takeoff,SITE_LKN_010,26.846718,80.9462029,5.0,38.71,0.382,0.189,2.03,-1.2259,0.5521,38.7112,0.9434,-0.01169,0.001,0.33146,0.1153,-0.0042,-9.8254,0.0069,0.1073,-0.3776,0.2754,3,20,0.63,0.92,0.24,24.635,26.13,94.6,45.1,20809.0,7262,7475,7331,7032,62.9,59.6,62.5,61.5,2.947,2.849,2.885,2.634,7.09,119.6,37.7,57.3,1008.48,-28.12,-0.64,1.32,32.9,46.5,37.1,0,no_anomaly,0.0,0,0,0,0,26.846718,80.9462029,5.0,0.0
2024-01-02T12:11:00.800Z,MISSION_0069,8,0,takeoff,SITE_LKN_010,26.8467163,80.9461997,5.0,39.49,0.037,0.166,1.82,-1.7975,-1.6491,39.489,0.94107,-0.0099,-0.01884,0.33754,-0.2254,0.0737,-9.7919,0.1921,0.469,0.4584,0.1809,3,19,0.65,0.99,0.31,24.647,19.07,94.5,46.3,20789.0,7338,7217,7412,7307,63.4,63.9,59.6,61.7,2.765,2.702,2.778,2.922,6.07,114.2,37.4,56.9,1007.99,-34.58,2.28,1.39,32.4,50.3,41.4,0,no_anomaly,0.0,0,0,0,0,26.8467163,80.9461997,5.0,0.0
2024-01-02T12:11:00.900Z,MISSION_0069,9,0,takeoff,SITE_LKN_010,26.8467146,80.9462009,5.0,39.27,0.041,0.153,1.63,-2.1999,-3.0913,39.2702,0.94151,-0.00901,-0.03185,0.33536,0.3894,-0.0267,-9.7471,0.0374,0.4773,0.1366,0.1934,3,13,0.74,1.05,0.28,24.635,22.05,94.4,45.2,20770.0,7106,7635,7261,7548,63.1,60.5,59.4,64.2,3.29,2.487,2.972,2.573,6.95,105.4,37.9,56.5,1008.2,-32.33,0.8,1.64,34.1,49.9,41.0,0,no_anomaly,0.0,0,0,0,0,26.8467146,80.9462009,5.0,0.0
2024-01-02T12:11:01.000Z,MISSION_0069,10,0,takeoff,SITE_LKN_010,26.8467181,80.9461958,5.0,34.95,0.0,0.063,2.07,0.607,-0.9163,34.9502,0.95379,0.00745,-0.00604,0.30032,-0.1931,-0.0309,-9.8136,0.4829,-0.0599,-0.4488,0.1923,3,17,0.68,0.6,0.23,24.68,19.49,94.3,45.7,20751.0,7471,7301,7236,7290,59.3,62.1,62.9,65.8,2.772,2.552,2.883,2.866,7.15,108.9,37.6,57.4,1008.2,-30.69,0.45,1.92,33.8,47.9,39.4,0,no_anomaly,0.0,0,0,0,0,26.8467181,80.9461958,5.0,0.0
2024-01-02T12:11:01.100Z,MISSION_0069,11,0,takeoff,SITE_LKN_010,26.8467182,80.9461969,5.0,36.46,0.324,0.045,2.06,8.314,-0.6155,36.4556,0.94719,0.07053,0.01759,0.31234,-0.2568,-0.0363,-9.7914,0.456,0.7215,-0.0416,0.2693,3,12,0.62,0.87,0.32,24.603,18.41,94.2,45.3,20731.0,7160,7376,7313,7201,63.6,61.7,63.9,60.6,2.905,2.623,2.611,2.782,8.23,104.9,37.7,56.3,1008.13,-32.61,-0.65,1.33,34.8,45.5,41.4,0,no_anomaly,0.0,0,0,0,0,26.8467182,80.9461969,5.0,0.0
2024-01-02T12:11:01.200Z,MISSION_0069,12,0,takeoff,SITE_LKN_010,26.8467184,80.9461968,5.0,36.68,0.0,0.071,2.08,-2.4554,0.9797,36.679,0.9489,-0.02303,0.00137,0.31474,-0.3539,0.0567,-9.7554,-0.1245,-0.3769,0.3652,0.2738,3,12,0.65,0.75,0.24,24.572,15.01,94.1,45.7,20712.0,7060,7255,7243,7329,63.3,63.7,61.3,64.4,2.588,2.694,2.793,2.893,7.18,105.0,37.7,58.1,1007.75,-28.83,-0.91,1.55,35.6,48.9,42.4,0,no_anomaly,0.0,0,0,0,0,26.8467184,80.9461968,5.0,0.0
2024-01-02T12:11:01.300Z,MISSION_0069,13,0,takeoff,SITE_LKN_010,26.8467242,80.9461984,5.0,37.76,0.243,0.148,2.7,-1.0373,-0.8956,37.7615,0.94615,-0.00604,-0.01032,0.32351,-0.078,0.0011,-9.7653,0.083,-0.3346,0.1383,0.2185,3,18,0.79,0.73,0.37,24.575,10.62,94.1,45.0,20693.0,7093,7173,7345,7113,66.1,64.0,63.1,60.8,2.628,3.098,2.806,2.688,7.36,102.7,37.6,56.9,1008.02,-33.25,-0.72,1.65,33.9,49.8,42.1,0,no_anomaly,0.0,0,0,0,0,26.8467242,80.9461984,5.0,0.0
2024-01-02T12:11:01.400Z,MISSION_0069,14,0,takeoff,SITE_LKN_010,26.846722,80.9461974,5.0,37.87,0.664,0.066,2.47,-1.6757,-0.3508,37.8741,0.94578,-0.01284,-0.00764,0.32445,-0.132,0.0621,-9.9011,-0.3396,-0.5216,-0.1263,0.2904,3,17,0.78,1.21,0.2,24.536,18.24,94.0,46.0,20673.0,7184,7103,7362,7222,63.0,60.4,59.9,63.9,2.425,2.625,2.559,2.786,6.5,111.2,37.6,57.2,1007.99,-30.91,-0.06,1.29,32.2,51.5,39.4,0,no_anomaly,0.0,0,0,0,0,26.846722,80.9461974,5.0,0.0
2024-01-02T12:11:01.500Z,MISSION_0069,15,0,takeoff,SITE_LKN_010,26.8467155,80.9461985,5.0,37.68,1.361,0.127,1.73,1.6802,-1.461,37.685,0.94617,0.01799,-0.00733,0.32308,-0.1635,-0.0077,-9.8265,0.6053,0.9095,0.2582,0.292,3,20,0.74,1.01,0.29,24.665,18.33,93.9,45.1,20654.0,7121,7361,7225,7202,59.9,65.5,59.7,62.1,2.701,2.845,2.746,2.718,7.59,111.2,37.8,56.7,1008.39,-28.04,1.26,1.29,30.8,49.2,40.3,0,no_anomaly,0.0,0,0,0,0,26.8467155,80.9461985,5.0,0.0
2024-01-02T12:11:01.600Z,MISSION_0069,16,0,takeoff,SITE_LKN_010,26.8467152,80.9461969,5.0,39.39,1.777,0.139,1.73,-2.9434,-2.8925,39.3891,0.94111,-0.01567,-0.03241,0.33618,0.0545,0.0638,-9.8176,-0.7097,0.6076,0.0509,0.2195,3,13,0.81,1.11,0.29,24.563,17.72,93.8,44.9,20634.0,7141,7446,7270,7083,61.6,66.1,61.4,64.2,2.912,2.931,2.754,2.813,7.58,110.5,37.7,57.0,1008.32,-28.38,1.77,1.89,32.0,50.1,40.7,0,no_anomaly,0.0,0,0,0,0,26.8467152,80.9461969,5.0,0.0
2024-01-02T12:11:01.700Z,MISSION_0069,17,0,takeoff,SITE_LKN_010,26.8467151,80.9461952,5.0,40.37,1.522,0.087,1.76,-1.5706,-3.0589,40.3667,0.9383,-0.00365,-0.02978,0.34453,0.0771,-0.0288,-9.6958,0.3497,0.0684,0.1867,0.1996,3,16,0.79,1.02,0.31,24.636,19.95,93.7,45.6,20615.0,7551,7325,7142,7469,60.6,60.0,62.8,65.3,2.716,2.404,2.895,3.117,6.85,113.5,37.6,56.3,1008.45,-29.9,-2.02,1.4,32.7,46.5,39.7,0,no_anomaly,0.0,0,0,0,0,26.8467151,80.9461952,5.0,0.0
2024-01-02T12:11:01.800Z,MISSION_0069,18,0,takeoff,SITE_LKN_010,26.8467118,80.9461957,5.0,41.11,1.118,0.128,1.4,-2.0481,-1.9746,41.1079,0.93616,-0.01068,-0.02241,0.35069,-0.0438,-0.0057,-9.7995,-0.6035,0.0354,-0.0501,0.2968,3,11,0.8,1.04,0.21,24.67,15.32,93.6,45.5,20596.0,7336,7365,7255,6983,62.6,62.5,63.4,64.4,2.793,2.595,2.861,2.964,6.15,109.1,37.6,57.3,1008.26,-26.91,0.47,1.76,31.3,47.8,40.6,0,no_anomaly,0.0,0,0,0,0,26.8467118,80.9461957,5.0,0.0
2024-01-02T12:11:01.900Z,MISSION_0069,19,0,takeoff,SITE_LKN_010,26.8467153,80.9461954,5.0,40.24,1.398,0.046,1.78,-1.8144,-5.3722,40.2394,0.93808,0.00127,-0.04944,0.34287,-0.1766,-0.0897,-9.8441,0.1472,0.5945,0.2207,0.2387,3,14,0.73,0.7,0.39,24.671,19.49,93.5,45.3,20576.0,7507,7486,7124,7313,60.5,63.1,67.8,60.7,2.792,2.989,2.915,2.862,7.16,111.5,37.6,56.6,1007.97,-28.83,1.44,1.87,34.3,43.3,39.3,0,no_anomaly,0.0,0,0,0,0,26.8467153,80.9461954,5.0,0.0
2024-01-02T12:11:02.000Z,MISSION_0069,20,0,takeoff,SITE_LKN_010,26.8467102,80.9461992,5.0,38.89,1.122,0.064,1.14,-0.0833,-0.9345,38.8885,0.94294,0.00203,-0.00793,0.33287,0.005,-0.0363,-9.8337,0.3299,0.4633,0.1022,0.1648,3,12,0.79,0.97,0.42,24.615,16.88,93.4,45.6,20557.0,7181,7233,7244,7439,62.5,65.3,61.7,61.2,2.613,2.874,2.58,2.775,6.05,111.3,37.5,57.6,1008.09,-26.82,0.9,1.65,36.8,46.2,40.1,0,no_anomaly,0.0,0,0,0,0,26.8467102,80.9461992,5.0,0.0
2024-01-02T12:11:02.100Z,MISSION_0069,21,0,takeoff,SITE_LKN_010,26.8467067,80.9461958,5.0,39.9,1.286,0.01,0.89,5.2005,0.4838,39.8999,0.93908,0.04121,0.01944,0.34067,0.1408,-0.0639,-9.7372,-0.1284,0.1495,0.2847,0.1772,3,13,0.75,0.81,0.27,24.662,21.43,93.4,45.7,20538.0,7066,7343,7171,7331,63.5,60.1,61.9,65.2,2.804,2.791,2.905,2.862,7.38,113.5,37.5,57.4,1008.1,-31.76,0.48,1.98,37.6,53.0,40.1,0,no_anomaly,0.0,0,0,0,0,26.8467067,80.9461958,5.0,0.0
2024-01-02T12:11:02.200Z,MISSION_0069,22,0,takeoff,SITE_LKN_010,26.8467066,80.9461979,5.0,38.55,1.513,0.068,0.77,7.6124,-1.0379,38.548,0.94163,0.06564,0.01338,0.32991,-0.3123,-0.0929,-9.8587,-1.0484,0.3463,0.1348,0.3151,3,14,0.7,1.19,0.38,24.598,17.86,93.3,45.2,20518.0,7594,7214,7238,7391,61.7,62.3,65.6,62.6,3.236,2.656,2.691,3.015,6.9,112.2,37.5,56.3,1008.25,-35.72,-0.14,1.55,29.5,44.7,37.0,0,no_anomaly,0.0,0,0,0,0,26.8467066,80.9461979,5.0,0.0
2024-01-02T12:11:02.300Z,MISSION_0069,23,0,takeoff,SITE_LKN_010,26.8467034,80.9461981,5.0,39.75,1.609,0.014,0.44,-1.1087,-3.1893,39.7505,0.94012,0.00037,-0.02946,0.33957,0.0524,-0.0283,-9.7766,0.3687,0.2815,0.1306,0.1417,3,12,0.64,0.74,0.3,24.691,17.55,93.2,45.3,20499.0,7456,7431,7158,7170,62.5,65.1,65.2,61.7,2.782,2.746,2.785,2.663,6.93,109.7,38.0,56.9,1008.36,-24.43,0.39,1.97,30.4,50.4,41.7,0,no_anomaly,0.0,0,0,0,0,26.8467034,80.9461981,5.0,0.0
2024-01-02T12:11:02.400Z,MISSION_0069,24,0,takeoff,SITE_LKN_010,26.8467009,80.9461992,5.0,39.34,1.38,0.087,0.13,-3.4729,1.1674,39.3396,0.94106,-0.03196,-0.00061,0.33672,0.0561,0.0427,-9.8278,0.3731,-0.3749,0.2926,0.1837,3,17,0.82,1.14,0.34,24.593,18.43,93.1,46.6,20480.0,7134,7391,7248,7096,62.8,63.9,59.1,62.5,2.841,2.691,2.949,2.735,6.62,112.0,37.5,57.1,1008.42,-26.44,-2.27,1.0,36.3,47.6,43.7,0,no_anomaly,0.0,0,0,0,0,26.8467009,80.9461992,5.0,0.0
2024-01-02T12:11:02.500Z,MISSION_0069,25,0,takeoff,SITE_LKN_010,26.8467023,80.9461955,5.0,38.87,1.465,0.048,0.57,-1.2894,-1.2357,38.8737,0.94293,-0.00702,-0.01391,0.33261,0.1468,0.0119,-9.7861,0.1215,-0.9338,-0.0204,0.2196,3,17,0.66,0.72,0.32,24.566,17.37,93.0,46.2,20460.0,7461,7237,7152,7414,64.8,61.1,63.8,66.6,2.894,2.943,2.567,2.839,7.83,101.3,37.3,56.3,1007.61,-33.68,-0.38,1.39,32.3,45.3,40.2,0,no_anomaly,0.0,0,0,0,0,26.8467023,80.9461955,5.0,0.0
2024-01-02T12:11:02.600Z,MISSION_0069,26,0,takeoff,SITE_LKN_010,26.846701,80.9461916,5.0,38.68,2.019,0.185,0.95,4.0512,1.8517,38.6798,0.94305,0.028,0.02694,0.33038,-0.1257,-0.1046,-9.745,-0.2051,0.2569,0.3617,0.3196,3,20,0.75,0.69,0.2,24.637,22.46,92.9,45.7,20441.0,7372,7395,7144,7326,63.8,62.8,65.1,62.9,2.852,2.99,2.832,2.854,7.24,118.5,37.2,56.8,1008.21,-30.63,-1.71,1.54,33.3,50.3,37.4,0,no_anomaly,0.0,0,0,0,0,26.846701,80.9461916,5.0,0.0
2024-01-02T12:11:02.700Z,MISSION_0069,27,0,takeoff,SITE_LKN_010,26.8467014,80.9461891,5.0,39.85,2.239,0.107,1.22,-2.7566,-0.881,39.8543,0.93989,-0.01999,-0.01542,0.34054,-0.0898,-0.0934,-9.8028,0.3099,0.0768,0.1088,0.2082,3,12,0.63,0.76,0.31,24.641,21.3,92.8,46.0,20421.0,7275,7407,7546,7469,61.1,63.4,59.8,60.6,2.939,2.822,3.269,2.902,6.54,112.7,37.9,56.8,1008.2,-28.87,0.39,1.28,32.2,48.6,42.5,0,no_anomaly,0.0,0,0,0,0,26.8467014,80.9461891,5.0,0.0
2024-01-02T12:11:02.800Z,MISSION_0069,28,0,takeoff,SITE_LKN_010,26.8467058,80.9461823,5.0,41.46,1.789,0.08,2.08,0.9942,-0.8856,41.46,0.93517,0.01085,-0.00416,0.354,0.0868,0.0489,-9.8689,-0.2376,-0.3282,-0.4741,0.2314,3,17,0.69,0.78,0.3,24.572,19.92,92.7,45.7,20402.0,7404,7282,7491,7406,62.8,63.3,66.2,64.6,2.5,2.792,2.909,2.873,6.97,109.8,37.5,57.3,1008.04,-35.62,-0.39,1.13,31.4,43.0,40.4,0,no_anomaly,0.0,0,0,0,0,26.8467058,80.9461823,5.0,0.0
2024-01-02T12:11:02.900Z,MISSION_0069,29,0,takeoff,SITE_LKN_010,26.8467033,80.9461766,5.0,39.77,1.202,0.128,2.63,4.3838,-3.2616,39.7721,0.93893,0.04562,-0.01374,0.34079,-0.2073,0.0398,-9.8285,-0.2893,-0.3549,-0.5349,0.2695,3,11,0.85,0.67,0.42,24.638,16.08,92.6,46.2,20383.0,7095,7715,7101,6981,63.7,60.8,61.0,63.1,2.777,2.942,2.654,2.813,7.07,111.3,37.7,56.2,1008.12,-31.96,1.61,1.24,30.2,45.8,40.4,0,no_anomaly,0.0,0,0,0,0,26.8467033,80.9461766,5.0,0.0
2024-01-02T12:11:03.000Z,MISSION_0069,30,0,takeoff,SITE_LKN_010,26.8467043,80.9461779,5.0,42.36,1.713,0.087,2.5,-1.3092,-1.2183,42.3585,0.93238,-0.00681,-0.01404,0.36113,0.159,-0.0449,-9.826,-0.6104,-0.0816,0.2456,0.2129,3,10,0.71,0.99,0.25,24.658,18.71,92.6,45.4,20363.0,7523,7240,7202,7030,63.1,59.7,61.9,61.3,2.863,2.554,2.867,2.697,7.54,96.1,37.8,55.9,1008.11,-27.16,-0.63,1.39,37.1,46.1,43.9,0,no_anomaly,0.0,0,0,0,0,26.8467043,80.9461779,5.0,0.0
2024-01-02T12:11:03.100Z,MISSION_0069,31,0,takeoff,SITE_LKN_010,26.8467002,80.9461795,5.0,43.03,1.581,0.109,2.28,0.3214,-0.5467,43.0265,0.93031,0.00436,-0.00341,0.36672,0.032,0.0032,-9.8752,0.0447,-0.5771,0.0089,0.2267,3,14,0.55,0.83,0.31,24.646,19.64,92.5,45.3,20344.0,7418,7187,7285,7287,63.4,63.1,63.1,63.8,2.741,2.663,2.628,2.64,7.34,110.6,37.3,56.6,1008.17,-28.33,-0.07,2.21,34.3,42.3,38.1,0,no_anomaly,0.0,0,0,0,0,26.8467002,80.9461795,5.0,0.0
2024-01-02T12:11:03.200Z,MISSION_0069,32,0,takeoff,SITE_LKN_010,26.8466975,80.9461859,5.0,39.58,1.33,0.06,1.59,-2.3181,-4.1015,39.5781,0.9404,-0.00691,-0.04051,0.33759,0.0922,-0.0639,-9.7832,-0.0611,-0.2924,0.24,0.1459,3,17,0.79,0.82,0.24,24.602,22.57,92.4,45.5,20325.0,7132,7248,6991,7376,61.2,64.0,60.3,59.7,2.802,2.993,2.667,2.806,6.0,106.5,37.6,56.3,1008.02,-29.36,1.26,1.72,33.6,47.0,38.9,0,no_anomaly,0.0,0,0,0,0,26.8466975,80.9461859,5.0,0.0
2024-01-02T12:11:03.300Z,MISSION_0069,33,0,takeoff,SITE_LKN_010,26.8466977,80.946185,5.0,38.12,1.974,0.108,1.69,6.4246,-0.4143,38.1237,0.94361,0.05414,0.01489,0.32626,0.1935,-0.0861,-9.7374,-0.4411,-0.44,0.3057,0.2671,3,11,0.78,0.87,0.27,24.605,18.6,92.3,45.6,20305.0,7470,7311,7279,7223,63.0,62.5,61.0,62.1,2.767,2.581,2.726,2.925,7.09,97.9,37.6,57.0,1008.45,-28.76,0.24,1.17,34.0,48.9,41.9,0,no_anomaly,0.0,0,0,0,0,26.8466977,80.946185,5.0,0.0
2024-01-02T12:11:03.400Z,MISSION_0069,34,0,takeoff,SITE_LKN_010,26.8466944,80.9461819,5.0,37.97,2.014,0.043,2.11,-5.349,-0.3844,37.9694,0.94462,-0.04303,-0.01835,0.32481,-0.2221,-0.0068,-9.7865,-0.0896,0.0231,0.0912,0.159,3,17,0.62,0.85,0.26,24.658,19.8,92.2,45.6,20286.0,7386,7155,7519,7524,65.3,65.3,60.4,63.9,2.766,2.77,2.972,2.739,5.57,114.7,37.7,57.4,1008.27,-36.23,0.53,1.44,30.0,47.8,39.5,0,no_anomaly,0.0,0,0,0,0,26.8466944,80.9461819,5.0,0.0
2024-01-02T12:11:03.500Z,MISSION_0069,35,0,takeoff,SITE_LKN_010,26.8466934,80.9461826,5.0,39.43,1.958,0.139,2.08,2.7178,-0.127,39.4289,0.94111,0.0227,0.00696,0.33726,-0.2014,-0.022,-9.7336,0.3953,0.023,0.1127,0.2236,3,20,0.58,0.79,0.23,24.606,15.29,92.1,45.2,20267.0,7047,7411,7391,7389,63.2,61.4,65.3,66.3,2.775,2.903,2.884,3.026,6.08,108.5,37.7,57.2,1007.97,-29.47,1.15,1.9,35.3,48.5,39.6,0,no_anomaly,0.0,0,0,0,0,26.8466934,80.9461826,5.0,0.0
2024-01-02T12:11:03.600Z,MISSION_0069,36,0,takeoff,SITE_LKN_010,26.8466896,80.9461796,5.0,39.18,1.63,0.019,2.55,3.6834,-2.8003,39.1842,0.94107,0.03846,-0.01224,0.33579,0.0811,0.0246,-9.8525,0.5553,0.0442,-0.2646,0.2453,3,18,0.69,0.88,0.21,24.689,18.67,92.0,45.8,20247.0,7279,7251,7292,7192,69.7,60.5,64.5,58.8,2.925,2.921,2.784,2.946,6.55,102.8,37.6,57.8,1008.28,-34.26,-0.74,1.33,33.0,49.9,38.2,0,no_anomaly,0.0,0,0,0,0,26.8466896,80.9461796,5.0,0.0
2024-01-02T12:11:03.700Z,MISSION_0069,37,0,takeoff,SITE_LKN_010,26.846692,80.9461822,5.0,38.72,1.673,0.073,2.17,-0.8453,-4.2292,38.7174,0.94288,0.00528,-0.03725,0.33099,0.0523,-0.069,-9.7916,0.2795,0.8793,-0.404,0.2569,3,19,0.83,0.76,0.36,24.611,23.13,91.9,46.3,20228.0,7339,6969,7256,7316,63.5,60.3,62.5,61.9,2.679,2.84,3.016,2.834,7.26,106.5,37.3,57.2,1008.04,-29.27,-1.76,1.75,33.8,52.4,42.1,0,no_anomaly,0.0,0,0,0,0,26.846692,80.9461822,5.0,0.0
2024-01-02T12:11:03.800Z,MISSION_0069,38,0,takeoff,SITE_LKN_010,26.8466924,80.9461829,5.0,39.93,1.979,0.119,2.09,0.2896,-1.8412,39.9315,0.93976,0.00786,-0.01424,0.34145,0.2375,-0.0255,-9.8336,0.4621,0.5679,0.0904,0.1608,3,15,0.82,0.94,0.32,24.602,16.76,91.9,45.9,20208.0,7428,7137,7005,7248,62.6,63.8,59.3,61.5,2.876,2.717,2.962,2.564,6.3,112.9,37.4,56.4,1008.18,-36.69,1.43,1.0,36.3,52.4,39.4,0,no_anomaly,0.0,0,0,0,0,26.8466924,80.9461829,5.0,0.0
2024-01-02T12:11:03.900Z,MISSION_0069,39,0,takeoff,SITE_LKN_010,26.8466943,80.9461821,5.0,42.25,1.522,0.022,2.1,-0.4816,-1.1568,42.2523,0.93275,-0.00028,-0.01093,0.36036,0.1953,-0.007,-9.8083,-0.5732,-0.9895,0.3187,0.238,3,18,0.77,0.79,0.31,24.643,22.28,91.8,45.4,20189.0,7256,6989,7270,7053,61.8,63.5,60.4,61.3,2.809,2.86,2.856,2.859,6.34,104.7,37.6,56.8,1008.35,-30.89,0.73,1.28,34.1,45.2,38.7,0,no_anomaly,0.0,0,0,0,0,26.8466943,80.9461821,5.0,0.0
2024-01-02T12:11:04.000Z,MISSION_0069,40,0,takeoff,SITE_LKN_010,26.8466961,80.9461806,5.0,41.34,0.587,0.078,2.2,-2.8394,-4.5925,41.3398,0.93494,-0.00902,-0.04621,0.35166,0.255,-0.0765,-9.8152,0.5311,-0.3246,0.066,0.1728,3,13,0.67,0.79,0.35,24.574,20.42,91.7,46.0,20170.0,7516,7177,7303,7113,62.0,61.8,59.5,63.0,2.941,2.944,2.61,2.914,7.08,112.4,38.0,56.8,1008.44,-30.58,-0.09,1.76,34.9,47.8,42.3,0,no_anomaly,0.0,0,0,0,0,26.8466961,80.9461806,5.0,0.0
2024-01-02T12:11:04.100Z,MISSION_0069,41,0,takeoff,SITE_LKN_010,26.8466924,80.9461842,5.0,40.59,1.058,0.108,1.95,4.3372,-2.682,40.5931,0.93667,0.04359,-0.00881,0.34737,-0.1808,-0.0285,-9.7851,0.1184,0.0121,0.1324,0.2705,3,18,0.5,0.85,0.2,24.57,21.92,91.6,46.2,20150.0,7337,7322,7236,7226,58.2,62.0,60.0,63.8,2.874,2.866,2.829,2.982,6.33,109.4,38.3,56.8,1008.13,-30.23,-1.03,1.53,30.4,49.9,42.0,0,no_anomaly,0.0,0,0,0,0,26.8466924,80.9461842,5.0,0.0
2024-01-02T12:11:04.200Z,MISSION_0069,42,0,takeoff,SITE_LKN_010,26.8466947,80.9461804,5.0,42.4,0.566,-0.0,2.26,-0.8937,-1.277,42.4035,0.93226,-0.00324,-0.01321,0.36154,-0.0957,0.0409,-9.7257,-0.9901,-0.9656,-0.2049,0.2144,3,16,0.83,0.6,0.41,24.66,21.49,91.5,46.1,20131.0,7355,7282,7110,7409,63.6,61.4,63.7,62.4,3.002,3.016,2.954,2.537,6.58,100.6,37.6,56.6,1007.77,-30.81,1.09,2.04,32.7,49.4,37.9,0,no_anomaly,0.0,0,0,0,0,26.8466947,80.9461804,5.0,0.0
2024-01-02T12:11:04.300Z,MISSION_0069,43,0,takeoff,SITE_LKN_010,26.8466943,80.9461803,5.0,42.39,0.638,0.149,2.28,1.6672,-1.709,42.3856,0.93209,0.01895,-0.00864,0.36163,0.0908,-0.0334,-9.7649,-0.4619,0.5362,0.0869,0.3078,3,13,0.68,1.08,0.33,24.451,20.65,91.4,46.7,20112.0,7314,7582,7360,7637,61.1,60.9,61.9,62.3,2.895,2.784,2.456,2.924,6.8,112.6,38.0,56.5,1008.19,-29.56,-1.31,1.45,32.5,48.4,37.3,0,no_anomaly,0.0,0,0,0,0,26.8466943,80.9461803,5.0,0.0
2024-01-02T12:11:04.400Z,MISSION_0069,44,0,takeoff,SITE_LKN_010,26.846695,80.9461833,5.0,43.43,0.779,0.125,1.94,-2.1891,-2.4821,43.4255,0.92882,-0.00973,-0.02718,0.36941,0.3615,-0.0591,-9.8691,-0.0721,-0.2461,-0.2417,0.2692,3,18,0.67,0.91,0.33,24.55,20.22,91.3,45.0,20092.0,7145,7559,7178,7305,63.5,59.3,60.9,62.7,2.665,2.599,2.67,2.697,7.18,109.8,38.1,56.9,1008.43,-35.85,0.8,1.31,32.2,44.8,37.3,0,no_anomaly,0.0,0,0,0,0,26.846695,80.9461833,5.0,0.0
2024-01-02T12:11:04.500Z,MISSION_0069,45,0,takeoff,SITE_LKN_010,26.8466918,80.9461904,5.0,42.7,0.922,0.113,1.41,-2.4678,-0.5431,42.7029,0.93118,-0.01833,-0.01225,0.3639,0.107,0.0589,-9.9302,0.0972,-0.4092,-0.3747,0.3139,3,14,0.67,1.1,0.28,24.598,18.34,91.2,45.3,20073.0,7532,7299,7146,7358,66.3,63.9,59.2,61.5,2.754,2.608,2.815,2.634,6.92,106.2,37.7,56.1,1008.42,-30.14,1.42,1.66,28.4,44.6,34.2,0,no_anomaly,0.0,0,0,0,0,26.8466918,80.9461904,5.0,0.0
2024-01-02T12:11:04.600Z,MISSION_0069,46,0,takeoff,SITE_LKN_010,26.8466942,80.946185,5.0,39.44,1.384,-0.022,1.79,-3.9391,-1.2641,39.4412,0.94086,-0.02863,-0.02197,0.33686,-0.1111,0.0775,-9.8075,-0.0394,0.4918,0.0421,0.2001,3,13,0.62,0.9,0.34,24.664,18.15,91.2,45.8,20054.0,7238,7394,7344,7119,62.5,65.7,66.6,61.9,2.694,2.814,2.786,2.74,6.68,111.0,37.6,57.1,1008.2,-35.23,0.63,1.26,35.4,46.9,38.2,0,no_anomaly,0.0,0,0,0,0,26.8466942,80.946185,5.0,0.0
2024-01-02T12:11:04.700Z,MISSION_0069,47,0,takeoff,SITE_LKN_010,26.8466946,80.946189,5.0,39.04,1.48,0.251,1.36,-2.5475,-3.5973,39.0446,0.94205,-0.01045,-0.037,0.33327,0.0829,0.0044,-9.8199,-0.0923,-0.5835,0.0385,0.2905,3,19,0.7,0.96,0.3,24.572,15.13,91.1,45.8,20034.0,7288,7476,7321,7218,63.0,63.7,65.3,65.9,2.754,2.684,2.763,2.707,7.17,116.7,37.7,56.3,1008.12,-34.54,-0.27,1.35,29.3,49.1,40.8,0,no_anomaly,0.0,0,0,0,0,26.8466946,80.946189,5.0,0.0
2024-01-02T12:11:04.800Z,MISSION_0069,48,0,takeoff,SITE_LKN_010,26.8466967,80.9461897,5.0,42.01,1.607,0.07,1.2,2.7291,-4.3181,42.01,0.9323,0.03572,-0.02663,0.35893,-0.3094,-0.0402,-9.8228,0.2285,-0.5597,0.326,0.2515,3,18,0.8,0.94,0.36,24.639,16.21,91.0,46.4,20015.0,7082,7160,7193,7518,66.2,61.5,69.0,63.5,2.582,2.661,2.752,3.088,6.98,116.2,37.5,56.8,1008.11,-33.07,-0.34,1.28,32.9,40.9,38.2,0,no_anomaly,0.0,0,0,0,0,26.8466967,80.9461897,5.0,0.0
2024-01-02T12:11:04.900Z,MISSION_0069,49,0,takeoff,SITE_LKN_010,26.8466989,80.9461849,5.0,42.7,1.744,0.127,1.69,1.1093,-3.1204,42.7013,0.93088,0.01893,-0.02183,0.36417,-0.3372,0.0479,-9.845,0.429,-0.4722,0.113,0.2206,3,19,0.77,0.75,0.48,24.59,19.64,90.9,46.6,19995.0,7311,7412,7270,7395,62.9,65.5,65.5,64.5,2.801,2.946,2.623,2.771,6.3,104.1,37.4,56.0,1008.02,-29.75,-0.61,1.66,30.7,49.4,37.8,0,no_anomaly,0.0,0,0,0,0,26.8466989,80.9461849,5.0,0.0
2024-01-02T12:11:05.000Z,MISSION_0069,50,0,takeoff,SITE_LKN_010,26.8466942,80.9461813,5.0,41.85,1.693,0.107,2.18,1.7478,-3.0475,41.849,0.93347,0.02374,-0.01939,0.35735,-0.0292,0.046,-9.778,0.0243,0.18,0.1064,0.2042,3,17,0.77,1.08,0.35,24.6,19.7,90.8,45.7,19976.0,7217,7170,7035,7048,60.5,63.9,61.6,63.2,2.797,2.787,2.796,2.813,6.94,110.8,38.0,57.2,1007.89,-26.89,-1.58,1.02,30.7,50.5,38.2,0,no_anomaly,0.0,0,0,0,0,26.8466942,80.9461813,5.0,0.0
2024-01-02T12:11:05.100Z,MISSION_0069,51,0,takeoff,SITE_LKN_010,26.8466935,80.9461823,5.0,40.39,2.337,0.196,2.1,-1.0995,-4.0404,40.387,0.93802,0.00317,-0.03639,0.34464,0.0915,-0.0125,-9.8845,-0.0049,0.1418,0.2723,0.1723,3,14,0.77,0.95,0.27,24.571,17.92,90.7,45.7,19957.0,7326,7322,7369,7502,66.9,63.7,63.7,61.1,2.653,2.614,2.895,2.886,6.89,113.6,37.5,57.2,1008.73,-33.78,-0.47,1.43,33.9,47.3,42.2,0,no_anomaly,0.0,0,0,0,0,26.8466935,80.9461823,5.0,0.0
2024-01-02T12:11:05.200Z,MISSION_0069,52,0,takeoff,SITE_LKN_010,26.8466947,80.9461835,5.0,38.1,1.748,0.088,1.93,4.4818,-1.0222,38.0953,0.94437,0.03987,0.00434,0.32642,-0.0825,-0.0162,-9.8501,-0.1837,0.2556,-0.3707,0.2208,3,16,0.89,0.87,0.29,24.577,13.52,90.6,45.5,19937.0,7505,7390,7425,7238,63.0,59.1,63.6,62.8,2.879,2.647,2.517,2.814,7.75,116.5,37.4,57.2,1008.1,-30.43,-1.48,1.9,30.9,46.4,41.6,0,no_anomaly,0.0,0,0,0,0,26.8466947,80.9461835,5.0,0.0
2024-01-02T12:11:05.300Z,MISSION_0069,53,0,takeoff,SITE_LKN_010,26.8466945,80.9461822,5.0,38.83,2.576,0.135,2.07,2.3455,-1.2928,38.8257,0.94281,0.02305,-0.00384,0.3325,0.1297,-0.0676,-9.7119,0.4737,0.3855,0.3027,0.2235,3,20,0.62,0.8,0.3,24.649,24.25,90.5,45.8,19918.0,7497,7219,7284,7255,62.3,63.1,65.6,60.8,2.86,2.736,2.744,2.956,6.33,121.7,37.5,56.0,1008.52,-31.9,0.36,1.53,35.0,51.8,42.1,0,no_anomaly,0.0,0,0,0,0,26.8466945,80.9461822,5.0,0.0
2024-01-02T12:11:05.400Z,MISSION_0069,54,0,takeoff,SITE_LKN_010,26.8466917,80.9461848,5.0,37.82,2.717,0.13,1.93,1.7348,-2.7238,37.8197,0.94554,0.02202,-0.01758,0.32429,-0.0425,0.0364,-9.6996,-1.4941,0.862,0.6354,0.2231,3,19,0.75,0.94,0.39,24.53,22.23,90.4,46.1,19899.0,7228,7307,7181,7489,62.4,61.5,62.5,63.6,2.919,2.622,2.58,2.777,6.86,103.1,37.6,57.2,1008.01,-30.91,-0.04,1.05,31.5,49.8,41.6,0,no_anomaly,0.0,0,0,0,0,26.8466917,80.9461848,5.0,0.0
2024-01-02T12:11:05.500Z,MISSION_0069,55,0,takeoff,SITE_LKN_010,26.8466924,80.9461838,5.0,38.03,2.559,0.073,1.99,-2.8484,-3.4841,38.0316,0.94495,-0.01359,-0.03683,0.32486,-0.0787,-0.0143,-9.8534,0.5943,0.254,-0.2722,0.1965,3,10,0.59,0.97,0.2,24.546,23.01,90.4,46.1,19879.0,7244,7437,7207,7018,65.7,65.1,64.3,61.6,2.795,2.84,2.711,2.725,6.2,108.9,37.6,57.5,1008.06,-35.43,0.18,1.82,32.1,47.3,39.2,0,no_anomaly,0.0,0,0,0,0,26.8466924,80.9461838,5.0,0.0
2024-01-02T12:11:05.600Z,MISSION_0069,56,0,takeoff,SITE_LKN_010,26.8466894,80.9461853,5.0,37.18,2.913,-0.007,2.01,-0.6806,-2.0594,37.1826,0.94768,0.0001,-0.01893,0.31866,0.5665,0.0774,-9.714,0.1525,-0.4287,-0.2705,0.2514,3,20,0.72,0.79,0.29,24.503,22.51,90.3,45.9,19860.0,7419,7296,7200,7394,66.1,63.6,61.4,64.1,3.107,2.97,3.046,2.809,6.43,122.4,37.7,57.0,1008.24,-25.4,0.72,1.23,33.5,49.9,43.8,0,no_anomaly,0.0,0,0,0,0,26.8466894,80.9461853,5.0,0.0
2024-01-02T12:11:05.700Z,MISSION_0069,57,0,transit,SITE_LKN_010,26.8466847,80.946185,5.5,37.13,2.773,0.177,2.38,3.1578,-2.3778,37.1343,0.94721,0.03272,-0.01089,0.31877,-0.1639,-0.0604,-9.7086,-0.0579,-0.9696,0.7544,0.2788,3,15,0.64,0.76,0.26,24.572,14.5,90.2,45.8,19841.0,7303,7740,7552,7132,64.2,59.6,66.1,62.1,2.818,2.707,3.071,2.682,7.61,105.7,37.4,55.6,1008.19,-26.98,0.96,2.15,31.2,46.7,41.8,0,no_anomaly,0.0,0,0,0,0,26.8466847,80.946185,5.5,0.0
2024-01-02T12:11:05.800Z,MISSION_0069,58,0,transit,SITE_LKN_010,26.8466877,80.9461788,6.0,37.13,2.501,0.064,2.73,1.2658,-1.1546,37.1328,0.94781,0.01368,-0.00603,0.31847,0.0684,-0.0143,-9.8266,-0.3376,0.2155,-0.5909,0.2166,3,10,0.62,1.01,0.3,24.567,17.24,90.1,45.5,19821.0,7248,7173,7172,7487,60.6,64.0,67.1,61.9,2.807,2.9,3.003,2.652,6.7,112.1,37.8,57.6,1008.3,-30.21,-0.89,1.37,32.3,46.9,37.9,0,no_anomaly,0.0,0,0,0,0,26.8466877,80.9461788,6.0,0.0
2024-01-02T12:11:05.900Z,MISSION_0069,59,0,transit,SITE_LKN_010,26.8466865,80.9461791,6.5,37.02,2.15,0.126,2.77,2.2426,-1.6712,37.024,0.94788,0.02318,-0.00761,0.31768,0.0683,-0.0015,-9.7906,-0.0912,0.2427,0.033,0.2183,3,11,0.74,0.95,0.26,24.52,15.66,90.0,46.0,19802.0,7246,7291,7145,7325,63.2,63.5,64.2,58.2,2.768,2.881,3.025,2.698,6.78,102.4,37.8,56.6,1008.14,-30.11,1.3,1.14,33.0,49.3,37.6,0,no_anomaly,0.0,0,0,0,0,26.8466865,80.9461791,6.5,0.0
2024-01-02T12:11:06.000Z,MISSION_0069,60,0,transit,SITE_LKN_010,26.8466917,80.9461738,7.0,38.2,2.142,0.091,3.06,0.8262,-2.7294,38.2021,0.94459,0.0146,-0.02015,0.3273,-0.3248,0.0107,-9.8608,-0.566,-0.3486,0.0643,0.2595,3,19,0.69,0.75,0.25,24.532,17.96,89.9,46.1,19783.0,7488,7390,7249,7163,62.1,60.0,61.8,62.2,2.486,2.685,3.136,2.74,6.48,110.1,37.5,57.2,1007.82,-27.87,0.31,1.45,31.1,45.7,38.4,0,no_anomaly,0.0,0,0,0,0,26.8466917,80.9461738,7.0,0.0
2024-01-02T12:11:06.100Z,MISSION_0069,61,0,transit,SITE_LKN_010,26.8466873,80.9461673,7.5,38.33,2.073,0.174,3.9,-0.6332,-3.5459,38.3288,0.94417,0.00494,-0.03104,0.32796,0.1292,-0.0582,-9.7707,1.2337,0.2666,0.1272,0.1978,3,14,0.69,0.95,0.25,24.533,14.99,89.8,45.7,19763.0,7315,7241,7340,7094,63.7,60.3,63.7,62.8,2.717,2.928,2.855,2.948,6.42,115.8,37.6,57.0,1008.06,-28.88,-1.48,1.63,33.6,49.6,40.7,0,no_anomaly,0.0,0,0,0,0,26.8466873,80.9461673,7.5,0.0
2024-01-02T12:11:06.200Z,MISSION_0069,62,0,transit,SITE_LKN_010,26.8466863,80.9461614,8.0,38.78,2.078,0.154,4.56,-1.2372,-1.4484,38.7752,0.94321,-0.00599,-0.01551,0.33178,-0.0753,0.0986,-9.8772,-0.6749,-0.5056,-0.3131,0.2332,3,17,0.73,0.86,0.41,24.444,25.82,89.7,45.9,19744.0,7070,7146,7148,7217,61.2,65.6,61.5,64.3,2.578,2.756,3.175,2.954,6.5,103.9,37.6,58.4,1007.73,-30.19,1.11,1.17,31.5,44.7,40.2,0,no_anomaly,0.0,0,0,0,0,26.8466863,80.9461614,8.0,0.0
2024-01-02T12:11:06.300Z,MISSION_0069,63,0,transit,SITE_LKN_010,26.8466893,80.9461639,8.5,39.5,1.914,0.123,4.19,4.3625,-0.4862,39.5012,0.94043,0.03725,0.00887,0.33783,0.2144,-0.0394,-9.7416,0.057,0.1116,-0.3017,0.2481,3,11,0.59,0.84,0.2,24.516,18.05,89.7,46.5,19724.0,7072,7320,7135,7245,66.1,61.0,60.7,63.6,2.937,2.712,2.985,2.612,7.82,115.0,38.2,57.1,1008.29,-29.62,-0.09,1.53,32.3,49.6,42.3,0,no_anomaly,0.0,0,0,0,0,26.8466893,80.9461639,8.5,0.0
2024-01-02T12:11:06.400Z,MISSION_0069,64,0,transit,SITE_LKN_010,26.8466934,80.9461639,9.0,39.27,1.356,0.166,4.09,4.2752,-0.5498,39.2748,0.94111,0.03674,0.00802,0.336,-0.1434,0.1015,-9.7978,-0.7399,-0.1806,-0.1375,0.2475,3,11,0.81,0.88,0.36,24.481,23.36,89.6,44.9,19705.0,7242,7287,7378,7209,61.0,60.5,60.5,61.1,2.587,2.861,2.775,2.965,6.7,107.9,37.6,57.1,1008.35,-31.85,-1.83,1.57,32.7,51.8,39.4,0,no_anomaly,0.0,0,0,0,0,26.8466934,80.9461639,9.0,0.0
2024-01-02T12:11:06.500Z,MISSION_0069,65,0,transit,SITE_LKN_010,26.8466947,80.9461631,9.5,39.65,1.479,0.114,4.15,-2.5693,-3.349,39.6466,0.94033,-0.01118,-0.03508,0.33827,0.2615,0.0199,-9.8947,0.0292,-0.41,0.2266,0.1815,3,19,0.79,0.7,0.33,24.525,14.47,89.5,45.7,19686.0,7278,7332,6971,7227,63.7,61.7,59.0,64.3,2.714,2.917,2.935,2.711,6.66,112.7,37.6,57.6,1008.25,-30.86,-0.67,1.25,31.7,48.2,36.9,0,no_anomaly,0.0,0,0,0,0,26.8466947,80.9461631,9.5,0.0
2024-01-02T12:11:06.600Z,MISSION_0069,66,0,transit,SITE_LKN_010,26.8466942,80.9461538,10.0,38.75,1.477,0.076,5.18,-4.8239,-1.0417,38.7452,0.94263,-0.03669,-0.02253,0.33104,-0.1648,0.0219,-9.7649,-1.5455,-0.5905,0.0282,0.2831,3,16,0.56,0.96,0.2,24.442,20.53,89.4,45.9,19666.0,7393,7398,7582,7171,60.1,62.2,62.0,61.0,2.774,2.891,2.648,2.714,7.2,110.3,37.9,57.3,1008.48,-34.82,2.37,1.36,33.3,43.9,41.2,0,no_anomaly,0.0,0,0,0,0,26.8466942,80.9461538,10.0,0.0
2024-01-02T12:11:06.700Z,MISSION_0069,67,0,transit,SITE_LKN_010,26.8466928,80.946157,10.5,38.67,1.543,0.101,4.85,-1.6329,-4.2451,38.6721,0.94302,-0.00117,-0.03966,0.33035,0.1159,0.0086,-9.7307,0.2027,-0.6846,0.1386,0.2814,3,15,0.7,0.95,0.27,24.588,18.98,89.3,46.0,19647.0,7231,7273,7154,7432,65.1,61.8,57.3,59.3,2.879,2.707,2.597,2.88,7.12,105.7,37.7,57.3,1008.58,-29.21,0.32,1.4,29.7,50.5,39.6,0,no_anomaly,0.0,0,0,0,0,26.8466928,80.946157,10.5,0.0
2024-01-02T12:11:06.800Z,MISSION_0069,68,0,transit,SITE_LKN_010,26.8466928,80.946156,11.0,38.17,1.665,0.09,4.96,3.9415,-2.5661,38.1735,0.94398,0.03981,-0.00991,0.32745,0.1994,0.0024,-9.7948,1.0713,-0.469,-0.0538,0.321,3,12,0.62,0.97,0.29,24.53,10.48,89.2,45.3,19628.0,7526,7184,7172,7488,64.7,64.1,66.1,61.6,2.91,2.741,2.648,2.383,6.15,107.5,37.9,56.8,1008.2,-31.46,-0.31,1.0,34.0,51.6,39.6,0,no_anomaly,0.0,0,0,0,0,26.8466928,80.946156,11.0,0.0
2024-01-02T12:11:06.900Z,MISSION_0069,69,0,transit,SITE_LKN_010,26.8466913,80.9461602,11.5,39.86,1.704,0.2,4.54,-1.1419,-3.261,39.8612,0.93978,0.00033,-0.03014,0.34046,-0.1018,-0.0067,-9.7903,-0.9511,1.1566,-0.2257,0.2757,3,12,0.7,0.65,0.38,24.466,14.68,89.1,46.0,19608.0,7379,7221,7561,7589,61.7,62.4,63.0,66.4,2.881,2.656,2.607,2.906,7.15,106.2,37.4,57.3,1008.14,-25.77,0.24,1.4,33.8,43.9,39.7,0,no_anomaly,0.0,0,0,0,0,26.8466913,80.9461602,11.5,0.0
2024-01-02T12:11:07.000Z,MISSION_0069,70,0,transit,SITE_LKN_010,26.8466916,80.9461581,12.0,40.77,2.053,0.097,4.75,-1.1552,-1.5843,40.7652,0.9373,-0.00463,-0.01647,0.34811,0.2476,-0.008,-9.8364,0.5965,-0.3097,0.1355,0.2479,3,10,0.69,0.79,0.26,24.512,20.03,89.0,45.5,19589.0,7334,7373,7233,7377,62.1,63.6,64.8,63.0,2.908,2.531,2.615,2.76,7.28,114.5,37.5,56.7,1008.33,-31.81,0.14,1.27,30.7,50.9,39.4,0,no_anomaly,0.0,0,0,0,0,26.8466916,80.9461581,12.0,0.0
2024-01-02T12:11:07.100Z,MISSION_0069,71,0,transit,SITE_LKN_010,26.8466964,80.9461643,12.5,42.35,1.907,0.123,4.0,2.417,-3.7014,42.3543,0.93153,0.03132,-0.02249,0.36162,0.2509,0.005,-9.8505,-0.0505,0.8633,-0.1758,0.3165,3,19,0.71,0.91,0.3,24.567,23.63,89.0,46.7,19570.0,7226,7302,7294,7342,64.1,62.2,64.0,63.8,2.863,2.771,2.946,2.715,6.25,115.3,37.9,57.2,1007.97,-30.54,-1.87,1.21,32.7,45.9,37.8,0,no_anomaly,0.0,0,0,0,0,26.8466964,80.9461643,12.5,0.0
2024-01-02T12:11:07.200Z,MISSION_0069,72,0,transit,SITE_LKN_010,26.8466946,80.9461636,13.0,44.1,2.19,0.18,4.09,-1.9313,0.397,44.1025,0.92669,-0.01692,-0.00312,0.37543,0.1396,-0.0719,-9.8639,-0.4236,-0.2941,-0.0272,0.238,3,20,0.84,1.01,0.41,24.48,23.69,88.9,45.9,19550.0,7188,7452,7203,7278,62.5,63.7,63.5,65.0,2.649,2.583,2.714,2.605,6.41,117.9,37.6,57.6,1008.08,-28.63,0.77,1.46,34.7,47.0,42.5,0,no_anomaly,0.0,0,0,0,0,26.8466946,80.9461636,13.0,0.0
2024-01-02T12:11:07.300Z,MISSION_0069,73,0,transit,SITE_LKN_010,26.8467001,80.9461613,13.5,42.55,2.51,0.142,4.31,-2.4322,-2.0693,42.5523,0.93162,-0.01322,-0.02452,0.36237,-0.3068,-0.0617,-9.7956,-0.3472,0.0236,-0.5166,0.1949,3,19,0.81,0.85,0.47,24.492,17.4,88.8,46.8,19531.0,7326,7549,7327,7442,59.2,61.6,64.3,60.1,2.784,2.616,2.658,2.974,6.98,115.0,37.6,56.7,1008.07,-33.4,-1.06,1.95,31.6,41.8,37.7,0,no_anomaly,0.0,0,0,0,0,26.8467001,80.9461613,13.5,0.0
2024-01-02T12:11:07.400Z,MISSION_0069,74,0,transit,SITE_LKN_010,26.8466973,80.9461653,14.0,41.63,1.99,0.118,3.88,-3.7607,0.1396,41.633,0.93421,-0.0311,-0.01052,0.35522,-0.1538,-0.1442,-9.8101,0.8229,-0.7655,0.5529,0.3522,3,14,0.7,1.07,0.4,24.518,16.53,88.7,45.0,19511.0,7141,7223,7302,7245,64.2,64.9,63.7,61.0,2.686,2.86,2.96,2.734,6.57,112.4,37.5,57.1,1008.37,-29.9,-0.42,1.47,30.2,50.0,38.0,0,no_anomaly,0.0,0,0,0,0,26.8466973,80.9461653,14.0,0.0
2024-01-02T12:11:07.500Z,MISSION_0069,75,0,transit,SITE_LKN_010,26.8466885,80.9461678,14.5,42.61,1.867,0.113,3.81,-2.3215,-1.9943,42.6062,0.93147,-0.01255,-0.02357,0.36284,-0.0631,0.0042,-9.8187,0.6755,-0.0239,-0.1891,0.2113,3,13,0.84,0.63,0.27,24.545,16.13,88.6,45.2,19492.0,7523,7141,7382,7430,64.6,63.9,67.4,59.8,2.428,2.606,2.812,2.739,7.12,110.7,37.7,56.3,1008.35,-29.32,-2.1,1.75,34.0,48.6,41.4,0,no_anomaly,0.0,0,0,0,0,26.8466885,80.9461678,14.5,0.0
2024-01-02T12:11:07.600Z,MISSION_0069,76,0,transit,SITE_LKN_010,26.8466892,80.9461669,15.0,41.03,1.877,0.115,3.88,0.2183,-1.6249,41.0306,0.93647,0.00675,-0.01261,0.35045,-0.6484,-0.0631,-9.805,-0.3234,0.0089,-0.3336,0.2522,3,16,0.72,1.13,0.32,24.517,23.92,88.5,45.7,19473.0,7461,7407,7417,7425,64.3,60.8,64.4,60.9,2.566,3.088,2.805,2.889,7.31,109.2,37.4,57.3,1008.09,-33.77,-0.69,1.47,30.0,45.4,41.3,0,no_anomaly,0.0,0,0,0,0,26.8466892,80.9461669,15.0,0.0
2024-01-02T12:11:07.700Z,MISSION_0069,77,0,transit,SITE_LKN_010,26.8466856,80.9461673,15.5,42.71,2.223,0.13,3.98,-1.9911,-0.5185,42.7101,0.93122,-0.01453,-0.01054,0.36401,-0.1376,-0.0633,-9.7712,-0.1699,0.8663,-0.2188,0.2965,3,10,0.7,0.6,0.3,24.503,20.0,88.4,45.7,19453.0,7351,7148,7436,7424,61.4,64.9,60.5,63.5,2.689,2.653,2.583,2.988,6.56,105.9,37.9,56.6,1008.1,-28.22,-0.61,1.0,34.5,47.5,40.7,0,no_anomaly,0.0,0,0,0,0,26.8466856,80.9461673,15.5,0.0
2024-01-02T12:11:07.800Z,MISSION_0069,78,0,transit,SITE_LKN_010,26.8466846,80.9461663,16.0,43.68,2.365,0.12,4.12,10.3316,-2.6892,43.6808,0.92341,0.09225,0.01179,0.37237,-0.1447,-0.0316,-9.7722,-0.1574,0.3055,0.688,0.2545,3,15,0.75,0.99,0.37,24.53,17.73,88.3,45.5,19434.0,7599,7344,7382,7416,64.4,63.2,62.4,66.0,2.62,2.676,2.627,2.766,7.7,107.5,38.0,56.4,1007.86,-30.04,-0.93,1.79,31.1,45.3,41.5,0,no_anomaly,0.0,0,0,0,0,26.8466846,80.9461663,16.0,0.0
2024-01-02T12:11:07.900Z,MISSION_0069,79,0,transit,SITE_LKN_010,26.8466842,80.9461651,16.5,45.91,2.442,0.087,4.27,1.758,-3.8789,45.907,0.91998,0.02731,-0.02518,0.39019,-0.0349,-0.048,-9.8034,0.2171,-0.8555,0.3071,0.3023,3,14,0.67,0.85,0.24,24.459,18.4,88.2,46.5,19415.0,7416,7537,7682,7293,61.4,63.1,63.8,59.3,2.99,2.457,2.99,2.789,6.92,105.7,37.4,56.8,1008.37,-28.79,0.85,1.72,34.0,44.0,42.1,0,no_anomaly,0.0,0,0,0,0,26.8466842,80.9461651,16.5,0.0
2024-01-02T12:11:08.000Z,MISSION_0069,80,0,transit,SITE_LKN_010,26.8466884,80.9461654,17.0,45.02,2.433,0.143,4.06,2.4681,-2.2301,45.0169,0.92327,0.02734,-0.00973,0.38305,0.0304,0.0272,-9.8141,-0.4715,0.2095,-0.0174,0.3227,3,20,0.71,0.83,0.29,24.466,24.37,88.2,46.1,19395.0,7414,7293,7288,7372,63.6,59.7,66.7,61.7,2.922,2.69,2.391,2.799,7.17,103.8,37.9,56.7,1007.64,-27.25,0.29,1.85,32.3,45.6,41.7,0,no_anomaly,0.0,0,0,0,0,26.8466884,80.9461654,17.0,0.0
2024-01-02T12:11:08.100Z,MISSION_0069,81,0,transit,SITE_LKN_010,26.8466875,80.9461631,17.5,46.65,2.865,0.078,4.34,-1.1353,-1.6781,46.6508,0.91818,-0.0033,-0.01737,0.39576,0.0469,0.0003,-9.8727,0.0071,-0.567,0.0838,0.2563,3,13,0.61,0.86,0.2,24.469,18.98,88.1,45.2,19376.0,7176,7317,7427,7467,64.1,63.3,60.4,65.7,2.811,2.843,2.633,2.838,7.14,108.3,37.9,57.5,1007.98,-25.84,0.32,1.76,34.4,48.6,37.9,0,no_anomaly,0.0,0,0,0,0,26.8466875,80.9461631,17.5,0.0
2024-01-02T12:11:08.200Z,MISSION_0069,82,0,transit,SITE_LKN_010,26.846691,80.9461672,18.0,48.39,2.767,0.104,3.79,-1.5138,-4.1641,48.393,0.91166,0.00285,-0.03855,0.40912,-0.0491,-0.0126,-9.7599,0.7905,-0.5912,-0.333,0.1946,3,10,0.67,0.85,0.21,24.434,19.76,88.0,45.9,19357.0,7347,7356,7002,7330,58.3,64.2,63.7,64.3,2.847,2.58,2.9,2.55,6.88,114.2,37.5,56.9,1008.01,-28.13,-1.41,1.0,36.1,53.0,42.3,0,no_anomaly,0.0,0,0,0,0,26.846691,80.9461672,18.0,0.0
2024-01-02T12:11:08.300Z,MISSION_0069,83,0,transit,SITE_LKN_010,26.8466923,80.9461703,18.5,50.32,2.67,0.068,3.42,3.5634,-4.072,50.3197,0.90365,0.04322,-0.01893,0.42567,-0.1513,0.0776,-9.8231,0.4073,0.9825,0.0549,0.1864,3,12,0.7,0.84,0.31,24.555,17.32,87.9,46.8,19337.0,7556,7212,7422,7418,61.7,65.9,62.7,64.2,2.856,3.026,2.79,3.09,6.88,103.4,37.4,57.2,1008.07,-30.08,0.7,1.42,32.2,48.9,40.4,0,no_anomaly,0.0,0,0,0,0,26.8466923,80.9461703,18.5,0.0
2024-01-02T12:11:08.400Z,MISSION_0069,84,0,transit,SITE_LKN_010,26.8466856,80.9461768,19.0,49.14,2.708,0.041,3.04,1.2918,-2.1362,49.1395,0.90915,0.018,-0.01227,0.41589,0.1315,0.0562,-9.7179,0.1027,0.3516,-0.1099,0.3098,3,16,0.62,0.6,0.27,24.444,18.96,87.8,45.6,19318.0,7116,7685,7205,7247,64.9,65.1,64.4,64.3,2.711,2.898,3.03,2.919,6.24,121.4,37.5,56.4,1007.95,-33.09,-0.51,1.11,31.3,52.5,39.8,0,no_anomaly,0.0,0,0,0,0,26.8466856,80.9461768,19.0,0.0
2024-01-02T12:11:08.500Z,MISSION_0069,85,0,transit,SITE_LKN_010,26.8466945,80.9461739,19.5,51.08,3.052,0.162,2.97,1.3144,0.3578,51.0806,0.90223,0.009,0.00776,0.43108,-0.0825,-0.0176,-9.8303,0.2994,-0.2345,0.0168,0.2169,3,20,0.61,1.08,0.22,24.479,18.08,87.7,45.8,19298.0,7351,7211,7340,7763,65.1,62.8,62.2,64.3,2.79,2.565,2.988,2.719,7.19,101.5,38.2,57.3,1008.39,-38.59,0.8,1.83,31.1,45.1,40.9,0,no_anomaly,0.0,0,0,0,0,26.8466945,80.9461739,19.5,0.0
2024-01-02T12:11:08.600Z,MISSION_0069,86,0,transit,SITE_LKN_010,26.8466917,80.9461724,20.0,51.13,3.291,0.116,3.21,-1.2035,-1.5929,51.1312,0.90202,-0.00348,-0.01707,0.43135,-0.186,-0.0368,-9.7872,0.5564,-0.1066,-0.3586,0.2565,3,18,0.65,0.86,0.27,24.396,20.37,87.6,46.0,19279.0,7476,6901,7551,7136,65.4,62.5,62.3,64.9,2.698,2.568,2.69,2.924,6.33,102.5,37.5,56.6,1008.19,-31.29,-0.08,1.33,29.9,47.7,38.9,0,no_anomaly,0.0,0,0,0,0,26.8466917,80.9461724,20.0,0.0
2024-01-02T12:11:08.700Z,MISSION_0069,87,0,transit,SITE_LKN_010,26.8466891,80.9461743,20.5,53.28,3.158,0.093,3.11,-0.2222,-3.0634,53.2834,0.89353,0.01025,-0.02476,0.4482,-0.1642,0.0415,-9.8459,1.3973,-0.6039,0.7145,0.2366,3,13,0.85,0.99,0.29,24.478,18.9,87.5,46.5,19260.0,7261,7389,7289,7499,62.3,63.5,65.8,64.8,2.908,2.729,2.742,2.548,7.35,116.2,37.7,56.4,1008.25,-29.69,-0.06,1.42,34.6,42.3,38.2,0,no_anomaly,0.0,0,0,0,0,26.8466891,80.9461743,20.5,0.0
2024-01-02T12:11:08.800Z,MISSION_0069,88,0,transit,SITE_LKN_010,26.8466869,80.9461756,20.8,55.78,3.25,0.027,3.08,-3.319,-0.8699,55.7762,0.88357,-0.02205,-0.02025,0.46734,-0.196,0.0318,-9.8341,0.1477,0.0657,0.1188,0.1907,3,14,0.6,0.97,0.33,24.413,19.85,87.5,46.1,19240.0,7625,7818,7329,7411,65.2,63.6,60.3,63.3,2.954,2.653,3.229,2.699,6.76,99.2,38.1,57.3,1008.25,-29.93,-0.62,1.51,32.5,47.6,40.1,0,no_anomaly,0.0,0,0,0,0,26.8466869,80.9461756,20.8,0.0
2024-01-02T12:11:08.900Z,MISSION_0069,89,0,transit,SITE_LKN_010,26.8466863,80.9461743,20.8,57.2,3.375,0.144,3.24,5.9749,-2.5548,57.1994,0.87602,0.0564,0.00539,0.47894,-0.3425,0.0099,-9.7595,-0.1441,-0.571,0.1237,0.2421,3,13,0.85,0.78,0.33,24.413,22.24,87.4,45.0,19221.0,7189,7366,7496,7464,59.3,62.2,63.2,66.4,2.864,2.869,2.768,2.595,7.09,107.8,37.6,57.0,1007.86,-31.18,0.6,1.27,32.4,43.4,40.2,0,no_anomaly,0.0,0,0,0,0,26.8466863,80.9461743,20.8,0.0
2024-01-02T12:11:09.000Z,MISSION_0069,90,0,transit,SITE_LKN_010,26.8466856,80.9461689,20.8,59.03,3.266,0.087,3.81,1.541,-2.3705,59.0267,0.86984,0.02189,-0.01138,0.49272,-0.227,0.0455,-9.7637,0.7192,0.3465,0.58,0.2223,3,15,0.93,0.9,0.26,24.44,18.47,87.3,45.1,19202.0,7502,7223,7441,7316,65.0,62.9,62.5,60.7,2.77,2.592,2.874,2.992,6.83,102.8,37.7,56.8,1008.05,-28.45,0.79,1.02,31.8,42.6,37.1,0,no_anomaly,0.0,0,0,0,0,26.8466856,80.9461689,20.8,0.0
2024-01-02T12:11:09.100Z,MISSION_0069,91,0,transit,SITE_LKN_010,26.8466849,80.9461701,20.8,62.08,2.895,0.08,3.73,-6.6939,-0.811,62.0755,0.85556,-0.04638,-0.03615,0.51436,0.3683,0.1061,-9.7701,0.7437,0.1505,-0.2249,0.2632,3,18,0.8,0.87,0.28,24.464,20.19,87.2,46.1,19182.0,7546,7331,7232,7386,63.1,59.5,64.3,58.8,2.755,2.899,2.825,2.896,7.28,109.3,37.6,56.7,1008.15,-33.5,0.38,1.51,33.0,44.0,38.5,0,no_anomaly,0.0,0,0,0,0,26.8466849,80.9461701,20.8,0.0
2024-01-02T12:11:09.200Z,MISSION_0069,92,0,transit,SITE_LKN_010,26.8466851,80.9461685,20.8,61.5,2.928,0.062,3.88,-3.7897,-5.0022,61.4969,0.85887,-0.00609,-0.05437,0.50926,-0.0361,-0.0094,-9.8164,0.4719,-0.3819,0.0541,0.2,3,11,0.65,0.72,0.36,24.437,20.46,87.1,47.0,19163.0,7177,7274,7122,7496,63.3,61.2,61.5,62.7,2.664,2.792,2.862,2.795,7.61,108.6,37.4,56.8,1008.02,-30.08,-0.03,1.53,34.8,46.2,43.7,0,no_anomaly,0.0,0,0,0,0,26.8466851,80.9461685,20.8,0.0
2024-01-02T12:11:09.300Z,MISSION_0069,93,0,transit,SITE_LKN_010,26.8466881,80.9461693,20.8,61.56,3.506,0.067,3.66,-1.149,0.0992,61.5569,0.8591,-0.00906,-0.00439,0.5117,0.0868,-0.0963,-9.7486,0.2539,0.335,0.17,0.2442,3,18,0.65,1.06,0.28,24.428,22.07,87.0,45.7,19144.0,7372,7426,7224,7158,65.0,65.1,59.8,62.2,2.898,2.714,2.92,2.868,6.23,114.0,37.9,57.6,1008.51,-36.18,0.26,1.51,33.9,51.3,41.4,0,no_anomaly,0.0,0,0,0,0,26.8466881,80.9461693,20.8,0.0
2024-01-02T12:11:09.400Z,MISSION_0069,94,0,transit,SITE_LKN_010,26.8466864,80.9461684,20.8,63.68,3.416,0.098,3.83,-1.7095,0.3703,63.6782,0.84941,-0.01438,-0.00512,0.52751,-0.2213,-0.0539,-9.8045,0.028,0.3269,-0.2952,0.2328,3,17,0.81,1.02,0.44,24.528,19.7,86.9,45.9,19124.0,7204,7371,7550,7276,57.8,62.7,65.5,59.7,2.723,2.718,2.652,2.978,6.24,114.5,37.6,57.6,1007.92,-23.17,-0.33,1.52,32.7,53.2,41.9,0,no_anomaly,0.0,0,0,0,0,26.8466864,80.9461684,20.8,0.0
2024-01-02T12:11:09.500Z,MISSION_0069,95,0,transit,SITE_LKN_010,26.8466818,80.9461718,20.8,64.22,3.789,0.032,3.73,-6.2984,-3.8402,64.2249,0.84623,-0.02872,-0.05752,0.52892,0.1281,0.0289,-9.8393,0.6687,0.2176,0.0058,0.2829,3,14,0.7,0.91,0.43,24.509,22.93,86.8,45.9,19105.0,7315,7333,7370,7340,61.9,62.1,62.8,60.0,2.751,2.679,2.454,3.055,7.29,105.1,37.9,56.6,1008.21,-29.47,-0.15,1.63,35.6,44.3,41.8,0,no_anomaly,0.0,0,0,0,0,26.8466818,80.9461718,20.8,0.0
2024-01-02T12:11:09.600Z,MISSION_0069,96,0,transit,SITE_LKN_010,26.8466802,80.9461746,20.8,62.03,4.07,0.104,3.58,-3.5215,-2.7654,62.0256,0.85678,-0.0139,-0.0365,0.5142,-0.0045,0.0077,-9.7849,0.0488,0.4661,-0.0724,0.2888,3,15,0.6,0.93,0.2,24.521,18.26,86.8,44.8,19085.0,7365,7327,7309,7310,59.8,61.5,59.8,61.9,2.829,2.562,2.865,3.197,7.05,111.2,37.9,57.0,1008.03,-28.84,1.45,1.62,33.9,44.4,39.1,0,no_anomaly,0.0,0,0,0,0,26.8466802,80.9461746,20.8,0.0
2024-01-02T12:11:09.700Z,MISSION_0069,97,0,transit,SITE_LKN_010,26.8466782,80.9461707,20.8,61.75,4.228,0.096,4.07,-0.3115,-2.3118,61.7541,0.85812,0.00802,-0.01871,0.51304,0.1608,0.0379,-9.7703,0.7518,0.2714,0.1591,0.2424,3,10,0.74,0.8,0.32,24.45,13.82,86.7,45.3,19066.0,7234,7630,7408,7178,64.5,64.0,60.1,63.5,2.996,2.591,2.983,2.598,6.18,102.6,38.0,56.1,1008.01,-31.71,0.52,1.33,33.9,47.0,43.6,0,no_anomaly,0.0,0,0,0,0,26.8466782,80.9461707,20.8,0.0
2024-01-02T12:11:09.800Z,MISSION_0069,98,0,transit,SITE_LKN_010,26.8466773,80.9461668,20.8,62.92,4.375,0.066,4.47,2.5347,-2.1598,62.9244,0.85241,0.0287,-0.00453,0.52207,-0.1747,0.047,-9.7616,0.3086,0.7247,-0.3959,0.2645,3,18,0.78,0.99,0.31,24.474,18.44,86.6,46.5,19047.0,7459,7186,7569,7407,62.9,65.2,63.8,64.1,2.891,2.609,2.828,2.907,6.88,116.9,37.7,57.0,1008.31,-30.12,1.09,1.55,32.7,51.8,40.7,0,no_anomaly,0.0,0,0,0,0,26.8466773,80.9461668,20.8,0.0
2024-01-02T12:11:09.900Z,MISSION_0069,99,0,transit,SITE_LKN_010,26.8466772,80.9461676,20.8,61.53,4.019,0.095,4.41,1.0139,-0.8174,61.5285,0.85919,0.01125,-0.0016,0.51153,-0.1423,0.0327,-9.7488,-0.7157,0.3816,-0.1058,0.2055,3,12,0.58,0.65,0.23,24.402,20.49,86.5,45.8,19027.0,7534,7433,7384,7394,62.9,65.9,61.7,64.9,2.711,2.758,2.716,2.647,6.1,107.6,37.9,57.5,1007.75,-31.56,0.58,1.58,34.2,45.3,41.5,0,no_anomaly,0.0,0,0,0,0,26.8466772,80.9461676,20.8,0.0
2024-01-02T12:11:10.000Z,MISSION_0069,100,0,transit,SITE_LKN_010,26.846686,80.9461651,20.8,61.46,4.175,0.089,4.19,0.8461,-6.6609,61.4572,0.8579,0.03602,-0.04617,0.51046,-0.1665,-0.0186,-9.873,-1.0308,-0.0812,-0.1153,0.2398,3,19,0.7,0.91,0.35,24.457,23.31,86.4,46.5,19008.0,7276,7512,7386,7120,60.9,64.1,63.6,63.1,2.814,2.527,2.788,2.944,7.25,110.4,37.5,56.5,1008.01,-31.05,0.59,1.04,33.7,51.5,42.8,0,no_anomaly,0.0,0,0,0,0,26.846686,80.9461651,20.8,0.0
2024-01-02T12:11:10.100Z,MISSION_0069,101,0,transit,SITE_LKN_010,26.8466865,80.9461664,20.8,61.54,4.285,0.033,4.03,7.4907,-4.4808,61.5353,0.85545,0.07604,-0.00013,0.51227,0.0965,-0.0073,-9.7771,-0.3292,-0.0555,-0.5159,0.2126,3,12,1.0,1.25,0.38,24.447,18.57,86.3,45.3,18989.0,7324,7589,7203,7202,63.1,63.0,63.5,60.8,2.612,2.841,2.492,2.821,6.68,111.4,37.8,57.0,1008.33,-31.72,-0.83,1.8,32.2,49.6,38.0,0,no_anomaly,0.0,0,0,0,0,26.8466865,80.9461664,20.8,0.0
2024-01-02T12:11:10.200Z,MISSION_0069,102,0,transit,SITE_LKN_010,26.8466877,80.9461654,20.8,60.61,4.318,0.09,4.09,3.4835,-1.2327,60.6137,0.86272,0.03167,0.00605,0.50465,-0.2563,-0.0266,-9.7641,-0.2477,0.6425,0.4855,0.2552,3,14,0.69,0.99,0.2,24.492,14.93,86.2,46.1,18969.0,7289,7172,7153,7246,65.3,62.8,63.2,63.5,2.884,2.943,2.962,3.004,6.76,117.1,37.6,57.2,1008.02,-35.16,-1.74,1.75,32.6,51.6,41.0,0,no_anomaly,0.0,0,0,0,0,26.8466877,80.9461654,20.8,0.0
2024-01-02T12:11:10.300Z,MISSION_0069,103,0,transit,SITE_LKN_010,26.8466851,80.946169,20.8,58.55,4.782,0.157,3.83,-5.6162,-0.5468,58.5518,0.87133,-0.0404,-0.02811,0.48822,0.0581,0.0355,-9.7589,-0.8068,0.3339,0.0094,0.2128,3,19,0.62,0.93,0.37,24.477,11.19,86.1,46.2,18950.0,7230,7139,7262,7341,62.9,64.1,62.2,66.2,2.595,2.862,2.862,2.747,6.48,113.1,37.4,57.3,1008.01,-32.41,1.36,1.0,31.9,46.8,38.1,0,no_anomaly,0.0,0,0,0,0,26.8466851,80.946169,20.8,0.0
2024-01-02T12:11:10.400Z,MISSION_0069,104,0,transit,SITE_LKN_010,26.846685,80.946166,20.8,59.39,5.346,0.124,4.14,6.7327,-0.0246,59.3917,0.86716,0.05111,0.0289,0.49455,0.0846,-0.0054,-9.8076,0.7196,0.0537,-0.345,0.1889,3,13,0.74,1.23,0.3,24.416,14.53,86.0,46.6,18931.0,7148,7329,7225,7466,64.8,67.0,63.2,62.4,2.764,2.789,2.992,2.96,6.25,110.7,37.3,55.9,1008.17,-26.6,-0.94,1.91,32.5,49.1,39.1,0,no_anomaly,0.0,0,0,0,0,26.846685,80.946166,20.8,0.0
2024-01-02T12:11:10.500Z,MISSION_0069,105,0,transit,SITE_LKN_010,26.8466843,80.9461653,20.8,59.55,5.328,0.151,4.24,1.8554,-4.0198,59.5491,0.86706,0.03146,-0.0224,0.49671,-0.2022,-0.0257,-9.8448,0.2526,0.2333,0.6143,0.2476,3,15,0.67,0.85,0.34,24.452,20.76,86.0,44.5,18911.0,7349,7295,7210,7187,66.3,63.4,62.3,63.3,2.986,2.794,2.635,2.981,6.65,117.2,38.0,57.0,1008.28,-25.35,-0.24,1.47,29.2,48.6,40.3,0,no_anomaly,0.0,0,0,0,0,26.8466843,80.9461653,20.8,0.0
2024-01-02T12:11:10.600Z,MISSION_0069,106,0,transit,SITE_LKN_010,26.8466866,80.9461687,20.8,60.32,5.289,0.043,3.79,-2.6499,-3.8687,60.3176,0.8643,-0.00303,-0.04079,0.5013,-0.0253,-0.1479,-9.7527,-0.4848,0.0135,-0.4023,0.3132,3,19,0.78,0.93,0.36,24.392,24.27,85.9,45.9,18892.0,7307,7414,7417,7301,62.9,60.8,64.4,63.7,2.764,3.108,2.933,2.861,7.02,116.6,37.6,57.4,1008.43,-28.1,0.52,1.38,31.1,51.1,37.3,0,no_anomaly,0.0,0,0,0,0,26.8466866,80.9461687,20.8,0.0
2024-01-02T12:11:10.700Z,MISSION_0069,107,0,transit,SITE_LKN_010,26.846687,80.946172,20.8,58.33,5.206,0.036,3.43,-3.0782,0.1436,58.3277,0.8729,-0.02406,-0.01199,0.48716,-0.0616,0.0533,-9.8632,-0.7092,-0.2801,-0.0599,0.2826,3,20,0.7,1.12,0.24,24.444,16.67,85.8,45.8,18873.0,7384,7079,7434,7377,63.0,61.8,63.9,62.6,2.81,2.813,2.957,2.811,6.49,119.0,37.6,56.5,1008.1,-29.78,-0.96,1.15,31.8,48.1,39.4,0,no_anomaly,0.0,0,0,0,0,26.846687,80.946172,20.8,0.0
2024-01-02T12:11:10.800Z,MISSION_0069,108,0,transit,SITE_LKN_010,26.8466847,80.9461695,20.8,54.19,5.79,0.114,3.8,3.9562,-3.465,54.1901,0.88884,0.04448,-0.01118,0.45592,0.388,0.0025,-9.7832,0.3142,-0.003,-0.2465,0.2894,3,15,0.79,0.74,0.26,24.429,21.58,85.7,46.1,18853.0,7557,7352,7353,7350,64.2,60.8,62.8,62.0,2.772,2.565,2.853,2.847,6.99,115.2,37.8,56.7,1008.3,-24.86,1.16,1.61,35.2,42.9,41.8,0,no_anomaly,0.0,0,0,0,0,26.8466847,80.9461695,20.8,0.0
2024-01-02T12:11:10.900Z,MISSION_0069,109,0,transit,SITE_LKN_010,26.8466803,80.9461739,20.8,54.33,6.099,0.087,3.64,1.6965,-1.0329,54.3331,0.88949,0.01729,-0.00126,0.45663,-0.123,-0.002,-9.8331,0.146,0.3766,0.1263,0.3346,3,10,0.67,0.73,0.3,24.362,20.77,85.6,45.9,18834.0,7091,7199,7264,7545,62.1,63.2,61.8,59.9,2.627,2.656,2.578,3.017,6.62,112.3,37.6,56.8,1008.05,-33.99,-0.53,1.46,34.6,44.9,41.7,0,no_anomaly,0.0,0,0,0,0,26.8466803,80.9461739,20.8,0.0
2024-01-02T12:11:11.000Z,MISSION_0069,110,0,transit,SITE_LKN_010,26.8466817,80.9461716,20.8,51.99,5.948,0.162,3.76,4.9883,-3.4532,51.9936,0.89698,0.05229,-0.00799,0.43889,-0.1427,-0.0123,-9.8854,0.0577,0.678,0.4507,0.2223,3,14,0.74,0.82,0.23,24.43,15.74,85.5,44.6,18814.0,7206,7414,7293,7436,59.2,64.0,66.4,62.7,2.86,2.793,2.519,2.721,7.1,111.8,37.5,58.2,1008.15,-34.14,-0.5,1.68,35.0,46.7,42.7,0,no_anomaly,0.0,0,0,0,0,26.8466817,80.9461716,20.8,0.0
2024-01-02T12:11:11.100Z,MISSION_0069,111,0,transit,SITE_LKN_010,26.8466799,80.9461736,20.8,53.41,6.008,0.162,3.69,0.8269,-2.6542,53.4147,0.89298,0.01685,-0.01745,0.44945,-0.2612,-0.0193,-9.8273,-0.1282,0.327,0.5952,0.2047,3,13,0.57,1.06,0.22,24.421,20.18,85.4,46.4,18795.0,7335,7586,7318,7208,63.8,64.5,62.6,63.1,2.823,2.816,2.689,2.622,7.27,118.6,37.9,56.4,1008.22,-28.53,-0.05,1.55,32.3,47.2,39.4,0,no_anomaly,0.0,0,0,0,0,26.8466799,80.9461736,20.8,0.0
2024-01-02T12:11:11.200Z,MISSION_0069,112,0,transit,SITE_LKN_010,26.8466818,80.9461774,20.8,54.36,6.164,0.166,3.23,0.42,-1.5647,54.3618,0.88946,0.0095,-0.01047,0.4568,-0.2047,0.1254,-9.8478,-0.0294,-0.6839,0.1707,0.2493,3,15,0.8,0.94,0.32,24.413,24.17,85.3,45.1,18776.0,7593,7426,6863,7385,63.3,64.8,63.2,65.7,2.839,2.996,2.668,2.755,6.57,107.0,37.5,57.0,1008.01,-32.54,0.15,1.3,30.1,49.7,39.8,0,no_anomaly,0.0,0,0,0,0,26.8466818,80.9461774,20.8,0.0
2024-01-02T12:11:11.300Z,MISSION_0069,113,1,transit,SITE_LKN_010,26.8466831,80.9461718,20.8,55.97,5.773,0.043,3.66,5.1021,-1.2126,55.9676,0.88193,0.04426,0.01155,0.46915,-0.0161,-0.0036,-9.8705,-0.2416,0.2451,-0.1418,0.2153,3,16,0.73,0.98,0.37,24.407,18.42,85.3,45.3,18756.0,7194,7379,7545,7467,61.5,60.4,63.9,62.2,2.934,2.834,2.652,2.676,6.64,104.7,38.2,57.0,1008.19,-33.31,-0.51,2.03,33.8,43.4,41.4,0,no_anomaly,0.0,0,0,0,0,26.8466831,80.9461718,20.8,0.0
2024-01-02T12:11:11.400Z,MISSION_0069,114,1,transit,SITE_LKN_010,26.8466798,80.9461754,20.8,55.53,6.254,0.11,3.54,10.7378,-2.4886,55.5272,0.87984,0.09285,0.02444,0.46547,-0.3129,0.0457,-9.7278,0.1232,0.0678,0.452,0.2217,3,11,0.78,1.0,0.38,24.46,25.0,85.2,46.1,18737.0,7349,7487,7410,7296,64.2,62.4,62.9,65.0,2.863,2.887,2.821,2.842,7.59,107.1,37.5,57.0,1008.21,-29.22,0.63,1.24,31.6,52.9,41.4,0,no_anomaly,0.0,0,0,0,0,26.8466798,80.9461754,20.8,0.0
2024-01-02T12:11:11.500Z,MISSION_0069,115,1,transit,SITE_LKN_010,26.8466777,80.9461753,20.8,54.24,5.939,-0.002,3.7,-1.3703,-0.257,54.2426,0.88999,-0.00962,-0.00745,0.45582,0.0778,-0.0018,-9.7529,-0.3422,0.3291,0.0768,0.1564,3,16,0.68,1.05,0.2,24.501,20.49,85.1,46.4,18718.0,7287,7347,7253,7167,61.9,62.2,63.5,61.3,2.606,2.613,2.637,2.909,7.29,112.1,37.5,58.0,1008.22,-30.58,0.25,2.14,32.8,43.6,40.4,0,no_anomaly,0.0,0,0,0,0,26.8466777,80.9461753,20.8,0.0
2024-01-02T12:11:11.600Z,MISSION_0069,116,1,transit,SITE_LKN_010,26.8466795,80.9461797,20.8,55.56,5.674,0.073,3.21,5.0244,-1.1256,55.5575,0.88366,0.04335,0.01175,0.46597,-0.3858,0.0416,-9.8837,0.2854,-0.9699,-0.0627,0.2551,3,14,0.54,1.03,0.2,24.426,23.74,85.0,46.1,18698.0,7112,7119,7380,7382,63.0,69.6,62.3,63.5,2.696,2.816,2.85,2.995,7.19,105.2,37.9,55.9,1008.1,-33.48,2.41,1.0,31.9,47.4,41.3,0,no_anomaly,0.0,0,0,0,0,26.8466795,80.9461797,20.8,0.0
2024-01-02T12:11:11.700Z,MISSION_0069,117,1,transit,SITE_LKN_010,26.8466831,80.9461797,20.8,55.38,5.927,0.131,2.94,5.5993,-0.0665,55.3813,0.8844,0.04352,0.02218,0.46417,0.1334,-0.0339,-9.8374,0.4632,0.0407,-0.6834,0.2507,3,12,0.77,1.16,0.29,24.337,23.79,84.9,46.1,18679.0,7280,7308,7243,7532,63.3,64.6,61.3,62.9,2.852,2.663,2.878,2.448,7.09,106.9,37.6,57.8,1008.07,-32.68,0.87,2.05,32.3,46.9,42.3,0,no_anomaly,0.0,0,0,0,0,26.8466831,80.9461797,20.8,0.0
2024-01-02T12:11:11.800Z,MISSION_0069,118,1,transit,SITE_LKN_010,26.8466869,80.9461765,20.8,55.83,5.711,0.029,2.99,0.24,-4.713,55.8337,0.88284,0.0211,-0.03535,0.46787,-0.0281,0.0518,-9.7369,-0.0609,-0.1605,-0.4019,0.2895,3,12,0.83,1.12,0.42,24.407,19.62,84.8,45.1,18660.0,7423,7163,7175,7168,62.4,62.8,59.9,61.0,2.808,2.586,2.664,2.928,6.83,111.4,37.9,57.3,1008.54,-28.32,-2.19,1.25,35.4,52.4,40.3,0,no_anomaly,0.0,0,0,0,0,26.8466869,80.9461765,20.8,0.0
2024-01-02T12:11:11.900Z,MISSION_0069,119,1,transit,SITE_LKN_010,26.8466851,80.9461739,20.8,52.89,5.682,0.096,3.34,2.2375,-1.9819,52.892,0.8949,0.02518,-0.00679,0.44551,0.2765,0.0396,-9.7932,-0.3162,-0.0135,0.254,0.239,3,11,0.71,1.05,0.2,24.437,24.37,84.7,46.1,18640.0,7455,7030,7275,7413,62.4,62.2,65.5,63.0,2.532,3.014,2.75,2.631,5.62,106.6,37.4,55.9,1008.12,-29.99,-0.93,1.38,29.9,43.5,39.7,0,no_anomaly,0.0,0,0,0,0,26.8466851,80.9461739,20.8,0.0
2024-01-02T12:11:12.000Z,MISSION_0069,120,1,transit,SITE_LKN_010,26.8466873,80.9461726,20.8,50.99,5.58,0.115,3.36,3.391,-0.0314,50.9867,0.90224,0.02682,0.01249,0.43022,0.2184,-0.0089,-9.798,0.0357,0.6911,0.2956,0.2799,3,14,0.68,1.03,0.22,24.402,22.34,84.6,46.7,18621.0,7204,7391,7448,7276,61.2,62.2,61.8,60.9,3.07,2.798,2.782,2.694,7.33,110.3,37.5,56.4,1008.01,-34.35,1.36,1.69,32.8,49.6,37.6,0,no_anomaly,0.0,0,0,0,0,26.8466873,80.9461726,20.8,0.0
2024-01-02T12:11:12.100Z,MISSION_0069,121,1,transit,SITE_LKN_010,26.8466853,80.946173,20.8,50.87,5.662,0.149,3.43,5.7048,-1.2106,50.8726,0.90167,0.04947,0.01184,0.42943,-0.1236,-0.0533,-9.8516,-0.7711,0.0645,0.1087,0.195,3,12,0.65,0.85,0.2,24.285,21.68,84.6,45.6,18601.0,7402,7338,7192,7297,64.1,62.8,60.4,61.5,2.735,3.04,2.64,2.65,6.49,111.8,37.8,57.0,1008.37,-28.09,0.56,1.4,33.1,50.2,40.4,0,no_anomaly,0.0,0,0,0,0,26.8466853,80.946173,20.8,0.0
2024-01-02T12:11:12.200Z,MISSION_0069,122,1,transit,SITE_LKN_010,26.8466854,80.946171,20.8,49.89,6.069,0.134,3.61,-9.2981,-2.9559,49.8943,0.9043,-0.06262,-0.05748,0.41836,0.1258,0.032,-9.7318,0.4512,-0.2174,0.1702,0.2506,3,10,0.81,0.87,0.43,24.434,17.53,84.5,46.2,18582.0,7525,7357,7341,7366,62.9,61.0,59.8,63.9,3.032,2.831,2.905,2.64,6.95,112.9,37.9,56.9,1007.96,-31.8,-0.4,1.82,30.7,44.0,39.0,0,no_anomaly,0.0,0,0,0,0,26.8466854,80.946171,20.8,0.0
2024-01-02T12:11:12.300Z,MISSION_0069,123,1,transit,SITE_LKN_010,26.8466836,80.9461696,20.8,50.51,5.347,0.126,3.85,1.5237,-2.5015,50.5137,0.90399,0.02133,-0.01407,0.4268,-0.181,-0.0235,-9.8459,-0.2291,-0.7809,0.6043,0.2517,3,13,0.65,1.04,0.27,24.403,20.99,84.4,46.3,18563.0,7149,7194,7334,7398,58.3,61.4,63.8,62.1,2.822,2.855,2.997,2.78,6.61,118.3,37.8,56.2,1008.15,-26.96,1.05,1.79,30.5,47.9,40.9,0,no_anomaly,0.0,0,0,0,0,26.8466836,80.9461696,20.8,0.0
2024-01-02T12:11:12.400Z,MISSION_0069,124,1,transit,SITE_LKN_010,26.8466846,80.9461734,20.8,52.48,5.325,0.082,3.43,-1.1829,-2.8039,52.4823,0.89674,0.00156,-0.02651,0.44177,0.2043,-0.0284,-9.8541,-0.6528,0.2251,0.4787,0.2105,3,16,0.62,1.0,0.28,24.372,24.42,84.3,46.0,18543.0,7500,7640,7566,7695,64.4,63.5,63.7,63.7,2.728,2.85,2.708,2.918,6.43,111.8,37.7,57.6,1008.36,-31.93,1.29,1.58,30.0,42.0,37.8,0,no_anomaly,0.0,0,0,0,0,26.8466846,80.9461734,20.8,0.0
2024-01-02T12:11:12.500Z,MISSION_0069,125,1,transit,SITE_LKN_010,26.8466871,80.9461715,20.8,50.94,5.383,0.087,3.48,5.3217,-3.027,50.9441,0.90098,0.05324,-0.00386,0.43056,0.2551,0.0225,-9.7827,-0.0311,-0.0877,-0.1004,0.2745,3,17,0.88,1.0,0.39,24.369,27.65,84.2,45.5,18524.0,6980,7465,7399,7741,64.0,59.9,65.1,60.4,2.696,2.953,2.908,2.344,6.23,105.4,37.5,56.8,1008.28,-30.62,-0.18,1.48,32.5,44.5,38.2,0,no_anomaly,0.0,0,0,0,0,26.8466871,80.9461715,20.8,0.0
2024-01-02T12:11:12.600Z,MISSION_0069,126,1,transit,SITE_LKN_010,26.8466877,80.9461694,20.8,50.02,5.446,0.086,3.67,-2.5884,-0.44,50.0162,0.90605,-0.01885,-0.01303,0.42256,0.0679,-0.0075,-9.8572,0.5424,-0.6846,0.4559,0.2862,3,12,0.94,0.9,0.43,24.372,17.45,84.1,45.3,18505.0,7291,7279,7182,7438,64.2,59.3,62.7,59.9,2.968,3.056,2.638,2.694,7.39,111.0,37.6,57.5,1008.26,-28.32,0.72,1.37,32.1,47.7,42.7,0,no_anomaly,0.0,0,0,0,0,26.8466877,80.9461694,20.8,0.0
2024-01-02T12:11:12.700Z,MISSION_0069,127,1,transit,SITE_LKN_010,26.8466896,80.9461696,20.8,48.21,5.25,0.08,3.58,-0.2141,-4.6089,48.2107,0.91209,0.01472,-0.03747,0.40802,0.1863,-0.0009,-9.7107,-0.1513,-0.1502,0.2727,0.2926,3,12,0.72,0.68,0.35,24.369,15.11,84.0,45.3,18485.0,7412,7214,7320,7448,64.5,64.2,60.2,64.3,2.632,2.978,2.691,2.746,7.29,112.5,37.7,56.9,1008.17,-32.39,1.13,1.52,34.5,44.7,38.4,0,no_anomaly,0.0,0,0,0,0,26.8466896,80.9461696,20.8,0.0
2024-01-02T12:11:12.800Z,MISSION_0069,128,1,transit,SITE_LKN_010,26.8466884,80.9461658,20.8,47.81,5.447,0.137,4.02,4.5562,-0.8778,47.8108,0.91334,0.03944,0.00911,0.40517,-0.1761,-0.0166,-9.8011,-0.3083,0.5981,0.1433,0.2089,3,20,0.78,1.09,0.21,24.306,19.41,83.9,46.0,18466.0,7376,7412,7272,7530,59.8,62.2,63.2,61.4,2.559,2.747,2.749,2.715,7.15,112.2,38.0,57.8,1007.99,-24.71,-0.16,1.27,33.8,45.6,39.5,0,no_anomaly,0.0,0,0,0,0,26.8466884,80.9461658,20.8,0.0
2024-01-02T12:11:12.900Z,MISSION_0069,129,1,transit,SITE_LKN_010,26.8466865,80.9461643,20.8,46.91,4.892,0.1,4.25,-8.4303,-3.8868,46.9072,0.91537,-0.05393,-0.06026,0.39441,0.18,0.0023,-9.8338,-0.0472,-0.7203,0.2317,0.2939,3,17,0.72,0.96,0.32,24.352,19.69,83.8,47.7,18447.0,7176,7607,7224,7302,62.4,65.7,64.6,60.5,2.939,2.889,2.845,2.726,6.22,110.8,37.6,56.3,1008.53,-33.11,-1.07,1.77,32.4,47.1,39.5,0,no_anomaly,0.0,0,0,0,0,26.8466865,80.9461643,20.8,0.0
