timestamp_utc,mission_id,frame_id,waypoint_id,inspection_phase,site_id,latitude_deg,longitude_deg,altitude_m,heading_deg,ground_speed_ms,vertical_speed_ms,distance_to_tower_m,roll_deg,pitch_deg,yaw_deg,quat_w,quat_x,quat_y,quat_z,accel_x_ms2,accel_y_ms2,accel_z_ms2,gyro_x_rads,gyro_y_rads,gyro_z_rads,vibration_level,gps_fix_type,gps_satellite_count,gps_hdop,gps_vdop,position_error_m,battery_voltage_v,battery_current_a,battery_remaining_pct,battery_temp_c,battery_capacity_mah,motor_fl_rpm,motor_fr_rpm,motor_rl_rpm,motor_rr_rpm,motor_fl_temp_c,motor_fr_temp_c,motor_rl_temp_c,motor_rr_temp_c,motor_fl_thrust_n,motor_fr_thrust_n,motor_rl_thrust_n,motor_rr_thrust_n,wind_speed_ms,wind_dir_deg,air_temp_c,humidity_pct,pressure_hpa,gimbal_pitch_deg,gimbal_roll_deg,zoom_factor,ir_temp_min_c,ir_temp_max_c,ir_temp_avg_c,anomaly_detected,anomaly_class,anomaly_confidence,anomaly_bbox_x,anomaly_bbox_y,anomaly_bbox_w,anomaly_bbox_h,anomaly_gps_lat,anomaly_gps_lon,anomaly_gps_alt_m,ir_temp_delta_c
2024-07-07T07:09:00.000Z,MISSION_0042,0,0,takeoff,SITE_BLR_003,12.9716065,77.5945988,1.5,197.09,0.0,0.077,0.73,-1.7238,0.3825,197.0868,-0.14859,-0.00107,-0.01537,0.98878,-0.0123,0.0937,-9.7612,0.2098,0.7521,0.0546,0.1324,3,17,0.7,0.86,0.2,24.72,18.6,98.5,36.2,21673.0,7490,7668,7650,7311,49.3,51.5,52.7,50.9,2.924,3.061,2.547,3.122,1.66,317.8,27.2,73.8,1007.35,-27.64,-1.05,1.84,24.5,38.6,27.8,0,no_anomaly,0.0,0,0,0,0,12.9716065,77.5945988,1.5,0.0
2024-07-07T07:09:00.100Z,MISSION_0042,1,0,takeoff,SITE_BLR_003,12.971606,77.5946021,3.0,198.61,0.0,0.128,0.71,-1.4062,-1.6625,198.6111,-0.16149,0.0163,-0.00976,0.98669,-0.0495,-0.002,-9.7755,-0.4795,-0.0111,-0.3507,0.1679,3,16,0.87,0.76,0.49,24.703,14.58,98.5,34.9,21662.0,7496,7368,7573,7366,48.1,51.7,53.0,55.6,2.451,2.734,2.939,2.637,2.32,308.5,27.1,74.9,1007.36,-30.38,-1.89,1.64,23.6,42.6,32.1,0,no_anomaly,0.0,0,0,0,0,12.971606,77.5946021,3.0,0.0
2024-07-07T07:09:00.200Z,MISSION_0042,2,0,takeoff,SITE_BLR_003,12.9716071,77.5946048,4.5,198.47,0.077,0.082,0.95,-0.9962,-3.0784,198.47,-0.16019,0.02791,-0.00427,0.98668,0.1007,0.0282,-9.7741,-0.0128,0.4506,-0.1975,0.1727,3,20,0.65,0.79,0.2,24.783,17.14,98.4,34.6,21650.0,7513,7503,7328,7340,53.0,54.5,51.4,54.9,2.916,2.821,2.402,2.707,0.86,311.4,27.1,74.3,1007.2,-31.04,0.78,1.62,23.0,34.6,26.8,0,no_anomaly,0.0,0,0,0,0,12.9716071,77.5946048,4.5,0.0
2024-07-07T07:09:00.300Z,MISSION_0042,3,0,takeoff,SITE_BLR_003,12.9716068,77.5946002,5.0,200.29,0.0,0.078,0.76,0.1831,-1.3061,200.2904,-0.17615,0.01094,0.00358,0.9843,-0.0846,-0.0055,-9.8192,0.8097,-0.1605,0.3848,0.1269,3,14,0.76,0.84,0.3,24.707,19.01,98.4,35.1,21638.0,7722,7353,7636,7510,51.9,53.1,50.8,53.1,2.824,2.818,2.749,2.642,1.69,310.4,27.1,75.0,1007.33,-31.56,0.63,1.24,24.4,40.6,28.0,0,no_anomaly,0.0,0,0,0,0,12.9716068,77.5946002,5.0,0.0
2024-07-07T07:09:00.400Z,MISSION_0042,4,0,takeoff,SITE_BLR_003,12.9716079,77.5945999,5.0,199.78,0.0,0.141,0.88,0.0025,-0.6374,199.7842,-0.17179,0.00548,0.00098,0.98512,-0.0228,0.036,-9.772,1.3911,0.4309,0.0814,0.1023,3,15,0.64,0.68,0.2,24.738,15.2,98.3,36.0,21627.0,7564,7476,7383,7693,51.4,53.6,52.9,52.3,2.945,3.202,2.753,2.807,2.6,316.1,27.4,75.0,1007.37,-26.99,-0.04,1.67,23.3,35.2,31.3,0,no_anomaly,0.0,0,0,0,0,12.9716079,77.5945999,5.0,0.0
2024-07-07T07:09:00.500Z,MISSION_0042,5,0,takeoff,SITE_BLR_003,12.9716012,77.5946027,5.0,201.39,0.056,0.061,0.33,-1.5817,-3.3436,201.3945,-0.18513,0.03123,-0.00814,0.98218,0.0248,-0.0485,-9.7931,-0.6107,0.5982,0.0035,0.148,3,12,0.81,0.6,0.38,24.801,17.21,98.3,35.5,21615.0,7491,7603,7285,7381,52.8,51.4,53.5,55.0,2.711,2.772,2.798,2.752,0.59,321.5,27.5,74.6,1007.1,-27.29,0.21,1.21,23.9,39.5,31.7,0,no_anomaly,0.0,0,0,0,0,12.9716012,77.5946027,5.0,0.0
2024-07-07T07:09:00.600Z,MISSION_0042,6,0,takeoff,SITE_BLR_003,12.9716086,77.5946013,5.0,204.06,0.223,0.06,0.96,-1.9155,-1.1998,204.0626,-0.20823,0.01372,-0.01416,0.97788,-0.0944,-0.0659,-9.6867,-0.5467,-0.2792,0.3541,0.1608,3,13,0.78,0.96,0.36,24.695,14.36,98.2,35.8,21604.0,7545,7475,7151,7530,56.7,48.8,49.7,52.3,2.969,2.607,2.965,2.482,2.28,328.7,27.2,74.1,1007.38,-27.05,1.02,1.71,21.3,36.6,28.4,0,no_anomaly,0.0,0,0,0,0,12.9716086,77.5946013,5.0,0.0
2024-07-07T07:09:00.700Z,MISSION_0042,7,0,takeoff,SITE_BLR_003,12.9716064,77.5945997,5.0,204.94,0.34,-0.027,0.71,3.6205,-3.5932,204.9416,-0.2167,0.02378,0.0376,0.97523,0.0543,0.1306,-9.8628,-0.0576,0.598,0.1116,0.0355,3,10,0.57,0.9,0.2,24.708,20.42,98.1,35.2,21592.0,7474,7388,7482,7430,47.1,53.5,49.2,52.6,3.081,2.763,2.519,2.755,1.91,312.1,27.4,74.8,1007.45,-27.55,2.12,1.52,24.1,40.3,28.7,0,no_anomaly,0.0,0,0,0,0,12.9716064,77.5945997,5.0,0.0
2024-07-07T07:09:00.800Z,MISSION_0042,8,0,takeoff,SITE_BLR_003,12.9716077,77.5946018,5.0,208.89,0.0,0.14,0.88,-0.7974,-2.4425,208.8924,-0.24926,0.02237,-0.00142,0.96818,-0.067,0.0441,-9.8169,-0.6249,0.0289,-0.2122,0.1875,3,14,0.58,0.79,0.2,24.752,24.95,98.1,35.2,21580.0,7643,7632,7434,7528,50.6,49.7,50.9,54.7,2.78,2.634,2.698,2.654,2.4,317.5,27.3,75.0,1007.42,-28.86,0.19,1.7,24.6,38.1,28.6,0,no_anomaly,0.0,0,0,0,0,12.9716077,77.5946018,5.0,0.0
2024-07-07T07:09:00.900Z,MISSION_0042,9,0,takeoff,SITE_BLR_003,12.9716105,77.5945967,5.0,210.36,0.504,0.101,1.23,1.9765,-3.6905,210.3614,-0.26223,0.02656,0.02507,0.96432,-0.0481,-0.017,-9.7832,-0.872,-0.3605,0.3523,0.0831,3,15,0.77,0.72,0.26,24.763,16.71,98.0,35.1,21569.0,7420,7711,7556,7268,56.1,51.7,53.9,51.7,2.854,2.898,2.789,2.783,1.82,321.6,27.3,74.5,1007.43,-28.12,0.8,1.15,22.5,39.6,32.1,0,no_anomaly,0.0,0,0,0,0,12.9716105,77.5945967,5.0,0.0
2024-07-07T07:09:01.000Z,MISSION_0042,10,0,takeoff,SITE_BLR_003,12.9716112,77.5945977,5.0,209.8,0.574,0.085,1.28,1.4615,-2.2259,209.8003,-0.2573,0.01549,0.01732,0.96605,0.0316,-0.0013,-9.8306,0.781,-0.4711,-0.3011,0.2279,3,10,0.88,0.6,0.44,24.759,18.28,98.0,35.0,21557.0,7573,7702,7615,7352,55.0,51.4,49.6,53.5,2.716,2.583,2.731,2.747,1.86,322.2,27.0,75.4,1007.63,-33.53,1.64,1.86,24.8,36.4,28.5,0,no_anomaly,0.0,0,0,0,0,12.9716112,77.5945977,5.0,0.0
2024-07-07T07:09:01.100Z,MISSION_0042,11,0,takeoff,SITE_BLR_003,12.9716191,77.5945943,5.0,209.07,0.826,0.013,2.22,0.5733,-1.3112,209.0698,-0.25101,0.00982,0.00771,0.96791,-0.2017,0.0225,-9.8043,0.0406,-0.8242,-0.2132,0.1425,3,15,0.66,0.8,0.23,24.754,9.92,97.9,35.5,21545.0,7634,7618,7814,7618,51.6,53.4,54.8,51.8,2.689,3.027,2.839,2.722,1.94,332.4,26.9,75.3,1007.2,-31.34,-0.5,1.24,21.9,41.6,30.6,0,no_anomaly,0.0,0,0,0,0,12.9716191,77.5945943,5.0,0.0
2024-07-07T07:09:01.200Z,MISSION_0042,12,0,takeoff,SITE_BLR_003,12.9716193,77.5945931,5.0,208.45,1.193,0.107,2.28,-1.6171,-2.1477,208.4528,-0.24543,0.02163,-0.00907,0.96913,-0.0819,-0.0274,-9.848,-0.0316,-0.798,0.4101,0.201,3,10,0.81,1.02,0.33,24.646,21.52,97.9,35.7,21534.0,7564,7700,7521,7450,51.4,53.3,55.3,53.1,2.714,2.785,2.705,2.815,2.53,322.8,27.0,73.7,1006.93,-29.6,-1.76,1.22,21.0,36.9,33.1,0,no_anomaly,0.0,0,0,0,0,12.9716193,77.5945931,5.0,0.0
2024-07-07T07:09:01.300Z,MISSION_0042,13,0,takeoff,SITE_BLR_003,12.9716194,77.5945987,5.0,209.49,1.164,0.184,2.16,-0.1755,-0.8421,209.4942,-0.25453,0.0075,0.00039,0.96703,-0.0283,-0.0567,-9.7039,-0.2561,-0.1512,0.2036,0.2092,3,17,0.68,1.02,0.2,24.696,21.83,97.8,34.7,21522.0,7481,7492,7443,7551,50.9,54.6,52.7,50.3,2.7,3.071,2.869,2.713,2.75,307.5,27.2,74.9,1007.22,-28.28,-1.54,1.47,21.8,35.2,26.8,0,no_anomaly,0.0,0,0,0,0,12.9716194,77.5945987,5.0,0.0
2024-07-07T07:09:01.400Z,MISSION_0042,14,0,takeoff,SITE_BLR_003,12.9716202,77.5946019,5.0,208.32,0.723,0.077,2.26,0.1404,-1.9489,208.315,-0.24457,0.01619,0.00535,0.96948,-0.0587,-0.0404,-9.7737,-0.478,0.4405,-0.115,0.1135,3,14,0.76,0.92,0.25,24.707,15.86,97.8,36.1,21511.0,7418,7561,7578,7642,51.4,51.7,51.7,53.7,2.859,2.853,2.962,2.928,2.01,318.7,27.1,74.3,1007.3,-31.07,-0.24,1.23,21.6,36.2,31.2,0,no_anomaly,0.0,0,0,0,0,12.9716202,77.5946019,5.0,0.0
2024-07-07T07:09:01.500Z,MISSION_0042,15,0,takeoff,SITE_BLR_003,12.9716172,77.5946013,5.0,207.19,0.389,0.066,1.93,-1.5916,-0.7196,207.1946,-0.23498,0.00937,-0.01202,0.97188,0.104,-0.0306,-9.8076,0.1931,0.7378,0.068,0.171,3,20,0.75,1.07,0.2,24.706,22.64,97.7,35.6,21499.0,7571,7619,7784,7320,52.5,53.4,51.0,53.6,2.781,2.78,2.599,2.72,1.34,318.4,27.1,74.1,1007.53,-31.48,-0.1,1.47,24.3,37.0,28.1,0,no_anomaly,0.0,0,0,0,0,12.9716172,77.5946013,5.0,0.0
2024-07-07T07:09:01.600Z,MISSION_0042,16,0,takeoff,SITE_BLR_003,12.9716134,77.5946017,5.0,203.15,0.724,0.097,1.5,-2.7189,-0.6302,203.1535,-0.20049,0.01015,-0.02214,0.97939,-0.0648,-0.0123,-9.9083,-0.8516,-0.2038,0.3322,0.0402,3,17,0.6,1.04,0.22,24.761,23.2,97.7,35.0,21487.0,7498,7456,7603,7635,54.9,51.4,52.6,51.1,3.274,2.699,2.703,2.973,2.46,312.0,27.0,74.7,1007.54,-30.22,0.62,1.07,24.3,39.4,29.0,0,no_anomaly,0.0,0,0,0,0,12.9716134,77.5946017,5.0,0.0
2024-07-07T07:09:01.700Z,MISSION_0042,17,0,takeoff,SITE_BLR_003,12.9716161,77.5946012,5.0,201.19,0.724,0.136,1.8,-3.5511,-1.3431,201.1874,-0.18339,0.01721,-0.0283,0.98248,0.0286,0.0497,-9.7777,-0.049,0.3004,-0.472,0.1159,3,13,0.72,1.1,0.2,24.768,19.06,97.6,35.4,21476.0,7353,7508,7368,7326,50.6,53.8,51.4,51.9,2.828,2.879,2.773,2.917,1.63,314.6,27.5,74.4,1007.29,-28.96,-1.07,1.28,18.3,38.9,29.7,0,no_anomaly,0.0,0,0,0,0,12.9716161,77.5946012,5.0,0.0
2024-07-07T07:09:01.800Z,MISSION_0042,18,0,takeoff,SITE_BLR_003,12.971616,77.5945989,5.0,200.21,0.891,0.139,1.79,-1.4556,-3.0531,200.2142,-0.17508,0.02845,-0.00783,0.98411,-0.0302,0.0252,-9.7535,-1.0851,-0.4177,-0.5133,0.2077,3,18,0.79,0.9,0.26,24.778,19.39,97.6,35.3,21464.0,7750,7596,7580,7518,52.5,50.8,53.4,54.7,2.67,3.058,2.842,2.653,1.83,320.9,27.2,74.4,1007.72,-28.58,1.28,1.87,24.6,33.4,31.7,0,no_anomaly,0.0,0,0,0,0,12.971616,77.5945989,5.0,0.0
2024-07-07T07:09:01.900Z,MISSION_0042,19,0,takeoff,SITE_BLR_003,12.9716158,77.5945993,5.0,200.46,1.043,0.076,1.77,-0.3322,-0.7321,200.4641,-0.17761,0.0068,-0.00172,0.98408,0.1447,0.0108,-9.834,-0.3053,0.8552,-0.1342,0.2224,3,20,0.68,0.87,0.24,24.729,13.85,97.5,36.3,21452.0,7377,7975,7359,7458,51.6,51.2,50.1,50.2,2.88,2.968,2.8,2.696,1.7,311.0,27.0,75.2,1007.36,-29.17,-0.16,1.0,23.4,41.1,33.1,0,no_anomaly,0.0,0,0,0,0,12.9716158,77.5945993,5.0,0.0
2024-07-07T07:09:02.000Z,MISSION_0042,20,0,takeoff,SITE_BLR_003,12.9716146,77.5946029,5.0,198.84,0.968,0.125,1.66,-1.0891,-3.9088,198.8356,-0.16321,0.0352,-0.00379,0.98596,0.0344,-0.0082,-9.9139,0.7527,0.2013,-0.3379,0.052,3,18,0.81,0.92,0.45,24.706,25.31,97.5,34.9,21441.0,7704,7322,7571,7483,53.9,51.5,52.8,50.2,2.783,2.917,2.935,2.686,1.4,321.1,27.0,74.1,1007.57,-31.96,-0.13,1.75,24.7,41.8,29.0,0,no_anomaly,0.0,0,0,0,0,12.9716146,77.5946029,5.0,0.0
2024-07-07T07:09:02.100Z,MISSION_0042,21,0,takeoff,SITE_BLR_003,12.9716136,77.5946053,5.0,199.45,0.953,0.053,1.62,4.6382,-3.3362,199.4509,-0.16988,0.02183,0.04478,0.9842,-0.0284,-0.0653,-9.8394,-0.1793,0.4869,0.4044,0.0769,3,12,0.65,0.82,0.25,24.755,17.25,97.4,35.7,21429.0,7558,7796,7515,7552,52.1,52.7,51.5,51.9,2.71,2.845,2.745,2.776,1.93,318.0,27.0,74.6,1007.2,-27.93,0.15,1.34,20.9,37.2,29.8,0,no_anomaly,0.0,0,0,0,0,12.9716136,77.5946053,5.0,0.0
2024-07-07T07:09:02.200Z,MISSION_0042,22,0,takeoff,SITE_BLR_003,12.9716146,77.5945995,5.0,200.24,1.143,0.127,1.63,0.3047,0.3142,200.2421,-0.17572,-0.00317,0.00214,0.98443,0.0858,-0.0207,-9.8346,-0.2582,-0.5818,-0.1446,0.1719,3,15,0.6,0.68,0.27,24.761,17.33,97.4,34.3,21417.0,7077,7506,7496,7395,54.5,54.4,53.8,55.4,2.683,2.997,2.805,2.687,1.97,317.9,27.1,74.0,1007.43,-32.59,0.04,1.65,22.5,33.0,29.2,0,no_anomaly,0.0,0,0,0,0,12.9716146,77.5945995,5.0,0.0
2024-07-07T07:09:02.300Z,MISSION_0042,23,0,takeoff,SITE_BLR_003,12.9716076,77.5946026,5.0,200.29,1.559,0.125,0.9,-4.8951,-1.4047,200.2862,-0.17542,0.01958,-0.03988,0.98349,0.0367,-0.0041,-9.7447,0.12,-0.2976,0.177,0.1551,3,11,0.69,0.73,0.25,24.708,15.47,97.3,35.6,21406.0,7819,7352,7606,7374,52.5,54.9,49.5,56.0,2.943,2.863,3.037,2.71,2.17,317.4,27.1,74.8,1007.35,-31.24,-1.25,1.27,21.9,41.4,28.7,0,no_anomaly,0.0,0,0,0,0,12.9716076,77.5946026,5.0,0.0
2024-07-07T07:09:02.400Z,MISSION_0042,24,0,takeoff,SITE_BLR_003,12.9716097,77.5946003,5.0,199.74,1.427,0.072,1.08,4.8458,-1.8429,199.7352,-0.17187,0.00859,0.0444,0.98408,0.2622,0.0197,-9.9175,0.1864,-0.3608,0.3059,0.1731,3,15,0.61,0.7,0.26,24.666,21.49,97.2,35.9,21394.0,7651,7748,7581,7668,53.8,51.7,53.2,52.8,2.931,2.937,2.929,2.759,1.9,321.1,27.1,74.6,1007.04,-31.28,0.06,1.49,26.6,34.7,31.6,0,no_anomaly,0.0,0,0,0,0,12.9716097,77.5946003,5.0,0.0
2024-07-07T07:09:02.500Z,MISSION_0042,25,0,takeoff,SITE_BLR_003,12.9716051,77.5946006,5.0,199.75,0.895,0.041,0.57,-2.9798,-2.9037,199.7492,-0.17073,0.02941,-0.02126,0.98465,0.0157,0.0384,-9.7791,0.1352,0.0316,-0.3922,0.1607,3,16,0.64,1.12,0.2,24.655,20.02,97.2,35.9,21383.0,7581,7689,7477,7476,53.8,49.7,53.7,54.1,2.658,2.717,2.907,2.652,1.59,320.8,27.8,75.2,1007.35,-30.56,-0.68,1.0,19.8,41.5,31.7,0,no_anomaly,0.0,0,0,0,0,12.9716051,77.5946006,5.0,0.0
2024-07-07T07:09:02.600Z,MISSION_0042,26,0,takeoff,SITE_BLR_003,12.9716083,77.594595,5.0,201.06,0.99,0.115,1.08,-1.5266,-2.8202,201.0645,-0.1824,0.02663,-0.0086,0.98283,-0.0238,0.0276,-9.7233,-0.0748,0.397,0.0547,0.1063,3,16,0.59,0.85,0.21,24.639,18.03,97.1,35.5,21371.0,7579,7470,7663,7590,51.8,53.7,54.3,50.7,2.743,3.171,3.2,2.864,2.58,314.9,27.4,74.5,1007.76,-27.16,1.22,1.0,25.1,34.3,28.7,0,no_anomaly,0.0,0,0,0,0,12.9716083,77.594595,5.0,0.0
2024-07-07T07:09:02.700Z,MISSION_0042,27,0,takeoff,SITE_BLR_003,12.9716062,77.5945951,5.0,198.45,0.954,0.029,0.88,0.5538,-2.5459,198.4536,-0.16041,0.02115,0.00833,0.98679,0.0572,0.0479,-9.8223,0.2303,-0.1205,-0.2957,0.0536,3,16,0.74,1.05,0.28,24.795,19.19,97.1,34.8,21359.0,7526,7447,7607,7576,55.4,52.8,54.2,51.2,2.83,2.741,2.767,2.743,2.14,319.7,27.4,73.9,1006.97,-29.63,-1.51,1.44,22.6,36.8,31.4,0,no_anomaly,0.0,0,0,0,0,12.9716062,77.5945951,5.0,0.0
2024-07-07T07:09:02.800Z,MISSION_0042,28,0,takeoff,SITE_BLR_003,12.9716075,77.5945934,5.0,195.74,1.05,0.033,1.11,-0.9224,-1.5481,195.7399,-0.1368,0.01448,-0.00612,0.99047,-0.1235,-0.021,-9.9069,-0.6322,-0.124,0.2476,0.0765,3,16,0.63,1.16,0.32,24.749,17.09,97.0,35.2,21348.0,7592,7570,7740,7686,55.9,53.6,52.9,53.4,2.491,2.908,2.859,2.766,1.58,318.5,27.5,74.5,1007.6,-28.94,-0.18,1.54,21.3,35.9,28.0,0,no_anomaly,0.0,0,0,0,0,12.9716075,77.5945934,5.0,0.0
2024-07-07T07:09:02.900Z,MISSION_0042,29,0,takeoff,SITE_BLR_003,12.9716064,77.5945942,5.0,196.84,1.0,0.053,0.97,-1.7188,-2.2829,196.8368,-0.14606,0.0219,-0.01192,0.98896,-0.0237,0.0185,-9.7875,0.1396,-0.0232,-0.3509,0.0752,3,11,0.56,1.05,0.2,24.686,20.14,97.0,35.1,21336.0,7222,7622,7614,7526,52.7,54.4,53.6,51.1,2.692,2.758,2.788,2.917,2.0,329.6,26.9,75.1,1007.3,-28.31,-1.24,1.48,20.5,33.2,31.3,0,no_anomaly,0.0,0,0,0,0,12.9716064,77.5945942,5.0,0.0
2024-07-07T07:09:03.000Z,MISSION_0042,30,0,takeoff,SITE_BLR_003,12.9716129,77.5945951,5.0,195.38,1.226,0.169,1.54,-2.407,-1.0949,195.382,-0.1336,0.01228,-0.01953,0.99077,0.0426,-0.033,-9.8293,-0.4407,0.4012,-0.2671,0.1192,3,18,0.51,0.81,0.2,24.747,16.01,96.9,35.3,21324.0,7360,7516,7736,7450,53.8,51.3,54.1,51.1,2.772,2.75,2.856,3.026,1.69,319.6,27.2,75.0,1006.92,-25.68,0.23,1.72,25.5,34.8,28.1,0,no_anomaly,0.0,0,0,0,0,12.9716129,77.5945951,5.0,0.0
2024-07-07T07:09:03.100Z,MISSION_0042,31,0,takeoff,SITE_BLR_003,12.9716137,77.5945916,5.0,194.09,1.051,0.116,1.79,-5.1981,-1.3719,194.0878,-0.12196,0.01743,-0.04353,0.99143,0.0391,-0.1163,-9.8238,0.098,0.4132,-0.2162,0.0886,3,20,0.66,0.99,0.36,24.711,17.28,96.9,34.9,21313.0,7383,7246,7786,7493,49.7,53.2,51.5,52.2,2.788,2.702,2.851,3.045,1.6,315.7,27.3,74.0,1007.3,-37.12,-0.33,2.1,20.6,37.5,29.1,0,no_anomaly,0.0,0,0,0,0,12.9716137,77.5945916,5.0,0.0
2024-07-07T07:09:03.200Z,MISSION_0042,32,0,takeoff,SITE_BLR_003,12.9716132,77.5945932,5.0,193.95,0.756,0.291,1.66,-0.0303,-2.1962,193.9531,-0.12144,0.01905,0.00207,0.99241,-0.0759,-0.1012,-9.8166,0.7623,-0.1048,-0.4246,0.1868,3,12,0.85,0.6,0.28,24.627,19.17,96.8,35.1,21301.0,7447,7407,7465,7479,48.9,51.1,50.8,52.0,3.081,3.06,2.886,3.198,1.96,319.7,27.2,74.8,1006.94,-31.15,-0.03,2.21,19.6,37.0,29.4,0,no_anomaly,0.0,0,0,0,0,12.9716132,77.5945932,5.0,0.0
2024-07-07T07:09:03.300Z,MISSION_0042,33,0,takeoff,SITE_BLR_003,12.9716122,77.5945916,5.0,192.83,0.996,0.152,1.65,0.6863,-1.0385,192.8256,-0.11174,0.00834,0.00696,0.99368,0.056,0.0346,-9.7398,0.0608,-0.1049,0.522,0.1551,3,18,0.8,0.86,0.28,24.717,17.62,96.8,34.8,21289.0,7467,7646,7319,7907,53.1,49.4,52.6,50.4,2.799,3.094,2.653,2.695,1.84,316.3,27.2,74.3,1007.13,-28.02,-0.3,1.65,22.0,34.3,29.3,0,no_anomaly,0.0,0,0,0,0,12.9716122,77.5945916,5.0,0.0
2024-07-07T07:09:03.400Z,MISSION_0042,34,0,takeoff,SITE_BLR_003,12.9716164,77.594593,5.0,191.76,1.328,0.105,1.98,-1.409,-2.1659,191.7562,-0.10215,0.02006,-0.01029,0.99451,-0.1649,0.1111,-9.8633,-0.0786,-0.7364,0.006,0.1626,3,11,0.73,0.9,0.25,24.753,17.24,96.7,35.7,21278.0,7573,7291,7795,7396,51.3,55.9,55.1,53.2,2.65,3.041,2.904,2.596,2.53,321.7,27.1,74.1,1007.51,-25.69,-0.7,1.09,18.2,33.6,28.1,0,no_anomaly,0.0,0,0,0,0,12.9716164,77.594593,5.0,0.0
2024-07-07T07:09:03.500Z,MISSION_0042,35,0,takeoff,SITE_BLR_003,12.971617,77.5945956,5.0,189.95,1.69,0.089,1.96,-2.4793,-1.5869,189.9504,-0.0864,0.01567,-0.02035,0.99593,-0.0446,-0.0291,-9.8326,-0.0276,0.4558,0.1933,0.1747,3,20,0.69,0.6,0.24,24.765,13.16,96.7,35.2,21266.0,7579,7489,7361,7397,51.4,51.1,51.9,51.8,2.628,2.859,3.149,2.973,2.27,316.4,27.2,73.6,1007.57,-30.63,0.79,1.87,22.4,37.3,32.0,0,no_anomaly,0.0,0,0,0,0,12.971617,77.5945956,5.0,0.0
2024-07-07T07:09:03.600Z,MISSION_0042,36,0,takeoff,SITE_BLR_003,12.9716139,77.5945944,5.0,190.37,1.183,0.048,1.66,1.9015,-3.0697,190.3663,-0.09074,0.02517,0.01894,0.99538,0.0182,-0.0026,-9.8079,-0.3856,0.4109,-0.136,0.1073,3,10,0.64,0.77,0.29,24.744,17.23,96.6,35.0,21255.0,7178,7481,7626,7304,51.5,52.8,51.5,54.3,2.988,2.514,2.837,2.907,0.93,314.8,27.5,74.4,1007.43,-28.97,-1.89,1.4,21.8,34.0,27.4,0,no_anomaly,0.0,0,0,0,0,12.9716139,77.5945944,5.0,0.0
2024-07-07T07:09:03.700Z,MISSION_0042,37,0,takeoff,SITE_BLR_003,12.9716144,77.594589,5.0,191.4,1.289,0.043,2.02,-1.6028,-2.1432,191.3994,-0.09903,0.02,-0.01206,0.99481,0.0026,0.0042,-9.7998,-0.4501,0.2978,0.0681,0.0632,3,10,0.67,0.83,0.27,24.727,19.53,96.6,35.3,21243.0,7607,7270,7551,7612,52.2,49.5,49.3,51.7,2.908,2.893,3.007,2.822,1.88,330.5,27.0,74.7,1007.29,-33.26,-0.23,1.93,17.6,35.5,28.8,0,no_anomaly,0.0,0,0,0,0,12.9716144,77.594589,5.0,0.0
2024-07-07T07:09:03.800Z,MISSION_0042,38,0,takeoff,SITE_BLR_003,12.9716152,77.5945916,5.0,190.27,1.468,0.106,1.94,2.4287,-1.3461,190.2732,-0.08975,0.0098,0.02216,0.99567,0.1274,-0.0389,-9.7621,-0.1737,-0.8654,-0.1334,0.1141,3,10,0.87,0.98,0.35,24.728,17.14,96.5,36.4,21231.0,7427,7455,7647,7586,53.2,52.2,55.0,55.6,3.019,2.791,2.838,2.827,1.48,322.3,27.6,74.3,1007.26,-32.84,-1.81,1.46,18.9,37.6,27.1,0,no_anomaly,0.0,0,0,0,0,12.9716152,77.5945916,5.0,0.0
2024-07-07T07:09:03.900Z,MISSION_0042,39,0,takeoff,SITE_BLR_003,12.9716177,77.5945936,5.0,191.84,1.473,0.17,2.09,0.5263,-3.0303,191.8381,-0.10321,0.02583,0.00729,0.9943,0.0169,0.0388,-9.8013,-0.2287,-0.2651,0.0433,0.0804,3,10,0.9,0.86,0.49,24.733,21.74,96.5,35.6,21220.0,7696,7484,7450,7845,49.2,48.1,51.2,53.0,2.961,2.921,2.596,2.795,2.73,322.8,27.3,74.0,1007.33,-27.41,1.24,1.07,21.7,31.2,27.2,0,no_anomaly,0.0,0,0,0,0,12.9716177,77.5945936,5.0,0.0
2024-07-07T07:09:04.000Z,MISSION_0042,40,0,takeoff,SITE_BLR_003,12.971619,77.5945979,5.0,192.23,1.651,0.011,2.12,0.7546,-4.4871,192.2315,-0.10671,0.03822,0.01071,0.9935,0.1392,0.0552,-9.8308,0.0274,0.7359,0.0217,0.1584,3,17,0.87,0.84,0.29,24.712,15.52,96.4,35.2,21208.0,7648,7484,7250,7566,54.4,54.7,54.6,51.8,2.753,3.057,2.894,2.602,1.11,322.3,27.5,74.8,1007.36,-26.58,0.26,1.13,25.5,42.0,29.3,0,no_anomaly,0.0,0,0,0,0,12.971619,77.5945979,5.0,0.0
2024-07-07T07:09:04.100Z,MISSION_0042,41,0,takeoff,SITE_BLR_003,12.9716192,77.5945984,5.0,194.06,1.241,0.14,2.14,-1.2666,-2.4911,194.0627,-0.12214,0.02293,-0.00831,0.99221,0.1931,-0.0144,-9.7543,-0.294,-0.4967,0.2048,0.161,3,16,0.59,0.88,0.28,24.653,21.25,96.3,35.6,21196.0,7368,7573,7388,7586,50.4,55.1,52.2,54.0,2.573,2.749,2.772,2.616,2.0,321.7,27.4,74.2,1007.41,-31.34,-0.05,1.85,21.9,34.2,33.5,0,no_anomaly,0.0,0,0,0,0,12.9716192,77.5945984,5.0,0.0
2024-07-07T07:09:04.200Z,MISSION_0042,42,0,takeoff,SITE_BLR_003,12.9716158,77.5946055,5.0,194.67,1.33,0.021,1.86,-3.5375,-2.2629,194.6718,-0.127,0.02352,-0.02809,0.99123,-0.0057,-0.0128,-9.781,-1.1572,-0.034,-0.0707,0.1495,3,20,0.89,0.75,0.3,24.717,21.0,96.3,35.7,21185.0,7235,7321,7500,7591,52.7,53.9,48.1,52.8,2.93,2.792,2.603,2.829,1.81,322.2,27.0,75.3,1007.19,-26.27,-1.35,1.55,22.4,34.3,27.7,0,no_anomaly,0.0,0,0,0,0,12.9716158,77.5946055,5.0,0.0
2024-07-07T07:09:04.300Z,MISSION_0042,43,0,takeoff,SITE_BLR_003,12.9716148,77.5945971,5.0,194.32,1.155,0.166,1.68,-3.6073,-1.5558,194.3185,-0.12413,0.01739,-0.02954,0.99167,-0.0445,-0.1345,-9.7979,-0.1731,-0.2459,0.0617,0.0385,3,11,0.52,0.88,0.21,24.669,23.34,96.2,35.8,21173.0,7558,7305,7774,7487,51.8,56.1,52.4,52.4,2.601,2.71,2.726,2.742,2.33,318.9,27.1,75.3,1007.42,-31.47,1.45,1.42,24.3,41.5,30.2,0,no_anomaly,0.0,0,0,0,0,12.9716148,77.5945971,5.0,0.0
2024-07-07T07:09:04.400Z,MISSION_0042,44,0,takeoff,SITE_BLR_003,12.9716204,77.5945959,5.0,195.12,1.24,0.049,2.32,-1.9055,-2.2827,195.1158,-0.13116,0.02193,-0.01386,0.99102,-0.0819,0.0013,-9.7892,0.1772,0.1084,0.1281,0.1984,3,20,0.84,1.08,0.43,24.709,13.38,96.2,35.0,21162.0,7592,7591,7441,7626,51.2,50.6,47.9,50.1,2.87,2.86,2.676,2.756,1.88,315.0,27.4,74.8,1007.54,-29.1,-1.13,1.88,21.6,38.7,29.4,0,no_anomaly,0.0,0,0,0,0,12.9716204,77.5945959,5.0,0.0
2024-07-07T07:09:04.500Z,MISSION_0042,45,0,takeoff,SITE_BLR_003,12.9716206,77.5945969,5.0,195.17,1.689,0.108,2.32,0.0745,-1.8463,195.1742,-0.13203,0.01588,0.00277,0.99112,-0.0859,-0.0205,-9.776,0.1827,0.3531,-0.0074,0.0378,3,14,0.72,0.83,0.3,24.684,20.72,96.1,34.8,21150.0,7283,7638,7423,7371,55.6,55.4,55.0,50.1,2.857,2.904,3.096,2.714,2.04,324.5,27.4,74.8,1006.95,-28.21,-1.39,1.34,19.4,42.4,32.0,0,no_anomaly,0.0,0,0,0,0,12.9716206,77.5945969,5.0,0.0
2024-07-07T07:09:04.600Z,MISSION_0042,46,0,takeoff,SITE_BLR_003,12.9716201,77.5945984,5.0,196.74,2.259,0.207,2.24,0.7829,-3.2374,196.74,-0.14569,0.02695,0.01087,0.9889,-0.0058,0.055,-9.7464,-0.5841,0.9992,0.1339,0.1842,3,18,0.73,0.69,0.36,24.74,21.97,96.1,35.1,21138.0,7773,7430,7428,7511,53.1,47.5,54.0,51.2,2.662,2.975,3.147,2.651,1.65,316.0,27.0,73.5,1007.64,-34.04,-1.24,1.27,21.3,33.5,31.8,0,no_anomaly,0.0,0,0,0,0,12.9716201,77.5945984,5.0,0.0
2024-07-07T07:09:04.700Z,MISSION_0042,47,0,takeoff,SITE_BLR_003,12.9716225,77.5945937,5.0,196.43,2.039,0.01,2.6,0.8563,-4.6946,196.4337,-0.1431,0.03947,0.01324,0.98883,-0.0758,-0.0143,-9.7823,-0.5011,-0.2692,0.0043,0.0416,3,20,0.73,0.96,0.39,24.712,22.41,96.0,35.9,21127.0,7276,7398,7547,7513,54.2,51.8,53.1,52.9,3.037,2.838,2.903,2.816,1.39,317.4,27.3,74.5,1007.48,-31.38,-2.13,1.0,22.6,35.4,28.8,0,no_anomaly,0.0,0,0,0,0,12.9716225,77.5945937,5.0,0.0
2024-07-07T07:09:04.800Z,MISSION_0042,48,0,takeoff,SITE_BLR_003,12.9716217,77.5945955,5.0,196.51,1.778,0.105,2.46,-0.3302,-2.9088,196.5126,-0.14348,0.02553,0.00079,0.98932,-0.1584,0.1294,-9.755,-0.3608,-0.5976,0.2745,0.1425,3,17,0.89,0.83,0.44,24.733,22.2,96.0,36.4,21115.0,7315,7028,7662,7663,50.5,51.2,52.3,50.5,2.819,2.895,2.823,2.684,2.7,310.1,27.6,75.0,1007.05,-34.1,1.4,1.94,18.0,35.7,28.5,0,no_anomaly,0.0,0,0,0,0,12.9716217,77.5945955,5.0,0.0
2024-07-07T07:09:04.900Z,MISSION_0042,49,0,takeoff,SITE_BLR_003,12.9716218,77.5945965,5.0,197.44,1.425,0.047,2.46,3.8771,-2.3654,197.4364,-0.15215,0.01526,0.03656,0.98756,-0.0311,0.0644,-9.8073,0.5005,0.1724,-0.2934,0.1138,3,20,0.6,0.82,0.26,24.686,13.82,95.9,34.5,21103.0,7362,7784,7571,7594,48.2,52.9,52.4,51.5,2.89,2.784,3.019,2.937,1.29,319.4,27.1,75.1,1007.19,-28.72,0.36,1.36,19.1,38.3,26.7,0,no_anomaly,0.0,0,0,0,0,12.9716218,77.5945965,5.0,0.0
2024-07-07T07:09:05.000Z,MISSION_0042,50,0,takeoff,SITE_BLR_003,12.9716234,77.5945925,5.0,195.74,1.227,0.059,2.73,3.0722,-5.1467,195.737,-0.1379,0.04079,0.03267,0.98907,-0.0793,-0.0541,-9.8001,0.0094,-0.3931,0.4486,0.1563,3,13,0.86,1.04,0.21,24.722,19.5,95.9,35.8,21092.0,7166,7786,7640,7719,55.5,53.2,50.6,49.7,2.594,2.799,2.917,2.839,2.64,322.3,27.6,74.9,1007.76,-27.91,-0.29,1.05,18.6,38.5,29.4,0,no_anomaly,0.0,0,0,0,0,12.9716234,77.5945925,5.0,0.0
2024-07-07T07:09:05.100Z,MISSION_0042,51,0,takeoff,SITE_BLR_003,12.9716241,77.5945982,5.0,196.06,1.564,0.142,2.69,3.057,-0.6364,196.0557,-0.13975,0.00177,0.02719,0.98981,-0.0054,-0.0667,-9.8993,0.4135,0.6498,-0.239,0.1256,3,11,0.83,0.8,0.28,24.71,18.22,95.8,35.9,21080.0,7692,7806,7552,7662,51.6,51.5,54.4,52.6,2.384,2.99,2.653,2.793,2.1,319.9,26.9,75.1,1007.31,-34.0,0.21,1.26,19.5,34.2,28.4,0,no_anomaly,0.0,0,0,0,0,12.9716241,77.5945982,5.0,0.0
2024-07-07T07:09:05.200Z,MISSION_0042,52,0,takeoff,SITE_BLR_003,12.9716222,77.5945964,5.0,195.16,0.931,0.016,2.5,2.8649,-2.0265,195.1563,-0.13225,0.01423,0.02711,0.99074,0.0273,-0.0153,-9.821,0.71,-0.1731,-0.4546,0.1381,3,15,0.63,1.01,0.2,24.685,19.21,95.8,35.0,21068.0,7504,7429,7510,7457,53.2,52.0,56.4,49.0,2.799,3.056,2.881,2.813,2.05,321.2,27.2,74.6,1007.23,-25.16,0.42,1.26,25.3,35.0,30.4,0,no_anomaly,0.0,0,0,0,0,12.9716222,77.5945964,5.0,0.0
2024-07-07T07:09:05.300Z,MISSION_0042,53,0,takeoff,SITE_BLR_003,12.9716199,77.5945984,5.0,196.73,0.856,0.095,2.22,-1.9787,-3.9946,196.7259,-0.14474,0.03699,-0.012,0.98871,-0.0729,-0.0847,-9.798,0.3582,0.5134,0.1017,0.1222,3,16,0.9,0.83,0.33,24.65,19.81,95.7,35.0,21057.0,7661,7556,7576,7363,53.9,56.2,50.5,53.4,2.753,2.84,2.999,3.015,1.8,314.4,27.0,74.0,1007.0,-28.93,0.45,1.62,22.3,42.5,28.3,0,no_anomaly,0.0,0,0,0,0,12.9716199,77.5945984,5.0,0.0
2024-07-07T07:09:05.400Z,MISSION_0042,54,0,takeoff,SITE_BLR_003,12.9716189,77.5945957,5.0,197.17,1.394,0.141,2.16,-1.7895,-2.4359,197.1748,-0.14894,0.02335,-0.01226,0.98849,-0.0705,-0.0216,-9.7634,-0.6828,-1.1609,0.4742,0.07,3,14,0.85,0.99,0.34,24.67,15.47,95.7,34.5,21045.0,7644,7657,7555,7815,53.9,54.6,53.3,52.7,2.66,3.0,2.661,2.722,1.9,321.2,26.8,74.2,1007.1,-31.96,-1.06,1.72,18.3,34.1,26.8,0,no_anomaly,0.0,0,0,0,0,12.9716189,77.5945957,5.0,0.0
2024-07-07T07:09:05.500Z,MISSION_0042,55,0,takeoff,SITE_BLR_003,12.9716208,77.5945941,5.0,197.62,1.762,0.185,2.41,1.6519,-0.7351,197.6173,-0.15321,0.00413,0.01523,0.98807,-0.0221,-0.043,-9.7591,0.3782,0.2616,0.1376,0.1202,3,14,0.72,0.83,0.35,24.651,14.95,95.6,35.9,21034.0,7782,7676,7620,7462,53.0,52.0,50.8,53.3,2.763,2.67,2.933,2.739,2.06,317.8,27.0,74.8,1007.3,-27.83,0.27,1.35,18.2,33.5,24.5,0,no_anomaly,0.0,0,0,0,0,12.9716208,77.5945941,5.0,0.0
2024-07-07T07:09:05.600Z,MISSION_0042,56,0,takeoff,SITE_BLR_003,12.971618,77.5945911,5.0,196.17,1.664,0.094,2.24,1.3687,-2.3888,196.1712,-0.14086,0.01896,0.01475,0.98974,-0.0109,-0.0114,-9.6234,0.3027,0.3953,0.2162,0.0587,3,12,0.67,0.83,0.29,24.689,18.61,95.6,35.1,21022.0,7383,7669,7450,7619,53.0,50.0,48.9,50.1,2.798,2.739,2.697,2.395,1.97,306.5,27.3,74.9,1007.16,-31.75,-0.75,1.2,20.3,37.1,28.3,0,no_anomaly,0.0,0,0,0,0,12.971618,77.5945911,5.0,0.0
2024-07-07T07:09:05.700Z,MISSION_0042,57,0,takeoff,SITE_BLR_003,12.9716177,77.5945889,5.0,196.58,1.768,0.154,2.32,0.7509,-2.7946,196.5802,-0.1443,0.02318,0.01,0.98921,0.1209,0.0274,-9.7551,0.3544,-0.7321,-0.2184,0.12,3,20,0.64,0.97,0.27,24.698,21.18,95.5,35.3,21010.0,7589,7645,7444,7407,51.3,53.8,53.2,49.7,2.912,3.006,2.651,2.801,2.01,320.0,27.3,74.5,1007.01,-30.36,0.44,1.5,19.8,39.5,31.6,0,no_anomaly,0.0,0,0,0,0,12.9716177,77.5945889,5.0,0.0
2024-07-07T07:09:05.800Z,MISSION_0042,58,0,takeoff,SITE_BLR_003,12.9716143,77.5945885,5.0,195.0,2.197,0.078,2.05,4.6933,-0.3823,194.9998,-0.13055,-0.00204,0.04103,0.99059,-0.0523,-0.0004,-9.8453,-0.3469,-0.0189,0.0763,0.0687,3,11,0.82,0.78,0.2,24.568,19.51,95.4,35.2,20999.0,7463,7566,7257,7306,51.6,50.0,52.2,52.0,2.751,3.143,2.732,2.79,1.92,316.3,27.2,75.1,1007.44,-28.91,1.98,1.32,21.5,42.6,30.0,0,no_anomaly,0.0,0,0,0,0,12.9716143,77.5945885,5.0,0.0
2024-07-07T07:09:05.900Z,MISSION_0042,59,0,takeoff,SITE_BLR_003,12.9716132,77.5945935,5.0,196.72,1.83,0.127,1.64,-3.5066,-1.2193,196.7226,-0.14502,0.01497,-0.02872,0.9889,0.0392,0.0364,-9.7704,-0.7929,-0.005,0.0085,0.1516,3,14,0.86,0.99,0.39,24.717,21.74,95.4,35.1,20987.0,7397,7355,7644,7725,52.7,51.2,54.5,54.5,2.416,2.91,3.045,2.988,1.57,316.9,26.9,75.8,1007.8,-25.04,-0.42,1.48,21.5,39.5,28.4,0,no_anomaly,0.0,0,0,0,0,12.9716132,77.5945935,5.0,0.0
2024-07-07T07:09:06.000Z,MISSION_0042,60,0,takeoff,SITE_BLR_003,12.9716154,77.5945939,5.0,199.48,1.364,0.062,1.84,1.7104,-1.2747,199.4827,-0.16934,0.00844,0.01659,0.98538,0.1121,-0.045,-9.7386,0.1978,-0.1953,0.1129,0.2227,3,14,0.67,0.86,0.2,24.667,21.64,95.3,36.6,20975.0,7598,7536,7564,7615,53.0,50.9,51.9,47.2,2.844,2.981,3.109,2.677,2.23,318.3,27.2,74.4,1007.42,-30.59,-1.11,1.62,24.5,35.6,31.2,0,no_anomaly,0.0,0,0,0,0,12.9716154,77.5945939,5.0,0.0
2024-07-07T07:09:06.100Z,MISSION_0042,61,0,takeoff,SITE_BLR_003,12.9716146,77.5945991,5.0,200.34,1.332,0.147,1.62,-1.4138,3.3582,200.3389,-0.17683,-0.02666,-0.01731,0.98373,0.002,0.0593,-9.8375,0.2671,-0.244,0.0728,0.1458,3,16,0.64,0.75,0.27,24.586,21.91,95.3,35.9,20964.0,7701,7634,7639,7553,50.9,50.9,52.2,54.9,2.962,2.479,2.628,2.918,1.53,307.3,27.1,74.2,1007.1,-31.77,-0.04,1.53,21.8,38.5,29.9,0,no_anomaly,0.0,0,0,0,0,12.9716146,77.5945991,5.0,0.0
2024-07-07T07:09:06.200Z,MISSION_0042,62,0,takeoff,SITE_BLR_003,12.9716161,77.5945963,5.0,203.1,1.573,0.105,1.84,1.8652,-2.0416,203.1046,-0.20049,0.01419,0.01951,0.9794,0.0382,0.0216,-9.8324,0.03,-0.4251,-0.3968,0.1555,3,12,0.79,0.65,0.33,24.578,22.02,95.2,35.5,20952.0,7538,7756,7301,7359,55.1,50.8,52.8,56.3,2.931,2.701,2.672,2.925,1.22,316.2,27.2,74.0,1007.41,-21.22,1.13,2.21,22.3,36.3,31.8,0,no_anomaly,0.0,0,0,0,0,12.9716161,77.5945963,5.0,0.0
2024-07-07T07:09:06.300Z,MISSION_0042,63,0,takeoff,SITE_BLR_003,12.9716172,77.5945908,5.0,200.24,0.767,-0.025,2.17,0.4737,-5.3822,200.2417,-0.17572,0.0455,0.01232,0.98331,0.0948,0.0448,-9.7071,-0.4157,-0.5694,0.1322,0.05,3,15,0.9,1.01,0.41,24.616,16.53,95.2,34.6,20940.0,7274,7379,7414,7619,54.2,51.5,53.3,54.8,2.808,2.63,2.733,2.853,1.03,319.4,27.1,74.1,1007.21,-24.98,-0.08,1.19,22.9,41.2,30.5,0,no_anomaly,0.0,0,0,0,0,12.9716172,77.5945908,5.0,0.0
2024-07-07T07:09:06.400Z,MISSION_0042,64,0,takeoff,SITE_BLR_003,12.971615,77.5945939,5.0,200.16,1.172,0.11,1.8,1.1527,-2.8235,200.1589,-0.1752,0.0225,0.01421,0.98417,-0.0196,0.0195,-9.8211,0.1593,-0.2006,0.1388,0.1587,3,16,0.86,0.74,0.52,24.705,19.23,95.1,34.8,20929.0,7546,7618,7778,7548,50.6,54.6,52.0,48.9,2.718,3.096,2.816,3.005,1.81,310.3,27.3,75.2,1007.16,-29.68,-0.76,1.31,22.7,36.8,32.4,0,no_anomaly,0.0,0,0,0,0,12.971615,77.5945939,5.0,0.0
2024-07-07T07:09:06.500Z,MISSION_0042,65,0,takeoff,SITE_BLR_003,12.9716117,77.5945898,5.0,199.84,0.872,0.107,1.73,0.8943,-1.2081,199.8379,-0.17232,0.00904,0.0095,0.98495,-0.1675,0.0107,-9.8647,0.085,-0.815,-0.2541,0.1522,3,19,0.75,1.22,0.4,24.642,20.19,95.1,35.2,20917.0,7528,7369,7738,7214,51.5,55.2,51.5,51.2,2.77,2.733,2.702,2.694,2.83,305.5,27.3,75.0,1007.29,-34.04,1.37,1.59,22.5,36.1,28.6,0,no_anomaly,0.0,0,0,0,0,12.9716117,77.5945898,5.0,0.0
2024-07-07T07:09:06.600Z,MISSION_0042,66,0,takeoff,SITE_BLR_003,12.9716122,77.5945882,5.0,200.47,0.639,0.136,1.89,4.0074,-0.9561,200.4691,-0.17785,0.00199,0.03589,0.9834,-0.0821,0.014,-9.9058,-0.171,0.2699,0.2589,0.1004,3,14,0.7,0.91,0.31,24.689,17.01,95.0,35.3,20906.0,7259,7712,7547,7455,56.1,55.6,54.4,52.2,2.894,2.957,2.699,2.96,1.8,320.0,27.6,74.3,1007.28,-26.05,-0.31,1.8,23.9,35.6,28.8,0,no_anomaly,0.0,0,0,0,0,12.9716122,77.5945882,5.0,0.0
2024-07-07T07:09:06.700Z,MISSION_0042,67,0,takeoff,SITE_BLR_003,12.9716072,77.594589,5.0,201.41,0.773,0.147,1.46,3.5961,-0.358,201.4107,-0.18576,-0.00276,0.03141,0.98209,-0.0544,-0.023,-9.8105,1.0417,0.5741,0.2279,0.1543,3,17,0.73,1.26,0.36,24.703,25.53,95.0,34.4,20894.0,7343,7453,7571,7564,54.0,53.7,50.3,54.0,2.817,2.827,2.677,2.761,2.84,314.4,27.2,75.1,1007.41,-30.4,2.1,1.35,21.3,43.7,30.6,0,no_anomaly,0.0,0,0,0,0,12.9716072,77.594589,5.0,0.0
2024-07-07T07:09:06.800Z,MISSION_0042,68,0,takeoff,SITE_BLR_003,12.9716023,77.5945887,5.0,199.14,0.421,0.157,1.29,-0.559,-1.0796,199.1417,-0.16621,0.0101,-0.00324,0.98603,-0.0919,-0.0118,-9.7783,0.0178,0.9647,-0.3091,0.1453,3,19,0.62,0.95,0.26,24.668,21.68,94.9,35.8,20882.0,7610,7244,7391,7629,52.0,48.2,54.2,51.7,2.667,2.728,2.915,2.77,1.71,324.0,27.6,75.0,1007.38,-29.22,0.5,1.15,23.9,38.7,26.5,0,no_anomaly,0.0,0,0,0,0,12.9716023,77.5945887,5.0,0.0
2024-07-07T07:09:06.900Z,MISSION_0042,69,0,takeoff,SITE_BLR_003,12.9716008,77.5945933,5.0,199.01,0.438,0.254,0.75,2.2756,-2.2328,199.0084,-0.16544,0.01593,0.0228,0.98583,-0.0314,-0.0867,-9.8286,-0.4119,0.7812,0.3055,0.1361,3,13,0.69,0.76,0.22,24.663,21.83,94.9,35.4,20871.0,7572,7578,7300,7500,49.7,52.2,53.9,53.2,2.865,2.653,2.815,3.134,1.56,317.9,27.3,75.3,1007.08,-31.04,0.04,1.81,24.6,40.2,28.5,0,no_anomaly,0.0,0,0,0,0,12.9716008,77.5945933,5.0,0.0
2024-07-07T07:09:07.000Z,MISSION_0042,70,0,takeoff,SITE_BLR_003,12.971599,77.5945915,5.0,198.18,0.171,0.106,0.96,1.9978,0.3498,198.1815,-0.15792,-0.00577,0.01673,0.98729,0.0198,0.025,-9.8247,0.3883,-0.2256,-0.0033,0.1517,3,13,0.64,0.67,0.32,24.723,16.87,94.8,34.8,20859.0,7519,7575,7495,7360,55.0,53.9,52.8,54.9,2.849,2.717,2.584,2.883,2.19,324.8,27.2,75.4,1007.5,-26.21,-1.57,1.58,20.0,40.5,30.0,0,no_anomaly,0.0,0,0,0,0,12.971599,77.5945915,5.0,0.0
2024-07-07T07:09:07.100Z,MISSION_0042,71,0,takeoff,SITE_BLR_003,12.9715932,77.5945911,5.0,199.31,0.332,0.052,1.25,2.0506,-2.6566,199.3122,-0.16807,0.01985,0.02152,0.98534,-0.1112,-0.0202,-9.9186,-0.143,-0.1251,0.023,0.1035,3,14,0.56,0.85,0.2,24.544,19.72,94.8,36.0,20847.0,7655,7749,7457,7709,51.5,53.6,51.5,52.9,2.832,2.751,2.603,2.804,1.0,319.2,27.2,74.5,1007.22,-31.33,-0.22,1.23,22.7,37.3,31.4,0,no_anomaly,0.0,0,0,0,0,12.9715932,77.5945911,5.0,0.0
2024-07-07T07:09:07.200Z,MISSION_0042,72,0,takeoff,SITE_BLR_003,12.9715953,77.5945845,5.0,198.37,0.786,0.186,1.8,-3.7668,2.068,198.3748,-0.16014,-0.01256,-0.03532,0.98638,-0.045,-0.0947,-9.8014,0.4754,0.0071,0.0083,0.1613,3,18,0.64,0.69,0.2,24.658,21.36,94.7,35.8,20836.0,7296,7144,7643,7659,52.6,53.6,54.7,49.9,2.627,2.925,2.732,2.634,1.75,310.2,27.4,74.7,1006.96,-32.32,1.09,1.38,24.0,33.0,31.7,0,no_anomaly,0.0,0,0,0,0,12.9715953,77.5945845,5.0,0.0
2024-07-07T07:09:07.300Z,MISSION_0042,73,0,takeoff,SITE_BLR_003,12.9715947,77.5945797,5.0,197.54,0.728,0.125,2.34,-0.6263,-3.6092,197.542,-0.15224,0.03196,-0.0006,0.98783,-0.1738,-0.0433,-9.777,-0.3951,-0.0451,-0.4707,0.153,3,19,0.67,1.03,0.2,24.626,14.5,94.7,35.7,20824.0,7570,7221,7187,7561,51.7,55.5,52.9,55.2,2.824,2.962,2.613,3.052,2.88,318.5,27.4,75.0,1007.7,-30.86,-0.99,1.61,18.6,34.7,29.7,0,no_anomaly,0.0,0,0,0,0,12.9715947,77.5945797,5.0,0.0
2024-07-07T07:09:07.400Z,MISSION_0042,74,0,takeoff,SITE_BLR_003,12.9715966,77.594582,5.0,199.6,0.601,0.029,2.04,-2.7533,-3.9546,199.6016,-0.16926,0.03808,-0.01779,0.98468,-0.0386,0.0027,-9.7813,-0.2747,-0.3982,-0.0137,0.16,3,10,0.76,0.79,0.42,24.701,21.36,94.6,35.3,20813.0,7866,7355,7420,7441,50.1,53.4,54.1,49.2,2.898,2.564,3.037,2.69,1.14,317.0,26.9,73.8,1007.12,-32.6,0.97,1.33,22.1,39.6,28.8,0,no_anomaly,0.0,0,0,0,0,12.9715966,77.594582,5.0,0.0
2024-07-07T07:09:07.500Z,MISSION_0042,75,0,takeoff,SITE_BLR_003,12.9715992,77.5945815,5.0,203.35,0.57,0.156,2.06,5.1948,-2.3121,203.3529,-0.20303,0.01057,0.04845,0.97792,0.0829,0.0435,-9.8119,-0.0049,0.4533,-0.1204,0.1223,3,10,0.73,0.94,0.29,24.655,18.23,94.5,35.7,20801.0,7474,7902,7635,7341,54.0,57.5,58.1,55.3,2.735,3.084,2.973,2.903,1.56,317.1,27.5,74.7,1007.45,-30.38,0.03,1.29,20.3,36.6,31.3,0,no_anomaly,0.0,0,0,0,0,12.9715992,77.5945815,5.0,0.0
2024-07-07T07:09:07.600Z,MISSION_0042,76,0,takeoff,SITE_BLR_003,12.971597,77.5945806,5.0,205.35,0.798,0.138,2.19,5.8811,1.6011,205.3471,-0.21839,-0.02487,0.04698,0.97441,-0.0674,0.0394,-9.7902,0.2718,-0.3104,-0.1709,0.1076,3,18,0.64,0.9,0.34,24.684,19.08,94.5,35.2,20789.0,7609,7458,7572,7496,51.1,52.0,51.2,53.0,2.887,2.752,2.507,2.858,1.83,325.7,27.1,74.4,1007.74,-26.72,-0.56,1.37,20.3,37.1,30.1,0,no_anomaly,0.0,0,0,0,0,12.971597,77.5945806,5.0,0.0
2024-07-07T07:09:07.700Z,MISSION_0042,77,0,takeoff,SITE_BLR_003,12.9715966,77.5945792,5.0,206.32,1.334,-0.034,2.34,-4.6207,-1.3394,206.3169,-0.22699,0.02055,-0.03659,0.97299,0.1127,-0.0497,-9.8837,-0.4543,-0.3442,-0.2268,0.1353,3,18,0.73,1.01,0.34,24.72,19.88,94.4,35.8,20778.0,7561,7292,7176,7592,56.9,48.5,55.6,51.2,2.911,3.019,2.951,2.626,1.95,320.4,27.4,74.1,1007.3,-25.47,1.74,1.77,19.6,36.2,27.0,0,no_anomaly,0.0,0,0,0,0,12.9715966,77.5945792,5.0,0.0
2024-07-07T07:09:07.800Z,MISSION_0042,78,0,takeoff,SITE_BLR_003,12.9715959,77.5945804,5.0,205.81,1.356,0.143,2.22,-0.3357,-2.9202,205.8107,-0.2232,0.02549,0.00284,0.97444,-0.022,0.1033,-9.8133,0.3015,-0.4101,-0.1679,0.1353,3,10,0.77,0.71,0.2,24.68,18.51,94.4,35.5,20766.0,7198,7398,7432,7822,53.6,51.9,52.9,50.8,2.794,2.969,2.767,2.794,1.79,323.2,27.5,74.0,1007.06,-29.49,-0.9,1.5,20.2,33.3,29.4,0,no_anomaly,0.0,0,0,0,0,12.9715959,77.5945804,5.0,0.0
2024-07-07T07:09:07.900Z,MISSION_0042,79,0,takeoff,SITE_BLR_003,12.9715942,77.5945766,5.0,203.97,1.294,0.126,2.68,-1.1333,-2.1914,203.9684,-0.20741,0.02076,-0.0057,0.97802,0.0241,-0.0181,-9.8217,0.1265,-0.2521,0.1086,0.1562,3,13,0.66,0.99,0.36,24.623,17.69,94.3,35.6,20754.0,7641,7491,7465,7741,50.2,53.7,52.5,49.9,2.761,2.649,2.965,2.567,1.78,313.8,27.3,74.8,1007.34,-26.87,-0.41,1.51,20.2,37.8,30.0,0,no_anomaly,0.0,0,0,0,0,12.9715942,77.5945766,5.0,0.0
2024-07-07T07:09:08.000Z,MISSION_0042,80,0,takeoff,SITE_BLR_003,12.9715962,77.5945718,5.0,203.39,1.467,0.189,3.17,2.0864,-5.2217,203.3927,-0.20329,0.04091,0.02704,0.97789,0.0175,-0.0635,-9.844,-0.269,0.7683,0.3061,0.1952,3,10,0.62,0.73,0.23,24.752,20.95,94.3,36.2,20743.0,7340,7655,7584,7505,50.6,52.2,54.0,57.9,2.643,2.95,2.466,2.727,2.07,320.9,27.1,74.7,1006.9,-33.77,0.79,1.53,21.7,41.5,32.8,0,no_anomaly,0.0,0,0,0,0,12.9715962,77.5945718,5.0,0.0
2024-07-07T07:09:08.100Z,MISSION_0042,81,0,takeoff,SITE_BLR_003,12.9715963,77.5945693,5.0,205.44,1.56,0.132,3.44,-1.7792,-4.3853,205.439,-0.21941,0.04073,-0.00671,0.97476,0.0176,-0.0393,-9.8558,0.2313,-0.7526,0.4939,0.1282,3,15,0.61,0.92,0.21,24.687,20.79,94.2,35.8,20731.0,7528,7873,7466,7562,53.6,52.2,52.3,54.7,2.751,2.797,2.931,2.838,2.05,324.0,27.5,74.9,1007.31,-29.24,0.35,1.0,23.7,37.9,31.7,0,no_anomaly,0.0,0,0,0,0,12.9715963,77.5945693,5.0,0.0
2024-07-07T07:09:08.200Z,MISSION_0042,82,0,takeoff,SITE_BLR_003,12.9715976,77.5945682,5.0,203.75,1.469,0.107,3.55,-0.7236,-2.9358,203.7546,-0.20559,0.02637,-0.00091,0.97828,0.0554,-0.0735,-9.8031,0.3194,-0.4354,0.3316,0.1417,3,16,0.71,0.94,0.26,24.615,18.84,94.2,35.3,20719.0,7447,7649,7416,7463,49.0,55.4,55.4,49.7,2.8,2.864,2.986,2.545,1.32,318.6,27.3,75.2,1007.58,-28.12,-0.02,1.77,21.2,36.5,29.7,0,no_anomaly,0.0,0,0,0,0,12.9715976,77.5945682,5.0,0.0
2024-07-07T07:09:08.300Z,MISSION_0042,83,0,takeoff,SITE_BLR_003,12.9715986,77.5945729,5.0,202.56,1.382,0.015,3.02,0.905,-2.1251,202.5637,-0.19574,0.01664,0.01137,0.98045,0.0172,-0.1418,-9.7379,-0.3266,-1.0308,0.1997,0.1459,3,13,0.62,0.78,0.2,24.534,16.04,94.1,34.7,20708.0,7560,7359,7445,7618,52.3,53.1,50.6,53.5,2.899,2.956,2.764,2.75,1.78,322.7,27.4,75.4,1007.44,-32.92,1.08,1.0,22.0,39.1,27.8,0,no_anomaly,0.0,0,0,0,0,12.9715986,77.5945729,5.0,0.0
2024-07-07T07:09:08.400Z,MISSION_0042,84,0,takeoff,SITE_BLR_003,12.971595,77.594574,5.0,203.5,1.457,0.163,2.95,0.0543,-1.4907,203.5045,-0.20367,0.01264,0.00311,0.97895,-0.0117,0.0152,-9.7543,-0.7797,-0.2135,0.4477,0.046,3,20,0.84,0.82,0.37,24.671,16.11,94.1,36.0,20696.0,7801,7742,7556,7475,49.4,51.2,53.2,48.8,2.744,2.711,2.692,2.922,2.34,311.6,26.9,73.9,1007.28,-25.31,0.65,1.48,22.7,39.1,27.9,0,no_anomaly,0.0,0,0,0,0,12.971595,77.594574,5.0,0.0
2024-07-07T07:09:08.500Z,MISSION_0042,85,0,takeoff,SITE_BLR_003,12.9715986,77.594576,5.0,202.04,1.532,0.092,2.67,-1.5005,-0.9125,202.0408,-0.19103,0.01032,-0.01133,0.98146,0.2117,-0.0375,-9.8207,-1.0815,-0.0011,-0.2337,0.0996,3,20,0.59,0.88,0.23,24.654,21.58,94.0,35.9,20685.0,7519,7467,7557,7647,53.6,53.3,48.1,54.3,2.737,2.962,2.773,3.133,2.45,313.1,27.0,74.6,1007.48,-25.56,-0.75,1.31,25.4,39.0,28.8,0,no_anomaly,0.0,0,0,0,0,12.9715986,77.594576,5.0,0.0
2024-07-07T07:09:08.600Z,MISSION_0042,86,0,takeoff,SITE_BLR_003,12.9715974,77.5945754,5.0,200.8,1.324,0.093,2.76,-1.8756,-2.0208,200.8011,-0.18019,0.0203,-0.01291,0.98334,0.2589,-0.037,-9.7642,-0.087,-0.0762,-0.4546,0.1332,3,18,0.79,1.09,0.42,24.588,20.58,94.0,36.0,20673.0,7427,7448,7448,7447,53.0,53.5,52.7,53.7,2.669,2.903,2.849,2.543,1.73,326.1,27.3,74.2,1007.37,-30.03,-1.44,1.35,20.4,38.3,28.9,0,no_anomaly,0.0,0,0,0,0,12.9715974,77.5945754,5.0,0.0
2024-07-07T07:09:08.700Z,MISSION_0042,87,0,takeoff,SITE_BLR_003,12.9715993,77.5945804,5.0,200.88,1.503,0.142,2.19,-2.292,-2.6823,200.8753,-0.18062,0.02664,-0.01542,0.98307,-0.0937,-0.0169,-9.7188,-0.7997,-0.1169,0.6361,0.1771,3,14,0.5,0.87,0.23,24.7,20.85,93.9,34.8,20661.0,7310,7526,7356,7350,51.9,51.6,53.8,50.8,2.618,2.834,2.724,2.981,1.97,323.8,27.2,75.2,1007.33,-29.44,2.1,1.49,17.8,31.3,25.5,0,no_anomaly,0.0,0,0,0,0,12.9715993,77.5945804,5.0,0.0
2024-07-07T07:09:08.800Z,MISSION_0042,88,0,takeoff,SITE_BLR_003,12.9716,77.5945835,5.0,199.62,2.038,0.032,1.84,-0.3186,-1.2464,199.6204,-0.17034,0.01119,-0.00089,0.98532,0.0401,-0.0239,-9.6932,0.271,-0.2799,0.3429,0.1209,3,16,0.67,1.16,0.2,24.696,15.64,93.9,35.7,20650.0,7410,7547,7529,7746,52.9,50.3,52.2,52.7,2.874,3.021,2.707,2.677,2.65,315.8,27.3,74.7,1007.14,-33.05,2.19,1.53,23.6,38.9,26.8,0,no_anomaly,0.0,0,0,0,0,12.9716,77.5945835,5.0,0.0
2024-07-07T07:09:08.900Z,MISSION_0042,89,0,transit,SITE_BLR_003,12.9715962,77.5945853,5.5,199.59,2.441,0.126,1.69,0.3185,-4.7077,199.5858,-0.17006,0.04,0.00972,0.98457,0.0576,0.0503,-9.7826,0.164,-0.1649,0.2474,0.0452,3,18,0.75,0.86,0.24,24.615,19.11,93.8,34.9,20638.0,7611,7549,7660,7239,53.3,52.5,49.9,51.9,2.661,2.703,2.953,2.937,2.31,317.0,27.3,75.1,1006.97,-32.32,1.44,1.72,19.4,35.9,29.9,0,no_anomaly,0.0,0,0,0,0,12.9715962,77.5945853,5.5,0.0
2024-07-07T07:09:09.000Z,MISSION_0042,90,0,transit,SITE_BLR_003,12.9715989,77.5945845,6.0,199.39,2.162,0.115,1.73,1.2958,-1.5841,199.3932,-0.16856,0.01172,0.01347,0.98553,-0.0741,0.0998,-9.7906,0.0806,0.6289,0.1123,0.139,3,16,0.81,0.73,0.36,24.642,16.71,93.8,35.8,20626.0,7486,7557,7479,7562,55.4,53.6,51.9,57.1,2.891,2.949,2.643,2.937,1.66,325.3,27.3,74.9,1007.6,-29.2,1.25,1.4,20.1,38.9,28.1,0,no_anomaly,0.0,0,0,0,0,12.9715989,77.5945845,6.0,0.0
2024-07-07T07:09:09.100Z,MISSION_0042,91,0,transit,SITE_BLR_003,12.9715958,77.5945816,6.5,199.27,2.323,0.094,2.1,-3.3436,-2.7038,199.2707,-0.16658,0.02813,-0.02481,0.98531,0.161,-0.0546,-9.8042,0.1915,-0.6122,0.4352,0.148,3,19,0.58,0.78,0.2,24.676,19.63,93.7,36.0,20615.0,7574,7813,7701,7715,51.1,55.3,52.9,51.6,2.731,2.603,3.05,2.683,2.06,316.0,27.1,74.3,1007.28,-27.59,0.57,1.81,22.7,36.8,32.4,0,no_anomaly,0.0,0,0,0,0,12.9715958,77.5945816,6.5,0.0
2024-07-07T07:09:09.200Z,MISSION_0042,92,0,transit,SITE_BLR_003,12.9715962,77.5945802,7.0,199.86,2.305,0.051,2.24,-0.9342,-4.9572,199.8636,-0.17196,0.044,-0.00056,0.98412,0.1757,0.0295,-9.841,0.0104,1.826,0.3346,0.0551,3,18,0.58,0.61,0.26,24.562,14.42,93.7,35.3,20603.0,7513,7524,7529,7539,53.4,48.3,56.4,54.4,2.638,2.633,2.987,2.926,2.0,317.3,27.1,74.1,1007.23,-30.62,-0.07,1.1,24.2,42.2,28.8,0,no_anomaly,0.0,0,0,0,0,12.9715962,77.5945802,7.0,0.0
2024-07-07T07:09:09.300Z,MISSION_0042,93,0,transit,SITE_BLR_003,12.9715943,77.5945789,7.5,197.71,2.352,0.054,2.44,2.9474,-2.4378,197.7139,-0.15442,0.01705,0.02868,0.98744,0.0984,0.0311,-9.8463,0.0587,0.3365,-0.0878,0.2108,3,10,0.76,1.12,0.2,24.632,18.86,93.6,36.7,20591.0,7324,7381,7430,7669,50.3,55.1,52.5,53.7,2.586,2.952,2.838,2.614,1.77,320.2,27.3,74.4,1007.15,-29.72,0.24,1.6,19.1,34.6,26.1,0,no_anomaly,0.0,0,0,0,0,12.9715943,77.5945789,7.5,0.0
2024-07-07T07:09:09.400Z,MISSION_0042,94,0,transit,SITE_BLR_003,12.9715883,77.5945813,8.0,198.1,2.034,0.054,2.46,4.4555,-3.8236,198.0983,-0.15836,0.02681,0.04361,0.98605,-0.1652,-0.0407,-9.8091,0.4935,-0.1571,0.2119,0.0997,3,15,0.68,0.85,0.2,24.685,20.28,93.5,36.3,20580.0,7391,7558,7588,7585,53.5,51.6,50.9,54.0,2.543,2.664,2.755,2.989,1.57,319.9,27.3,75.0,1007.19,-29.01,-0.27,2.07,20.1,31.6,26.7,0,no_anomaly,0.0,0,0,0,0,12.9715883,77.5945813,8.0,0.0
2024-07-07T07:09:09.500Z,MISSION_0042,95,0,transit,SITE_BLR_003,12.9715849,77.5945814,8.5,200.93,1.971,0.103,2.67,-0.4391,-4.2916,200.9289,-0.18136,0.03751,0.00303,0.9827,-0.0467,-0.0341,-9.8179,-0.2423,-0.2883,0.0246,0.1328,3,19,0.56,0.91,0.27,24.655,19.83,93.5,35.7,20568.0,7550,7507,7562,7544,54.5,53.5,50.7,50.7,2.809,2.91,2.601,2.613,1.42,319.2,27.4,75.2,1007.04,-32.39,1.03,1.42,22.4,40.2,30.4,0,no_anomaly,0.0,0,0,0,0,12.9715849,77.5945814,8.5,0.0
2024-07-07T07:09:09.600Z,MISSION_0042,96,0,transit,SITE_BLR_003,12.9715891,77.5945788,9.0,199.46,2.045,0.065,2.65,1.6949,-3.0246,199.4637,-0.16934,0.02351,0.01903,0.98509,0.1929,-0.0846,-9.7851,-0.3668,0.1614,0.2646,0.0143,3,17,0.73,0.86,0.31,24.613,19.06,93.4,34.9,20557.0,7270,7554,7523,7505,53.5,52.8,54.1,50.9,2.788,2.619,2.989,3.132,1.59,320.3,27.2,74.0,1007.42,-31.33,-0.31,1.71,19.8,33.8,28.9,0,no_anomaly,0.0,0,0,0,0,12.9715891,77.5945788,9.0,0.0
2024-07-07T07:09:09.700Z,MISSION_0042,97,0,transit,SITE_BLR_003,12.9715902,77.5945734,9.5,196.91,2.559,0.142,3.15,1.6471,-3.0078,196.9094,-0.14733,0.02384,0.01807,0.98863,0.0146,-0.0768,-9.9253,0.9865,0.0052,-0.0503,0.1248,3,17,0.76,0.91,0.42,24.645,25.29,93.4,35.6,20545.0,7306,7512,7312,7684,55.5,48.5,55.3,51.4,2.51,2.83,2.928,2.732,2.05,317.3,27.1,74.7,1006.74,-27.97,-0.64,1.01,27.1,39.3,33.3,0,no_anomaly,0.0,0,0,0,0,12.9715902,77.5945734,9.5,0.0
2024-07-07T07:09:09.800Z,MISSION_0042,98,0,transit,SITE_BLR_003,12.9715989,77.5945694,10.0,197.22,2.381,0.163,3.41,0.3481,1.2988,197.2169,-0.14964,-0.01166,0.00131,0.98867,-0.0609,0.0125,-9.8413,0.6215,0.0612,0.6012,0.1342,3,19,0.6,0.79,0.2,24.713,19.7,93.3,35.3,20533.0,7667,7532,7596,7486,57.3,53.8,50.9,51.1,2.9,2.896,2.863,2.716,1.65,314.3,27.5,74.3,1007.47,-31.79,1.26,1.86,20.3,34.0,30.3,0,no_anomaly,0.0,0,0,0,0,12.9715989,77.5945694,10.0,0.0
2024-07-07T07:09:09.900Z,MISSION_0042,99,0,transit,SITE_BLR_003,12.9715972,77.5945745,10.5,196.39,2.56,0.091,2.86,-0.1034,-1.1294,196.3909,-0.14253,0.00988,0.00051,0.98974,-0.0282,-0.0123,-9.757,0.5574,1.0684,-0.0717,0.242,3,19,0.8,0.98,0.22,24.679,21.52,93.3,36.8,20522.0,7459,7811,7639,7562,53.6,51.8,54.2,49.4,2.4,3.044,2.756,3.159,2.26,319.6,27.4,74.6,1007.41,-24.74,0.75,1.79,25.2,40.0,32.2,0,no_anomaly,0.0,0,0,0,0,12.9715972,77.5945745,10.5,0.0
2024-07-07T07:09:10.000Z,MISSION_0042,100,0,transit,SITE_BLR_003,12.9716034,77.594576,11.0,196.43,2.104,0.073,2.7,-4.2916,2.2906,196.4279,-0.14348,-0.01442,-0.0399,0.98874,0.0051,-0.0357,-9.8329,0.0821,-0.4192,0.2865,0.1541,3,13,0.58,0.75,0.2,24.649,20.76,93.2,34.6,20510.0,7551,7477,7730,7578,53.1,54.2,50.1,49.9,2.753,2.934,2.684,2.575,1.9,314.3,27.1,74.3,1007.76,-30.87,0.9,1.71,22.4,33.9,31.1,0,no_anomaly,0.0,0,0,0,0,12.9716034,77.594576,11.0,0.0
2024-07-07T07:09:10.100Z,MISSION_0042,101,0,transit,SITE_BLR_003,12.9716017,77.5945736,11.5,196.5,1.673,0.103,2.94,1.5988,0.5002,196.5004,-0.14342,-0.00632,0.01318,0.98955,0.1333,-0.0474,-9.7523,-0.0865,-0.2539,-0.3182,0.0968,3,19,0.6,0.88,0.29,24.638,10.83,93.2,36.1,20498.0,7446,7558,7503,7743,53.6,54.5,53.7,53.6,2.752,2.759,2.865,2.787,1.7,314.5,27.2,75.0,1007.23,-27.79,0.6,1.07,17.7,37.7,29.7,0,no_anomaly,0.0,0,0,0,0,12.9716017,77.5945736,11.5,0.0
2024-07-07T07:09:10.200Z,MISSION_0042,102,0,transit,SITE_BLR_003,12.9716013,77.5945771,12.0,198.64,1.881,0.089,2.56,-1.6981,-2.0271,198.6426,-0.16167,0.01985,-0.01176,0.98658,-0.1262,0.0219,-9.8592,-0.2493,-0.6084,-0.0667,0.1743,3,17,0.86,0.96,0.29,24.643,17.29,93.1,35.2,20487.0,7591,7661,7488,7705,52.1,52.5,53.4,51.3,2.905,2.835,2.667,3.058,2.12,320.5,27.2,74.8,1007.29,-25.18,0.37,1.37,25.1,42.8,30.2,0,no_anomaly,0.0,0,0,0,0,12.9716013,77.5945771,12.0,0.0
2024-07-07T07:09:10.300Z,MISSION_0042,103,0,transit,SITE_BLR_003,12.9716055,77.5945757,12.5,198.94,1.909,0.189,2.77,0.7721,-2.6379,198.9365,-0.16461,0.0216,0.01043,0.98607,0.1203,0.0526,-9.7755,0.2614,0.0809,-0.2795,0.1606,3,14,0.64,0.97,0.25,24.603,21.66,93.1,35.8,20475.0,7548,7545,7758,7460,51.4,52.1,54.9,51.8,2.749,2.921,2.707,2.955,1.86,323.8,27.3,76.7,1006.86,-29.19,-0.2,1.11,24.9,37.9,30.9,0,no_anomaly,0.0,0,0,0,0,12.9716055,77.5945757,12.5,0.0
2024-07-07T07:09:10.400Z,MISSION_0042,104,0,transit,SITE_BLR_003,12.9716063,77.5945728,13.0,199.36,1.607,0.1,3.11,-1.0766,-2.3967,199.3613,-0.16792,0.02219,-0.00574,0.98553,0.0148,-0.0643,-9.8246,0.321,-0.2773,0.4262,0.171,3,18,0.67,0.77,0.29,24.688,18.4,93.0,35.4,20464.0,7726,7280,7283,7464,51.5,53.1,54.2,48.5,2.711,2.544,2.723,2.728,2.23,311.5,27.4,74.7,1007.33,-23.28,0.85,1.68,22.1,37.5,34.1,0,no_anomaly,0.0,0,0,0,0,12.9716063,77.5945728,13.0,0.0
2024-07-07T07:09:10.500Z,MISSION_0042,105,0,transit,SITE_BLR_003,12.9716052,77.594575,13.5,200.29,0.903,0.118,2.84,-0.2811,-2.0023,200.2895,-0.17607,0.01763,0.00066,0.98422,-0.0155,-0.0622,-9.8636,0.111,-0.3445,0.1162,0.1681,3,18,0.65,1.0,0.37,24.607,20.29,93.0,34.7,20452.0,7428,7243,7413,7209,53.8,49.6,53.2,48.9,2.655,3.049,2.84,3.028,1.59,325.1,27.2,73.6,1007.63,-28.6,0.8,1.35,22.4,39.7,29.7,0,no_anomaly,0.0,0,0,0,0,12.9716052,77.594575,13.5,0.0
2024-07-07T07:09:10.600Z,MISSION_0042,106,0,transit,SITE_BLR_003,12.9716088,77.5945678,14.0,201.6,0.508,0.099,3.72,2.6798,-2.3602,201.6046,-0.1878,0.01584,0.02682,0.98171,0.0247,0.0539,-9.8448,0.0131,0.4906,-0.2589,0.2166,3,11,0.68,1.04,0.22,24.648,18.15,92.9,35.6,20440.0,7595,7611,7673,7637,52.8,52.0,52.5,53.0,2.981,2.796,2.967,2.698,1.31,316.0,26.9,74.1,1007.35,-31.4,1.39,1.47,25.4,38.8,28.7,0,no_anomaly,0.0,0,0,0,0,12.9716088,77.5945678,14.0,0.0
2024-07-07T07:09:10.700Z,MISSION_0042,107,0,transit,SITE_BLR_003,12.9716097,77.5945651,14.5,200.18,0.717,0.042,4.03,3.1416,-0.4462,200.1842,-0.17527,-0.00097,0.02767,0.98413,-0.072,0.0084,-9.7977,-0.2254,-0.022,-0.4225,0.1656,3,11,0.67,0.98,0.3,24.632,22.39,92.9,36.8,20429.0,7368,7531,7683,7255,53.3,50.5,51.6,52.5,2.672,2.758,2.786,2.807,2.36,316.8,26.8,74.8,1007.25,-26.22,-1.64,1.78,20.5,36.5,31.1,0,no_anomaly,0.0,0,0,0,0,12.9716097,77.5945651,14.5,0.0
2024-07-07T07:09:10.800Z,MISSION_0042,108,0,transit,SITE_BLR_003,12.9716141,77.5945707,15.0,203.13,1.203,0.072,3.62,0.6477,-3.3215,203.1318,-0.20057,0.02726,0.01135,0.97923,0.1874,0.0541,-9.8793,-0.5696,0.0523,-0.0702,0.1409,3,11,0.52,1.22,0.2,24.612,20.52,92.8,35.9,20417.0,7690,7486,7355,7421,51.7,54.6,54.1,49.6,2.662,2.656,2.845,2.892,1.24,315.6,27.5,74.3,1007.62,-31.89,-0.39,1.69,20.2,33.5,30.4,0,no_anomaly,0.0,0,0,0,0,12.9716141,77.5945707,15.0,0.0
2024-07-07T07:09:10.900Z,MISSION_0042,109,0,transit,SITE_BLR_003,12.9716175,77.5945712,15.5,203.83,1.097,0.13,3.75,-2.021,-1.1819,203.829,-0.20623,0.01373,-0.01513,0.97829,0.0381,0.035,-9.8291,-0.3567,-0.1502,0.225,0.049,3,12,0.81,0.88,0.29,24.622,19.09,92.8,35.9,20405.0,7677,7537,7549,7498,51.0,52.2,52.9,52.3,2.917,2.549,2.543,2.782,1.41,328.0,27.4,73.6,1007.2,-29.58,1.01,1.82,23.2,33.5,30.3,0,no_anomaly,0.0,0,0,0,0,12.9716175,77.5945712,15.5,0.0
2024-07-07T07:09:11.000Z,MISSION_0042,110,0,transit,SITE_BLR_003,12.9716209,77.5945689,16.0,201.38,1.223,0.077,4.17,-0.6406,-2.3403,201.3799,-0.18534,0.0211,-0.0017,0.98245,-0.046,0.0422,-9.8132,-0.5228,-0.0009,-0.0682,0.0981,3,10,0.72,0.81,0.33,24.532,23.17,92.7,35.1,20394.0,7728,7380,7561,7704,52.3,51.4,52.6,53.5,2.597,2.761,2.966,2.718,1.72,313.3,27.5,74.9,1007.14,-28.51,-0.26,1.72,24.1,36.9,31.2,0,no_anomaly,0.0,0,0,0,0,12.9716209,77.5945689,16.0,0.0
2024-07-07T07:09:11.100Z,MISSION_0042,111,0,transit,SITE_BLR_003,12.9716154,77.5945735,16.5,202.29,1.864,0.115,3.41,4.7736,-2.5075,202.2939,-0.19401,0.0134,0.04508,0.97987,0.0073,-0.0033,-9.8052,0.2677,0.0766,0.1008,0.1201,3,18,0.78,1.01,0.35,24.554,15.87,92.6,35.5,20382.0,7563,7614,7689,7602,55.8,52.2,51.7,52.6,2.726,2.832,3.029,3.022,2.13,316.7,27.1,75.3,1006.99,-28.84,0.88,1.54,23.7,33.9,31.5,0,no_anomaly,0.0,0,0,0,0,12.9716154,77.5945735,16.5,0.0
2024-07-07T07:09:11.200Z,MISSION_0042,112,0,transit,SITE_BLR_003,12.9716197,77.5945723,17.0,201.73,2.002,0.069,3.78,1.2867,-1.2473,201.7263,-0.18856,0.00857,0.01308,0.98194,0.0567,0.0243,-9.8106,-0.3608,0.5586,0.2346,0.105,3,18,0.75,0.75,0.31,24.631,24.61,92.6,35.0,20370.0,7483,7373,7588,7563,50.9,52.7,52.8,54.8,2.706,2.616,2.893,2.713,1.1,319.6,27.2,74.3,1006.87,-30.33,0.49,1.45,26.1,38.2,30.0,0,no_anomaly,0.0,0,0,0,0,12.9716197,77.5945723,17.0,0.0
2024-07-07T07:09:11.300Z,MISSION_0042,113,0,transit,SITE_BLR_003,12.9716179,77.5945757,17.5,203.03,2.462,0.119,3.36,1.0031,-2.665,203.0328,-0.19979,0.02104,0.01322,0.97952,0.1552,-0.0359,-9.7915,0.0711,-0.848,0.1213,0.1928,3,14,0.83,0.92,0.33,24.618,14.51,92.5,35.7,20359.0,7590,7797,7756,7513,55.2,52.2,56.2,55.5,2.776,3.017,2.774,2.925,1.69,322.8,27.4,74.8,1007.42,-28.71,-0.51,1.63,20.2,37.1,30.3,0,no_anomaly,0.0,0,0,0,0,12.9716179,77.5945757,17.5,0.0
2024-07-07T07:09:11.400Z,MISSION_0042,114,0,transit,SITE_BLR_003,12.9716161,77.5945764,18.0,203.55,3.089,0.039,3.18,1.5815,-2.7212,203.5477,-0.20429,0.02043,0.01835,0.97852,0.0526,-0.0091,-9.7864,0.3792,1.6426,-0.3078,0.2328,3,10,0.57,0.8,0.26,24.505,18.53,92.5,35.6,20347.0,7546,7557,7777,7811,51.4,51.5,56.4,54.9,2.925,2.774,2.823,2.661,1.6,320.2,27.6,74.5,1007.08,-21.94,1.99,1.27,24.2,39.2,28.2,0,no_anomaly,0.0,0,0,0,0,12.9716161,77.5945764,18.0,0.0
2024-07-07T07:09:11.500Z,MISSION_0042,115,0,transit,SITE_BLR_003,12.9716127,77.5945749,18.5,204.25,3.168,0.044,3.13,-1.0633,-2.5269,204.2486,-0.20977,0.02351,-0.00444,0.97746,0.116,0.0598,-9.8421,-0.2768,-1.5014,0.5569,0.2086,3,14,0.76,0.96,0.4,24.519,18.57,92.4,34.8,20336.0,7637,7777,7359,7618,50.2,52.8,53.9,49.4,2.655,2.889,2.968,2.749,2.55,317.7,27.0,74.6,1006.9,-30.98,-0.17,1.03,20.6,37.0,27.2,0,no_anomaly,0.0,0,0,0,0,12.9716127,77.5945749,18.5,0.0
2024-07-07T07:09:11.600Z,MISSION_0042,116,0,transit,SITE_BLR_003,12.9716133,77.5945801,19.0,204.27,3.972,0.031,2.66,-0.3419,-1.6989,204.2738,-0.21018,0.01512,0.0002,0.97755,-0.0812,-0.0627,-9.7639,0.4623,0.1717,-0.0041,0.1343,3,19,0.67,1.19,0.25,24.633,20.08,92.4,34.7,20324.0,7645,7508,7587,7817,49.9,51.6,50.8,51.4,2.761,3.001,2.785,2.914,3.14,321.3,27.3,74.1,1007.13,-30.56,-0.72,1.49,19.4,37.1,27.7,0,no_anomaly,0.0,0,0,0,0,12.9716133,77.5945801,19.0,0.0
2024-07-07T07:09:11.700Z,MISSION_0042,117,0,transit,SITE_BLR_003,12.9716089,77.5945793,19.5,205.51,3.572,0.05,2.51,-2.3541,-0.4544,205.5095,-0.22065,0.0084,-0.01916,0.97513,0.0912,-0.0173,-9.7952,0.4796,0.2863,-0.004,0.1513,3,16,0.73,1.09,0.34,24.642,18.44,92.3,35.3,20312.0,7451,7783,7594,7559,52.9,53.0,51.8,51.9,2.882,2.659,2.789,2.92,1.52,317.5,26.8,74.5,1007.13,-33.59,-2.14,2.01,20.6,35.5,28.8,0,no_anomaly,0.0,0,0,0,0,12.9716089,77.5945793,19.5,0.0
2024-07-07T07:09:11.800Z,MISSION_0042,118,0,transit,SITE_BLR_003,12.9716059,77.5945816,20.0,204.22,3.674,0.103,2.15,-2.4348,-0.6375,204.2157,-0.20959,0.00989,-0.01961,0.97754,-0.0365,0.0458,-9.7323,-0.0789,0.4666,-0.1401,0.1235,3,20,0.72,0.77,0.2,24.634,17.4,92.3,35.1,20301.0,7795,7588,7462,7489,53.4,53.7,51.3,54.6,2.935,2.477,2.741,2.887,2.31,315.2,27.2,74.8,1007.13,-26.85,-0.72,1.18,22.7,40.0,31.0,0,no_anomaly,0.0,0,0,0,0,12.9716059,77.5945816,20.0,0.0
2024-07-07T07:09:11.900Z,MISSION_0042,119,0,transit,SITE_BLR_003,12.9716021,77.5945805,20.5,206.03,3.538,0.07,2.18,2.9704,-1.5017,206.0294,-0.22544,0.00693,0.0282,0.97382,-0.1735,-0.007,-9.8236,-0.0552,0.2373,0.1833,0.124,3,16,0.79,0.84,0.25,24.616,23.19,92.2,35.6,20289.0,7367,7435,7523,7503,53.8,53.5,51.3,50.5,2.942,2.686,2.859,2.833,1.98,314.0,27.4,74.1,1007.14,-26.21,-1.13,1.01,23.2,40.2,25.8,0,no_anomaly,0.0,0,0,0,0,12.9716021,77.5945805,20.5,0.0
2024-07-07T07:09:12.000Z,MISSION_0042,120,0,transit,SITE_BLR_003,12.971603,77.5945758,21.0,205.94,3.403,0.104,2.71,2.0747,0.0549,205.9406,-0.2244,-0.00453,0.01753,0.97433,-0.0718,-0.0263,-9.6805,0.289,-0.0957,0.0745,0.1735,3,13,0.8,0.92,0.31,24.575,18.5,92.2,35.7,20277.0,7681,7685,7376,7753,51.1,54.2,52.2,50.2,2.823,2.756,2.831,2.574,2.24,307.7,27.3,75.5,1007.2,-27.96,-0.31,1.95,24.4,36.4,31.7,0,no_anomaly,0.0,0,0,0,0,12.971603,77.5945758,21.0,0.0
2024-07-07T07:09:12.100Z,MISSION_0042,121,0,transit,SITE_BLR_003,12.9716044,77.5945807,21.5,209.41,3.544,0.08,2.2,2.0788,-2.3257,209.41,-0.2541,0.01502,0.02269,0.96679,-0.218,0.0294,-9.7946,-0.8911,-0.1531,0.333,0.0717,3,16,0.74,0.99,0.3,24.57,18.12,92.1,35.8,20266.0,7544,7723,7611,7550,56.5,57.4,52.4,49.2,2.766,2.789,2.646,2.908,0.79,330.4,27.3,75.1,1007.38,-32.15,0.3,1.57,22.0,40.4,27.5,0,no_anomaly,0.0,0,0,0,0,12.9716044,77.5945807,21.5,0.0
2024-07-07T07:09:12.200Z,MISSION_0042,122,0,transit,SITE_BLR_003,12.9716068,77.5945824,22.0,208.21,3.362,0.075,2.1,1.0121,-1.0783,208.2097,-0.24376,0.00697,0.01086,0.96975,0.0134,-0.0662,-9.7988,0.4609,0.115,-0.2674,0.1988,3,12,0.74,0.6,0.27,24.607,15.44,92.1,35.1,20254.0,7719,7474,7875,7575,54.0,49.2,53.8,53.5,2.703,2.942,2.734,2.656,1.56,317.5,27.1,74.4,1007.38,-29.92,1.01,1.44,22.4,31.0,29.5,0,no_anomaly,0.0,0,0,0,0,12.9716068,77.5945824,22.0,0.0
2024-07-07T07:09:12.300Z,MISSION_0042,123,0,transit,SITE_BLR_003,12.9716048,77.5945859,22.0,207.13,3.403,0.156,1.66,-4.8632,-2.0736,207.1273,-0.23353,0.02752,-0.037,0.97126,-0.0032,-0.0391,-9.7194,0.5627,0.5713,-0.1359,0.1554,3,10,0.73,1.03,0.2,24.473,18.56,92.0,36.8,20242.0,7958,7619,7731,7422,48.9,50.4,53.6,55.9,2.802,2.933,2.731,2.982,0.73,317.4,27.4,74.4,1007.13,-29.05,-0.76,1.24,22.5,38.5,28.5,0,no_anomaly,0.0,0,0,0,0,12.9716048,77.5945859,22.0,0.0
2024-07-07T07:09:12.400Z,MISSION_0042,124,0,transit,SITE_BLR_003,12.9716035,77.5945864,22.0,206.68,3.134,0.164,1.56,1.1533,1.1619,206.6787,-0.2306,-0.01219,0.00745,0.97294,-0.1136,0.0569,-9.81,1.327,-0.8321,-0.3045,0.0169,3,18,0.79,0.84,0.36,24.643,16.25,92.0,35.1,20231.0,7523,7412,7769,7453,54.9,53.0,55.6,54.6,2.885,2.837,2.675,3.084,1.28,320.1,27.1,75.0,1007.4,-26.06,0.74,1.68,23.2,38.7,30.6,0,no_anomaly,0.0,0,0,0,0,12.9716035,77.5945864,22.0,0.0
2024-07-07T07:09:12.500Z,MISSION_0042,125,0,transit,SITE_BLR_003,12.9716017,77.5945873,22.0,203.26,3.04,0.065,1.42,-0.0152,-0.6368,203.2571,-0.20156,0.00547,0.00099,0.97946,-0.0257,0.0875,-9.8251,0.9328,-0.8826,-0.5323,0.1178,3,10,0.51,0.78,0.2,24.51,20.34,91.9,36.2,20219.0,7548,7682,7502,7587,53.6,54.4,50.5,54.5,2.689,2.909,2.811,2.854,1.91,314.1,27.2,74.4,1007.37,-29.41,0.18,1.73,20.3,40.0,27.0,0,no_anomaly,0.0,0,0,0,0,12.9716017,77.5945873,22.0,0.0
2024-07-07T07:09:12.600Z,MISSION_0042,126,0,transit,SITE_BLR_003,12.9716035,77.5945892,22.0,204.31,3.012,0.13,1.27,-0.3814,-0.018,204.3137,-0.21059,0.00085,-0.00322,0.97757,-0.0751,0.0482,-9.8394,0.1997,0.3223,-0.0709,0.0704,3,18,0.86,1.28,0.42,24.631,19.06,91.9,35.6,20208.0,7649,7309,7699,7517,54.6,51.9,53.9,51.8,2.617,2.812,2.993,2.987,1.03,325.5,27.3,76.2,1007.6,-25.78,2.13,1.86,22.8,41.8,27.7,0,no_anomaly,0.0,0,0,0,0,12.9716035,77.5945892,22.0,0.0
2024-07-07T07:09:12.700Z,MISSION_0042,127,0,transit,SITE_BLR_003,12.9716034,77.5945866,22.0,206.08,3.275,0.201,1.54,-1.0331,-2.1363,206.0796,-0.22542,0.02019,-0.00458,0.97404,0.0583,-0.0571,-9.8905,-0.5658,0.0396,-0.6297,0.1338,3,10,0.76,0.87,0.26,24.557,16.88,91.8,35.0,20196.0,7572,7416,7743,7629,54.0,53.9,52.5,52.7,2.807,2.816,2.731,2.925,0.89,314.1,27.4,75.3,1007.1,-31.38,2.37,2.03,23.8,34.3,28.4,0,no_anomaly,0.0,0,0,0,0,12.9716034,77.5945866,22.0,0.0
2024-07-07T07:09:12.800Z,MISSION_0042,128,0,transit,SITE_BLR_003,12.9716011,77.5945876,22.0,207.42,3.656,0.061,1.39,0.5611,-1.0072,207.4185,-0.23702,0.00738,0.00684,0.97145,-0.0235,-0.0169,-9.7553,-1.119,0.5953,0.0715,0.1701,3,13,0.7,1.04,0.23,24.569,18.33,91.7,35.1,20184.0,7403,7501,7601,7725,55.6,53.9,54.4,52.9,2.653,2.869,2.795,2.911,1.28,311.7,27.3,74.9,1007.39,-22.91,0.93,1.42,22.1,32.7,25.5,0,no_anomaly,0.0,0,0,0,0,12.9716011,77.5945876,22.0,0.0
2024-07-07T07:09:12.900Z,MISSION_0042,129,0,transit,SITE_BLR_003,12.9715968,77.5945871,22.0,206.29,3.71,0.09,1.47,-1.0994,-0.6549,206.2853,-0.22731,0.00775,-0.00804,0.97376,-0.1173,0.0275,-9.8144,0.3626,-0.2463,0.0386,0.0418,3,17,0.9,0.86,0.4,24.553,22.23,91.7,36.4,20173.0,7628,7692,7462,7600,54.9,55.5,51.2,49.7,2.998,2.787,2.786,3.047,1.98,320.6,27.4,74.5,1007.73,-25.29,-1.37,1.06,21.5,38.9,27.4,0,no_anomaly,0.0,0,0,0,0,12.9715968,77.5945871,22.0,0.0
