timestamp_utc,mission_id,frame_id,waypoint_id,inspection_phase,site_id,latitude_deg,longitude_deg,altitude_m,heading_deg,ground_speed_ms,vertical_speed_ms,distance_to_tower_m,roll_deg,pitch_deg,yaw_deg,quat_w,quat_x,quat_y,quat_z,accel_x_ms2,accel_y_ms2,accel_z_ms2,gyro_x_rads,gyro_y_rads,gyro_z_rads,vibration_level,gps_fix_type,gps_satellite_count,gps_hdop,gps_vdop,position_error_m,battery_voltage_v,battery_current_a,battery_remaining_pct,battery_temp_c,battery_capacity_mah,motor_fl_rpm,motor_fr_rpm,motor_rl_rpm,motor_rr_rpm,motor_fl_temp_c,motor_fr_temp_c,motor_rl_temp_c,motor_rr_temp_c,motor_fl_thrust_n,motor_fr_thrust_n,motor_rl_thrust_n,motor_rr_thrust_n,wind_speed_ms,wind_dir_deg,air_temp_c,humidity_pct,pressure_hpa,gimbal_pitch_deg,gimbal_roll_deg,zoom_factor,ir_temp_min_c,ir_temp_max_c,ir_temp_avg_c,anomaly_detected,anomaly_class,anomaly_confidence,anomaly_bbox_x,anomaly_bbox_y,anomaly_bbox_w,anomaly_bbox_h,anomaly_gps_lat,anomaly_gps_lon,anomaly_gps_alt_m,ir_temp_delta_c
2024-02-22T17:39:00.000Z,MISSION_0006,0,0,takeoff,SITE_PUN_007,18.520398,73.8567047,1.5,100.64,0.038,0.09,0.57,0.9086,-3.4876,100.6443,0.63797,0.02848,-0.01333,0.76942,-0.1154,0.0073,-9.784,0.0422,0.0613,0.201,0.1489,3,12,0.73,0.97,0.29,24.805,14.35,98.8,35.5,21733.0,7120,7286,7184,7006,52.4,53.6,52.5,51.8,2.706,2.946,2.868,2.929,5.91,104.2,27.7,42.2,1006.48,-26.27,-0.55,1.73,24.0,34.1,29.3,0,no_anomaly,0.0,0,0,0,0,18.520398,73.8567047,1.5,0.0
2024-02-22T17:39:00.100Z,MISSION_0006,1,0,takeoff,SITE_PUN_007,18.5204025,73.8567007,3.0,98.91,0.46,0.092,0.28,-3.2014,-3.102,98.9084,0.65014,0.00241,-0.03881,0.75882,0.0451,-0.049,-9.7953,0.0115,0.1701,0.1508,0.2077,3,14,0.56,0.87,0.2,24.688,18.2,98.7,35.3,21713.0,7331,7474,7394,7130,51.2,51.5,49.6,54.9,2.704,2.79,2.822,2.915,6.91,99.6,27.7,42.5,1006.19,-29.43,-1.48,1.22,23.3,38.2,29.0,0,no_anomaly,0.0,0,0,0,0,18.5204025,73.8567007,3.0,0.0
2024-02-22T17:39:00.200Z,MISSION_0006,2,0,takeoff,SITE_PUN_007,18.5203953,73.8567029,4.5,99.95,0.19,0.172,0.61,1.0303,-1.8374,99.9492,0.64291,0.01806,-0.00343,0.76572,-0.1882,-0.1071,-9.893,-0.2703,-0.0477,-0.4623,0.2636,3,14,0.77,1.21,0.32,24.734,17.19,98.6,35.9,21693.0,6987,6918,7056,7155,52.4,55.9,55.8,51.5,2.984,2.777,2.593,2.7,5.43,94.5,27.2,42.5,1006.3,-30.33,0.63,1.47,20.9,35.7,27.3,0,no_anomaly,0.0,0,0,0,0,18.5203953,73.8567029,4.5,0.0
2024-02-22T17:39:00.300Z,MISSION_0006,3,0,takeoff,SITE_PUN_007,18.5203951,73.8567011,5.0,99.07,0.523,0.032,0.56,0.6679,-1.0592,99.0676,0.64892,0.01081,-0.00156,0.76078,-0.1786,0.082,-9.8785,0.1721,-0.3406,-0.0194,0.2045,3,12,0.78,0.91,0.4,24.741,17.74,98.5,35.6,21672.0,7524,7060,7132,7287,49.9,49.7,55.9,49.1,2.734,2.851,2.887,2.945,6.15,91.7,27.4,42.5,1006.67,-29.57,-0.21,1.64,20.0,38.7,29.3,0,no_anomaly,0.0,0,0,0,0,18.5203951,73.8567011,5.0,0.0
2024-02-22T17:39:00.400Z,MISSION_0006,4,0,takeoff,SITE_PUN_007,18.5203942,73.8567018,5.0,99.19,0.637,0.124,0.68,0.1287,-1.6059,99.194,0.64808,0.0114,-0.00823,0.76144,0.0552,0.035,-9.8509,0.1711,0.0077,-0.2908,0.2463,3,15,0.7,0.95,0.29,24.798,16.82,98.4,35.5,21652.0,7597,7175,7270,7295,55.9,53.8,51.1,52.5,2.748,2.659,2.962,3.046,6.81,88.0,27.5,41.8,1006.34,-31.04,1.65,1.16,22.5,38.5,29.2,0,no_anomaly,0.0,0,0,0,0,18.5203942,73.8567018,5.0,0.0
2024-02-22T17:39:00.500Z,MISSION_0006,5,0,takeoff,SITE_PUN_007,18.520399,73.8567016,5.0,98.85,0.62,0.121,0.21,4.0688,-0.6704,98.8466,0.64989,0.02753,0.02316,0.75918,0.1129,-0.0876,-9.87,0.5336,0.6724,-0.1516,0.2125,3,17,0.86,0.81,0.39,24.68,14.94,98.3,35.3,21631.0,7180,7196,7313,7255,52.1,51.8,51.3,52.2,2.883,2.944,2.821,2.823,6.34,95.5,27.3,42.6,1006.48,-30.76,-0.47,1.13,18.9,38.3,25.9,0,no_anomaly,0.0,0,0,0,0,18.520399,73.8567016,5.0,0.0
2024-02-22T17:39:00.600Z,MISSION_0006,6,0,takeoff,SITE_PUN_007,18.5204015,73.8567015,5.0,101.06,1.223,0.196,0.24,-1.3307,-4.5395,101.0606,0.63548,0.02319,-0.03413,0.77101,0.2276,0.0291,-9.8421,-0.0999,0.2124,0.3957,0.138,3,20,0.62,0.91,0.2,24.798,15.98,98.2,36.2,21611.0,7400,7180,7395,7035,53.6,54.5,53.3,53.3,2.766,2.644,3.079,2.426,6.85,89.6,28.1,41.9,1006.61,-31.13,-0.22,1.46,21.3,38.1,28.5,0,no_anomaly,0.0,0,0,0,0,18.5204015,73.8567015,5.0,0.0
2024-02-22T17:39:00.700Z,MISSION_0006,7,0,takeoff,SITE_PUN_007,18.5203996,73.8567003,5.0,100.73,1.072,-0.001,0.06,0.0693,-0.2242,100.7253,0.63792,0.00189,-0.00078,0.7701,0.282,0.0454,-9.7448,0.1212,0.0075,0.2842,0.2301,3,19,0.91,0.89,0.39,24.688,23.73,98.1,35.4,21591.0,6988,7279,7263,7469,53.3,54.0,49.9,53.2,2.912,2.627,2.778,2.606,6.04,99.0,27.6,42.3,1006.9,-31.81,-0.6,1.96,21.6,33.8,28.5,0,no_anomaly,0.0,0,0,0,0,18.5203996,73.8567003,5.0,0.0
2024-02-22T17:39:00.800Z,MISSION_0006,8,0,takeoff,SITE_PUN_007,18.5203958,73.8566972,5.0,99.83,0.792,0.205,0.56,1.1057,-2.4083,99.8287,0.6436,0.02229,-0.00615,0.76501,-0.2893,0.0708,-9.7843,-0.1469,-0.1291,0.0843,0.203,3,11,0.79,0.6,0.21,24.744,14.3,98.0,34.5,21570.0,7191,7294,7276,6981,52.0,51.3,52.5,51.2,2.646,2.829,2.693,2.979,5.99,89.7,27.6,42.2,1006.22,-36.23,-0.38,1.57,23.3,34.1,29.2,0,no_anomaly,0.0,0,0,0,0,18.5203958,73.8566972,5.0,0.0
2024-02-22T17:39:00.900Z,MISSION_0006,9,0,takeoff,SITE_PUN_007,18.5203959,73.8566986,5.0,99.97,0.581,0.08,0.48,-4.2775,-3.1586,99.9656,0.64311,-0.0029,-0.04628,0.76437,0.0307,0.0185,-9.8427,0.6994,-0.7047,0.1472,0.2318,3,16,0.77,0.91,0.29,24.77,17.82,98.0,36.1,21550.0,7296,7200,7219,7199,55.9,50.8,53.8,53.4,2.544,3.075,3.018,3.004,6.42,90.2,27.5,41.8,1006.34,-30.5,0.29,1.7,21.4,34.0,29.9,0,no_anomaly,0.0,0,0,0,0,18.5203959,73.8566986,5.0,0.0
2024-02-22T17:39:01.000Z,MISSION_0006,10,0,takeoff,SITE_PUN_007,18.5203977,73.8567003,5.0,100.21,0.812,0.078,0.26,-3.6984,-1.943,100.214,0.64135,-0.00769,-0.03562,0.76638,-0.2619,0.1057,-9.796,-0.3759,-0.2782,-0.6965,0.2092,3,14,0.64,1.14,0.23,24.787,17.06,97.9,36.0,21530.0,7402,7328,7457,7416,52.6,49.6,53.2,57.7,3.125,2.836,2.735,3.145,5.94,91.7,27.6,41.9,1006.59,-26.18,1.16,1.38,22.5,41.4,32.2,0,no_anomaly,0.0,0,0,0,0,18.5203977,73.8567003,5.0,0.0
2024-02-22T17:39:01.100Z,MISSION_0006,11,0,takeoff,SITE_PUN_007,18.5203966,73.8567018,5.0,101.8,1.006,0.176,0.43,-1.4612,-3.3008,101.7989,0.63066,0.01431,-0.02805,0.77542,0.1325,0.018,-9.7909,-0.0229,-0.0154,0.2774,0.2771,3,15,0.5,0.85,0.2,24.81,21.09,97.8,35.2,21509.0,7369,7124,7499,7440,52.0,52.1,54.9,51.0,2.8,2.759,2.735,2.67,6.32,97.3,27.5,42.7,1006.95,-32.12,-0.07,1.17,21.4,41.8,30.7,0,no_anomaly,0.0,0,0,0,0,18.5203966,73.8567018,5.0,0.0
2024-02-22T17:39:01.200Z,MISSION_0006,12,0,takeoff,SITE_PUN_007,18.5203974,73.8567009,5.0,101.78,0.484,0.105,0.3,2.3418,-3.7033,101.7805,0.62983,0.03795,-0.00453,0.77579,-0.0474,0.0456,-9.7349,0.1585,-0.2746,-0.3286,0.2283,3,19,0.88,1.0,0.37,24.643,8.16,97.7,34.9,21489.0,7471,7253,7243,7425,54.2,50.4,51.9,51.8,2.563,2.634,2.663,2.734,6.45,89.2,27.4,41.8,1006.64,-31.97,1.45,1.68,20.7,37.4,28.7,0,no_anomaly,0.0,0,0,0,0,18.5203974,73.8567009,5.0,0.0
2024-02-22T17:39:01.300Z,MISSION_0006,13,0,takeoff,SITE_PUN_007,18.5203982,73.8567019,5.0,103.13,0.754,0.184,0.29,4.2676,-2.1516,103.1308,0.62053,0.03784,0.0175,0.78307,-0.3525,0.0205,-9.8802,0.2389,-0.4974,0.1709,0.2833,3,17,0.8,0.99,0.29,24.758,14.75,97.6,35.4,21469.0,7493,7342,7389,7013,54.8,50.2,52.6,50.0,2.96,2.911,2.617,2.754,6.02,95.0,27.4,41.5,1006.94,-28.69,0.44,1.06,18.9,34.3,26.9,0,no_anomaly,0.0,0,0,0,0,18.5203982,73.8567019,5.0,0.0
2024-02-22T17:39:01.400Z,MISSION_0006,14,0,takeoff,SITE_PUN_007,18.5203962,73.8567019,5.0,103.61,0.531,0.134,0.47,-0.8434,-2.4481,103.6092,0.61831,0.01224,-0.01899,0.78561,-0.0552,-0.0579,-9.9071,0.4041,0.0882,-0.3865,0.2041,3,19,0.6,1.0,0.35,24.778,16.66,97.5,36.0,21448.0,7175,7757,7353,7198,54.4,53.1,49.4,51.0,2.803,2.586,2.881,2.961,5.47,100.2,27.9,42.1,1006.66,-33.8,-0.02,1.67,22.2,35.0,32.8,0,no_anomaly,0.0,0,0,0,0,18.5203962,73.8567019,5.0,0.0
2024-02-22T17:39:01.500Z,MISSION_0006,15,0,takeoff,SITE_PUN_007,18.5204001,73.8567059,5.0,103.91,0.0,0.153,0.65,1.7292,-2.4953,103.9119,0.61579,0.02644,-0.00154,0.78746,0.0267,0.0716,-9.7545,0.1569,0.3696,-0.0076,0.2045,3,14,0.75,1.01,0.37,24.762,12.53,97.4,35.8,21428.0,7176,7177,7278,7274,53.8,54.1,52.1,54.7,2.807,2.906,2.82,2.895,5.9,94.4,27.4,42.7,1006.47,-36.26,0.72,1.08,20.0,36.5,31.2,0,no_anomaly,0.0,0,0,0,0,18.5204001,73.8567059,5.0,0.0
2024-02-22T17:39:01.600Z,MISSION_0006,16,0,takeoff,SITE_PUN_007,18.5204018,73.8567057,5.0,103.81,0.0,0.065,0.67,-2.1123,-1.6124,103.805,0.61704,-0.0003,-0.02318,0.78659,0.0409,-0.0016,-9.8168,-0.4258,0.3044,-0.1822,0.3251,3,20,0.83,0.89,0.3,24.775,17.52,97.3,35.8,21408.0,7297,7484,7384,7349,53.8,51.3,50.3,53.9,2.742,2.139,2.705,2.612,4.64,89.8,27.9,43.4,1006.67,-29.57,-0.41,1.27,23.9,34.3,30.2,0,no_anomaly,0.0,0,0,0,0,18.5204018,73.8567057,5.0,0.0
2024-02-22T17:39:01.700Z,MISSION_0006,17,0,takeoff,SITE_PUN_007,18.5204088,73.8567078,5.0,102.39,0.0,0.116,1.31,0.4991,-1.0722,102.3885,0.62662,0.01002,-0.00247,0.77926,-0.1118,-0.063,-9.8476,-0.8506,0.0726,0.3031,0.2452,3,16,0.7,0.87,0.22,24.751,15.78,97.2,34.9,21387.0,7526,7355,7336,7219,50.5,50.7,51.1,48.5,2.989,2.596,2.792,2.61,6.01,92.4,27.8,41.7,1006.56,-26.24,-1.28,1.87,26.3,40.4,32.9,0,no_anomaly,0.0,0,0,0,0,18.5204088,73.8567078,5.0,0.0
2024-02-22T17:39:01.800Z,MISSION_0006,18,0,takeoff,SITE_PUN_007,18.5204089,73.8567085,5.0,104.38,0.428,0.031,1.37,2.3636,-4.2622,104.3766,0.61191,0.04201,-0.00651,0.78979,-0.0631,-0.011,-9.799,0.3546,0.2318,0.2402,0.2556,3,18,0.66,0.99,0.3,24.868,18.3,97.1,35.5,21367.0,7419,7430,7363,7111,51.5,52.1,52.9,53.6,2.652,2.734,2.749,2.89,6.37,100.7,27.9,42.7,1006.62,-27.52,-2.31,1.45,21.6,41.4,29.7,0,no_anomaly,0.0,0,0,0,0,18.5204089,73.8567085,5.0,0.0
2024-02-22T17:39:01.900Z,MISSION_0006,19,0,takeoff,SITE_PUN_007,18.5204113,73.856708,5.0,105.91,0.26,0.134,1.54,1.1787,-1.0922,105.9076,0.60232,0.0138,0.00247,0.79813,0.0457,0.0746,-9.7624,-0.6902,-0.1568,0.0294,0.2442,3,13,0.7,0.96,0.31,24.692,20.48,97.0,36.3,21347.0,7277,6986,7123,7363,48.3,51.9,52.9,52.2,2.784,2.49,2.775,3.164,5.89,90.7,27.7,42.2,1006.6,-28.06,0.07,1.21,19.9,39.2,32.1,0,no_anomaly,0.0,0,0,0,0,18.5204113,73.856708,5.0,0.0
2024-02-22T17:39:02.000Z,MISSION_0006,20,0,takeoff,SITE_PUN_007,18.520418,73.8567069,5.0,106.2,0.349,0.045,2.14,-1.9511,-2.0417,106.1969,0.6005,0.00402,-0.02431,0.79924,-0.0416,0.0676,-9.8471,1.1129,-1.418,0.3514,0.1968,3,17,0.74,0.93,0.3,24.661,20.02,96.9,36.4,21326.0,7588,7492,6685,7167,53.4,54.2,52.8,53.9,2.837,2.811,2.918,2.879,5.72,90.7,27.4,41.9,1006.44,-27.99,2.51,1.78,19.9,33.9,27.9,0,no_anomaly,0.0,0,0,0,0,18.520418,73.8567069,5.0,0.0
2024-02-22T17:39:02.100Z,MISSION_0006,21,0,takeoff,SITE_PUN_007,18.520415,73.8567036,5.0,105.77,0.566,0.166,1.72,2.3994,-3.8435,105.7743,0.60236,0.03936,-0.00354,0.79725,0.0861,0.0415,-9.7913,-1.1862,0.1215,-0.0719,0.2404,3,17,0.78,0.95,0.34,24.701,20.84,96.8,36.0,21306.0,7233,7374,7470,7133,52.9,54.8,52.3,54.4,2.749,2.87,3.071,2.82,5.37,95.8,27.1,42.5,1007.04,-30.98,-1.26,1.53,25.6,39.5,32.4,0,no_anomaly,0.0,0,0,0,0,18.520415,73.8567036,5.0,0.0
2024-02-22T17:39:02.200Z,MISSION_0006,22,0,takeoff,SITE_PUN_007,18.5204137,73.8567054,5.0,105.27,0.625,0.048,1.64,-2.1908,-3.3128,105.2732,0.60694,0.01137,-0.03273,0.79399,-0.0191,-0.0417,-9.8058,-0.6977,0.1983,-0.4763,0.2103,3,16,0.61,0.92,0.2,24.71,14.65,96.8,35.0,21285.0,7412,7197,7083,7214,49.8,50.6,52.5,51.3,2.888,2.977,2.833,2.84,5.61,90.4,27.4,42.4,1006.83,-31.96,0.01,1.43,18.8,38.9,29.2,0,no_anomaly,0.0,0,0,0,0,18.5204137,73.8567054,5.0,0.0
2024-02-22T17:39:02.300Z,MISSION_0006,23,0,takeoff,SITE_PUN_007,18.52041,73.8567045,5.0,105.25,0.397,0.11,1.22,-2.6641,-1.0126,105.2519,0.60699,-0.00709,-0.02384,0.79432,0.084,-0.0603,-9.8134,-0.2144,0.3186,0.0157,0.1956,3,13,0.5,0.9,0.24,24.753,25.47,96.7,35.0,21265.0,7268,6938,7292,7266,54.2,53.3,53.6,53.3,2.616,3.022,2.74,2.872,6.46,105.1,27.4,43.5,1006.66,-34.19,0.31,1.45,23.5,34.6,30.7,0,no_anomaly,0.0,0,0,0,0,18.52041,73.8567045,5.0,0.0
2024-02-22T17:39:02.400Z,MISSION_0006,24,0,takeoff,SITE_PUN_007,18.5204121,73.856705,5.0,103.22,0.0,0.145,1.46,2.3013,-1.1154,103.2164,0.62073,0.0201,0.0097,0.78371,-0.2129,0.0964,-9.7815,-0.1436,-0.1056,-0.1806,0.1724,3,16,0.57,1.02,0.22,24.734,17.59,96.6,35.3,21245.0,7403,7455,7308,7447,53.0,51.5,51.5,57.9,2.796,2.804,3.194,2.659,6.15,87.3,27.3,42.4,1005.95,-33.62,-0.42,1.64,21.7,37.0,29.2,0,no_anomaly,0.0,0,0,0,0,18.5204121,73.856705,5.0,0.0
2024-02-22T17:39:02.500Z,MISSION_0006,25,0,takeoff,SITE_PUN_007,18.5204147,73.8567051,5.0,102.39,0.149,0.186,1.74,5.0791,-0.9136,102.3889,0.62577,0.03397,0.02954,0.77871,0.1889,-0.0249,-9.8282,0.2422,0.7114,0.3929,0.2652,3,20,0.9,0.99,0.5,24.725,17.22,96.5,36.0,21224.0,7178,7206,7579,7249,50.4,53.1,55.0,51.6,2.857,2.782,2.925,2.761,6.88,82.8,27.5,41.5,1006.39,-38.2,1.08,1.71,23.1,37.7,29.1,0,no_anomaly,0.0,0,0,0,0,18.5204147,73.8567051,5.0,0.0
2024-02-22T17:39:02.600Z,MISSION_0006,26,0,takeoff,SITE_PUN_007,18.5204171,73.8567065,5.0,103.82,0.0,0.072,2.04,7.3813,-3.3505,103.8239,0.61385,0.06265,0.03264,0.78626,0.0475,-0.0154,-9.8368,-0.1311,-0.3566,0.4452,0.3189,3,18,0.73,0.93,0.24,24.663,20.88,96.4,34.7,21204.0,7028,7283,7214,7123,53.3,47.1,52.4,48.9,2.637,2.855,2.989,2.8,6.85,88.3,27.1,41.4,1006.82,-28.23,-0.2,1.88,26.5,40.0,32.3,0,no_anomaly,0.0,0,0,0,0,18.5204171,73.8567065,5.0,0.0
2024-02-22T17:39:02.700Z,MISSION_0006,27,0,takeoff,SITE_PUN_007,18.520416,73.8567073,5.0,103.3,0.177,0.061,1.96,3.1329,-1.7267,103.2954,0.61987,0.02877,0.01209,0.78408,0.2651,-0.0715,-9.8241,-0.4295,-0.3638,-0.2815,0.2555,3,13,0.64,0.69,0.2,24.706,18.57,96.3,36.0,21184.0,7208,7226,7060,7184,52.2,50.7,51.5,53.9,2.885,2.781,2.776,2.741,5.13,80.7,27.7,42.3,1006.33,-33.47,-0.38,1.92,23.3,41.5,32.8,0,no_anomaly,0.0,0,0,0,0,18.520416,73.8567073,5.0,0.0
2024-02-22T17:39:02.800Z,MISSION_0006,28,0,takeoff,SITE_PUN_007,18.5204175,73.856707,5.0,103.02,0.284,0.042,2.1,-4.7875,-0.7435,103.0188,0.62204,-0.02092,-0.03672,0.78184,0.1388,0.0106,-9.7717,-0.1084,-0.4456,-0.0012,0.18,3,20,0.65,0.79,0.23,24.64,14.12,96.2,35.3,21163.0,7010,7057,7068,7160,50.0,54.9,53.0,51.4,3.075,2.862,2.605,2.852,6.07,97.3,27.5,41.5,1006.4,-35.01,-0.61,1.78,24.0,32.4,30.7,0,no_anomaly,0.0,0,0,0,0,18.5204175,73.856707,5.0,0.0
2024-02-22T17:39:02.900Z,MISSION_0006,29,0,takeoff,SITE_PUN_007,18.5204175,73.8567051,5.0,104.55,0.151,0.117,2.03,2.5655,-3.2039,104.5496,0.61099,0.0358,0.0006,0.79083,-0.0504,0.0679,-9.8936,-0.455,0.3234,-0.2561,0.1997,3,20,0.74,0.81,0.37,24.666,18.9,96.1,36.4,21143.0,7435,7388,7184,7429,49.1,52.6,51.4,53.2,2.843,2.657,2.866,2.936,6.91,85.9,27.4,42.2,1006.23,-33.13,0.49,1.01,20.2,33.7,29.8,0,no_anomaly,0.0,0,0,0,0,18.5204175,73.8567051,5.0,0.0
2024-02-22T17:39:03.000Z,MISSION_0006,30,0,takeoff,SITE_PUN_007,18.520415,73.8567064,5.0,104.01,0.0,0.007,1.82,8.0442,-5.0956,104.0057,0.61104,0.07808,0.02792,0.78724,-0.1298,-0.0614,-9.8066,-0.6048,0.5971,-0.3508,0.2218,3,18,0.75,0.93,0.2,24.679,18.0,96.0,36.4,21123.0,7095,7265,7189,7235,52.5,53.0,47.0,54.4,2.648,2.631,2.602,2.847,6.41,94.2,27.4,41.6,1006.46,-27.73,-0.19,1.01,21.6,39.5,28.0,0,no_anomaly,0.0,0,0,0,0,18.520415,73.8567064,5.0,0.0
2024-02-22T17:39:03.100Z,MISSION_0006,31,0,takeoff,SITE_PUN_007,18.5204126,73.8567061,5.0,102.4,0.0,0.132,1.56,-2.9019,-0.5764,102.4045,0.62646,-0.01195,-0.02288,0.77902,0.0922,0.0417,-9.8078,-0.4853,-0.3336,-0.0797,0.2097,3,13,0.71,0.91,0.26,24.684,24.58,95.9,35.9,21102.0,7155,7360,7183,7222,55.7,53.3,53.6,50.5,2.649,2.95,2.796,2.691,6.55,98.2,27.2,42.3,1006.21,-30.14,1.52,1.75,26.9,42.1,31.4,0,no_anomaly,0.0,0,0,0,0,18.5204126,73.8567061,5.0,0.0
2024-02-22T17:39:03.200Z,MISSION_0006,32,0,transit,SITE_PUN_007,18.5204114,73.8567081,5.5,103.87,0.116,0.193,1.55,4.2886,-1.2357,103.8682,0.61578,0.03155,0.02281,0.78695,0.1127,0.0663,-9.9079,0.5313,-0.3073,0.0356,0.2774,3,16,0.95,0.68,0.41,24.769,25.92,95.8,35.9,21082.0,6963,7345,7096,7459,53.3,55.7,55.3,52.6,2.811,2.821,2.864,2.91,6.23,92.9,27.9,42.0,1006.4,-27.57,-0.6,1.38,25.3,39.6,31.6,0,no_anomaly,0.0,0,0,0,0,18.5204114,73.8567081,5.5,0.0
2024-02-22T17:39:03.300Z,MISSION_0006,33,0,transit,SITE_PUN_007,18.5204123,73.8567099,6.0,103.15,0.0,0.217,1.75,-1.1103,-2.7343,103.1501,0.62146,0.01267,-0.02242,0.78302,-0.0197,-0.002,-9.8348,-0.3207,-0.4879,0.0201,0.1972,3,10,0.84,0.72,0.31,24.703,22.59,95.7,36.3,21062.0,6909,7166,7249,7264,55.0,50.9,49.7,51.0,2.941,2.85,2.77,2.643,5.82,92.7,27.3,42.2,1006.29,-34.38,-0.09,1.56,21.2,36.6,31.9,0,no_anomaly,0.0,0,0,0,0,18.5204123,73.8567099,6.0,0.0
2024-02-22T17:39:03.400Z,MISSION_0006,34,0,transit,SITE_PUN_007,18.5204061,73.8567139,6.5,103.72,0.0,0.031,1.69,-0.0493,-1.1045,103.7246,0.61753,0.00732,-0.00629,0.78649,0.0687,0.04,-9.7935,-0.3014,-1.0091,-0.0434,0.1714,3,17,0.73,0.77,0.23,24.666,11.95,95.6,35.0,21041.0,7408,7319,7343,7339,56.9,54.3,50.2,54.0,2.525,3.016,3.122,2.962,6.1,96.0,27.3,41.2,1006.5,-31.68,1.09,1.44,20.0,41.8,27.9,0,no_anomaly,0.0,0,0,0,0,18.5204061,73.8567139,6.5,0.0
2024-02-22T17:39:03.500Z,MISSION_0006,35,0,transit,SITE_PUN_007,18.5204089,73.8567129,7.0,104.23,0.13,0.149,1.74,4.951,1.1679,104.2309,0.61381,0.01849,0.04034,0.7882,0.3444,-0.0707,-9.7283,0.1678,0.3996,0.378,0.2323,3,12,0.88,0.68,0.54,24.697,17.28,95.5,35.6,21021.0,7154,7287,7335,7559,52.3,52.0,48.3,51.3,2.894,2.887,2.764,2.837,5.63,100.3,27.4,42.6,1006.59,-27.73,-0.16,1.6,23.5,35.5,28.8,0,no_anomaly,0.0,0,0,0,0,18.5204089,73.8567129,7.0,0.0
2024-02-22T17:39:03.600Z,MISSION_0006,36,0,transit,SITE_PUN_007,18.5204059,73.8567115,7.5,103.22,0.648,0.157,1.44,-2.5694,-1.6116,103.2231,0.62102,-0.0029,-0.0263,0.78335,-0.2341,0.0138,-9.8159,-0.2338,-0.2931,-0.2483,0.1751,3,12,0.85,1.16,0.33,24.694,20.57,95.5,36.1,21001.0,7016,7413,7047,6771,54.3,49.9,54.5,53.5,3.075,2.834,2.878,3.086,6.87,86.1,27.3,41.3,1006.32,-28.97,-0.82,1.4,20.2,42.8,30.0,0,no_anomaly,0.0,0,0,0,0,18.5204059,73.8567115,7.5,0.0
2024-02-22T17:39:03.700Z,MISSION_0006,37,0,transit,SITE_PUN_007,18.5204092,73.8567108,8.0,100.83,0.292,0.156,1.58,-0.6588,-3.9619,100.8314,0.63697,0.02298,-0.02645,0.77009,-0.2126,-0.1148,-9.8445,-0.2516,-0.525,-0.4435,0.2947,3,13,0.62,1.03,0.21,24.711,23.19,95.4,35.8,20980.0,7260,7249,7302,7373,51.6,55.1,50.5,50.3,2.931,2.964,2.895,2.855,5.9,87.3,27.5,42.5,1006.41,-27.61,0.81,1.0,20.0,33.5,29.4,0,no_anomaly,0.0,0,0,0,0,18.5204092,73.8567108,8.0,0.0
2024-02-22T17:39:03.800Z,MISSION_0006,38,0,transit,SITE_PUN_007,18.5204109,73.8567122,8.5,101.08,0.436,0.092,1.82,-2.3776,-5.2109,101.0762,0.6355,0.02192,-0.04489,0.77048,-0.2623,-0.0156,-9.7921,1.0332,0.4525,0.329,0.1603,3,16,0.7,0.96,0.22,24.652,19.87,95.3,35.5,20960.0,7226,7213,7266,7207,55.0,49.6,52.6,52.0,2.848,2.84,2.772,3.001,5.23,84.6,27.7,42.2,1006.41,-24.99,-1.99,1.0,24.8,39.3,32.1,0,no_anomaly,0.0,0,0,0,0,18.5204109,73.8567122,8.5,0.0
2024-02-22T17:39:03.900Z,MISSION_0006,39,0,transit,SITE_PUN_007,18.5204149,73.8567158,9.0,99.95,0.282,0.098,2.42,-0.1111,-0.1769,99.9453,0.64315,0.00056,-0.00173,0.76574,0.1289,-0.0083,-9.8929,0.1068,-0.7209,-0.0328,0.2818,3,19,0.71,0.83,0.31,24.72,19.62,95.2,35.5,20939.0,7434,7162,7204,7379,50.7,53.7,50.2,52.5,2.564,2.604,2.759,2.714,5.64,93.4,27.8,43.9,1006.58,-25.07,-0.82,1.25,18.2,37.5,28.1,0,no_anomaly,0.0,0,0,0,0,18.5204149,73.8567158,9.0,0.0
2024-02-22T17:39:04.000Z,MISSION_0006,40,0,transit,SITE_PUN_007,18.5204139,73.8567188,9.5,98.75,0.263,0.156,2.6,3.2381,-1.2787,98.7516,0.65055,0.02686,0.01418,0.75885,-0.113,0.0712,-9.7758,0.2372,0.3852,0.2179,0.2005,3,14,0.75,1.07,0.35,24.649,18.59,95.1,35.7,20919.0,7361,7061,6970,7138,52.7,54.0,52.3,52.0,2.638,2.692,2.89,3.05,5.8,91.4,27.3,42.5,1006.29,-32.79,0.52,1.66,24.5,37.6,33.1,0,no_anomaly,0.0,0,0,0,0,18.5204139,73.8567188,9.5,0.0
2024-02-22T17:39:04.100Z,MISSION_0006,41,0,transit,SITE_PUN_007,18.5204112,73.8567204,10.0,100.23,0.284,0.122,2.59,7.3735,-3.4859,100.2349,0.63809,0.0645,0.02986,0.76667,0.008,-0.0369,-9.7807,-0.049,1.5779,-0.5238,0.2294,3,13,0.84,0.8,0.24,24.688,16.31,95.0,35.4,20899.0,7475,7573,7562,7556,49.0,54.4,49.8,51.1,2.573,2.657,2.856,2.805,6.24,83.9,27.5,41.8,1006.77,-31.18,1.18,2.06,22.4,37.5,31.7,0,no_anomaly,0.0,0,0,0,0,18.5204112,73.8567204,10.0,0.0
2024-02-22T17:39:04.200Z,MISSION_0006,42,0,transit,SITE_PUN_007,18.5204106,73.8567249,10.5,98.65,0.617,0.097,3.01,5.3878,-3.3361,98.6519,0.64972,0.05267,0.01668,0.75816,-0.0116,0.0105,-9.821,-0.1548,-0.7052,0.3339,0.2294,3,19,0.69,0.63,0.32,24.755,18.19,94.9,36.1,20878.0,7420,7096,7212,7122,51.6,52.1,54.8,53.2,2.803,2.612,2.815,2.817,6.57,90.2,27.6,42.6,1006.39,-30.22,0.54,1.63,22.2,40.2,33.9,0,no_anomaly,0.0,0,0,0,0,18.5204106,73.8567249,10.5,0.0
2024-02-22T17:39:04.300Z,MISSION_0006,43,0,transit,SITE_PUN_007,18.5204073,73.856725,11.0,97.3,0.639,0.196,2.91,2.7713,-1.092,97.3037,0.66024,0.02313,0.01186,0.75061,0.157,-0.048,-9.7922,-0.3852,0.3064,0.1156,0.2256,3,10,0.85,0.9,0.33,24.736,14.57,94.8,35.8,20858.0,6978,7432,7388,7120,55.9,55.4,48.2,51.8,3.054,3.07,2.783,2.953,5.88,83.0,27.4,42.5,1006.1,-29.56,1.53,1.11,24.8,41.3,29.4,0,no_anomaly,0.0,0,0,0,0,18.5204073,73.856725,11.0,0.0
2024-02-22T17:39:04.400Z,MISSION_0006,44,0,transit,SITE_PUN_007,18.5204083,73.856728,11.5,96.13,0.909,0.095,3.25,3.38,-1.7541,96.1273,0.6676,0.03109,0.01171,0.74378,0.5225,0.0272,-9.8877,-0.6694,0.7322,0.0415,0.1499,3,20,0.5,0.98,0.29,24.64,22.42,94.7,34.7,20838.0,7245,7400,7364,7150,55.7,50.4,57.5,54.3,2.787,2.782,2.592,2.668,7.0,88.2,27.3,41.6,1006.62,-24.28,0.6,1.0,25.8,40.0,29.2,0,no_anomaly,0.0,0,0,0,0,18.5204083,73.856728,11.5,0.0
2024-02-22T17:39:04.500Z,MISSION_0006,45,0,transit,SITE_PUN_007,18.5204096,73.8567253,12.0,96.28,1.114,0.088,3.01,-2.5502,-2.0848,96.2849,0.66731,-0.0013,-0.02871,0.74423,0.2146,-0.0093,-9.7517,-0.1491,-0.8465,-0.2022,0.1939,3,16,0.59,0.73,0.2,24.591,23.46,94.6,35.3,20817.0,7216,7368,7241,7534,51.2,52.2,50.7,53.0,2.703,2.556,2.926,2.687,6.31,103.3,27.5,41.8,1006.78,-28.18,-1.3,1.25,22.1,37.1,29.7,0,no_anomaly,0.0,0,0,0,0,18.5204096,73.8567253,12.0,0.0
2024-02-22T17:39:04.600Z,MISSION_0006,46,0,transit,SITE_PUN_007,18.5204083,73.8567259,12.0,97.43,0.882,0.191,3.03,4.2355,-1.5447,97.4305,0.65892,0.0345,0.01888,0.75119,-0.1106,-0.0178,-9.8813,0.7803,0.6759,-0.1769,0.2267,3,17,0.66,0.87,0.2,24.696,19.72,94.5,35.6,20797.0,7104,7331,7018,7199,50.9,50.1,57.7,52.0,2.835,2.912,2.89,2.669,5.43,88.9,27.8,42.1,1006.56,-29.89,-0.67,1.49,25.5,37.1,33.0,0,no_anomaly,0.0,0,0,0,0,18.5204083,73.8567259,12.0,0.0
2024-02-22T17:39:04.700Z,MISSION_0006,47,0,transit,SITE_PUN_007,18.5204084,73.8567204,12.0,97.38,0.628,0.174,2.46,3.2952,-1.0285,97.377,0.65966,0.02572,0.01567,0.75096,-0.276,-0.0075,-9.8465,0.5124,-0.2352,0.1963,0.2721,3,10,0.61,0.93,0.27,24.773,20.26,94.4,35.3,20777.0,7734,7373,7549,7414,52.9,56.6,47.3,50.4,3.042,2.689,2.529,2.981,6.15,87.7,27.5,42.2,1006.81,-26.83,-1.31,1.06,21.8,40.2,27.4,0,no_anomaly,0.0,0,0,0,0,18.5204084,73.8567204,12.0,0.0
2024-02-22T17:39:04.800Z,MISSION_0006,48,0,transit,SITE_PUN_007,18.5204089,73.8567223,12.0,97.77,0.609,0.026,2.67,3.8218,-4.4371,97.7657,0.65577,0.05106,-0.00034,0.75323,0.0528,0.0657,-9.7329,-0.1896,-0.7405,-0.2855,0.2935,3,15,0.63,1.18,0.2,24.629,18.86,94.3,35.2,20756.0,7314,7398,7274,7506,50.9,53.8,55.0,51.6,3.185,2.882,2.898,2.733,5.81,94.2,27.7,41.7,1006.36,-34.13,-0.59,1.99,24.6,34.0,28.4,0,no_anomaly,0.0,0,0,0,0,18.5204089,73.8567223,12.0,0.0
2024-02-22T17:39:04.900Z,MISSION_0006,49,0,transit,SITE_PUN_007,18.5204078,73.8567227,12.0,99.41,0.666,0.044,2.67,-1.0209,-4.5591,99.4079,0.64647,0.02458,-0.03251,0.76185,0.0328,0.039,-9.8519,0.3605,-0.3182,-0.0477,0.2517,3,16,0.58,0.67,0.24,24.696,20.75,94.3,35.8,20736.0,7175,6980,7303,7297,50.3,51.2,50.5,47.6,2.81,2.576,2.595,2.666,4.93,89.3,27.5,41.7,1006.45,-34.2,-0.43,1.5,24.5,35.7,31.1,0,no_anomaly,0.0,0,0,0,0,18.5204078,73.8567227,12.0,0.0
2024-02-22T17:39:05.000Z,MISSION_0006,50,0,transit,SITE_PUN_007,18.5204093,73.8567222,12.0,99.97,1.096,0.141,2.68,-0.9793,-1.9614,99.9742,0.64295,0.00761,-0.01755,0.76567,0.2068,-0.0316,-9.7593,-0.2585,-0.6267,-0.5409,0.3149,3,10,0.67,0.6,0.27,24.668,22.92,94.2,34.6,20716.0,7445,7263,7165,7356,53.5,52.8,53.7,51.7,2.735,2.828,2.836,2.847,5.54,91.2,27.6,40.7,1006.36,-30.54,0.7,1.88,26.1,41.6,30.1,0,no_anomaly,0.0,0,0,0,0,18.5204093,73.8567222,12.0,0.0
2024-02-22T17:39:05.100Z,MISSION_0006,51,0,transit,SITE_PUN_007,18.5204072,73.856723,12.0,99.6,1.338,0.068,2.68,-5.7176,-3.1501,99.6002,0.64546,-0.01121,-0.0558,0.76167,-0.1463,-0.0571,-9.7718,0.7138,0.1588,-0.1787,0.2304,3,19,0.72,0.82,0.28,24.729,19.13,94.1,36.0,20695.0,7382,7531,7374,7421,54.6,53.9,48.4,52.4,2.771,2.62,2.888,2.751,5.65,92.1,27.4,42.9,1006.78,-31.75,-2.5,1.03,24.6,39.1,32.1,0,no_anomaly,0.0,0,0,0,0,18.5204072,73.856723,12.0,0.0
2024-02-22T17:39:05.200Z,MISSION_0006,52,0,transit,SITE_PUN_007,18.5204067,73.8567241,12.0,97.51,0.989,0.104,2.78,0.7529,-2.4982,97.5079,0.65902,0.02072,-0.00943,0.75178,-0.1429,0.0093,-9.745,-0.2417,0.0684,0.1149,0.3402,3,11,0.84,0.78,0.33,24.594,20.55,94.0,36.6,20675.0,7206,6994,7372,7155,52.2,53.5,53.4,52.7,2.8,2.839,2.83,2.772,6.61,85.6,27.4,44.0,1006.62,-29.74,-1.78,1.38,23.4,33.9,31.5,0,no_anomaly,0.0,0,0,0,0,18.5204067,73.8567241,12.0,0.0
2024-02-22T17:39:05.300Z,MISSION_0006,53,0,transit,SITE_PUN_007,18.5204063,73.8567262,12.0,98.99,1.1,0.121,3.0,1.7142,1.5928,98.9879,0.64955,-0.00085,0.0204,0.76004,-0.0914,-0.1047,-9.8988,0.8526,0.5666,-0.276,0.2991,3,13,0.55,0.64,0.2,24.656,23.26,93.9,35.7,20655.0,7207,7045,7464,7481,53.1,53.3,52.3,54.6,2.677,2.898,2.601,2.586,6.33,95.5,27.5,42.2,1006.34,-30.49,1.41,1.05,21.4,38.0,30.5,0,no_anomaly,0.0,0,0,0,0,18.5204063,73.8567262,12.0,0.0
2024-02-22T17:39:05.400Z,MISSION_0006,54,0,transit,SITE_PUN_007,18.5204073,73.8567283,12.0,98.64,1.221,0.061,3.25,1.9833,-1.1526,98.6372,0.65159,0.01891,0.00657,0.75831,0.3185,0.0789,-9.8245,0.231,-0.5472,0.2474,0.168,3,20,0.65,0.77,0.2,24.566,20.14,93.8,36.1,20634.0,7577,7247,7027,7191,53.8,55.1,48.6,47.4,2.838,3.167,2.727,2.717,6.37,93.4,27.5,42.3,1006.83,-33.68,0.59,1.24,22.0,43.4,30.2,0,no_anomaly,0.0,0,0,0,0,18.5204073,73.8567283,12.0,0.0
2024-02-22T17:39:05.500Z,MISSION_0006,55,0,transit,SITE_PUN_007,18.5204093,73.8567272,12.0,99.17,0.981,0.076,3.2,-0.5527,-0.6023,99.1688,0.64833,0.00088,-0.00708,0.76133,-0.1497,0.0252,-9.7589,-0.1669,0.0981,0.0282,0.2011,3,11,0.65,1.08,0.24,24.589,19.73,93.7,35.8,20614.0,7420,7069,7380,6944,54.9,55.9,48.1,55.9,2.801,2.77,2.734,2.603,6.17,87.7,27.5,41.9,1006.3,-30.08,0.39,1.77,23.9,40.9,30.3,0,no_anomaly,0.0,0,0,0,0,18.5204093,73.8567272,12.0,0.0
2024-02-22T17:39:05.600Z,MISSION_0006,56,0,transit,SITE_PUN_007,18.5204144,73.8567282,12.0,99.39,1.276,0.089,3.53,3.4279,-1.3116,99.3853,0.6463,0.02807,0.01541,0.76242,0.162,0.0268,-9.8284,0.4442,-1.3206,0.317,0.1886,3,14,0.75,0.72,0.42,24.571,13.97,93.6,35.3,20593.0,7415,7274,7496,7295,54.6,53.4,52.6,50.3,2.808,2.511,2.826,2.834,4.91,107.7,28.0,42.3,1006.46,-32.39,-2.19,1.39,23.6,31.7,26.5,0,no_anomaly,0.0,0,0,0,0,18.5204144,73.8567282,12.0,0.0
2024-02-22T17:39:05.700Z,MISSION_0006,57,0,transit,SITE_PUN_007,18.5204118,73.8567314,12.0,99.78,1.501,0.094,3.74,-1.5506,1.1666,99.7776,0.64408,-0.0165,-0.00379,0.76477,-0.0332,0.0559,-9.751,1.093,0.4698,-0.2824,0.1866,3,16,0.77,0.81,0.25,24.624,19.79,93.5,35.4,20573.0,7125,7240,7319,7304,51.6,51.1,51.0,53.2,2.754,2.885,2.627,2.793,6.58,89.8,27.7,42.1,1006.82,-32.52,-0.47,1.52,24.3,36.5,29.7,0,no_anomaly,0.0,0,0,0,0,18.5204118,73.8567314,12.0,0.0
2024-02-22T17:39:05.800Z,MISSION_0006,58,0,transit,SITE_PUN_007,18.5204128,73.8567337,12.0,99.41,1.896,0.126,4.01,7.4585,-1.0302,99.4111,0.64487,0.0489,0.04381,0.76146,-0.0704,0.0498,-9.761,-0.4011,0.4712,0.2446,0.2789,3,14,0.74,0.99,0.2,24.639,16.08,93.4,35.7,20553.0,7261,7571,7124,7113,49.1,52.2,51.6,54.5,2.831,2.534,2.802,2.557,5.6,84.9,27.4,43.0,1006.48,-31.08,0.65,1.78,21.5,34.9,31.0,0,no_anomaly,0.0,0,0,0,0,18.5204128,73.8567337,12.0,0.0
2024-02-22T17:39:05.900Z,MISSION_0006,59,0,transit,SITE_PUN_007,18.5204154,73.8567376,12.0,98.58,2.193,0.02,4.53,2.5473,-1.3269,98.5825,0.65181,0.02327,0.0093,0.75796,0.3634,-0.0099,-9.8634,0.0121,-0.0403,0.1637,0.1614,3,14,0.82,0.81,0.33,24.567,22.31,93.3,35.4,20532.0,7209,7381,7173,7312,50.8,51.5,52.5,51.5,2.808,2.824,2.67,2.818,5.77,94.9,28.0,42.7,1006.5,-28.37,1.71,1.59,22.1,39.6,30.8,0,no_anomaly,0.0,0,0,0,0,18.5204154,73.8567376,12.0,0.0
2024-02-22T17:39:06.000Z,MISSION_0006,60,0,transit,SITE_PUN_007,18.520415,73.8567364,12.0,100.06,2.385,0.119,4.39,-5.395,-2.9346,100.0607,0.64238,-0.01062,-0.05249,0.76451,-0.0219,0.003,-9.8241,1.2481,-0.0959,-0.0137,0.1678,3,11,0.88,0.7,0.51,24.683,12.31,93.2,35.6,20512.0,7267,7053,7427,7290,50.2,54.3,51.4,49.9,2.766,2.679,2.774,2.608,5.92,93.2,27.7,41.9,1006.45,-28.67,0.0,1.96,19.7,31.8,27.9,0,no_anomaly,0.0,0,0,0,0,18.520415,73.8567364,12.0,0.0
2024-02-22T17:39:06.100Z,MISSION_0006,61,0,transit,SITE_PUN_007,18.5204129,73.8567334,12.0,101.88,2.813,0.098,3.99,-2.5057,-2.5127,101.8793,0.63021,0.00325,-0.03079,0.77581,0.0107,0.0249,-9.8132,-0.7181,-0.4765,-0.0577,0.2956,3,12,0.57,0.8,0.2,24.649,19.56,93.1,35.0,20492.0,7298,7085,7341,7401,49.9,51.8,53.4,48.6,2.916,2.892,2.856,2.794,5.85,97.7,27.2,42.2,1006.75,-30.74,-0.0,1.0,20.8,33.5,30.8,0,no_anomaly,0.0,0,0,0,0,18.5204129,73.8567334,12.0,0.0
2024-02-22T17:39:06.200Z,MISSION_0006,62,0,transit,SITE_PUN_007,18.5204138,73.8567318,12.0,100.78,2.867,0.111,3.85,3.1441,-2.2659,100.778,0.63679,0.03271,0.00853,0.7703,0.0127,0.0088,-9.8177,0.2601,-0.2026,0.66,0.2257,3,16,0.61,0.95,0.31,24.691,16.88,93.1,35.5,20471.0,7345,7573,7550,7153,51.1,54.0,54.6,52.3,2.842,2.87,2.898,2.694,6.64,95.8,27.4,42.0,1006.27,-25.32,0.8,1.71,19.9,41.3,29.1,0,no_anomaly,0.0,0,0,0,0,18.5204138,73.8567318,12.0,0.0
2024-02-22T17:39:06.300Z,MISSION_0006,63,0,transit,SITE_PUN_007,18.5204111,73.8567324,12.0,98.86,2.189,0.109,3.82,1.2223,-2.7818,98.8585,0.64996,0.02537,-0.00769,0.7595,-0.0935,0.0077,-9.6848,-0.0206,0.2174,0.2727,0.2795,3,18,0.76,1.19,0.4,24.633,16.81,93.0,35.4,20451.0,7438,7300,7293,7067,50.8,53.2,55.7,53.5,2.968,3.002,2.831,2.864,5.86,94.9,27.3,42.9,1006.69,-31.07,-2.3,1.65,21.2,41.7,29.6,0,no_anomaly,0.0,0,0,0,0,18.5204111,73.8567324,12.0,0.0
2024-02-22T17:39:06.400Z,MISSION_0006,64,1,transit,SITE_PUN_007,18.520411,73.8567305,12.0,100.77,2.313,0.118,3.61,3.7843,-1.2632,100.7718,0.63695,0.02954,0.01841,0.77012,-0.0961,0.0248,-9.7834,-0.1471,-0.0185,0.1037,0.3392,3,19,0.74,0.75,0.38,24.582,17.47,92.9,35.3,20431.0,7188,7249,7239,7449,53.0,54.4,51.0,53.7,3.018,2.804,2.691,2.936,6.26,98.3,27.3,42.0,1006.59,-29.17,-0.01,1.8,20.6,33.7,27.0,0,no_anomaly,0.0,0,0,0,0,18.520411,73.8567305,12.0,0.0
2024-02-22T17:39:06.500Z,MISSION_0006,65,1,transit,SITE_PUN_007,18.5204118,73.8567272,12.0,100.25,2.486,0.03,3.3,-0.8247,-3.1928,100.2468,0.64102,0.01677,-0.02338,0.76698,-0.2369,0.0236,-9.6603,-0.6152,-0.15,0.33,0.2398,3,13,0.71,0.81,0.27,24.543,19.33,92.8,35.8,20410.0,7353,7366,7132,7375,50.8,51.3,47.8,49.6,2.806,2.562,2.691,2.537,6.53,79.0,27.3,42.0,1006.36,-30.58,-0.49,1.28,23.6,41.1,31.8,0,no_anomaly,0.0,0,0,0,0,18.5204118,73.8567272,12.0,0.0
2024-02-22T17:39:06.600Z,MISSION_0006,66,1,transit,SITE_PUN_007,18.520414,73.8567239,12.0,100.66,2.609,0.195,3.08,-2.8252,-1.7755,100.6637,0.63836,-0.00381,-0.02886,0.76918,0.1658,-0.0445,-9.7915,0.7408,0.0089,0.1782,0.1726,3,14,0.65,1.05,0.25,24.655,22.72,92.7,36.3,20390.0,7255,7450,7417,7358,49.9,56.0,53.6,56.5,2.833,2.662,2.92,2.779,5.58,88.2,27.6,42.3,1006.26,-24.95,-0.46,1.56,22.2,41.4,32.5,0,no_anomaly,0.0,0,0,0,0,18.520414,73.8567239,12.0,0.0
2024-02-22T17:39:06.700Z,MISSION_0006,67,1,transit,SITE_PUN_007,18.5204096,73.8567221,12.0,100.17,2.919,0.051,2.68,-2.9761,-3.8329,100.1662,0.64177,0.00899,-0.04136,0.76573,0.1754,-0.0601,-9.8177,0.1891,0.2408,0.0746,0.2376,3,13,0.62,0.68,0.24,24.628,14.14,92.6,35.9,20370.0,7055,6969,7228,7028,49.1,52.7,52.2,53.0,3.033,2.73,2.505,2.446,5.81,97.2,27.5,42.3,1006.23,-32.97,-1.58,2.0,24.2,33.9,28.5,0,no_anomaly,0.0,0,0,0,0,18.5204096,73.8567221,12.0,0.0
2024-02-22T17:39:06.800Z,MISSION_0006,68,1,transit,SITE_PUN_007,18.5204122,73.8567188,12.0,98.03,2.797,0.053,2.49,3.2507,-4.6471,98.0325,0.65417,0.04918,-0.00519,0.75473,0.0633,0.0457,-9.8519,0.9716,0.2499,0.3372,0.2597,3,17,0.69,1.12,0.33,24.587,16.5,92.5,36.1,20349.0,7438,7416,7526,7345,52.7,52.1,54.6,54.4,2.785,3.302,2.697,3.072,5.6,93.0,27.7,42.3,1006.25,-29.38,-1.21,1.0,22.0,39.1,29.8,0,no_anomaly,0.0,0,0,0,0,18.5204122,73.8567188,12.0,0.0
2024-02-22T17:39:06.900Z,MISSION_0006,69,1,transit,SITE_PUN_007,18.5204133,73.8567188,12.0,97.43,2.598,0.025,2.56,-6.9727,-1.2685,97.4349,0.65902,-0.03182,-0.05298,0.74958,0.1441,-0.1226,-9.8037,-0.8535,0.9274,0.0496,0.2955,3,19,0.59,0.77,0.3,24.603,19.86,92.4,36.0,20329.0,7042,7157,7502,7249,51.8,53.0,53.4,49.8,2.975,2.798,2.865,2.716,6.02,86.3,27.4,43.4,1006.35,-31.33,1.63,1.5,24.7,41.5,29.2,0,no_anomaly,0.0,0,0,0,0,18.5204133,73.8567188,12.0,0.0
2024-02-22T17:39:07.000Z,MISSION_0006,70,1,transit,SITE_PUN_007,18.5204145,73.8567208,12.0,96.43,2.426,0.21,2.82,2.5124,-1.9249,96.4289,0.66582,0.02713,0.00515,0.74561,-0.1022,0.0183,-9.8293,0.4987,-0.5874,-0.3323,0.2523,3,11,0.64,1.13,0.2,24.523,18.08,92.3,35.8,20309.0,7219,7325,7337,7202,57.3,56.1,54.0,49.9,2.597,2.745,2.827,2.682,6.64,96.5,27.4,43.2,1006.51,-30.63,-0.28,2.19,21.5,35.3,29.7,0,no_anomaly,0.0,0,0,0,0,18.5204145,73.8567208,12.0,0.0
2024-02-22T17:39:07.100Z,MISSION_0006,71,1,transit,SITE_PUN_007,18.5204133,73.856721,12.0,96.36,2.618,0.174,2.77,0.9466,-3.0135,96.3579,0.66639,0.0251,-0.01138,0.74509,0.0675,0.0363,-9.795,-0.5132,-0.7415,-0.1988,0.2846,3,11,0.69,1.02,0.25,24.572,23.45,92.2,35.9,20288.0,7142,7452,7382,7297,49.5,54.0,51.8,53.5,2.436,2.737,2.715,2.885,5.27,86.7,27.7,43.0,1006.64,-28.6,1.01,1.54,22.3,35.2,33.5,0,no_anomaly,0.0,0,0,0,0,18.5204133,73.856721,12.0,0.0
2024-02-22T17:39:07.200Z,MISSION_0006,72,1,transit,SITE_PUN_007,18.5204062,73.8567187,12.0,95.45,2.986,0.015,2.2,-0.3708,-3.2615,95.4539,0.67246,0.01888,-0.02154,0.73958,-0.0299,0.043,-9.8238,0.1549,-0.0014,0.1207,0.2517,3,11,0.66,0.95,0.39,24.526,17.84,92.1,35.9,20268.0,7495,7307,7122,7421,51.8,51.4,58.6,54.1,2.846,2.706,2.886,2.47,5.8,91.6,27.5,41.8,1006.52,-28.46,2.7,1.51,22.0,35.6,31.8,0,no_anomaly,0.0,0,0,0,0,18.5204062,73.8567187,12.0,0.0
2024-02-22T17:39:07.300Z,MISSION_0006,73,1,transit,SITE_PUN_007,18.5204064,73.8567222,12.0,98.13,2.818,0.032,2.57,-1.2767,-2.3702,98.1309,0.65519,0.00833,-0.02196,0.7551,0.1253,-0.1118,-9.871,0.42,0.0363,0.0738,0.217,3,10,0.74,0.8,0.31,24.628,17.13,92.0,35.2,20247.0,7549,7091,7289,7514,53.3,51.4,52.0,51.9,2.796,2.692,2.95,2.783,5.4,94.4,27.5,42.1,1006.32,-32.33,1.04,1.65,19.4,35.4,29.7,0,no_anomaly,0.0,0,0,0,0,18.5204064,73.8567222,12.0,0.0
2024-02-22T17:39:07.400Z,MISSION_0006,74,1,transit,SITE_PUN_007,18.520409,73.8567222,12.0,98.02,2.383,0.023,2.67,0.7113,-1.2707,98.0209,0.65582,0.01244,-0.00259,0.75481,-0.0056,-0.055,-9.7869,-0.5956,0.3349,0.6439,0.2469,3,10,0.61,0.75,0.32,24.556,19.45,91.9,35.4,20227.0,7481,6977,7245,7282,54.1,55.0,52.8,54.3,3.042,2.586,2.906,2.628,6.67,83.9,27.4,42.7,1006.97,-35.46,-0.1,1.47,23.2,40.5,28.9,0,no_anomaly,0.0,0,0,0,0,18.520409,73.8567222,12.0,0.0
2024-02-22T17:39:07.500Z,MISSION_0006,75,1,transit,SITE_PUN_007,18.5204028,73.8567199,12.0,100.72,2.524,0.129,2.24,1.9385,-2.5089,100.7197,0.63743,0.02765,-0.00094,0.77001,0.249,0.0143,-9.7718,-0.1571,-0.6805,-0.2999,0.219,3,20,0.75,0.87,0.28,24.613,18.53,91.8,35.7,20207.0,7358,7326,7391,7506,55.2,52.5,54.3,53.2,2.785,2.558,3.065,2.788,6.58,93.4,27.7,41.8,1006.56,-29.85,1.33,1.62,25.2,33.6,28.3,0,no_anomaly,0.0,0,0,0,0,18.5204028,73.8567199,12.0,0.0
2024-02-22T17:39:07.600Z,MISSION_0006,76,1,orbit_base,SITE_PUN_007,18.5203479,73.8567607,12.3,100.97,2.413,0.016,8.91,0.8116,-3.134,100.9698,0.63588,0.0256,-0.01194,0.77127,-0.0286,0.0146,-9.8183,-0.2238,0.4829,0.1387,0.2233,3,18,0.74,0.99,0.25,24.531,17.04,91.8,35.1,20186.0,7026,7201,7412,7157,55.6,52.8,51.7,52.1,2.817,3.039,2.59,2.865,6.45,90.7,27.5,41.6,1006.53,-34.12,-0.53,2.12,20.8,36.9,27.2,0,no_anomaly,0.0,0,0,0,0,18.5203479,73.8567607,12.3,0.0
2024-02-22T17:39:07.700Z,MISSION_0006,77,1,orbit_base,SITE_PUN_007,18.5203461,73.8567591,12.6,101.63,2.493,0.189,8.91,0.3052,-2.8607,101.6262,0.6316,0.02103,-0.01371,0.77489,-0.1242,-0.094,-9.8687,-0.1531,-0.1559,-0.004,0.2991,3,17,0.63,1.05,0.26,24.582,24.87,91.7,36.0,20166.0,7141,7392,7052,7409,52.9,49.9,51.7,53.0,2.913,2.714,2.659,2.848,5.77,93.2,27.5,42.4,1006.38,-32.24,1.46,1.3,22.1,35.4,34.3,0,no_anomaly,0.0,0,0,0,0,18.5203461,73.8567591,12.6,0.0
2024-02-22T17:39:07.800Z,MISSION_0006,78,1,orbit_base,SITE_PUN_007,18.5203444,73.8567575,12.9,102.5,1.943,0.139,8.91,-2.2789,-1.2792,102.5045,0.6259,-0.00374,-0.02249,0.77957,-0.1972,0.0333,-9.8554,-0.1911,-0.6962,-0.5288,0.2516,3,13,0.54,0.86,0.2,24.519,16.58,91.6,36.5,20146.0,7386,7143,7304,7414,54.1,47.5,49.8,49.9,2.637,2.709,2.962,2.644,5.83,90.9,27.4,42.5,1006.45,-28.69,0.1,1.12,18.9,36.5,29.3,0,no_anomaly,0.0,0,0,0,0,18.5203444,73.8567575,12.9,0.0
2024-02-22T17:39:07.900Z,MISSION_0006,79,1,orbit_base,SITE_PUN_007,18.5203427,73.8567558,13.2,104.22,2.272,0.115,8.91,1.7335,-0.357,104.2175,0.61405,0.01175,0.01002,0.78911,-0.2362,-0.0657,-9.8624,0.2717,-0.5793,-0.093,0.1361,3,17,0.65,0.76,0.24,24.644,17.92,91.5,35.6,20125.0,6984,7218,6998,7264,50.3,52.0,51.8,52.3,2.959,3.001,2.988,2.783,5.82,91.8,27.7,42.2,1006.37,-31.3,-1.08,1.2,24.9,42.7,30.1,0,no_anomaly,0.0,0,0,0,0,18.5203427,73.8567558,13.2,0.0
2024-02-22T17:39:08.000Z,MISSION_0006,80,1,orbit_base,SITE_PUN_007,18.520341,73.856754,13.5,102.76,1.805,0.038,8.91,-5.1344,-1.9695,102.7598,0.62404,-0.01454,-0.04571,0.77992,0.2644,-0.0173,-9.909,0.148,0.5083,-0.119,0.2214,3,11,0.76,0.98,0.21,24.559,14.32,91.4,35.6,20105.0,7421,7343,6992,7624,50.3,49.8,53.7,51.0,2.869,2.688,2.518,2.82,6.29,86.2,27.3,41.7,1006.43,-25.88,1.09,1.35,26.9,43.2,30.7,0,no_anomaly,0.0,0,0,0,0,18.520341,73.856754,13.5,0.0
2024-02-22T17:39:08.100Z,MISSION_0006,81,1,orbit_base,SITE_PUN_007,18.5203394,73.8567522,13.8,102.56,1.632,0.054,8.91,4.2488,-0.9793,102.5638,0.62479,0.02985,0.02358,0.77987,-0.0953,-0.043,-9.749,1.31,-0.5268,-0.1476,0.2605,3,20,0.73,0.87,0.2,24.616,22.01,91.3,36.3,20085.0,7162,7300,7491,7081,54.0,53.5,56.7,51.3,2.82,2.703,2.957,2.829,5.74,87.3,27.2,42.1,1006.36,-35.02,0.11,1.77,23.2,39.4,28.8,0,no_anomaly,0.0,0,0,0,0,18.5203394,73.8567522,13.8,0.0
2024-02-22T17:39:08.200Z,MISSION_0006,82,1,orbit_base,SITE_PUN_007,18.5203379,73.8567504,14.1,103.51,1.802,0.091,8.91,-4.9161,-3.4494,103.509,0.6192,-0.00292,-0.05228,0.78349,0.0928,-0.004,-9.8637,-0.0316,0.8292,0.132,0.2668,3,16,0.56,0.86,0.2,24.629,14.32,91.2,36.5,20064.0,7489,7360,7316,7363,51.2,51.9,52.8,53.8,2.735,2.72,2.841,2.921,6.27,83.0,27.7,43.3,1006.14,-26.97,1.53,1.0,25.0,38.5,29.1,0,no_anomaly,0.0,0,0,0,0,18.5203379,73.8567504,14.1,0.0
2024-02-22T17:39:08.300Z,MISSION_0006,83,1,orbit_base,SITE_PUN_007,18.5203364,73.8567485,14.4,99.15,1.748,0.15,8.91,-5.6005,-2.6586,99.1498,0.64837,-0.01403,-0.05221,0.75941,0.1107,0.0057,-9.7863,-0.0682,0.2322,0.5484,0.224,3,13,0.62,0.99,0.33,24.535,16.78,91.1,35.3,20044.0,7175,7143,7414,7541,56.1,51.1,53.5,52.4,2.818,2.891,2.591,2.954,5.82,91.4,27.6,42.4,1006.67,-31.43,0.64,1.46,22.5,34.5,29.8,0,no_anomaly,0.0,0,0,0,0,18.5203364,73.8567485,14.4,0.0
2024-02-22T17:39:08.400Z,MISSION_0006,84,1,orbit_base,SITE_PUN_007,18.520335,73.8567466,14.7,99.09,0.871,0.131,8.91,-0.1676,-2.0783,99.0911,0.64876,0.01285,-0.01288,0.76078,-0.0931,0.0768,-9.8227,0.6647,0.2387,0.2489,0.2028,3,10,0.65,0.9,0.22,24.513,19.57,91.0,36.3,20024.0,7325,7270,7354,7107,50.9,50.7,54.3,55.4,2.574,2.717,2.635,2.989,5.45,87.4,27.7,41.6,1006.6,-29.29,-0.59,1.43,24.7,34.6,31.8,0,no_anomaly,0.0,0,0,0,0,18.520335,73.8567466,14.7,0.0
2024-02-22T17:39:08.500Z,MISSION_0006,85,1,orbit_base,SITE_PUN_007,18.5203336,73.8567446,15.0,98.2,0.444,0.143,8.91,-5.1148,-2.3334,98.2019,0.65463,-0.01383,-0.04704,0.75436,0.029,0.11,-9.7471,0.1119,0.1579,-0.392,0.2553,3,13,0.64,0.84,0.29,24.533,20.7,90.9,35.0,20003.0,7401,7268,7360,7291,53.8,51.4,53.5,51.4,2.855,2.741,2.867,3.025,5.76,92.4,27.5,42.2,1006.35,-27.79,-0.27,2.03,22.5,35.6,29.8,0,no_anomaly,0.0,0,0,0,0,18.5203336,73.8567446,15.0,0.0
2024-02-22T17:39:08.600Z,MISSION_0006,86,1,orbit_base,SITE_PUN_007,18.5203323,73.8567426,15.3,100.54,0.021,0.073,8.91,-3.0579,-2.7386,100.5368,0.63927,0.00132,-0.03578,0.76815,0.0622,-0.0266,-9.821,0.4602,0.589,0.5669,0.2057,3,20,0.72,0.97,0.2,24.602,15.73,90.8,35.6,19983.0,7601,7227,7501,7167,50.6,51.3,50.3,51.7,2.799,2.916,2.81,2.909,6.21,88.1,27.7,42.5,1006.62,-30.71,-0.34,1.04,25.0,33.8,30.9,0,no_anomaly,0.0,0,0,0,0,18.5203323,73.8567426,15.3,0.0
2024-02-22T17:39:08.700Z,MISSION_0006,87,1,orbit_base,SITE_PUN_007,18.520331,73.8567406,15.6,104.22,0.287,0.088,8.91,-2.3931,-2.8346,104.22,0.61423,0.0067,-0.03166,0.78846,0.1167,0.0388,-9.7628,0.24,0.5806,0.1354,0.2564,3,15,0.68,0.92,0.42,24.585,15.91,90.7,35.6,19962.0,7162,7323,7421,7299,54.6,52.4,50.6,54.1,2.708,2.944,2.645,2.845,6.31,92.1,27.9,41.8,1006.37,-29.6,-0.59,1.76,23.3,42.3,28.2,0,no_anomaly,0.0,0,0,0,0,18.520331,73.8567406,15.6,0.0
2024-02-22T17:39:08.800Z,MISSION_0006,88,1,orbit_base,SITE_PUN_007,18.5203299,73.8567385,15.9,102.6,0.0,0.044,8.91,-8.4202,-1.4897,102.5969,0.62427,-0.03578,-0.0654,0.77764,-0.222,0.0442,-9.8671,0.5845,-0.8356,-0.3405,0.1576,3,20,0.77,1.04,0.23,24.588,19.77,90.6,35.3,19942.0,7278,7355,7272,7332,51.8,54.4,52.6,51.1,2.799,2.89,2.99,2.727,6.61,93.3,27.6,42.1,1006.44,-31.37,0.03,1.54,21.5,34.6,26.8,0,no_anomaly,0.0,0,0,0,0,18.5203299,73.8567385,15.9,0.0
2024-02-22T17:39:08.900Z,MISSION_0006,89,1,orbit_base,SITE_PUN_007,18.5203287,73.8567363,16.2,103.5,0.0,0.139,8.91,6.6789,-2.7116,103.5003,0.61679,0.0546,0.03111,0.78462,0.1846,0.0297,-9.7598,0.2596,-0.2043,0.4155,0.2945,3,12,0.79,0.95,0.31,24.477,13.46,90.6,36.5,19922.0,7230,7541,7342,7598,51.5,52.2,48.8,50.5,2.873,2.945,2.721,2.769,5.12,99.2,27.9,42.5,1006.3,-31.27,-0.76,1.63,20.8,34.5,30.2,0,no_anomaly,0.0,0,0,0,0,18.5203287,73.8567363,16.2,0.0
2024-02-22T17:39:09.000Z,MISSION_0006,90,1,orbit_base,SITE_PUN_007,18.5203277,73.8567342,16.5,106.29,0.011,-0.012,8.91,1.8872,-1.8553,106.2945,0.59939,0.02283,0.00347,0.80013,0.1397,-0.0266,-9.7881,1.1917,-0.0369,0.3672,0.228,3,11,0.53,1.09,0.29,24.639,15.0,90.5,36.9,19901.0,7537,7249,7404,7129,53.1,51.6,50.8,52.4,3.08,3.051,2.682,2.612,6.08,93.3,27.4,42.7,1006.44,-34.31,1.29,1.32,21.1,38.4,31.4,0,no_anomaly,0.0,0,0,0,0,18.5203277,73.8567342,16.5,0.0
2024-02-22T17:39:09.100Z,MISSION_0006,91,1,orbit_base,SITE_PUN_007,18.5203267,73.856732,16.8,105.29,0.0,0.111,8.91,3.7525,0.1731,105.2943,0.60644,0.01866,0.02694,0.79446,0.0624,-0.0064,-9.8929,-0.0363,0.3576,0.1016,0.2922,3,19,0.64,0.97,0.2,24.654,18.97,90.4,36.1,19881.0,7525,7395,7142,7330,51.2,54.0,52.0,50.7,2.782,2.918,2.971,2.662,6.55,93.1,27.4,42.1,1006.18,-26.32,0.78,1.3,24.6,38.5,32.8,0,no_anomaly,0.0,0,0,0,0,18.5203267,73.856732,16.8,0.0
2024-02-22T17:39:09.200Z,MISSION_0006,92,1,orbit_base,SITE_PUN_007,18.5203258,73.8567298,17.1,105.24,0.548,0.107,8.91,1.7345,-0.5034,105.2363,0.607,0.01268,0.00936,0.79455,-0.0486,0.0125,-9.7733,-0.1417,0.6845,0.2294,0.2127,3,16,0.51,0.91,0.2,24.496,16.65,90.3,36.2,19861.0,7315,7200,7236,7403,53.6,53.4,49.7,50.4,2.825,2.925,2.624,3.03,6.88,88.5,27.5,42.3,1006.8,-33.33,-0.51,1.27,22.3,34.4,29.5,0,no_anomaly,0.0,0,0,0,0,18.5203258,73.8567298,17.1,0.0
2024-02-22T17:39:09.300Z,MISSION_0006,93,1,orbit_base,SITE_PUN_007,18.5203249,73.8567276,17.4,104.15,0.422,0.068,8.91,5.6629,-4.9827,104.1465,0.61163,0.06458,0.01224,0.78841,0.0671,0.0319,-9.7715,1.0996,-0.4231,-0.4718,0.2013,3,19,0.8,0.83,0.26,24.49,20.32,90.2,36.5,19840.0,7143,7222,7333,7106,51.3,50.8,51.8,54.9,2.659,2.861,2.341,2.715,6.6,104.6,27.6,42.3,1006.32,-37.86,-1.15,1.52,25.3,34.2,30.5,0,no_anomaly,0.0,0,0,0,0,18.5203249,73.8567276,17.4,0.0
2024-02-22T17:39:09.400Z,MISSION_0006,94,1,orbit_base,SITE_PUN_007,18.5203241,73.8567253,17.7,103.24,0.633,0.181,8.91,2.3313,-0.0083,103.242,0.62073,0.01269,0.0159,0.78376,-0.1389,-0.0388,-9.8225,0.1816,-0.3498,0.4165,0.2171,3,19,0.68,0.96,0.2,24.591,18.9,90.1,35.1,19820.0,7048,7622,6854,7312,50.3,54.7,52.9,52.8,2.855,2.561,2.727,2.753,6.44,87.8,27.6,42.7,1006.25,-41.41,-1.56,1.79,20.3,40.2,29.9,0,no_anomaly,0.0,0,0,0,0,18.5203241,73.8567253,17.7,0.0
2024-02-22T17:39:09.500Z,MISSION_0006,95,1,orbit_base,SITE_PUN_007,18.5203234,73.856723,18.0,104.36,0.41,0.074,8.91,-0.3021,-2.0344,104.3597,0.61312,0.01241,-0.01297,0.78978,0.1775,0.0138,-9.8863,0.4048,-0.0347,0.4531,0.2755,3,17,0.68,0.99,0.26,24.498,19.6,90.0,36.2,19800.0,7348,7293,7269,7459,50.5,53.6,55.4,52.4,2.697,3.035,2.632,2.357,6.24,94.9,27.1,42.5,1006.54,-35.24,1.17,1.68,23.2,38.9,29.3,0,no_anomaly,0.0,0,0,0,0,18.5203234,73.856723,18.0,0.0
2024-02-22T17:39:09.600Z,MISSION_0006,96,1,orbit_base,SITE_PUN_007,18.5203227,73.8567207,18.3,102.56,0.0,0.101,8.91,-0.5569,-2.9318,102.5639,0.62537,0.01692,-0.01979,0.77989,0.0129,-0.0673,-9.7314,0.8829,-0.1035,0.222,0.2147,3,15,0.61,0.97,0.23,24.484,23.68,89.9,35.6,19779.0,7251,7370,7512,7266,51.5,52.7,56.9,55.2,2.723,2.915,2.795,2.655,6.43,96.9,27.6,42.1,1006.97,-33.94,1.05,1.03,23.4,37.6,32.0,0,no_anomaly,0.0,0,0,0,0,18.5203227,73.8567207,18.3,0.0
2024-02-22T17:39:09.700Z,MISSION_0006,97,1,orbit_base,SITE_PUN_007,18.5203221,73.8567184,18.6,99.63,0.0,0.071,8.91,1.5713,-1.6494,99.6289,0.64499,0.01984,0.00119,0.76394,-0.0931,-0.0052,-9.7891,-0.0087,0.1497,-0.0467,0.1523,3,12,0.64,0.81,0.34,24.461,16.5,89.8,35.4,19759.0,7508,7265,7259,7346,51.6,51.5,51.6,52.1,2.865,2.73,2.911,2.833,5.68,96.3,27.4,42.6,1006.25,-29.29,0.64,1.44,21.5,38.5,28.5,0,no_anomaly,0.0,0,0,0,0,18.5203221,73.8567184,18.6,0.0
2024-02-22T17:39:09.800Z,MISSION_0006,98,1,orbit_base,SITE_PUN_007,18.5203216,73.856716,18.9,99.52,0.0,0.165,8.91,-1.3475,-1.4445,99.5213,0.646,0.00203,-0.01712,0.76314,-0.3462,-0.0272,-9.8603,0.3977,0.7447,0.0631,0.2445,3,16,0.58,1.1,0.22,24.579,16.39,89.7,35.2,19739.0,7284,7358,7522,7273,50.6,53.4,51.2,55.9,2.718,2.86,2.724,2.833,5.94,90.9,27.4,42.0,1006.59,-33.61,-0.33,1.49,23.8,40.9,30.1,0,no_anomaly,0.0,0,0,0,0,18.5203216,73.856716,18.9,0.0
2024-02-22T17:39:09.900Z,MISSION_0006,99,1,orbit_base,SITE_PUN_007,18.5203212,73.8567137,19.2,100.18,0.0,0.088,8.91,-0.9995,-1.1422,100.1779,0.64161,0.00205,-0.01308,0.76692,-0.1087,0.003,-9.8434,-0.6826,-0.1801,-0.3604,0.172,3,15,0.72,0.62,0.24,24.552,22.46,89.6,35.6,19718.0,7408,7100,7548,7428,52.5,55.5,50.0,56.9,2.903,3.022,2.661,2.612,5.96,93.5,27.8,41.8,1006.28,-32.32,-0.47,1.63,26.8,37.8,29.0,0,no_anomaly,0.0,0,0,0,0,18.5203212,73.8567137,19.2,0.0
2024-02-22T17:39:10.000Z,MISSION_0006,100,1,orbit_base,SITE_PUN_007,18.5203208,73.8567113,19.5,98.48,0.0,0.126,8.91,1.1043,-2.5714,98.4796,0.65254,0.02329,-0.00735,0.75736,0.1093,0.0985,-9.8346,0.9536,0.2757,0.0621,0.2092,3,10,0.68,1.23,0.34,24.421,24.18,89.5,36.0,19698.0,7207,7302,7628,7147,52.9,52.3,52.5,54.3,2.998,2.752,2.904,2.835,5.99,92.0,27.9,41.6,1006.84,-26.53,0.45,1.91,20.4,32.3,30.7,0,no_anomaly,0.0,0,0,0,0,18.5203208,73.8567113,19.5,0.0
2024-02-22T17:39:10.100Z,MISSION_0006,101,1,orbit_base,SITE_PUN_007,18.5203205,73.8567089,19.8,97.97,0.0,0.131,8.91,-5.8082,-2.7921,97.9691,0.65616,-0.01488,-0.05418,0.75253,0.31,0.0678,-9.839,1.0968,0.1173,0.0449,0.2376,3,20,0.62,0.79,0.38,24.509,18.6,89.4,36.5,19678.0,7329,7413,7171,7408,51.9,52.3,55.1,52.3,2.524,2.548,2.77,3.008,6.35,90.3,27.3,41.1,1006.34,-32.53,-0.31,1.49,20.2,33.8,28.8,0,no_anomaly,0.0,0,0,0,0,18.5203205,73.8567089,19.8,0.0
2024-02-22T17:39:10.200Z,MISSION_0006,102,1,orbit_base,SITE_PUN_007,18.5203203,73.8567065,20.1,94.96,0.414,0.03,8.91,-5.6793,-0.3849,94.9617,0.67513,-0.03101,-0.03878,0.73603,0.0728,-0.0436,-9.7806,1.1787,-0.9205,-0.2303,0.2707,3,16,0.88,0.95,0.4,24.536,21.21,89.4,37.0,19657.0,7415,7370,7325,7453,50.2,50.9,55.0,51.5,2.813,2.669,3.043,2.9,6.22,96.1,27.5,42.6,1006.35,-27.03,0.32,1.98,19.8,39.4,27.0,0,no_anomaly,0.0,0,0,0,0,18.5203203,73.8567065,20.1,0.0
2024-02-22T17:39:10.300Z,MISSION_0006,103,1,orbit_base,SITE_PUN_007,18.5203201,73.8567041,20.4,95.72,0.444,0.187,8.91,-0.0644,-3.7878,95.7218,0.67058,0.02413,-0.02259,0.7411,-0.3983,-0.0017,-9.8508,-1.0089,0.6552,-0.5741,0.1913,3,12,0.61,0.96,0.28,24.466,20.14,89.3,35.8,19637.0,7187,7716,7583,7040,52.8,54.7,54.9,53.5,2.908,2.486,2.62,2.843,5.52,89.3,27.3,42.2,1006.72,-32.84,1.93,1.65,22.0,38.4,28.1,0,no_anomaly,0.0,0,0,0,0,18.5203201,73.8567041,20.4,0.0
2024-02-22T17:39:10.400Z,MISSION_0006,104,1,orbit_base,SITE_PUN_007,18.52032,73.8567017,20.7,95.24,0.951,0.126,8.91,-1.2819,-3.9235,95.2418,0.67388,0.01775,-0.03133,0.73796,-0.03,0.0485,-9.8187,-1.3741,0.0499,-0.6643,0.2889,3,11,0.61,0.77,0.26,24.573,23.94,89.2,36.3,19616.0,7282,7181,7387,7092,53.8,53.0,55.9,53.5,2.901,2.788,2.508,2.998,6.38,95.1,27.4,42.6,1006.82,-30.24,-0.56,1.53,21.4,33.7,31.8,0,no_anomaly,0.0,0,0,0,0,18.52032,73.8567017,20.7,0.0
2024-02-22T17:39:10.500Z,MISSION_0006,105,1,orbit_base,SITE_PUN_007,18.52032,73.8566993,21.0,94.67,0.713,0.037,8.91,-1.6198,-3.2778,94.6736,0.67764,0.01145,-0.02977,0.7347,0.3083,0.0754,-9.8067,-0.1787,0.6172,0.1703,0.2635,3,16,0.78,1.04,0.2,24.547,18.96,89.1,35.2,19596.0,7233,7270,7191,7389,48.1,51.1,52.5,51.4,2.456,2.856,2.879,2.676,6.19,94.0,27.5,41.5,1006.69,-31.81,0.75,1.03,23.6,39.1,31.5,0,no_anomaly,0.0,0,0,0,0,18.52032,73.8566993,21.0,0.0
2024-02-22T17:39:10.600Z,MISSION_0006,106,1,orbit_base,SITE_PUN_007,18.5203201,73.8566969,21.3,96.39,1.545,0.069,8.91,-4.2925,-3.629,96.3892,0.66669,-0.00137,-0.04899,0.74373,-0.0424,-0.0264,-9.7211,-0.4024,-0.9431,0.0784,0.1737,3,11,0.57,0.83,0.24,24.47,23.26,89.0,35.8,19576.0,7422,7248,7403,7382,52.4,52.4,56.3,55.2,3.036,2.731,2.843,2.84,6.71,86.5,27.2,42.6,1006.18,-29.37,-2.04,1.5,23.7,39.0,28.6,0,no_anomaly,0.0,0,0,0,0,18.5203201,73.8566969,21.3,0.0
2024-02-22T17:39:10.700Z,MISSION_0006,107,1,orbit_base,SITE_PUN_007,18.5203202,73.8566945,21.6,96.92,1.789,0.047,8.91,3.2143,0.6047,96.9207,0.66298,0.01465,0.02449,0.74809,0.0634,0.0564,-9.8235,0.6293,0.4811,-0.1784,0.2391,3,16,0.69,1.1,0.37,24.463,22.68,88.9,35.8,19555.0,7457,7386,7172,7432,49.7,54.4,51.9,52.8,2.511,2.647,2.859,2.61,6.81,99.4,27.6,42.9,1006.56,-31.75,0.8,1.06,24.3,37.3,27.8,0,no_anomaly,0.0,0,0,0,0,18.5203202,73.8566945,21.6,0.0
2024-02-22T17:39:10.800Z,MISSION_0006,108,1,orbit_base,SITE_PUN_007,18.5203204,73.8566921,21.9,96.14,1.489,-0.003,8.91,1.9023,-3.5294,96.1375,0.66745,0.03399,-0.00823,0.74383,-0.0703,0.024,-9.8381,0.613,0.2724,-0.3252,0.26,3,15,0.63,0.84,0.2,24.609,15.55,88.8,35.9,19535.0,7274,7499,7777,7380,50.5,55.4,52.6,53.3,2.91,2.757,2.841,2.601,6.09,100.3,27.4,41.2,1006.59,-30.19,0.18,2.33,22.1,40.9,30.0,0,no_anomaly,0.0,0,0,0,0,18.5203204,73.8566921,21.9,0.0
2024-02-22T17:39:10.900Z,MISSION_0006,109,1,orbit_base,SITE_PUN_007,18.5203207,73.8566898,22.2,94.79,1.87,0.069,8.91,1.2594,-0.9843,94.7947,0.67677,0.01376,0.00228,0.73606,0.0566,0.0259,-9.8268,-0.5564,0.5822,0.1431,0.1985,3,12,0.66,1.08,0.2,24.538,17.83,88.7,35.5,19515.0,7309,7394,7716,7266,52.3,53.7,53.3,50.8,2.847,2.885,2.589,2.682,4.82,91.1,27.5,41.3,1006.32,-27.83,0.49,1.33,21.4,33.6,29.5,0,no_anomaly,0.0,0,0,0,0,18.5203207,73.8566898,22.2,0.0
2024-02-22T17:39:11.000Z,MISSION_0006,110,1,orbit_base,SITE_PUN_007,18.520321,73.8566874,22.5,95.88,1.909,0.16,8.91,-0.1664,-2.0233,95.8826,0.66981,0.01214,-0.01291,0.74233,0.1804,-0.0235,-9.911,0.3603,-0.1798,-0.5001,0.2292,3,14,0.68,1.05,0.39,24.397,22.55,88.6,35.4,19494.0,7165,7184,7287,7341,52.6,52.3,57.9,47.1,2.799,2.608,2.739,2.497,6.47,90.0,27.3,42.7,1006.8,-26.15,2.47,1.58,26.6,36.4,30.3,0,no_anomaly,0.0,0,0,0,0,18.520321,73.8566874,22.5,0.0
2024-02-22T17:39:11.100Z,MISSION_0006,111,1,orbit_base,SITE_PUN_007,18.5203214,73.856685,22.8,94.91,1.896,0.14,8.91,-3.2734,-2.7555,94.905,0.67624,-0.0016,-0.03729,0.73574,-0.0862,-0.0464,-9.8272,-0.3096,1.3872,0.2076,0.2507,3,12,0.86,0.8,0.36,24.468,26.53,88.5,36.2,19474.0,7230,7204,7363,7518,54.1,53.2,55.1,50.7,2.63,2.79,2.769,2.632,6.47,100.5,27.6,42.9,1006.44,-27.19,-0.64,1.28,21.9,35.6,30.1,0,no_anomaly,0.0,0,0,0,0,18.5203214,73.856685,22.8,0.0
2024-02-22T17:39:11.200Z,MISSION_0006,112,1,orbit_base,SITE_PUN_007,18.5203219,73.8566827,23.1,95.45,2.23,0.156,8.91,-4.8805,-0.3432,95.4533,0.67215,-0.02643,-0.03352,0.73918,0.1146,-0.0521,-9.8021,-0.8333,-0.4471,0.3261,0.1374,3,19,0.8,0.85,0.2,24.417,20.27,88.4,36.2,19454.0,7134,7434,7264,7414,49.6,54.1,50.4,48.8,2.884,2.94,2.847,2.495,5.96,91.9,27.6,43.0,1006.43,-31.99,1.76,1.36,25.4,34.2,29.6,0,no_anomaly,0.0,0,0,0,0,18.5203219,73.8566827,23.1,0.0
2024-02-22T17:39:11.300Z,MISSION_0006,113,1,orbit_base,SITE_PUN_007,18.5203225,73.8566803,23.4,95.36,2.233,0.119,8.91,0.8717,-2.3963,95.3559,0.67301,0.02058,-0.00846,0.7393,-0.2445,-0.0787,-9.8041,-0.3623,-0.5706,-0.1036,0.2545,3,18,0.67,0.89,0.2,24.505,19.7,88.3,34.9,19433.0,7076,7476,7437,7603,52.2,58.0,52.7,55.0,2.614,2.691,2.646,2.909,6.19,89.5,27.8,42.1,1006.3,-31.81,0.53,1.35,23.8,38.5,28.0,0,no_anomaly,0.0,0,0,0,0,18.5203225,73.8566803,23.4,0.0
2024-02-22T17:39:11.400Z,MISSION_0006,114,1,orbit_base,SITE_PUN_007,18.5203231,73.856678,23.7,96.09,2.405,0.144,8.91,2.0887,-2.5567,96.0903,0.66797,0.02877,-0.00136,0.74363,0.0144,0.0742,-9.7591,0.2464,0.0533,-0.0846,0.2535,3,15,0.74,0.88,0.2,24.481,17.39,88.2,35.3,19413.0,7131,7281,7285,7638,52.9,50.5,51.9,53.6,2.546,2.838,2.67,2.825,5.21,92.7,27.1,41.6,1006.51,-26.87,-0.56,1.87,21.2,34.5,29.1,0,no_anomaly,0.0,0,0,0,0,18.5203231,73.856678,23.7,0.0
2024-02-22T17:39:11.500Z,MISSION_0006,115,1,orbit_base,SITE_PUN_007,18.5203238,73.8566757,24.0,95.55,3.236,0.072,8.91,0.3684,-2.4263,95.5543,0.67181,0.01784,-0.01185,0.74041,0.1525,0.0558,-9.8861,-0.0245,0.289,-0.112,0.2456,3,13,0.61,0.75,0.2,24.483,17.31,88.1,36.3,19393.0,7286,7434,7458,7174,53.7,48.4,53.1,49.6,2.661,2.693,2.59,2.643,5.95,88.7,27.6,42.9,1006.53,-25.3,0.11,1.25,24.9,34.3,33.2,0,no_anomaly,0.0,0,0,0,0,18.5203238,73.8566757,24.0,0.0
2024-02-22T17:39:11.600Z,MISSION_0006,116,1,orbit_base,SITE_PUN_007,18.5203245,73.8566734,24.3,96.45,3.353,0.087,8.91,-3.8158,-3.2054,96.4465,0.66629,-0.00133,-0.04344,0.74442,-0.0422,-0.0265,-9.7706,-1.1354,0.132,0.4284,0.2825,3,15,0.59,0.9,0.26,24.487,18.73,88.1,35.3,19372.0,7224,7554,7063,7157,54.6,51.7,54.3,51.0,2.858,2.908,2.73,2.701,6.5,95.2,27.7,41.9,1006.67,-28.53,-1.94,1.0,25.4,43.3,33.3,0,no_anomaly,0.0,0,0,0,0,18.5203245,73.8566734,24.3,0.0
2024-02-22T17:39:11.700Z,MISSION_0006,117,1,orbit_base,SITE_PUN_007,18.5203254,73.8566712,24.6,94.92,3.201,0.158,8.91,-1.1322,-3.2369,94.9194,0.67601,0.01413,-0.02637,0.73628,0.2577,-0.0112,-9.8043,-1.1511,-0.0652,-0.1714,0.2872,3,12,0.75,0.82,0.33,24.487,20.8,88.0,35.7,19352.0,7288,7399,7394,7436,54.4,49.4,52.8,53.4,2.853,2.789,2.884,2.546,5.84,92.5,27.3,43.1,1006.6,-32.35,0.52,1.13,25.9,40.3,31.8,0,no_anomaly,0.0,0,0,0,0,18.5203254,73.8566712,24.6,0.0
2024-02-22T17:39:11.800Z,MISSION_0006,118,1,orbit_base,SITE_PUN_007,18.5203263,73.856669,24.9,94.48,3.605,0.154,8.91,1.4935,-2.3376,94.4777,0.67855,0.02382,-0.00428,0.73416,-0.017,0.0109,-9.7525,0.0881,-1.0691,0.8433,0.1868,3,10,0.73,1.07,0.27,24.431,18.88,87.9,35.9,19332.0,7387,7453,7457,7560,51.4,53.9,52.5,50.9,2.494,2.883,2.666,2.781,6.58,101.5,27.4,42.3,1006.64,-28.6,-1.36,1.34,21.2,37.3,28.5,0,no_anomaly,0.0,0,0,0,0,18.5203263,73.856669,24.9,0.0
2024-02-22T17:39:11.900Z,MISSION_0006,119,1,orbit_base,SITE_PUN_007,18.5203272,73.8566668,25.2,94.48,3.262,0.083,8.91,-0.5761,-2.5243,94.4786,0.67885,0.01276,-0.01865,0.73393,-0.0917,0.0591,-9.8593,-0.1828,0.6516,0.3918,0.2063,3,20,0.66,1.23,0.28,24.486,21.11,87.8,35.6,19311.0,7371,7480,7373,7139,52.0,56.0,53.9,52.3,2.696,2.729,2.846,2.701,6.34,94.0,27.3,42.7,1006.65,-31.6,-0.5,1.75,22.0,36.0,31.0,0,no_anomaly,0.0,0,0,0,0,18.5203272,73.8566668,25.2,0.0
2024-02-22T17:39:12.000Z,MISSION_0006,120,1,orbit_base,SITE_PUN_007,18.5203283,73.8566646,25.5,97.06,3.287,0.068,8.91,-1.9647,-2.3129,97.064,0.66223,0.00377,-0.02621,0.74883,0.2509,0.0528,-9.8314,-0.0414,0.4732,0.2712,0.2591,3,19,0.67,0.9,0.25,24.449,20.63,87.7,35.5,19291.0,7388,7212,7676,7171,53.0,52.9,50.9,54.0,2.712,3.022,2.852,2.885,6.14,94.9,27.5,42.2,1006.45,-27.34,0.6,1.22,21.0,37.8,27.7,0,no_anomaly,0.0,0,0,0,0,18.5203283,73.8566646,25.5,0.0
2024-02-22T17:39:12.100Z,MISSION_0006,121,1,orbit_base,SITE_PUN_007,18.5203294,73.8566625,25.8,95.38,3.003,0.069,8.91,-4.0772,-1.8745,95.3798,0.67306,-0.01185,-0.03731,0.73855,-0.1166,0.0594,-9.8,0.2043,-0.2549,-0.0293,0.2881,3,18,0.89,0.81,0.47,24.458,21.39,87.6,36.2,19270.0,7496,7003,7122,7285,49.7,50.7,52.1,55.7,2.822,2.712,2.889,2.743,5.7,92.3,28.2,41.6,1006.56,-31.17,-1.06,1.06,25.2,33.0,31.7,0,no_anomaly,0.0,0,0,0,0,18.5203294,73.8566625,25.8,0.0
2024-02-22T17:39:12.200Z,MISSION_0006,122,1,orbit_base,SITE_PUN_007,18.5203305,73.8566604,26.1,93.99,2.75,0.059,8.91,-5.4377,-1.2989,93.9853,0.68167,-0.02407,-0.04241,0.73003,-0.0744,-0.0107,-9.8275,0.5668,0.556,0.2158,0.2163,3,11,0.76,0.82,0.2,24.456,19.71,87.5,35.7,19250.0,7474,7243,7570,7400,49.0,55.9,54.0,52.6,2.869,2.553,2.623,2.918,6.02,96.8,27.6,43.3,1006.42,-34.64,1.38,1.29,20.7,40.5,30.0,0,no_anomaly,0.0,0,0,0,0,18.5203305,73.8566604,26.1,0.0
2024-02-22T17:39:12.300Z,MISSION_0006,123,1,orbit_base,SITE_PUN_007,18.5203317,73.8566583,26.4,93.38,3.086,0.049,8.91,3.5453,-2.028,93.3829,0.68509,0.03409,0.01037,0.72758,-0.1079,0.0079,-9.7914,0.189,0.014,0.0918,0.256,3,15,0.7,0.82,0.28,24.536,21.47,87.4,35.2,19230.0,7315,7212,7320,7255,50.0,52.2,51.0,54.4,2.544,2.765,2.6,2.834,5.79,99.2,27.6,42.1,1006.69,-21.4,-0.61,1.6,25.3,34.5,30.4,0,no_anomaly,0.0,0,0,0,0,18.5203317,73.8566583,26.4,0.0
2024-02-22T17:39:12.400Z,MISSION_0006,124,1,orbit_base,SITE_PUN_007,18.520333,73.8566563,26.7,93.57,2.792,0.17,8.91,3.5204,-2.8228,93.5706,0.68365,0.03897,0.00552,0.72875,-0.2247,0.0199,-9.8146,0.1121,0.3878,-0.4335,0.299,3,12,0.68,0.6,0.35,24.501,15.5,87.3,35.8,19209.0,7379,7527,7230,7419,54.1,53.7,54.3,51.6,2.62,2.505,2.648,2.896,5.3,93.3,27.5,40.6,1006.58,-26.91,2.02,1.57,21.3,38.1,32.5,0,no_anomaly,0.0,0,0,0,0,18.520333,73.8566563,26.7,0.0
2024-02-22T17:39:12.500Z,MISSION_0006,125,1,orbit_base,SITE_PUN_007,18.5203344,73.8566543,27.0,91.63,2.519,0.15,8.91,-1.4501,-2.4993,91.6258,0.69698,0.00682,-0.02427,0.71665,-0.1598,-0.0332,-9.8443,0.9118,-0.2205,-0.0668,0.1992,3,20,0.79,1.17,0.31,24.439,16.03,87.2,35.8,19189.0,7426,7419,7449,7212,50.7,52.1,55.1,51.6,2.817,2.732,2.832,2.928,6.41,89.3,27.4,41.7,1006.57,-27.69,0.95,1.95,25.5,38.7,31.1,0,no_anomaly,0.0,0,0,0,0,18.5203344,73.8566543,27.0,0.0
2024-02-22T17:39:12.600Z,MISSION_0006,126,1,orbit_base,SITE_PUN_007,18.5203358,73.8566523,27.3,91.17,2.702,0.165,8.91,2.7139,-2.852,91.1691,0.69902,0.03434,-0.0005,0.71428,0.0266,0.1021,-9.8349,-0.4143,0.3865,0.1989,0.187,3,17,0.91,1.09,0.33,24.469,19.0,87.1,35.8,19169.0,7422,7533,7532,7384,50.3,49.2,54.4,51.4,2.954,2.642,2.744,2.96,5.76,92.4,27.4,42.3,1006.5,-27.74,1.18,1.07,23.6,41.1,28.0,0,no_anomaly,0.0,0,0,0,0,18.5203358,73.8566523,27.3,0.0
2024-02-22T17:39:12.700Z,MISSION_0006,127,2,climb_tower,SITE_PUN_007,18.5203323,73.8566496,27.6,91.66,2.294,0.121,9.4,-2.0424,1.5272,91.6577,0.69646,-0.02197,-0.0035,0.71725,-0.1149,-0.0707,-9.8192,-0.1709,-0.105,0.3684,0.2045,3,10,0.58,0.71,0.25,24.443,24.77,87.0,35.9,19148.0,7327,7415,7311,7648,55.8,54.4,50.9,53.5,3.02,2.566,2.608,2.714,5.87,96.9,27.9,42.5,1006.47,-32.44,-0.39,1.37,24.0,38.5,30.5,0,no_anomaly,0.0,0,0,0,0,18.5203323,73.8566496,27.6,0.0
2024-02-22T17:39:12.800Z,MISSION_0006,128,2,climb_tower,SITE_PUN_007,18.5203309,73.8566487,27.9,95.26,2.098,0.052,9.58,-0.435,-2.754,95.2628,0.67377,0.0152,-0.019,0.73854,-0.0541,0.0159,-9.8271,0.2282,0.5483,-0.0448,0.2334,3,19,0.72,0.94,0.36,24.505,19.91,86.9,35.6,19128.0,7765,7167,7532,7258,51.6,54.4,51.7,54.6,2.778,2.687,2.716,3.075,6.01,89.6,27.2,42.4,1006.62,-28.59,0.46,2.04,24.3,36.5,31.4,0,no_anomaly,0.0,0,0,0,0,18.5203309,73.8566487,27.9,0.0
2024-02-22T17:39:12.900Z,MISSION_0006,129,2,climb_tower,SITE_PUN_007,18.5203321,73.8566522,28.2,93.17,1.867,-0.012,9.24,-2.0241,-2.3618,93.1717,0.68728,0.00283,-0.02699,0.72589,-0.1861,-0.0069,-9.8542,0.3309,0.8549,0.0198,0.2003,3,17,0.72,0.87,0.41,24.483,13.82,86.9,36.1,19108.0,7323,7509,7474,7520,51.6,51.5,50.8,55.1,2.506,2.765,2.795,2.641,6.24,84.5,27.9,41.9,1006.4,-31.39,-1.1,1.9,18.8,37.3,30.2,0,no_anomaly,0.0,0,0,0,0,18.5203321,73.8566522,28.2,0.0
