timestamp_utc,mission_id,frame_id,waypoint_id,inspection_phase,site_id,latitude_deg,longitude_deg,altitude_m,heading_deg,ground_speed_ms,vertical_speed_ms,distance_to_tower_m,roll_deg,pitch_deg,yaw_deg,quat_w,quat_x,quat_y,quat_z,accel_x_ms2,accel_y_ms2,accel_z_ms2,gyro_x_rads,gyro_y_rads,gyro_z_rads,vibration_level,gps_fix_type,gps_satellite_count,gps_hdop,gps_vdop,position_error_m,battery_voltage_v,battery_current_a,battery_remaining_pct,battery_temp_c,battery_capacity_mah,motor_fl_rpm,motor_fr_rpm,motor_rl_rpm,motor_rr_rpm,motor_fl_temp_c,motor_fr_temp_c,motor_rl_temp_c,motor_rr_temp_c,motor_fl_thrust_n,motor_fr_thrust_n,motor_rl_thrust_n,motor_rr_thrust_n,wind_speed_ms,wind_dir_deg,air_temp_c,humidity_pct,pressure_hpa,gimbal_pitch_deg,gimbal_roll_deg,zoom_factor,ir_temp_min_c,ir_temp_max_c,ir_temp_avg_c,anomaly_detected,anomaly_class,anomaly_confidence,anomaly_bbox_x,anomaly_bbox_y,anomaly_bbox_w,anomaly_bbox_h,anomaly_gps_lat,anomaly_gps_lon,anomaly_gps_alt_m,ir_temp_delta_c
2024-07-18T07:57:00.000Z,MISSION_0022,0,0,takeoff,SITE_BLR_003,12.9715998,77.5945962,1.5,317.17,0.0,0.147,0.43,1.3382,-1.0692,317.1719,-0.9309,-0.00746,0.01295,0.36496,0.061,0.0083,-9.7557,-0.2406,0.4059,-0.3549,0.0866,3,10,0.75,0.81,0.23,24.775,16.3,99.6,33.9,21921.0,7518,7713,7750,7701,49.6,48.9,48.9,53.7,2.805,2.699,3.054,2.709,1.59,52.0,26.8,73.1,1014.36,-32.44,1.12,1.45,22.7,40.8,30.1,0,no_anomaly,0.0,0,0,0,0,12.9715998,77.5945962,1.5,0.0
2024-07-18T07:57:00.100Z,MISSION_0022,1,0,takeoff,SITE_BLR_003,12.971602,77.5945916,3.0,316.26,0.393,0.125,0.96,-2.4321,-2.4982,316.2602,-0.92743,0.02781,0.01232,0.37276,-0.0013,-0.0253,-9.721,-0.4714,0.6518,-0.4536,0.1151,3,13,0.66,0.79,0.21,24.744,18.4,99.5,33.8,21901.0,7747,7660,7502,7523,52.0,53.8,47.0,51.7,3.214,2.653,3.02,2.751,1.74,41.5,26.5,74.0,1014.28,-33.44,-0.88,1.33,23.1,32.8,30.7,0,no_anomaly,0.0,0,0,0,0,12.971602,77.5945916,3.0,0.0
2024-07-18T07:57:00.200Z,MISSION_0022,2,0,takeoff,SITE_BLR_003,12.9716024,77.5945919,4.5,317.23,0.514,0.086,0.94,1.7923,-1.1501,317.2296,-0.93105,-0.0109,0.01505,0.36443,-0.0615,-0.0257,-9.8437,0.3156,-0.2825,-0.3218,0.0512,3,16,0.76,0.81,0.31,24.786,21.08,99.5,33.9,21881.0,7425,7045,7577,7382,50.9,50.0,49.6,54.6,2.978,2.818,2.945,2.916,1.6,41.9,26.7,74.6,1014.06,-34.93,0.55,1.0,21.5,38.1,30.8,0,no_anomaly,0.0,0,0,0,0,12.9716024,77.5945919,4.5,0.0
2024-07-18T07:57:00.300Z,MISSION_0022,3,0,takeoff,SITE_BLR_003,12.9716047,77.5945916,5.0,316.02,0.0,0.084,1.07,-1.1783,-0.4239,316.0151,-0.92716,0.01092,-0.00042,0.3745,-0.0486,0.0663,-9.7755,-0.4254,0.3096,-0.4159,0.1159,3,11,0.76,1.23,0.22,24.823,18.49,99.4,33.5,21861.0,7456,7686,7616,7698,54.8,50.9,49.8,51.7,2.46,2.881,2.874,2.819,1.08,46.8,26.2,74.4,1014.41,-30.88,0.78,1.05,19.5,40.1,29.9,0,no_anomaly,0.0,0,0,0,0,12.9716047,77.5945916,5.0,0.0
2024-07-18T07:57:00.400Z,MISSION_0022,4,0,takeoff,SITE_BLR_003,12.9716064,77.5945941,5.0,314.38,0.0,0.101,0.97,2.5614,-2.3723,314.3834,-0.92156,-0.01258,0.02774,0.38704,0.0243,-0.0429,-9.8948,0.0348,-0.6239,-0.5684,0.0834,3,14,0.59,0.87,0.21,24.85,8.73,99.3,34.5,21841.0,7287,7639,7389,7606,51.9,52.8,48.5,52.1,2.918,2.68,2.726,2.854,1.21,49.7,26.1,74.1,1014.33,-32.52,-0.91,1.0,20.8,36.7,25.5,0,no_anomaly,0.0,0,0,0,0,12.9716064,77.5945941,5.0,0.0
2024-07-18T07:57:00.500Z,MISSION_0022,5,0,takeoff,SITE_BLR_003,12.9716078,77.5945954,5.0,315.44,0.0,0.127,1.0,-3.8563,-1.4258,315.4404,-0.92459,0.03585,-0.00125,0.37927,0.0294,0.0579,-9.8591,0.2497,-0.1806,0.4857,0.1511,3,12,0.73,1.08,0.22,24.769,15.98,99.2,34.6,21822.0,7703,7284,7823,7620,53.1,55.2,48.0,52.1,2.678,2.681,2.906,2.667,2.33,48.9,26.3,74.0,1014.4,-25.35,-0.14,1.43,21.0,34.8,32.5,0,no_anomaly,0.0,0,0,0,0,12.9716078,77.5945954,5.0,0.0
2024-07-18T07:57:00.600Z,MISSION_0022,6,0,takeoff,SITE_BLR_003,12.9716061,77.5945967,5.0,315.16,0.207,0.093,0.77,2.0918,-5.2354,315.1579,-0.92361,0.00056,0.04917,0.38018,-0.0481,0.0421,-9.7855,0.8829,0.7192,-0.6002,0.0809,3,15,0.63,0.76,0.26,24.785,22.76,99.1,34.6,21802.0,7558,7745,7448,7399,53.2,51.2,52.2,51.6,2.789,2.528,2.704,2.702,1.81,40.4,26.3,74.5,1013.96,-28.47,1.07,1.58,23.0,34.4,29.3,0,no_anomaly,0.0,0,0,0,0,12.9716061,77.5945967,5.0,0.0
2024-07-18T07:57:00.700Z,MISSION_0022,7,0,takeoff,SITE_BLR_003,12.9716044,77.5945954,5.0,315.02,0.45,0.07,0.71,-1.7383,0.3273,315.0221,-0.92386,0.01292,-0.00844,0.38242,-0.1107,0.055,-9.7089,-0.2028,-0.4938,0.1206,0.1844,3,15,0.64,0.92,0.25,24.742,19.77,99.0,33.5,21782.0,7591,7543,7706,7479,51.4,50.4,49.7,48.5,2.682,2.919,2.929,2.903,2.53,50.3,26.4,74.8,1014.58,-26.16,0.61,1.64,22.0,30.4,28.4,0,no_anomaly,0.0,0,0,0,0,12.9716044,77.5945954,5.0,0.0
2024-07-18T07:57:00.800Z,MISSION_0022,8,0,takeoff,SITE_BLR_003,12.9716012,77.5945922,5.0,314.28,0.6,-0.006,0.88,0.3006,-2.3324,314.2811,-0.92129,0.00549,0.01977,0.38834,-0.0925,-0.0196,-9.7299,0.3365,-0.217,-0.0988,0.1329,3,13,0.64,1.11,0.24,24.828,18.29,98.9,34.4,21762.0,7310,7409,7285,7566,53.2,49.0,49.3,46.0,2.826,2.737,2.82,3.115,1.32,41.1,26.3,74.3,1014.66,-30.76,1.48,1.58,21.9,35.1,28.4,0,no_anomaly,0.0,0,0,0,0,12.9716012,77.5945922,5.0,0.0
2024-07-18T07:57:00.900Z,MISSION_0022,9,0,takeoff,SITE_BLR_003,12.9715979,77.5945936,5.0,313.66,0.673,0.086,0.75,2.3667,-4.1927,313.6598,-0.91883,-0.00458,0.04174,0.39242,0.0383,0.0526,-9.7479,0.41,0.095,0.2804,0.1138,3,14,0.5,0.76,0.31,24.74,21.83,98.8,34.6,21742.0,7448,7769,7661,7573,55.9,55.8,49.0,48.4,2.884,2.562,2.773,2.621,1.54,47.6,26.4,74.0,1014.54,-29.95,-0.93,1.93,22.7,42.1,29.6,0,no_anomaly,0.0,0,0,0,0,12.9715979,77.5945936,5.0,0.0
2024-07-18T07:57:01.000Z,MISSION_0022,10,0,takeoff,SITE_BLR_003,12.9716014,77.5945914,5.0,313.87,0.505,0.029,0.97,0.813,-2.3119,313.8724,-0.91991,0.00138,0.02134,0.39153,-0.1588,0.0698,-9.8108,-0.1152,-0.2852,0.5868,0.1625,3,15,0.74,0.88,0.42,24.749,17.44,98.7,34.6,21722.0,7572,7518,7321,7918,48.8,48.2,54.8,50.5,2.805,2.76,2.948,2.898,1.51,42.5,26.5,73.4,1014.46,-32.66,-0.74,1.94,24.7,33.9,28.8,0,no_anomaly,0.0,0,0,0,0,12.9716014,77.5945914,5.0,0.0
2024-07-18T07:57:01.100Z,MISSION_0022,11,0,takeoff,SITE_BLR_003,12.9716022,77.5945907,5.0,313.68,0.412,0.088,1.07,0.8196,-3.3309,313.6775,-0.91907,0.00486,0.02953,0.39295,0.0853,-0.0519,-9.8185,-0.5614,0.1597,0.3004,0.1281,3,16,0.72,0.94,0.26,24.766,18.93,98.6,34.2,21702.0,7607,7346,7178,7592,50.8,50.4,53.4,54.3,2.843,3.028,3.121,2.73,1.3,56.0,27.0,73.8,1014.32,-31.35,1.09,1.0,23.4,38.2,29.3,0,no_anomaly,0.0,0,0,0,0,12.9716022,77.5945907,5.0,0.0
2024-07-18T07:57:01.200Z,MISSION_0022,12,0,takeoff,SITE_BLR_003,12.9716001,77.5945877,5.0,311.48,0.896,0.083,1.37,0.473,-3.9028,311.4778,-0.9112,0.01023,0.03274,0.41053,0.0985,0.0361,-9.8349,-0.9486,-0.5169,0.4235,0.2071,3,12,0.73,0.88,0.24,24.774,15.53,98.6,34.7,21683.0,7492,7527,7690,7413,51.0,52.4,52.2,52.0,2.784,2.804,2.798,2.649,1.68,51.0,26.4,73.3,1014.28,-35.08,1.28,1.33,21.5,32.9,25.9,0,no_anomaly,0.0,0,0,0,0,12.9716001,77.5945877,5.0,0.0
2024-07-18T07:57:01.300Z,MISSION_0022,13,0,takeoff,SITE_BLR_003,12.9715996,77.594589,5.0,311.96,1.28,0.097,1.22,3.1496,-1.7335,311.9618,-0.91313,-0.01894,0.025,0.40646,-0.1607,-0.006,-9.865,0.2492,0.0046,0.0334,0.1398,3,11,0.69,0.72,0.28,24.845,17.44,98.5,34.6,21663.0,7552,7912,7377,7374,49.5,50.3,51.9,49.6,2.76,2.908,2.956,2.847,2.1,46.2,26.6,73.7,1014.68,-37.24,-0.35,1.85,22.3,33.7,29.4,0,no_anomaly,0.0,0,0,0,0,12.9715996,77.594589,5.0,0.0
2024-07-18T07:57:01.400Z,MISSION_0022,14,0,takeoff,SITE_BLR_003,12.9715939,77.5945945,5.0,314.83,1.206,0.09,0.91,-2.7563,-5.9156,314.8259,-0.92132,0.04199,0.0384,0.38461,-0.0141,-0.0271,-9.8346,0.1373,0.2816,0.3924,0.1401,3,10,0.62,1.17,0.2,24.666,18.93,98.4,34.3,21643.0,7860,7613,7634,7696,53.6,50.9,49.2,48.6,2.679,2.908,2.808,2.847,1.92,54.8,26.4,73.9,1014.03,-27.28,1.43,1.59,23.1,36.4,29.2,0,no_anomaly,0.0,0,0,0,0,12.9715939,77.5945945,5.0,0.0
2024-07-18T07:57:01.500Z,MISSION_0022,15,0,takeoff,SITE_BLR_003,12.9715951,77.5945946,5.0,314.49,1.057,0.127,0.81,0.6636,-2.6365,314.4854,-0.92194,0.00356,0.02345,0.3866,-0.0027,-0.0374,-9.83,-0.2046,-0.3597,0.7297,0.1138,3,17,0.79,0.65,0.3,24.733,23.57,98.3,34.3,21623.0,7686,7598,7504,7449,52.5,50.0,48.7,54.1,3.117,2.915,2.83,2.909,1.91,45.1,26.7,74.1,1014.42,-30.49,-0.47,1.67,20.6,38.9,30.4,0,no_anomaly,0.0,0,0,0,0,12.9715951,77.5945946,5.0,0.0
2024-07-18T07:57:01.600Z,MISSION_0022,16,0,takeoff,SITE_BLR_003,12.9715922,77.5945922,5.0,313.22,0.896,0.1,1.23,1.9792,-1.5918,313.2241,-0.91771,-0.01034,0.0196,0.39664,-0.0927,0.0104,-9.8596,0.8482,0.1185,0.1016,0.118,3,11,0.73,1.01,0.33,24.671,14.9,98.2,34.1,21603.0,7793,7651,7466,7470,50.8,50.9,49.4,47.2,2.875,2.668,2.765,2.853,0.87,49.0,26.5,74.4,1014.22,-28.49,-0.69,1.89,20.7,37.8,28.4,0,no_anomaly,0.0,0,0,0,0,12.9715922,77.5945922,5.0,0.0
2024-07-18T07:57:01.700Z,MISSION_0022,17,0,takeoff,SITE_BLR_003,12.9715899,77.5945921,5.0,311.53,0.698,0.005,1.43,3.4406,-4.4024,311.5328,-0.91127,-0.0116,0.04732,0.40892,-0.125,0.0437,-9.7566,-0.7348,-0.0154,-0.1093,0.1819,3,14,0.71,0.88,0.36,24.734,22.53,98.1,34.1,21583.0,7404,7779,7391,7576,49.2,51.2,54.1,55.3,3.016,2.76,2.875,2.903,2.19,44.5,26.3,73.4,1014.55,-27.96,0.92,1.37,25.2,39.5,30.7,0,no_anomaly,0.0,0,0,0,0,12.9715899,77.5945921,5.0,0.0
2024-07-18T07:57:01.800Z,MISSION_0022,18,0,takeoff,SITE_BLR_003,12.9715877,77.5945951,5.0,311.08,0.836,0.118,1.48,-1.6306,-4.5124,311.0837,-0.90923,0.02924,0.02994,0.41418,-0.0526,0.0645,-9.8692,-0.4268,0.5128,-0.1429,0.1495,3,11,0.52,0.71,0.2,24.711,20.34,98.0,34.0,21564.0,7794,7681,7793,7549,51.3,52.5,50.3,51.6,2.631,2.544,3.059,2.981,2.33,51.3,26.3,72.9,1014.42,-34.77,1.11,1.31,25.0,38.6,30.4,0,no_anomaly,0.0,0,0,0,0,12.9715877,77.5945951,5.0,0.0
2024-07-18T07:57:01.900Z,MISSION_0022,19,0,takeoff,SITE_BLR_003,12.971591,77.5946006,5.0,310.31,1.141,0.107,1.0,-1.3164,-1.0479,310.3101,-0.90731,0.01427,0.00347,0.42021,0.0363,-0.0409,-9.8005,-0.323,-0.3243,-0.1571,0.1202,3,12,0.77,0.88,0.27,24.736,17.24,97.9,35.1,21544.0,7688,7527,7716,7739,51.2,53.7,50.5,52.1,2.889,2.906,2.699,2.689,1.88,47.5,26.7,73.6,1014.59,-30.57,0.55,1.15,25.3,42.9,30.0,0,no_anomaly,0.0,0,0,0,0,12.971591,77.5946006,5.0,0.0
2024-07-18T07:57:02.000Z,MISSION_0022,20,0,takeoff,SITE_BLR_003,12.9715917,77.594601,5.0,309.66,0.939,0.117,0.94,2.8249,-0.2584,309.6595,-0.90479,-0.02135,0.01252,0.42513,0.0694,-0.053,-9.8108,-0.0467,0.6307,-0.4933,0.1791,3,10,0.6,0.97,0.25,24.71,15.96,97.8,34.0,21524.0,7569,7550,7661,7491,54.1,55.5,54.0,50.9,2.524,2.88,2.921,2.621,1.71,39.3,26.8,75.2,1013.72,-29.26,-2.6,1.41,19.4,31.6,28.5,0,no_anomaly,0.0,0,0,0,0,12.9715917,77.594601,5.0,0.0
2024-07-18T07:57:02.100Z,MISSION_0022,21,0,takeoff,SITE_BLR_003,12.9715901,77.5945992,5.0,309.77,0.827,0.15,1.11,4.3504,-1.3926,309.7745,-0.90495,-0.02921,0.0271,0.42365,-0.0504,-0.05,-9.8362,0.6383,-0.4567,-0.3945,0.1597,3,17,0.69,0.94,0.2,24.752,17.79,97.7,34.8,21504.0,7830,7375,7349,7573,53.1,50.6,53.9,49.9,2.846,2.918,2.941,2.687,1.6,41.4,26.3,73.7,1014.46,-34.71,0.45,1.84,20.3,33.7,30.6,0,no_anomaly,0.0,0,0,0,0,12.9715901,77.5945992,5.0,0.0
2024-07-18T07:57:02.200Z,MISSION_0022,22,0,takeoff,SITE_BLR_003,12.9715933,77.5945947,5.0,308.7,0.845,0.26,0.95,0.5281,-4.5777,308.7045,-0.90082,0.01313,0.03799,0.43232,0.1323,-0.0063,-9.8515,0.6792,0.3918,0.0251,0.0794,3,15,0.84,0.84,0.27,24.697,12.29,97.7,34.4,21484.0,7644,7803,7474,7393,49.7,52.1,49.7,48.6,2.78,2.835,2.955,2.763,2.7,40.2,26.4,73.7,1014.19,-27.28,0.62,2.0,21.4,39.8,28.5,0,no_anomaly,0.0,0,0,0,0,12.9715933,77.5945947,5.0,0.0
2024-07-18T07:57:02.300Z,MISSION_0022,23,0,takeoff,SITE_BLR_003,12.9715949,77.5945895,5.0,309.7,0.829,0.022,1.3,1.1035,-3.59,309.6976,-0.90483,0.0046,0.03244,0.42451,-0.0992,0.1336,-9.7859,-1.1699,-0.2863,-0.3927,0.0604,3,16,0.65,1.15,0.36,24.722,16.22,97.6,33.9,21464.0,7633,7563,7582,7534,48.9,54.2,49.4,48.0,3.081,2.804,2.855,2.711,2.24,49.1,26.8,73.7,1014.21,-27.06,-1.53,1.62,22.3,37.6,28.0,0,no_anomaly,0.0,0,0,0,0,12.9715949,77.5945895,5.0,0.0
2024-07-18T07:57:02.400Z,MISSION_0022,24,0,takeoff,SITE_BLR_003,12.9715939,77.5945858,5.0,309.52,0.704,0.058,1.72,-0.5057,-3.8662,309.524,-0.90396,0.01837,0.02863,0.42627,0.2402,-0.0634,-9.7945,0.8058,0.4102,0.6668,0.0771,3,20,0.76,1.03,0.34,24.747,22.7,97.5,34.2,21445.0,7761,7365,7548,7593,51.0,49.9,50.5,50.3,2.965,2.618,2.84,3.106,2.17,49.5,26.6,74.1,1014.22,-29.98,0.01,1.04,22.0,33.4,29.5,0,no_anomaly,0.0,0,0,0,0,12.9715939,77.5945858,5.0,0.0
2024-07-18T07:57:02.500Z,MISSION_0022,25,0,takeoff,SITE_BLR_003,12.9715931,77.5945919,5.0,308.14,1.039,0.102,1.18,-1.2805,-1.2232,308.1421,-0.89918,0.01472,0.00471,0.43731,-0.1654,-0.0229,-9.7561,-0.1007,-0.053,0.3546,0.1241,3,11,0.76,0.93,0.33,24.681,20.08,97.4,34.7,21425.0,7743,7568,7775,7621,49.3,50.7,51.3,51.3,2.737,2.908,2.933,2.758,2.4,52.8,26.6,74.3,1014.05,-26.61,-0.65,1.53,22.5,38.5,27.9,0,no_anomaly,0.0,0,0,0,0,12.9715931,77.5945919,5.0,0.0
2024-07-18T07:57:02.600Z,MISSION_0022,26,0,takeoff,SITE_BLR_003,12.9715937,77.5945945,5.0,308.14,1.025,0.074,0.93,0.5858,-1.9942,308.1438,-0.89923,0.00301,0.01789,0.43709,0.0699,0.0057,-9.7088,-0.6828,-0.6635,-0.2851,0.1307,3,11,0.74,1.03,0.2,24.705,16.81,97.3,34.1,21405.0,7650,7496,7836,7460,50.2,49.1,53.3,51.2,2.733,3.11,2.857,2.78,1.88,52.0,26.7,74.0,1014.03,-33.64,0.79,2.1,23.5,38.6,27.1,0,no_anomaly,0.0,0,0,0,0,12.9715937,77.5945945,5.0,0.0
2024-07-18T07:57:02.700Z,MISSION_0022,27,0,takeoff,SITE_BLR_003,12.9715892,77.5945948,5.0,307.36,0.609,0.012,1.33,-0.593,-0.5181,307.3615,-0.89631,0.00664,0.00176,0.44338,-0.058,-0.0225,-9.8758,-0.0137,-0.7561,-0.1765,0.1039,3,14,0.5,0.83,0.2,24.759,18.38,97.2,34.8,21385.0,7809,7691,7486,7891,51.6,50.5,53.0,51.3,2.692,2.789,2.332,2.756,1.91,46.6,26.7,73.6,1014.05,-25.95,-1.05,1.27,19.7,37.4,28.8,0,no_anomaly,0.0,0,0,0,0,12.9715892,77.5945948,5.0,0.0
2024-07-18T07:57:02.800Z,MISSION_0022,28,0,takeoff,SITE_BLR_003,12.9715865,77.594594,5.0,306.11,0.469,0.085,1.64,-0.4567,-1.8356,306.1065,-0.89128,0.01081,0.01247,0.45316,-0.1488,-0.053,-9.8375,0.0386,-0.3262,-0.5876,0.2544,3,18,0.66,0.64,0.2,24.733,20.13,97.1,34.8,21365.0,7729,7820,7621,7640,53.9,48.0,52.9,51.6,2.797,2.947,2.685,2.85,1.65,51.5,26.2,73.0,1014.17,-32.89,-1.45,1.57,19.6,37.9,26.9,0,no_anomaly,0.0,0,0,0,0,12.9715865,77.594594,5.0,0.0
2024-07-18T07:57:02.900Z,MISSION_0022,29,0,takeoff,SITE_BLR_003,12.9715798,77.5945981,5.0,304.78,0.69,0.03,2.26,-1.7366,0.5936,304.7795,-0.88604,0.01103,-0.01161,0.46333,0.0708,0.0056,-9.8056,0.1818,-0.5441,-0.1617,0.1215,3,15,0.65,0.85,0.31,24.771,20.29,97.0,34.4,21345.0,7518,7607,7593,7793,49.5,53.5,51.4,49.0,2.738,2.843,3.12,2.992,2.73,47.5,26.3,74.7,1014.11,-26.34,-0.03,1.77,17.1,36.4,26.4,0,no_anomaly,0.0,0,0,0,0,12.9715798,77.5945981,5.0,0.0
2024-07-18T07:57:03.000Z,MISSION_0022,30,0,takeoff,SITE_BLR_003,12.971581,77.5945961,5.0,304.49,0.674,0.126,2.16,3.4483,0.0254,304.4914,-0.88455,-0.02673,0.01382,0.46548,0.0225,0.0429,-9.7471,0.3994,-0.2252,0.4916,0.1179,3,14,0.63,0.86,0.21,24.706,16.74,96.9,34.4,21325.0,7310,7592,7613,7750,50.6,51.1,52.3,51.4,2.57,2.563,2.668,2.64,1.44,48.1,26.6,73.6,1013.85,-32.83,-0.36,1.67,22.0,35.2,27.2,0,no_anomaly,0.0,0,0,0,0,12.971581,77.5945961,5.0,0.0
2024-07-18T07:57:03.100Z,MISSION_0022,31,0,takeoff,SITE_BLR_003,12.9715834,77.5945947,5.0,303.35,0.883,0.114,1.94,-1.2139,-3.7904,303.3538,-0.87959,0.02501,0.02409,0.47447,0.0317,-0.058,-9.7843,-0.2805,-0.0062,-0.1486,0.132,3,18,0.5,0.7,0.2,24.706,17.15,96.8,34.6,21306.0,7644,7616,7700,7501,52.7,54.1,49.9,54.3,2.891,2.919,2.829,2.778,0.7,47.0,26.6,74.1,1014.06,-29.34,-0.39,1.52,23.3,34.2,27.0,0,no_anomaly,0.0,0,0,0,0,12.9715834,77.5945947,5.0,0.0
2024-07-18T07:57:03.200Z,MISSION_0022,32,0,takeoff,SITE_BLR_003,12.971583,77.5945901,5.0,304.03,0.679,0.067,2.19,-1.5786,-2.9992,304.033,-0.88253,0.02444,0.01665,0.46933,-0.0195,0.0244,-9.8151,-0.7537,-0.2612,0.5498,0.0918,3,13,0.74,1.0,0.24,24.732,20.73,96.8,34.2,21286.0,7747,7782,7738,7625,50.3,52.7,55.7,50.1,2.955,2.735,2.767,2.79,1.98,47.2,26.4,73.1,1014.45,-30.37,0.2,1.97,25.2,37.6,31.0,0,no_anomaly,0.0,0,0,0,0,12.971583,77.5945901,5.0,0.0
2024-07-18T07:57:03.300Z,MISSION_0022,33,0,takeoff,SITE_BLR_003,12.971584,77.5945934,5.0,307.36,0.62,0.141,1.93,-0.0079,-0.3061,307.3615,-0.89633,0.00125,0.00236,0.44337,-0.1898,0.0115,-9.8158,-0.7175,-0.5802,-0.2275,0.2877,3,17,0.68,0.89,0.32,24.669,20.93,96.7,33.8,21266.0,7297,7366,7782,7470,52.0,54.3,49.2,54.4,2.556,2.899,2.903,2.923,2.0,39.1,26.7,73.6,1013.99,-35.74,1.05,1.73,20.4,38.5,31.8,0,no_anomaly,0.0,0,0,0,0,12.971584,77.5945934,5.0,0.0
2024-07-18T07:57:03.400Z,MISSION_0022,34,0,takeoff,SITE_BLR_003,12.971584,77.5945949,5.0,307.52,0.789,-0.017,1.87,-1.4196,-2.2522,307.5239,-0.89662,0.0198,0.01215,0.4422,0.0088,0.1003,-9.8077,-0.5651,-0.3877,-0.044,0.2162,3,16,0.72,0.97,0.32,24.634,15.61,96.6,34.8,21246.0,7391,7713,7462,7592,53.1,51.3,54.9,50.3,2.658,2.798,2.811,2.892,1.63,52.0,26.0,73.6,1014.44,-22.58,0.06,1.15,22.2,32.2,25.4,0,no_anomaly,0.0,0,0,0,0,12.971584,77.5945949,5.0,0.0
2024-07-18T07:57:03.500Z,MISSION_0022,35,0,takeoff,SITE_BLR_003,12.9715809,77.5945931,5.0,306.08,1.345,-0.004,2.26,-1.7139,-4.5917,306.0799,-0.89024,0.03148,0.02893,0.45349,-0.0265,-0.0055,-9.7861,-0.0292,-0.2091,-0.3733,0.203,3,14,0.74,0.81,0.2,24.673,15.31,96.5,35.1,21226.0,7603,7665,7596,7533,53.0,50.8,51.7,52.8,2.828,2.9,2.804,3.058,1.66,49.7,26.3,74.3,1014.55,-29.08,-1.78,1.92,22.1,33.7,30.2,0,no_anomaly,0.0,0,0,0,0,12.9715809,77.5945931,5.0,0.0
2024-07-18T07:57:03.600Z,MISSION_0022,36,0,takeoff,SITE_BLR_003,12.971582,77.594596,5.0,305.98,1.491,0.048,2.06,-0.1966,-2.1934,305.9762,-0.89073,0.01022,0.01627,0.45412,-0.0355,0.032,-9.7624,-0.0799,0.244,0.208,0.2083,3,14,0.65,1.03,0.28,24.687,22.4,96.4,33.6,21206.0,7734,7606,7438,7416,50.8,52.1,53.6,52.6,2.607,2.901,2.737,2.702,1.29,39.0,26.7,73.9,1014.56,-28.37,0.88,1.54,18.6,40.0,28.3,0,no_anomaly,0.0,0,0,0,0,12.971582,77.594596,5.0,0.0
2024-07-18T07:57:03.700Z,MISSION_0022,37,0,takeoff,SITE_BLR_003,12.9715803,77.5945978,5.0,306.36,1.426,0.112,2.2,-0.6314,-2.174,306.3564,-0.89219,0.01348,0.01444,0.45122,-0.094,-0.1001,-9.8,0.1472,-0.5041,-0.0999,0.0528,3,19,0.54,0.8,0.2,24.706,19.12,96.3,34.7,21187.0,7525,7321,7410,7471,54.3,50.3,50.2,55.5,2.928,2.579,2.629,2.898,1.78,48.7,26.4,74.4,1014.32,-26.09,0.16,1.18,17.8,34.7,27.7,0,no_anomaly,0.0,0,0,0,0,12.9715803,77.5945978,5.0,0.0
2024-07-18T07:57:03.800Z,MISSION_0022,38,0,takeoff,SITE_BLR_003,12.9715795,77.5946,5.0,306.22,1.66,0.221,2.28,2.6231,-2.235,306.2187,-0.89167,-0.01159,0.02774,0.45169,0.1338,-0.0201,-9.8033,1.0126,0.4927,0.3656,0.0926,3,16,0.53,0.6,0.21,24.682,15.14,96.2,35.2,21167.0,7532,7932,7363,7538,50.4,52.9,53.8,53.8,2.653,2.703,2.922,2.847,1.58,50.0,26.8,73.5,1014.14,-31.37,0.07,1.29,23.7,40.4,29.4,0,no_anomaly,0.0,0,0,0,0,12.9715795,77.5946,5.0,0.0
2024-07-18T07:57:03.900Z,MISSION_0022,39,0,takeoff,SITE_BLR_003,12.971583,77.5945975,5.0,307.06,1.165,0.099,1.91,1.1433,-1.7448,307.062,-0.8951,-0.00214,0.01808,0.4455,0.0001,-0.0509,-9.7559,1.4469,0.05,-0.5498,0.1719,3,18,0.82,1.09,0.27,24.67,22.28,96.1,35.2,21147.0,7943,7340,7619,7248,51.2,51.3,51.5,50.7,2.937,2.786,2.728,2.552,1.36,44.9,26.5,74.5,1014.22,-26.64,0.58,1.24,20.6,35.1,29.1,0,no_anomaly,0.0,0,0,0,0,12.971583,77.5945975,5.0,0.0
2024-07-18T07:57:04.000Z,MISSION_0022,40,0,takeoff,SITE_BLR_003,12.9715828,77.5945909,5.0,310.07,0.688,0.114,2.17,-1.0318,-2.2542,310.0718,-0.90629,0.01646,0.01403,0.42211,-0.0252,0.0146,-9.8855,-0.2886,0.3286,-0.5847,0.1474,3,17,0.58,1.03,0.24,24.731,15.66,96.0,34.2,21127.0,7375,7753,7590,7472,50.3,50.1,54.3,50.6,2.943,2.692,2.833,2.866,2.71,46.6,26.8,74.0,1014.05,-27.62,-0.42,1.4,19.4,34.1,26.8,0,no_anomaly,0.0,0,0,0,0,12.9715828,77.5945909,5.0,0.0
2024-07-18T07:57:04.100Z,MISSION_0022,41,0,takeoff,SITE_BLR_003,12.9715756,77.5945894,5.0,312.02,1.252,0.193,2.96,-0.7143,-3.1293,312.018,-0.91318,0.01679,0.02241,0.40659,0.0705,-0.0513,-9.8167,-0.0028,-0.0988,-0.6693,0.1763,3,13,0.93,0.92,0.25,24.643,21.05,95.9,33.6,21107.0,7617,7247,7397,7656,50.2,50.9,52.5,53.8,2.583,2.851,3.002,2.841,2.55,51.6,26.4,74.5,1014.1,-30.13,-1.15,1.57,20.2,40.4,32.1,0,no_anomaly,0.0,0,0,0,0,12.9715756,77.5945894,5.0,0.0
2024-07-18T07:57:04.200Z,MISSION_0022,42,0,takeoff,SITE_BLR_003,12.9715707,77.5945899,5.0,312.94,1.145,0.177,3.45,3.2425,-2.5103,312.9425,-0.91652,-0.01719,0.03137,0.39839,0.1058,-0.0444,-9.8967,0.9756,-0.0567,0.1414,0.1309,3,11,0.74,0.9,0.33,24.727,18.1,95.9,35.2,21087.0,7611,7192,7720,7420,52.1,54.2,50.5,51.2,2.725,2.832,2.943,3.027,1.18,42.0,26.6,75.0,1013.89,-28.3,-0.11,1.05,25.7,40.2,30.3,0,no_anomaly,0.0,0,0,0,0,12.9715707,77.5945899,5.0,0.0
2024-07-18T07:57:04.300Z,MISSION_0022,43,0,transit,SITE_BLR_003,12.9715695,77.5945913,5.5,311.99,0.98,0.03,3.53,-1.2885,0.1053,311.9895,-0.91345,0.0099,-0.00541,0.40679,-0.0918,-0.0218,-9.8668,-0.2937,0.9462,0.0993,0.1198,3,16,0.57,0.81,0.31,24.685,14.33,95.8,34.5,21068.0,7438,7547,7598,7538,55.3,51.5,48.6,51.8,3.126,3.018,2.556,3.018,1.11,50.7,25.9,73.5,1014.06,-27.44,-0.47,1.73,18.3,35.6,27.9,0,no_anomaly,0.0,0,0,0,0,12.9715695,77.5945913,5.5,0.0
2024-07-18T07:57:04.400Z,MISSION_0022,44,0,transit,SITE_BLR_003,12.9715674,77.594589,6.0,312.47,0.707,0.058,3.83,-1.6797,1.5861,312.4714,-0.91511,0.00784,-0.01857,0.40271,0.1588,0.0588,-9.7761,0.6142,-0.1165,0.2829,0.1368,3,13,0.74,1.17,0.47,24.625,15.83,95.7,34.7,21048.0,7645,7687,7479,7684,51.4,52.1,49.9,53.1,2.866,2.948,3.034,2.672,2.28,48.7,26.6,74.1,1014.03,-27.25,1.18,1.06,21.3,32.6,29.3,0,no_anomaly,0.0,0,0,0,0,12.9715674,77.594589,6.0,0.0
2024-07-18T07:57:04.500Z,MISSION_0022,45,0,transit,SITE_BLR_003,12.9715675,77.5945836,6.5,311.26,0.388,0.077,4.05,-0.3596,-1.2827,311.2598,-0.91082,0.00748,0.0089,0.41263,0.1389,-0.0321,-9.776,0.0332,-0.1536,-0.2716,0.1508,3,15,0.7,0.99,0.2,24.811,18.13,95.6,35.0,21028.0,7749,7439,7469,7619,53.8,54.9,52.5,50.7,2.765,2.854,2.71,2.854,2.59,49.8,26.5,73.6,1013.95,-35.34,-1.02,1.89,18.9,38.7,29.0,0,no_anomaly,0.0,0,0,0,0,12.9715675,77.5945836,6.5,0.0
2024-07-18T07:57:04.600Z,MISSION_0022,46,0,transit,SITE_BLR_003,12.9715661,77.5945859,7.0,309.22,0.469,0.092,4.09,-2.6286,-1.1116,309.2204,-0.90304,0.02488,-0.00107,0.42884,-0.145,-0.0015,-9.8179,0.0356,-0.1881,0.0014,0.1887,3,17,0.85,0.88,0.48,24.734,25.46,95.5,35.3,21008.0,7344,7478,7809,7578,50.5,50.5,53.4,51.3,2.709,2.903,2.82,2.57,2.14,41.2,26.2,74.0,1014.26,-32.98,-0.18,2.03,22.3,36.5,27.5,0,no_anomaly,0.0,0,0,0,0,12.9715661,77.5945859,7.0,0.0
2024-07-18T07:57:04.700Z,MISSION_0022,47,0,transit,SITE_BLR_003,12.9715694,77.594588,7.5,310.02,0.004,0.052,3.66,-1.3289,-0.8199,310.0245,-0.90628,0.01353,0.00159,0.42246,0.0197,-0.0227,-9.7721,0.6406,-0.2522,-0.2773,0.1165,3,15,0.7,0.66,0.39,24.609,12.46,95.4,35.2,20988.0,7446,7443,7473,7479,52.3,51.8,53.6,50.2,2.826,2.594,2.95,3.094,1.44,45.8,26.3,74.2,1014.63,-26.86,0.31,1.59,22.3,39.7,31.6,0,no_anomaly,0.0,0,0,0,0,12.9715694,77.594588,7.5,0.0
2024-07-18T07:57:04.800Z,MISSION_0022,48,0,transit,SITE_BLR_003,12.971572,77.5945881,8.0,311.17,0.0,0.019,3.38,5.0833,-7.2398,311.1726,-0.90903,-0.01423,0.07573,0.40954,-0.0326,0.0114,-9.8047,-0.2581,0.3911,-0.086,0.1669,3,11,0.91,0.64,0.36,24.693,18.49,95.3,34.3,20968.0,7744,7744,7364,7831,52.7,50.9,50.9,52.0,2.985,2.605,2.849,2.84,2.51,45.4,26.5,73.7,1014.51,-26.72,-0.56,1.0,20.7,34.1,29.2,0,no_anomaly,0.0,0,0,0,0,12.971572,77.5945881,8.0,0.0
2024-07-18T07:57:04.900Z,MISSION_0022,49,0,transit,SITE_BLR_003,12.9715749,77.5945861,8.5,311.82,0.318,0.099,3.2,3.907,-0.961,311.8173,-0.91245,-0.0277,0.02157,0.40768,0.0143,-0.0337,-9.7955,-0.6956,-0.2324,-0.1284,0.2256,3,10,0.64,0.91,0.26,24.624,19.02,95.2,35.1,20948.0,7797,7666,7585,7667,49.1,50.9,55.7,51.3,2.522,2.584,3.061,2.649,1.47,41.8,26.4,74.2,1013.99,-31.63,0.47,1.23,20.8,39.2,29.1,0,no_anomaly,0.0,0,0,0,0,12.9715749,77.5945861,8.5,0.0
2024-07-18T07:57:05.000Z,MISSION_0022,50,0,transit,SITE_BLR_003,12.9715732,77.5945901,9.0,313.2,0.0,0.123,3.18,1.9203,-0.5571,313.2031,-0.91766,-0.01345,0.01112,0.39699,0.0671,-0.0353,-9.8585,0.403,-0.5594,-0.1098,0.2425,3,12,0.61,1.01,0.31,24.574,17.52,95.1,34.6,20929.0,7720,7688,7587,7717,51.7,51.1,48.8,49.1,2.771,2.666,2.544,2.792,2.52,56.3,26.2,74.6,1014.23,-31.0,0.15,1.82,19.6,34.7,29.5,0,no_anomaly,0.0,0,0,0,0,12.9715732,77.5945901,9.0,0.0
2024-07-18T07:57:05.100Z,MISSION_0022,51,0,transit,SITE_BLR_003,12.9715736,77.5945877,9.5,312.27,0.211,0.044,3.24,-0.9606,-1.0085,312.2719,-0.91441,0.01123,0.00466,0.40461,-0.012,0.0489,-9.7921,-0.0306,0.9221,0.3365,0.1515,3,12,0.72,0.72,0.28,24.617,20.51,95.0,34.4,20909.0,7761,7418,7357,7451,50.7,55.1,48.1,53.9,2.622,2.59,2.979,2.805,1.46,52.0,26.3,74.0,1014.31,-29.52,0.78,1.56,21.3,38.8,30.1,0,no_anomaly,0.0,0,0,0,0,12.9715736,77.5945877,9.5,0.0
2024-07-18T07:57:05.200Z,MISSION_0022,52,0,transit,SITE_BLR_003,12.9715727,77.5945858,10.0,314.0,0.127,0.133,3.43,-2.0306,-4.1027,313.9964,-0.91951,0.03029,0.02602,0.39103,0.053,0.0496,-9.7536,0.2234,-0.6968,0.0828,0.1798,3,10,0.7,0.84,0.34,24.755,19.36,94.9,34.8,20889.0,7665,7757,7695,7424,52.9,50.0,52.9,54.9,2.662,2.604,2.982,2.777,2.58,40.6,26.6,73.8,1014.26,-25.96,-0.3,1.83,20.3,40.4,30.0,0,no_anomaly,0.0,0,0,0,0,12.9715727,77.5945858,10.0,0.0
2024-07-18T07:57:05.300Z,MISSION_0022,53,0,transit,SITE_BLR_003,12.971571,77.5945898,10.5,317.08,0.072,0.11,3.42,0.7321,-3.4299,317.0788,-0.9303,0.00501,0.03019,0.36551,0.1803,-0.086,-9.8195,0.0898,0.722,-0.395,0.1844,3,16,0.54,1.3,0.29,24.643,19.32,94.9,34.4,20869.0,7405,7680,7690,7622,56.4,50.4,55.6,48.5,3.077,2.798,2.932,2.824,2.18,51.7,26.4,73.9,1014.51,-30.35,0.5,1.59,23.7,36.8,30.1,0,no_anomaly,0.0,0,0,0,0,12.971571,77.5945898,10.5,0.0
2024-07-18T07:57:05.400Z,MISSION_0022,54,0,transit,SITE_BLR_003,12.9715701,77.5945943,11.0,314.78,0.076,0.112,3.39,-5.4931,-3.8359,314.7791,-0.92095,0.05706,0.01245,0.38529,-0.1024,-0.0628,-9.8925,0.1448,1.3807,0.2478,0.1807,3,11,0.83,1.04,0.32,24.688,16.65,94.8,35.3,20849.0,7582,7672,7617,7724,45.6,49.0,53.9,50.8,2.823,2.708,2.979,2.772,2.02,45.2,26.4,73.3,1014.03,-26.49,-1.14,2.08,21.9,34.8,30.6,0,no_anomaly,0.0,0,0,0,0,12.9715701,77.5945943,11.0,0.0
2024-07-18T07:57:05.500Z,MISSION_0022,55,0,transit,SITE_BLR_003,12.9715703,77.5945911,11.5,314.51,0.348,0.257,3.45,0.6453,-0.9893,314.5143,-0.92222,-0.00186,0.01014,0.38653,-0.0803,-0.0682,-9.8019,-0.1843,0.007,0.1663,0.1499,3,13,0.68,1.0,0.25,24.716,18.79,94.7,34.8,20829.0,7889,7731,7952,7458,52.6,52.2,51.9,51.6,2.717,2.559,3.02,2.697,3.14,51.5,26.4,74.2,1014.35,-30.75,0.76,1.77,21.2,39.3,25.8,0,no_anomaly,0.0,0,0,0,0,12.9715703,77.5945911,11.5,0.0
2024-07-18T07:57:05.600Z,MISSION_0022,56,0,transit,SITE_BLR_003,12.9715717,77.5945967,12.0,314.09,0.454,0.122,3.18,-1.1124,-0.5817,314.0877,-0.92073,0.01092,0.00089,0.39005,0.0517,-0.018,-9.8309,-0.4039,0.0492,0.2431,0.1543,3,11,0.66,0.87,0.26,24.647,18.82,94.6,35.6,20810.0,7570,7481,7286,7696,53.8,53.9,52.7,48.4,2.905,2.505,2.575,3.133,2.21,38.3,26.9,73.1,1014.06,-36.41,-0.15,1.95,22.6,38.6,27.8,0,no_anomaly,0.0,0,0,0,0,12.9715717,77.5945967,12.0,0.0
2024-07-18T07:57:05.700Z,MISSION_0022,57,0,transit,SITE_BLR_003,12.9715793,77.5945986,12.5,316.1,0.747,0.216,2.31,1.7417,-2.0229,316.0991,-0.92736,-0.0075,0.02205,0.37345,0.0752,-0.0384,-9.861,-0.7468,1.3507,-0.6401,0.187,3,17,0.9,0.94,0.39,24.662,15.33,94.5,34.3,20790.0,7752,7471,7831,7840,54.7,54.1,50.6,51.9,2.791,2.897,2.842,2.606,1.66,45.6,26.7,73.8,1014.62,-33.23,-0.58,1.28,18.5,35.4,28.9,0,no_anomaly,0.0,0,0,0,0,12.9715793,77.5945986,12.5,0.0
2024-07-18T07:57:05.800Z,MISSION_0022,58,0,transit,SITE_BLR_003,12.9715804,77.5945943,13.0,315.38,1.117,0.072,2.27,1.1811,-3.5139,315.3786,-0.92477,0.00211,0.03227,0.37914,-0.1946,0.0206,-9.8778,-0.4054,-0.0479,-0.2355,0.1394,3,14,0.67,0.96,0.3,24.639,19.5,94.4,34.6,20770.0,7457,7690,7611,7444,52.0,50.9,56.4,51.6,2.71,2.897,2.714,2.802,2.17,50.9,26.6,73.4,1014.2,-31.59,0.27,1.13,18.4,38.6,30.1,0,no_anomaly,0.0,0,0,0,0,12.9715804,77.5945943,13.0,0.0
2024-07-18T07:57:05.900Z,MISSION_0022,59,0,transit,SITE_BLR_003,12.9715787,77.5945963,13.5,314.22,1.458,-0.012,2.41,-0.4703,-1.3144,314.2247,-0.92118,0.00824,0.00897,0.38894,0.1564,-0.0585,-9.8171,-0.1531,-0.1706,-0.0573,0.0462,3,14,0.54,0.93,0.24,24.648,19.21,94.3,35.3,20750.0,7518,7705,7760,7708,52.9,49.9,53.1,54.0,2.932,2.813,2.948,2.744,1.79,46.5,26.4,74.6,1014.08,-34.04,-1.37,1.41,18.5,39.3,28.6,0,no_anomaly,0.0,0,0,0,0,12.9715787,77.5945963,13.5,0.0
2024-07-18T07:57:06.000Z,MISSION_0022,60,0,transit,SITE_BLR_003,12.9715773,77.5945995,14.0,314.12,1.771,0.072,2.53,0.6328,-0.4573,314.1223,-0.92091,-0.00353,0.00583,0.38972,0.0273,-0.0165,-9.8839,0.0521,0.7915,0.232,0.1391,3,13,0.67,0.65,0.25,24.584,20.05,94.2,33.6,20730.0,7557,8023,7867,7312,48.7,52.6,49.2,47.1,3.09,2.62,2.912,2.961,2.11,46.6,26.1,74.3,1014.34,-30.54,-1.01,1.7,19.9,37.5,30.0,0,no_anomaly,0.0,0,0,0,0,12.9715773,77.5945995,14.0,0.0
2024-07-18T07:57:06.100Z,MISSION_0022,61,0,transit,SITE_BLR_003,12.9715781,77.5945935,14.5,311.17,1.367,0.104,2.54,-3.7772,-2.3873,311.1706,-0.9096,0.03861,0.00534,0.41365,-0.0158,0.0183,-9.7699,-0.1098,-0.2299,-0.6066,0.092,3,10,0.74,0.64,0.24,24.622,21.39,94.1,35.5,20710.0,7473,7718,7645,7613,51.6,55.0,49.1,51.1,2.701,2.791,2.889,2.762,2.28,49.1,26.8,74.0,1014.25,-26.57,0.08,1.9,24.3,39.4,26.8,0,no_anomaly,0.0,0,0,0,0,12.9715781,77.5945935,14.5,0.0
2024-07-18T07:57:06.200Z,MISSION_0022,62,0,transit,SITE_BLR_003,12.9715797,77.5945974,15.0,310.96,1.347,0.147,2.28,4.4218,-0.2373,310.9556,-0.90915,-0.03424,0.01789,0.41466,0.0474,-0.0022,-9.8016,0.0049,0.0632,-0.5343,0.0543,3,16,0.66,0.74,0.21,24.688,18.4,94.0,34.6,20691.0,7614,7456,7730,7305,50.5,50.2,49.6,55.7,2.963,2.744,2.591,2.869,1.9,52.3,26.1,73.1,1014.34,-28.85,0.77,1.74,18.5,31.6,29.9,0,no_anomaly,0.0,0,0,0,0,12.9715797,77.5945974,15.0,0.0
2024-07-18T07:57:06.300Z,MISSION_0022,63,0,transit,SITE_BLR_003,12.9715785,77.5946009,15.5,312.53,0.863,0.108,2.4,-2.4456,-3.4624,312.5282,-0.91452,0.03168,0.01906,0.40284,0.0359,0.0587,-9.7972,0.168,0.0633,0.4336,0.1555,3,17,0.75,0.93,0.2,24.636,19.11,94.0,33.9,20671.0,7394,7583,7644,7636,52.7,47.1,54.4,48.0,2.974,2.768,2.87,2.671,2.81,45.4,26.7,73.7,1014.69,-30.09,-0.17,1.33,20.6,37.1,28.0,0,no_anomaly,0.0,0,0,0,0,12.9715785,77.5946009,15.5,0.0
2024-07-18T07:57:06.400Z,MISSION_0022,64,0,transit,SITE_BLR_003,12.9715748,77.5946004,16.0,307.84,0.763,0.099,2.8,-1.2305,-1.2087,307.8433,-0.89804,0.01428,0.00475,0.43965,-0.0055,0.0495,-9.8329,-0.8596,-1.095,0.3179,0.1748,3,12,0.56,0.91,0.29,24.694,18.32,93.9,34.5,20651.0,7846,7651,7427,7487,50.5,54.9,53.6,54.4,2.688,2.986,3.224,2.644,2.3,49.4,26.6,74.2,1014.36,-29.06,0.71,1.67,19.3,40.7,30.0,0,no_anomaly,0.0,0,0,0,0,12.9715748,77.5946004,16.0,0.0
2024-07-18T07:57:06.500Z,MISSION_0022,65,0,transit,SITE_BLR_003,12.9715763,77.594599,16.5,308.46,0.548,0.13,2.64,-1.2309,-4.8247,308.4555,-0.89948,0.02796,0.03324,0.43479,0.0879,-0.0233,-9.7892,-0.0249,-0.3727,-0.8192,0.0634,3,10,0.53,0.7,0.2,24.65,16.52,93.8,34.9,20631.0,7769,7795,7673,7611,55.4,51.8,55.5,54.5,2.577,2.918,2.716,2.926,2.46,40.9,26.7,73.9,1014.39,-30.64,-1.0,1.36,20.3,31.9,25.5,0,no_anomaly,0.0,0,0,0,0,12.9715763,77.594599,16.5,0.0
2024-07-18T07:57:06.600Z,MISSION_0022,66,0,transit,SITE_BLR_003,12.9715761,77.5945991,17.0,308.72,0.546,0.137,2.66,-0.0111,-0.7606,308.7224,-0.90152,0.00296,0.00594,0.43269,0.072,-0.0004,-9.9318,-1.3327,0.7554,0.0587,0.11,3,11,0.88,0.96,0.43,24.689,17.92,93.7,34.7,20611.0,7847,7584,7727,7768,51.3,49.9,53.8,50.3,2.609,3.113,2.594,2.949,1.88,47.8,26.4,74.6,1014.18,-30.6,-0.68,1.6,20.5,38.3,28.8,0,no_anomaly,0.0,0,0,0,0,12.9715761,77.5945991,17.0,0.0
2024-07-18T07:57:06.700Z,MISSION_0022,67,0,transit,SITE_BLR_003,12.9715756,77.5945994,17.5,309.26,0.0,0.107,2.71,-0.822,-1.5945,309.2617,-0.90341,0.01244,0.0095,0.42849,-0.1064,-0.0415,-9.8423,-0.0369,0.4097,-0.4244,0.1648,3,10,0.74,0.8,0.2,24.639,23.15,93.6,34.2,20591.0,7551,7690,7519,7597,50.5,52.7,52.8,50.1,2.733,2.99,3.101,2.603,2.67,49.7,26.4,73.8,1014.38,-27.31,-0.33,1.35,19.6,39.2,27.0,0,no_anomaly,0.0,0,0,0,0,12.9715756,77.5945994,17.5,0.0
2024-07-18T07:57:06.800Z,MISSION_0022,68,0,transit,SITE_BLR_003,12.9715775,77.5946012,18.0,308.69,0.266,0.092,2.51,2.2561,-2.2821,308.6908,-0.90124,-0.00912,0.02647,0.43242,-0.1066,-0.0227,-9.791,-0.3043,0.5303,0.0324,0.0896,3,19,0.85,0.83,0.28,24.598,23.98,93.5,34.3,20572.0,7739,7705,7824,7530,55.1,51.3,53.2,50.7,2.873,2.895,2.916,2.812,2.11,42.0,26.5,73.8,1014.07,-30.74,-1.22,1.3,21.6,41.4,30.4,0,no_anomaly,0.0,0,0,0,0,12.9715775,77.5946012,18.0,0.0
2024-07-18T07:57:06.900Z,MISSION_0022,69,0,transit,SITE_BLR_003,12.9715787,77.594602,18.5,308.26,0.635,0.107,2.38,-0.5598,-3.6068,308.2637,-0.89928,0.01812,0.02619,0.43622,-0.0352,-0.0666,-9.7899,-0.2806,-0.3886,-0.4158,0.2207,3,13,0.52,0.92,0.2,24.659,16.87,93.4,35.3,20552.0,7462,7209,7642,8065,49.5,53.9,50.4,55.6,2.469,2.817,3.113,2.978,1.63,46.9,26.5,74.0,1014.11,-25.23,-1.36,1.72,19.8,34.7,28.1,0,no_anomaly,0.0,0,0,0,0,12.9715787,77.594602,18.5,0.0
2024-07-18T07:57:07.000Z,MISSION_0022,70,0,transit,SITE_BLR_003,12.9715767,77.5946039,19.0,308.44,0.516,0.089,2.63,-4.2644,0.038,308.4415,-0.89986,0.03336,-0.01648,0.43459,0.1328,-0.0545,-9.8666,0.4667,-0.2447,-0.0545,0.1515,3,18,0.67,0.77,0.31,24.545,23.6,93.3,34.4,20532.0,7982,7668,7438,7811,51.2,49.1,52.2,53.3,2.708,2.822,2.666,2.709,1.6,46.1,26.0,74.1,1014.02,-27.75,-1.22,1.41,20.1,34.3,31.1,0,no_anomaly,0.0,0,0,0,0,12.9715767,77.5946039,19.0,0.0
2024-07-18T07:57:07.100Z,MISSION_0022,71,0,transit,SITE_BLR_003,12.9715763,77.5946056,19.5,308.02,0.328,0.162,2.71,-0.7722,-1.2947,308.019,-0.89876,0.01101,0.0072,0.43825,0.0431,-0.0048,-9.896,0.71,-0.4746,0.1561,0.102,3,12,0.69,0.91,0.3,24.663,20.44,93.2,34.0,20512.0,7630,7679,7685,7523,54.5,51.5,52.4,52.9,2.858,2.863,2.734,3.02,1.44,41.7,26.6,74.4,1013.72,-30.77,-0.43,1.22,20.9,36.2,31.1,0,no_anomaly,0.0,0,0,0,0,12.9715763,77.5946056,19.5,0.0
2024-07-18T07:57:07.200Z,MISSION_0022,72,0,transit,SITE_BLR_003,12.97158,77.5946035,20.0,305.53,0.93,0.106,2.26,1.3146,-4.6403,305.5348,-0.88858,0.00833,0.04124,0.45679,-0.028,-0.0513,-9.8112,-0.0465,0.7273,0.1252,0.1122,3,19,0.86,0.85,0.35,24.694,18.54,93.1,34.7,20492.0,7535,7725,7845,7301,51.0,48.9,53.8,53.6,2.681,2.611,2.912,2.87,1.42,44.8,26.7,73.8,1014.13,-25.69,-0.78,1.87,23.0,40.0,27.5,0,no_anomaly,0.0,0,0,0,0,12.97158,77.5946035,20.0,0.0
2024-07-18T07:57:07.300Z,MISSION_0022,73,0,transit,SITE_BLR_003,12.9715784,77.5946027,20.5,300.72,0.901,0.147,2.42,1.155,-3.5215,300.7245,-0.86887,0.00644,0.03169,0.49399,-0.122,0.0748,-9.7612,-0.2208,-0.1039,0.2763,0.1671,3,13,0.63,0.83,0.26,24.614,17.92,93.1,34.3,20472.0,7603,7872,7523,7435,51.6,52.5,50.1,55.6,2.894,2.961,2.625,2.84,1.2,44.8,26.5,74.0,1014.08,-33.21,-0.34,1.64,22.8,33.2,28.0,0,no_anomaly,0.0,0,0,0,0,12.9715784,77.5946027,20.5,0.0
2024-07-18T07:57:07.400Z,MISSION_0022,74,0,transit,SITE_BLR_003,12.9715739,77.5945994,21.0,301.92,0.63,0.042,2.91,-2.6063,-0.7895,301.9238,-0.87397,0.02323,-0.00502,0.48539,0.0257,-0.1036,-9.9111,0.1473,-0.638,-0.138,0.0722,3,14,0.7,0.98,0.23,24.575,15.12,93.0,34.7,20452.0,7694,7575,7591,7618,56.7,50.4,53.9,53.6,2.979,2.805,2.52,2.847,2.17,48.1,26.6,74.1,1014.45,-33.01,-0.9,1.12,18.0,35.7,28.5,0,no_anomaly,0.0,0,0,0,0,12.9715739,77.5945994,21.0,0.0
2024-07-18T07:57:07.500Z,MISSION_0022,75,0,transit,SITE_BLR_003,12.9715712,77.5946005,21.5,302.32,0.688,0.068,3.2,-0.2816,-3.33,302.3173,-0.87555,0.01617,0.02427,0.48224,0.0919,-0.0221,-9.79,0.0697,-0.5188,-0.1263,0.1482,3,10,0.8,1.1,0.43,24.548,23.55,92.9,34.3,20433.0,7687,7692,7481,7757,50.3,48.6,52.1,49.7,2.905,2.679,2.501,2.723,2.73,43.9,26.2,74.9,1014.09,-32.82,-0.1,1.11,19.9,31.8,27.1,0,no_anomaly,0.0,0,0,0,0,12.9715712,77.5946005,21.5,0.0
2024-07-18T07:57:07.600Z,MISSION_0022,76,0,transit,SITE_BLR_003,12.9715665,77.5946003,22.0,301.89,0.296,0.11,3.73,-4.0208,-2.1803,301.8929,-0.87315,0.03989,-0.00041,0.48582,0.0296,-0.025,-9.6957,0.4327,-0.2924,-0.8078,0.2206,3,19,0.71,1.09,0.29,24.674,22.06,92.8,34.4,20413.0,7976,7522,7713,7467,50.8,52.3,50.3,52.9,2.899,2.8,2.848,2.696,1.65,58.9,26.6,73.4,1014.05,-32.62,-0.82,1.33,25.1,41.6,30.1,0,no_anomaly,0.0,0,0,0,0,12.9715665,77.5946003,22.0,0.0
2024-07-18T07:57:07.700Z,MISSION_0022,77,0,transit,SITE_BLR_003,12.9715642,77.5946029,22.0,302.36,0.597,0.099,4.0,-1.1055,-3.3302,302.3644,-0.87561,0.02246,0.02081,0.48205,0.0471,-0.0194,-9.8335,0.2888,0.5853,-0.1624,0.1919,3,20,0.73,0.97,0.29,24.726,19.84,92.7,34.5,20393.0,7484,7676,7812,7452,50.1,52.3,51.5,54.6,2.881,2.803,2.669,2.76,1.81,43.8,26.2,73.1,1014.43,-26.91,-1.1,1.81,20.9,36.9,25.7,0,no_anomaly,0.0,0,0,0,0,12.9715642,77.5946029,22.0,0.0
2024-07-18T07:57:07.800Z,MISSION_0022,78,0,transit,SITE_BLR_003,12.971565,77.5946029,22.0,301.2,0.961,0.076,3.91,1.1731,-1.5824,301.1983,-0.87115,-0.00214,0.01705,0.49072,0.0357,0.0012,-9.8306,0.5492,0.0463,0.2731,0.23,3,20,0.57,0.94,0.23,24.558,18.23,92.6,35.2,20373.0,7478,7592,7308,7776,51.9,56.0,55.1,56.6,2.446,2.529,3.061,2.755,1.5,38.7,26.5,73.5,1014.4,-28.62,-0.37,1.7,18.5,34.7,29.8,0,no_anomaly,0.0,0,0,0,0,12.971565,77.5946029,22.0,0.0
2024-07-18T07:57:07.900Z,MISSION_0022,79,0,transit,SITE_BLR_003,12.9715695,77.5946017,22.0,300.99,1.233,0.071,3.4,-1.322,0.0333,300.9916,-0.87026,0.0099,-0.00593,0.49245,0.0901,-0.0087,-9.844,-0.5148,-0.0473,-0.2155,0.1705,3,12,0.76,0.66,0.34,24.556,17.46,92.5,34.9,20353.0,7823,7975,7696,7803,50.6,48.6,46.8,51.4,2.729,2.597,2.783,2.85,2.25,44.9,26.5,74.4,1013.81,-30.35,-0.97,1.0,18.1,38.1,26.4,0,no_anomaly,0.0,0,0,0,0,12.9715695,77.5946017,22.0,0.0
2024-07-18T07:57:08.000Z,MISSION_0022,80,0,transit,SITE_BLR_003,12.9715713,77.5946025,22.0,300.77,1.456,0.117,3.2,1.818,-4.676,300.7728,-0.86886,0.00638,0.04329,0.49311,0.0446,0.0762,-9.8071,-0.3228,-0.5084,-0.1695,0.1538,3,16,0.56,0.83,0.2,24.606,16.19,92.4,34.7,20333.0,7644,7631,7808,7500,52.6,50.6,49.4,53.6,2.792,2.69,2.77,2.81,1.95,46.7,26.5,73.8,1014.46,-32.22,-0.27,1.29,19.2,32.7,26.8,0,no_anomaly,0.0,0,0,0,0,12.9715713,77.5946025,22.0,0.0
2024-07-18T07:57:08.100Z,MISSION_0022,81,0,transit,SITE_BLR_003,12.9715696,77.5946049,22.0,301.54,1.261,0.162,3.43,-0.9471,-2.1048,301.5407,-0.87242,0.01618,0.01199,0.48834,-0.0459,-0.0436,-9.8103,0.0628,0.6577,0.2454,0.1501,3,19,0.83,0.67,0.23,24.574,26.04,92.3,35.9,20314.0,7490,7472,7535,7765,47.3,51.3,51.2,51.3,3.002,2.703,2.867,2.905,1.61,45.8,26.5,74.6,1014.29,-33.28,-0.08,1.33,22.0,39.2,29.0,0,no_anomaly,0.0,0,0,0,0,12.9715696,77.5946049,22.0,0.0
2024-07-18T07:57:08.200Z,MISSION_0022,82,0,transit,SITE_BLR_003,12.9715651,77.5946009,22.0,300.8,1.617,0.08,3.89,1.81,-1.0374,300.8046,-0.86944,-0.00926,0.01567,0.4937,-0.1102,-0.0303,-9.8578,0.0829,-0.0889,-0.0646,0.0516,3,10,0.64,1.0,0.3,24.51,19.0,92.2,34.9,20294.0,7666,7751,7516,7880,55.0,52.9,52.3,51.2,3.064,2.766,2.782,2.701,2.22,51.0,26.2,72.9,1014.41,-30.42,2.72,1.79,24.6,41.4,31.7,0,no_anomaly,0.0,0,0,0,0,12.9715651,77.5946009,22.0,0.0
2024-07-18T07:57:08.300Z,MISSION_0022,83,0,transit,SITE_BLR_003,12.9715621,77.5946035,22.0,300.69,1.467,0.059,4.24,-0.2357,-0.8287,300.6875,-0.86898,0.00537,0.00527,0.49479,-0.1441,0.0391,-9.7996,-0.4272,-0.11,-0.0781,0.1885,3,14,0.74,0.6,0.36,24.596,18.74,92.2,35.2,20274.0,7763,7593,7727,7686,52.1,51.9,49.9,49.6,3.09,2.783,3.001,2.629,1.88,38.1,26.3,73.9,1014.29,-28.12,0.25,1.73,20.0,34.9,28.0,0,no_anomaly,0.0,0,0,0,0,12.9715621,77.5946035,22.0,0.0
2024-07-18T07:57:08.400Z,MISSION_0022,84,0,transit,SITE_BLR_003,12.9715648,77.594607,22.0,300.43,2.143,0.124,4.0,-3.2948,-2.2392,300.4258,-0.86707,0.03465,0.00267,0.49697,0.1119,-0.0553,-9.8663,0.6531,1.0529,-0.2326,0.2112,3,15,0.89,0.66,0.2,24.634,22.27,92.1,35.3,20254.0,7817,7482,8029,7786,54.5,50.9,51.4,50.8,2.603,2.916,3.022,3.019,1.43,44.5,26.5,73.5,1014.28,-30.43,1.8,1.94,25.8,35.8,29.8,0,no_anomaly,0.0,0,0,0,0,12.9715648,77.594607,22.0,0.0
2024-07-18T07:57:08.500Z,MISSION_0022,85,1,transit,SITE_BLR_003,12.971563,77.5946111,22.0,299.69,1.746,0.146,4.3,-0.2255,-4.3437,299.6934,-0.86402,0.02074,0.03178,0.50202,-0.043,-0.0101,-9.8503,-0.2395,0.0461,-0.2808,0.118,3,10,0.64,0.9,0.2,24.526,18.77,92.0,34.5,20234.0,7532,7631,7631,7417,54.5,50.1,50.5,50.4,3.136,2.879,2.947,2.535,2.6,47.9,26.5,74.6,1014.09,-21.86,1.24,1.23,21.2,37.1,31.0,0,no_anomaly,0.0,0,0,0,0,12.971563,77.5946111,22.0,0.0
2024-07-18T07:57:08.600Z,MISSION_0022,86,1,transit,SITE_BLR_003,12.9715603,77.594613,22.0,300.53,1.635,0.034,4.65,-0.1314,-1.1484,300.5267,-0.86826,0.00597,0.00813,0.496,-0.0911,0.0106,-9.6868,-0.0516,-0.0519,0.2869,0.2329,3,20,0.72,0.88,0.33,24.547,18.43,91.9,34.3,20214.0,7446,7638,7637,7611,52.4,49.5,51.2,51.3,2.422,2.715,2.757,2.789,2.0,40.8,26.8,73.7,1014.37,-30.65,-0.52,1.52,22.3,38.2,25.8,0,no_anomaly,0.0,0,0,0,0,12.9715603,77.594613,22.0,0.0
2024-07-18T07:57:08.700Z,MISSION_0022,87,1,transit,SITE_BLR_003,12.9715675,77.59461,22.0,301.21,1.629,0.071,3.78,-0.5771,-3.0632,301.2089,-0.87086,0.0175,0.02082,0.49077,-0.0066,-0.0394,-9.6735,0.0443,-0.0612,0.5472,0.1434,3,12,0.75,0.72,0.34,24.581,23.58,91.8,34.7,20195.0,7634,7700,7551,7425,50.9,50.5,52.8,52.1,2.786,2.958,2.641,2.789,2.72,40.4,26.4,74.1,1013.85,-30.25,2.13,1.51,17.6,35.5,24.9,0,no_anomaly,0.0,0,0,0,0,12.9715675,77.59461,22.0,0.0
2024-07-18T07:57:08.800Z,MISSION_0022,88,1,transit,SITE_BLR_003,12.9715654,77.5946128,22.0,300.47,1.538,0.047,4.11,-2.8245,-2.0401,300.4693,-0.86745,0.03023,0.00322,0.4966,0.025,0.0522,-9.8994,-0.1538,0.0544,-0.8299,0.1685,3,17,0.71,1.11,0.22,24.674,22.26,91.7,34.5,20175.0,7746,7580,7494,7717,49.8,50.2,53.1,49.8,3.02,2.803,2.777,2.913,2.84,55.9,26.5,72.6,1014.46,-32.05,-0.27,1.64,20.1,34.6,28.1,0,no_anomaly,0.0,0,0,0,0,12.9715654,77.5946128,22.0,0.0
2024-07-18T07:57:08.900Z,MISSION_0022,89,1,transit,SITE_BLR_003,12.9715639,77.5946163,22.0,302.38,1.057,0.152,4.41,0.239,0.1171,302.383,-0.87623,-0.00232,0.00011,0.48188,0.0132,-0.0056,-9.8382,0.1997,0.8291,0.1204,0.1422,3,16,0.64,0.72,0.2,24.647,17.5,91.6,35.1,20155.0,7385,7377,7650,7749,53.0,51.5,51.0,54.4,2.785,3.065,2.886,2.781,1.8,44.1,26.3,73.9,1014.48,-25.62,-1.09,1.71,20.4,33.0,28.1,0,no_anomaly,0.0,0,0,0,0,12.9715639,77.5946163,22.0,0.0
2024-07-18T07:57:09.000Z,MISSION_0022,90,1,transit,SITE_BLR_003,12.9715669,77.5946137,22.0,304.23,1.173,0.123,3.99,1.353,-0.9939,304.2267,-0.88383,-0.00638,0.01319,0.46758,-0.126,0.0453,-9.7327,0.4103,0.3388,-0.1384,0.161,3,14,0.57,0.91,0.2,24.479,20.69,91.5,34.3,20135.0,7758,7669,7791,7725,52.3,52.1,49.7,52.6,2.584,2.968,2.847,3.015,1.71,51.0,26.4,73.8,1014.19,-27.74,0.04,1.9,21.5,40.9,29.8,0,no_anomaly,0.0,0,0,0,0,12.9715669,77.5946137,22.0,0.0
2024-07-18T07:57:09.100Z,MISSION_0022,91,1,transit,SITE_BLR_003,12.9715691,77.594618,22.0,302.37,2.071,0.055,3.98,0.264,-4.3956,302.373,-0.87559,0.01647,0.03471,0.48153,0.1823,0.0496,-9.7521,-0.2902,0.072,0.0965,0.1507,3,12,0.64,1.01,0.2,24.656,16.12,91.4,35.5,20115.0,7712,7347,7924,7631,56.3,53.7,53.4,50.7,2.537,2.856,2.923,2.841,1.94,51.0,26.4,73.1,1014.43,-31.25,1.26,1.14,22.6,38.8,29.4,0,no_anomaly,0.0,0,0,0,0,12.9715691,77.594618,22.0,0.0
2024-07-18T07:57:09.200Z,MISSION_0022,92,1,transit,SITE_BLR_003,12.9715663,77.5946196,22.0,300.24,1.799,0.092,4.34,0.7756,-2.3734,300.2414,-0.86694,0.00445,0.02133,0.49794,0.0297,0.0496,-9.8188,0.3492,-0.1207,-0.6053,0.1136,3,13,0.88,1.03,0.33,24.581,18.4,91.3,35.2,20095.0,7460,7489,7677,7687,52.8,53.0,54.1,51.4,2.572,3.073,2.904,2.879,2.37,48.3,26.5,74.2,1014.18,-26.61,-0.38,1.42,21.1,36.5,28.5,0,no_anomaly,0.0,0,0,0,0,12.9715663,77.5946196,22.0,0.0
2024-07-18T07:57:09.300Z,MISSION_0022,93,1,transit,SITE_BLR_003,12.9715668,77.5946217,22.0,299.78,1.574,0.015,4.42,0.1611,-2.7156,299.7806,-0.86484,0.01067,0.0212,0.50149,0.0244,-0.0391,-9.7305,-0.1381,0.2678,-0.3572,0.1879,3,17,0.71,0.94,0.24,24.508,20.77,91.3,35.0,20075.0,7870,7614,7593,7632,51.6,54.0,50.4,51.0,2.795,2.729,2.665,2.64,2.19,44.8,26.4,73.4,1014.65,-24.35,-1.53,1.09,18.7,32.5,27.6,0,no_anomaly,0.0,0,0,0,0,12.9715668,77.5946217,22.0,0.0
2024-07-18T07:57:09.400Z,MISSION_0022,94,1,transit,SITE_BLR_003,12.971566,77.5946267,22.0,299.61,1.477,0.098,4.81,0.3186,-4.4295,299.6061,-0.86371,0.01704,0.0348,0.5025,0.0612,0.0606,-9.8352,0.2853,-0.9464,-0.1118,0.1844,3,20,0.84,1.01,0.47,24.651,13.95,91.2,35.5,20056.0,7545,7682,7389,7789,51.0,54.6,53.0,51.6,2.789,2.56,3.097,2.74,2.6,42.2,26.1,74.3,1014.38,-36.17,-1.02,1.89,22.3,36.2,30.2,0,no_anomaly,0.0,0,0,0,0,12.971566,77.5946267,22.0,0.0
2024-07-18T07:57:09.500Z,MISSION_0022,95,1,transit,SITE_BLR_003,12.9715657,77.5946276,22.0,300.98,1.467,0.142,4.9,-4.4636,-1.8873,300.9785,-0.86917,0.04199,-0.00486,0.4927,0.0568,0.0349,-9.7997,0.2886,0.3241,-0.255,0.1331,3,11,0.79,0.96,0.27,24.496,24.19,91.1,34.1,20036.0,7888,7737,7365,7504,54.4,50.0,54.3,50.1,3.191,2.358,3.09,2.749,2.66,53.8,26.9,74.4,1014.22,-29.84,1.61,1.66,19.4,39.3,26.6,0,no_anomaly,0.0,0,0,0,0,12.9715657,77.5946276,22.0,0.0
2024-07-18T07:57:09.600Z,MISSION_0022,96,1,transit,SITE_BLR_003,12.9715662,77.5946286,22.0,303.59,1.305,0.122,4.93,0.7958,-1.9267,303.5875,-0.88116,0.00183,0.0181,0.47247,-0.0815,-0.1446,-9.7304,-0.292,0.2718,-0.5839,0.1175,3,10,0.72,1.14,0.43,24.569,18.16,91.0,34.9,20016.0,7643,7579,7725,7614,52.0,56.0,51.7,50.6,2.76,3.002,2.884,2.654,1.22,39.5,26.4,74.1,1014.06,-33.0,-0.58,1.87,25.1,41.5,28.7,0,no_anomaly,0.0,0,0,0,0,12.9715662,77.5946286,22.0,0.0
2024-07-18T07:57:09.700Z,MISSION_0022,97,1,transit,SITE_BLR_003,12.9715651,77.5946258,22.0,300.53,1.402,0.101,4.83,0.1265,-0.0669,300.5256,-0.86831,-0.00067,0.00105,0.49602,0.0009,0.0513,-9.8504,-0.2315,0.9783,-0.2581,0.1345,3,13,0.67,0.86,0.25,24.596,15.55,90.9,35.2,19996.0,7730,7808,7663,7759,55.7,48.5,52.4,51.7,3.116,2.913,2.692,2.656,2.7,50.5,26.0,73.3,1014.52,-29.2,0.18,1.3,23.1,35.2,29.7,0,no_anomaly,0.0,0,0,0,0,12.9715651,77.5946258,22.0,0.0
2024-07-18T07:57:09.800Z,MISSION_0022,98,1,transit,SITE_BLR_003,12.9715673,77.5946271,22.0,299.48,1.345,0.196,4.73,0.2396,-4.5381,299.4845,-0.86313,0.01815,0.03525,0.50342,-0.0845,-0.0011,-9.8063,0.6377,-0.0333,-0.1453,0.0416,3,11,0.74,1.18,0.43,24.534,19.42,90.8,35.4,19976.0,7461,7567,7656,7475,50.5,47.1,52.9,50.6,2.709,2.918,3.044,2.551,2.37,53.5,26.2,74.3,1014.15,-24.46,-0.98,1.17,21.2,36.5,29.7,0,no_anomaly,0.0,0,0,0,0,12.9715673,77.5946271,22.0,0.0
2024-07-18T07:57:09.900Z,MISSION_0022,99,1,transit,SITE_BLR_003,12.9715682,77.59463,22.0,297.86,0.826,0.011,4.87,0.4968,-3.0373,297.8604,-0.85629,0.00996,0.02494,0.5158,-0.0294,0.0025,-9.8138,0.5232,-0.2158,0.1398,0.1083,3,18,0.74,0.77,0.24,24.572,15.2,90.7,34.9,19956.0,7784,7711,7542,7567,53.2,48.5,48.1,50.8,2.9,2.89,2.74,2.532,2.4,54.8,26.0,74.6,1014.26,-26.16,0.8,1.2,20.4,32.6,28.9,0,no_anomaly,0.0,0,0,0,0,12.9715682,77.59463,22.0,0.0
2024-07-18T07:57:10.000Z,MISSION_0022,100,1,transit,SITE_BLR_003,12.9715619,77.5946244,22.0,297.86,1.11,0.075,5.04,-3.3454,-1.2074,297.8599,-0.85597,0.03044,-0.00604,0.5161,0.062,0.0859,-9.7776,0.2952,-0.2486,0.253,0.1262,3,20,0.52,0.71,0.2,24.561,18.47,90.6,34.6,19937.0,7590,7784,7603,7652,48.1,51.2,50.7,52.6,3.017,2.729,2.772,2.73,1.79,38.9,26.2,73.7,1014.08,-30.11,1.4,1.37,21.0,30.1,29.3,0,no_anomaly,0.0,0,0,0,0,12.9715619,77.5946244,22.0,0.0
2024-07-18T07:57:10.100Z,MISSION_0022,101,1,transit,SITE_BLR_003,12.971561,77.5946217,22.0,294.76,0.943,0.083,4.97,-0.749,-4.2388,294.7563,-0.84152,0.02544,0.02763,0.53892,0.0357,0.0205,-9.8077,-0.4932,-0.0061,0.3202,0.1518,3,11,0.8,0.97,0.36,24.608,13.77,90.5,35.2,19917.0,7894,7484,7490,7676,49.8,53.2,52.6,51.4,3.023,2.611,2.612,2.83,1.09,49.7,26.5,72.7,1014.28,-26.06,-0.17,1.1,20.5,39.0,31.9,0,no_anomaly,0.0,0,0,0,0,12.971561,77.5946217,22.0,0.0
2024-07-18T07:57:10.200Z,MISSION_0022,102,1,orbit_base,SITE_BLR_003,12.9715203,77.5946065,22.3,297.33,0.9,0.129,8.91,0.9431,0.437,297.3298,-0.85409,-0.00901,0.00102,0.52005,0.0114,-0.0508,-9.7468,-0.6754,0.2671,-0.0545,0.1106,3,15,0.76,1.0,0.32,24.488,20.34,90.4,34.9,19897.0,7576,7740,7612,7462,52.3,48.4,56.3,54.6,2.757,2.737,2.84,2.562,2.37,47.4,26.6,73.4,1013.87,-30.71,0.45,1.33,24.1,36.9,30.2,0,no_anomaly,0.0,0,0,0,0,12.9715203,77.5946065,22.3,0.0
2024-07-18T07:57:10.300Z,MISSION_0022,103,1,orbit_base,SITE_BLR_003,12.9715201,77.5946041,22.6,295.74,1.024,0.073,8.91,-2.5821,-2.6763,295.7444,-0.84614,0.03149,0.00779,0.53198,0.0443,0.1106,-9.7564,0.5827,0.0722,0.2175,0.0617,3,11,0.6,0.95,0.26,24.452,23.19,90.4,35.1,19877.0,7671,7608,7811,7671,50.8,47.2,47.9,53.7,2.64,2.886,2.531,3.081,2.24,46.0,26.6,74.1,1014.12,-30.99,1.1,1.19,19.4,33.6,26.4,0,no_anomaly,0.0,0,0,0,0,12.9715201,77.5946041,22.6,0.0
2024-07-18T07:57:10.400Z,MISSION_0022,104,1,orbit_base,SITE_BLR_003,12.97152,77.5946017,22.9,295.38,1.151,0.099,8.91,-0.058,-1.2122,295.3838,-0.84514,0.00608,0.00867,0.53445,-0.0768,-0.041,-9.8857,-0.6993,0.215,-0.1479,0.193,3,15,0.65,0.65,0.2,24.586,17.54,90.3,35.1,19857.0,7514,7841,7788,7466,53.7,53.3,53.4,54.4,2.542,2.743,2.683,2.998,2.62,58.3,26.5,73.5,1014.2,-29.55,-0.37,1.34,21.3,38.9,28.2,0,no_anomaly,0.0,0,0,0,0,12.97152,77.5946017,22.9,0.0
2024-07-18T07:57:10.500Z,MISSION_0022,105,1,orbit_base,SITE_BLR_003,12.97152,77.5945993,23.2,297.92,1.184,0.182,8.91,-1.1836,-1.5938,297.9224,-0.85662,0.01602,0.00659,0.51566,-0.1057,0.03,-9.9238,-0.3013,-0.0596,0.0339,0.1159,3,20,0.74,0.85,0.43,24.585,17.79,90.2,36.0,19837.0,7807,7551,7649,7884,49.5,52.7,52.8,52.8,2.717,2.801,2.943,2.587,1.81,35.6,26.7,73.8,1014.27,-24.59,1.71,1.84,24.0,38.2,28.6,0,no_anomaly,0.0,0,0,0,0,12.97152,77.5945993,23.2,0.0
2024-07-18T07:57:10.600Z,MISSION_0022,106,1,orbit_base,SITE_BLR_003,12.9715201,77.5945969,23.5,299.15,1.377,0.206,8.91,2.2159,-2.5557,299.1527,-0.86215,-0.00538,0.02902,0.5058,0.0421,-0.1703,-9.8204,0.6504,0.2843,-0.1698,0.0988,3,19,0.64,0.83,0.23,24.527,18.67,90.1,35.2,19818.0,7811,7799,7556,7832,50.4,50.4,51.7,52.4,2.843,2.594,2.826,2.7,0.77,47.6,26.7,74.1,1014.32,-31.59,1.3,2.08,21.2,29.6,28.6,0,no_anomaly,0.0,0,0,0,0,12.9715201,77.5945969,23.5,0.0
2024-07-18T07:57:10.700Z,MISSION_0022,107,1,orbit_base,SITE_BLR_003,12.9715202,77.5945945,23.8,297.55,1.971,0.14,8.91,-1.0625,-2.8222,297.5493,-0.85472,0.02069,0.01625,0.51842,-0.0251,0.0557,-9.8167,-0.5487,0.9022,0.1374,0.2528,3,19,0.66,0.89,0.37,24.595,15.14,90.0,34.1,19798.0,7729,7619,7527,7738,52.5,51.0,48.8,51.0,2.86,2.973,2.868,2.627,2.5,46.7,26.7,74.3,1014.11,-31.36,-1.19,1.8,19.3,31.6,26.9,0,no_anomaly,0.0,0,0,0,0,12.9715202,77.5945945,23.8,0.0
2024-07-18T07:57:10.800Z,MISSION_0022,108,1,orbit_base,SITE_BLR_003,12.9715204,77.5945921,24.1,296.41,1.693,0.14,8.91,1.2339,-0.2729,296.4145,-0.84992,-0.0079,0.0077,0.52679,-0.0771,0.0134,-9.7823,-0.5404,0.7919,-0.4297,0.0742,3,17,0.79,0.95,0.33,24.591,14.3,89.9,34.8,19778.0,7461,7656,8096,7550,52.5,51.3,50.8,51.6,2.433,3.014,2.803,2.716,3.07,48.5,26.1,74.0,1014.25,-30.41,0.52,1.37,18.8,36.7,26.3,0,no_anomaly,0.0,0,0,0,0,12.9715204,77.5945921,24.1,0.0
2024-07-18T07:57:10.900Z,MISSION_0022,109,1,orbit_base,SITE_BLR_003,12.9715207,77.5945898,24.4,295.53,1.887,0.135,8.91,0.3081,-3.246,295.5313,-0.84557,0.01283,0.02539,0.5331,-0.1768,-0.0362,-9.7454,-0.9641,-0.2678,-0.4408,0.0346,3,19,0.72,0.72,0.32,24.501,24.34,89.8,35.1,19758.0,7602,7695,7724,7604,52.0,53.1,52.8,56.3,2.719,2.742,2.786,2.932,1.76,52.7,26.5,74.1,1014.26,-25.41,-0.22,1.19,21.5,41.1,30.5,0,no_anomaly,0.0,0,0,0,0,12.9715207,77.5945898,24.4,0.0
2024-07-18T07:57:11.000Z,MISSION_0022,110,1,orbit_base,SITE_BLR_003,12.971521,77.5945874,24.7,294.88,1.592,0.07,8.91,2.4885,-3.1927,294.8817,-0.84264,-0.00331,0.03516,0.53732,-0.0024,-0.0346,-9.8276,0.5557,-0.0992,0.1634,0.1272,3,15,0.64,0.89,0.25,24.502,21.31,89.7,35.0,19738.0,7699,7926,7615,7806,53.0,48.7,52.0,50.4,2.821,2.876,2.997,2.617,1.82,43.7,26.4,74.1,1013.97,-28.3,-1.02,1.88,20.2,35.9,31.4,0,no_anomaly,0.0,0,0,0,0,12.971521,77.5945874,24.7,0.0
2024-07-18T07:57:11.100Z,MISSION_0022,111,1,orbit_base,SITE_BLR_003,12.9715214,77.594585,25.0,292.08,1.539,0.101,8.91,-1.1523,-3.8816,292.0786,-0.82871,0.02725,0.02247,0.55856,0.0054,0.0429,-9.852,-0.7252,-0.3768,0.1989,0.1733,3,14,0.68,0.96,0.27,24.38,21.64,89.6,35.0,19718.0,7861,7772,7485,7475,50.4,49.7,51.2,50.8,2.676,2.851,2.99,2.818,1.94,45.6,26.6,73.0,1014.35,-27.06,0.19,1.54,23.1,32.9,30.2,0,no_anomaly,0.0,0,0,0,0,12.9715214,77.594585,25.0,0.0
2024-07-18T07:57:11.200Z,MISSION_0022,112,1,orbit_base,SITE_BLR_003,12.9715219,77.5945827,25.3,289.16,1.88,0.12,8.91,0.8027,-1.6553,289.1579,-0.81487,0.00266,0.01583,0.57942,-0.1414,0.0777,-9.9313,0.1994,0.379,-0.1013,0.0753,3,19,0.78,0.87,0.46,24.53,18.02,89.5,34.6,19698.0,7582,7652,7768,7686,52.7,51.6,52.7,55.1,2.945,2.864,2.825,2.91,1.27,43.0,26.7,74.7,1013.98,-28.4,-0.77,1.29,17.5,33.5,28.3,0,no_anomaly,0.0,0,0,0,0,12.9715219,77.5945827,25.3,0.0
2024-07-18T07:57:11.300Z,MISSION_0022,113,1,orbit_base,SITE_BLR_003,12.9715225,77.5945803,25.6,289.17,2.254,0.116,8.91,-1.4317,-3.4374,289.1713,-0.81434,0.02756,0.0172,0.57948,0.0348,0.0737,-9.764,-0.3572,0.1384,-0.1824,0.1745,3,12,0.68,1.19,0.24,24.465,22.88,89.4,34.7,19679.0,7829,7487,7714,7863,52.6,52.3,51.7,53.2,2.747,2.723,2.777,2.768,2.22,42.3,26.2,73.8,1014.21,-26.43,0.12,2.0,17.1,37.7,28.0,0,no_anomaly,0.0,0,0,0,0,12.9715225,77.5945803,25.6,0.0
2024-07-18T07:57:11.400Z,MISSION_0022,114,1,orbit_base,SITE_BLR_003,12.9715231,77.594578,25.9,290.34,2.057,0.118,8.91,0.1444,-2.3115,290.3375,-0.82068,0.01049,0.01728,0.57102,-0.2501,-0.0997,-9.7873,0.9241,-0.1695,-0.307,0.1649,3,11,0.54,0.98,0.2,24.574,22.22,89.4,34.8,19659.0,7890,7648,7712,7465,51.3,48.1,50.0,54.1,2.756,2.983,2.824,2.765,2.06,49.6,26.4,73.6,1014.24,-29.36,-0.65,1.9,22.4,37.0,28.6,0,no_anomaly,0.0,0,0,0,0,12.9715231,77.594578,25.9,0.0
2024-07-18T07:57:11.500Z,MISSION_0022,115,1,orbit_base,SITE_BLR_003,12.9715238,77.5945757,26.2,290.15,1.976,0.102,8.91,-3.282,-0.3427,290.1508,-0.81952,0.02519,-0.01394,0.57233,0.0369,-0.0716,-9.7874,0.7839,-0.1412,-0.0352,0.214,3,12,0.74,1.2,0.23,24.543,15.43,89.3,34.5,19639.0,7757,8182,7961,7566,54.0,48.3,49.9,53.8,2.819,2.951,2.918,2.469,2.48,45.6,26.7,74.3,1014.27,-32.76,0.67,1.69,18.0,34.3,28.7,0,no_anomaly,0.0,0,0,0,0,12.9715238,77.5945757,26.2,0.0
2024-07-18T07:57:11.600Z,MISSION_0022,116,1,orbit_base,SITE_BLR_003,12.9715245,77.5945734,26.5,289.67,1.943,-0.004,8.91,-3.1212,-3.6159,289.6671,-0.81628,0.04042,0.0101,0.57616,-0.0461,0.0154,-9.8493,0.5927,-0.5489,-0.0799,0.0957,3,19,0.74,1.11,0.25,24.551,16.29,89.2,34.4,19619.0,7570,7583,7631,7554,50.0,53.5,53.6,49.3,3.078,2.68,2.877,2.458,1.81,52.0,26.6,73.7,1014.44,-30.85,0.52,1.67,21.0,32.0,29.4,0,no_anomaly,0.0,0,0,0,0,12.9715245,77.5945734,26.5,0.0
2024-07-18T07:57:11.700Z,MISSION_0022,117,1,orbit_base,SITE_BLR_003,12.9715254,77.5945712,26.8,287.55,2.351,0.064,8.91,1.0092,-0.1251,287.5512,-0.80668,-0.00646,0.00608,0.59092,0.0054,0.0536,-9.8025,0.4858,-0.1844,0.0815,0.1554,3,12,0.71,0.75,0.2,24.541,20.9,89.1,34.5,19599.0,7636,7792,7702,7567,52.0,51.1,54.2,52.8,2.805,2.82,2.749,2.796,2.51,51.7,26.8,73.9,1013.93,-30.81,2.11,1.28,25.8,40.6,29.0,0,no_anomaly,0.0,0,0,0,0,12.9715254,77.5945712,26.8,0.0
2024-07-18T07:57:11.800Z,MISSION_0022,118,1,orbit_base,SITE_BLR_003,12.9715263,77.594569,27.1,286.54,2.531,0.048,8.91,1.3175,-2.0429,286.541,-0.80141,0.00145,0.02116,0.59774,0.1019,0.0578,-9.9327,0.1944,0.1438,0.6369,0.1477,3,13,0.75,1.0,0.29,24.455,20.9,89.0,34.3,19579.0,7570,7256,7802,7804,50.8,52.7,53.6,50.4,2.884,2.912,2.826,2.835,2.18,48.5,26.0,74.2,1014.15,-33.42,-0.04,1.77,22.3,32.9,30.2,0,no_anomaly,0.0,0,0,0,0,12.9715263,77.594569,27.1,0.0
2024-07-18T07:57:11.900Z,MISSION_0022,119,1,orbit_base,SITE_BLR_003,12.9715272,77.5945668,27.4,286.22,2.568,0.151,8.91,0.961,-0.8239,286.2233,-0.79979,-0.00239,0.01078,0.60017,0.0132,0.0406,-9.7859,-0.2283,0.949,-0.2226,0.1452,3,17,0.8,0.93,0.3,24.469,20.97,88.9,34.6,19560.0,7813,7913,7746,8033,50.1,50.5,51.7,56.2,2.937,2.757,3.01,2.843,2.17,53.2,26.5,72.9,1014.39,-34.48,1.32,1.45,21.6,42.0,29.4,0,no_anomaly,0.0,0,0,0,0,12.9715272,77.5945668,27.4,0.0
2024-07-18T07:57:12.000Z,MISSION_0022,120,1,orbit_base,SITE_BLR_003,12.9715283,77.5945646,27.7,288.32,2.55,0.109,8.91,0.7426,-1.7044,288.3227,-0.81062,0.00346,0.01585,0.58535,0.0815,-0.0927,-9.8637,0.388,-0.4887,0.415,0.1041,3,16,0.88,0.94,0.28,24.56,24.31,88.8,35.0,19540.0,7606,7730,7505,7611,49.0,48.5,52.9,52.9,2.661,2.848,2.683,2.914,1.92,37.8,26.3,74.4,1014.25,-31.28,1.02,1.28,19.3,39.7,30.9,0,no_anomaly,0.0,0,0,0,0,12.9715283,77.5945646,27.7,0.0
2024-07-18T07:57:12.100Z,MISSION_0022,121,1,orbit_base,SITE_BLR_003,12.9715294,77.5945625,28.0,288.83,2.52,0.147,8.91,5.8892,-2.6754,288.8315,-0.81266,-0.0282,0.04884,0.58,0.0208,0.0023,-9.7213,0.5445,0.2969,0.2031,0.1416,3,15,0.6,0.97,0.23,24.542,20.43,88.7,34.1,19520.0,7802,7688,7779,7447,50.4,54.3,52.0,56.6,2.763,2.61,2.688,2.811,2.68,53.7,26.4,73.4,1013.99,-30.56,-0.64,1.67,20.8,34.7,27.1,0,no_anomaly,0.0,0,0,0,0,12.9715294,77.5945625,28.0,0.0
2024-07-18T07:57:12.200Z,MISSION_0022,122,1,orbit_base,SITE_BLR_003,12.9715305,77.5945604,28.3,287.71,2.259,0.09,8.91,-0.7658,-1.9519,287.7065,-0.80731,0.01544,0.00981,0.58985,0.0965,-0.0199,-9.8185,0.3494,-0.2142,-0.0521,0.0675,3,16,0.5,1.04,0.23,24.532,19.57,88.6,34.0,19500.0,7744,7731,7711,7582,50.8,56.3,50.3,50.6,2.687,2.679,3.046,2.869,2.78,44.7,26.4,73.1,1014.06,-30.86,-0.46,1.42,22.3,37.5,28.6,0,no_anomaly,0.0,0,0,0,0,12.9715305,77.5945604,28.3,0.0
2024-07-18T07:57:12.300Z,MISSION_0022,123,1,orbit_base,SITE_BLR_003,12.9715317,77.5945583,28.6,288.05,2.298,0.052,8.91,0.6528,-2.0485,288.0481,-0.80918,0.00589,0.01781,0.58726,-0.05,-0.0178,-9.7771,1.0754,-0.491,0.1499,0.1278,3,16,0.74,0.97,0.28,24.522,19.85,88.5,35.3,19480.0,7826,7695,7628,7975,48.1,49.5,56.9,50.8,2.928,2.642,3.03,3.166,2.24,48.3,26.2,74.6,1014.27,-22.83,0.32,1.31,20.8,32.7,28.1,0,no_anomaly,0.0,0,0,0,0,12.9715317,77.5945583,28.6,0.0
2024-07-18T07:57:12.400Z,MISSION_0022,124,1,orbit_base,SITE_BLR_003,12.971533,77.5945563,28.9,285.94,2.132,0.15,8.91,2.4438,-2.1825,285.9393,-0.79823,-0.00555,0.02804,0.60167,0.0464,0.0174,-9.7933,-1.2302,-0.469,0.3717,0.1351,3,11,0.7,1.21,0.2,24.53,19.45,88.5,34.9,19460.0,7443,7831,7660,7617,51.9,52.1,52.2,51.8,3.103,2.613,2.872,2.782,1.52,46.5,26.4,74.7,1014.36,-33.62,-1.27,1.35,22.8,36.6,31.6,0,no_anomaly,0.0,0,0,0,0,12.971533,77.5945563,28.9,0.0
2024-07-18T07:57:12.500Z,MISSION_0022,125,1,orbit_base,SITE_BLR_003,12.9715344,77.5945543,29.2,285.02,2.147,0.129,8.91,2.2591,-0.2823,285.0232,-0.79335,-0.01414,0.01395,0.60844,-0.1847,0.0256,-9.8042,0.3438,-0.4035,-0.3359,0.2438,3,16,0.75,1.12,0.2,24.537,22.19,88.4,34.9,19441.0,7676,7532,7460,7746,51.9,50.2,52.6,51.6,2.88,2.985,2.576,2.907,2.3,52.9,26.3,73.9,1014.26,-31.19,0.09,1.0,21.7,31.3,30.5,0,no_anomaly,0.0,0,0,0,0,12.9715344,77.5945543,29.2,0.0
2024-07-18T07:57:12.600Z,MISSION_0022,126,1,orbit_base,SITE_BLR_003,12.9715358,77.5945523,29.5,285.01,1.623,0.029,8.91,2.1016,-1.3554,285.0126,-0.79336,-0.00735,0.02054,0.60836,0.1744,-0.0303,-9.8401,0.0201,-0.3207,-0.0583,0.1138,3,15,0.61,0.92,0.37,24.46,21.96,88.3,34.9,19421.0,7758,7709,7759,7609,49.3,46.7,49.1,53.4,2.669,2.889,3.117,2.852,2.41,48.4,26.4,73.3,1014.46,-30.74,-1.66,1.51,24.0,42.5,31.2,0,no_anomaly,0.0,0,0,0,0,12.9715358,77.5945523,29.5,0.0
2024-07-18T07:57:12.700Z,MISSION_0022,127,1,orbit_base,SITE_BLR_003,12.9715372,77.5945504,29.8,285.35,1.46,0.104,8.91,-4.911,-3.4231,285.3455,-0.79332,0.05215,-0.00224,0.60656,-0.0678,0.0702,-9.8018,0.0988,0.1332,-0.258,0.079,3,14,0.62,0.96,0.21,24.511,18.91,88.2,35.5,19401.0,7591,7761,7670,7957,52.6,50.5,46.9,47.9,2.917,2.567,2.907,2.747,2.59,51.3,26.5,73.4,1014.39,-36.06,0.74,1.38,19.4,36.9,26.1,0,no_anomaly,0.0,0,0,0,0,12.9715372,77.5945504,29.8,0.0
2024-07-18T07:57:12.800Z,MISSION_0022,128,1,orbit_base,SITE_BLR_003,12.9715387,77.5945486,30.1,287.77,1.552,0.05,8.91,1.3237,-0.6628,287.7683,-0.8078,-0.00592,0.01148,0.58932,-0.0657,0.0654,-9.8508,-0.1148,-0.6952,0.1899,0.247,3,19,0.69,0.91,0.21,24.538,17.21,88.1,34.8,19381.0,7684,7563,7748,7654,50.1,54.2,51.3,53.4,2.63,2.675,2.96,2.803,2.38,45.6,26.5,74.3,1013.88,-26.6,0.07,1.05,20.5,33.8,28.2,0,no_anomaly,0.0,0,0,0,0,12.9715387,77.5945486,30.1,0.0
2024-07-18T07:57:12.900Z,MISSION_0022,129,1,orbit_base,SITE_BLR_003,12.9715403,77.5945467,30.4,289.04,1.186,0.013,8.91,3.6017,-0.7411,289.0449,-0.81404,-0.02184,0.0235,0.57992,-0.1118,-0.0139,-9.8603,0.2202,0.8163,0.1272,0.1778,3,11,0.64,0.87,0.35,24.395,10.99,88.0,35.6,19361.0,7630,7492,7697,7856,50.7,51.4,52.5,50.7,2.666,2.865,2.835,2.787,1.97,47.5,26.5,73.2,1014.29,-33.31,-0.85,2.11,22.3,36.7,24.9,0,no_anomaly,0.0,0,0,0,0,12.9715403,77.5945467,30.4,0.0
