timestamp_utc,mission_id,frame_id,waypoint_id,inspection_phase,site_id,latitude_deg,longitude_deg,altitude_m,heading_deg,ground_speed_ms,vertical_speed_ms,distance_to_tower_m,roll_deg,pitch_deg,yaw_deg,quat_w,quat_x,quat_y,quat_z,accel_x_ms2,accel_y_ms2,accel_z_ms2,gyro_x_rads,gyro_y_rads,gyro_z_rads,vibration_level,gps_fix_type,gps_satellite_count,gps_hdop,gps_vdop,position_error_m,battery_voltage_v,battery_current_a,battery_remaining_pct,battery_temp_c,battery_capacity_mah,motor_fl_rpm,motor_fr_rpm,motor_rl_rpm,motor_rr_rpm,motor_fl_temp_c,motor_fr_temp_c,motor_rl_temp_c,motor_rr_temp_c,motor_fl_thrust_n,motor_fr_thrust_n,motor_rl_thrust_n,motor_rr_thrust_n,wind_speed_ms,wind_dir_deg,air_temp_c,humidity_pct,pressure_hpa,gimbal_pitch_deg,gimbal_roll_deg,zoom_factor,ir_temp_min_c,ir_temp_max_c,ir_temp_avg_c,anomaly_detected,anomaly_class,anomaly_confidence,anomaly_bbox_x,anomaly_bbox_y,anomaly_bbox_w,anomaly_bbox_h,anomaly_gps_lat,anomaly_gps_lon,anomaly_gps_alt_m,ir_temp_delta_c
2024-04-08T09:07:00.000Z,MISSION_0070,0,0,takeoff,SITE_BOM_001,19.0760016,72.8776994,1.5,33.33,0.0,0.019,0.19,1.9144,-0.219,33.325,0.95787,0.01655,0.00296,0.28672,0.1127,-0.0279,-9.8654,0.1211,-0.7428,-0.3811,0.1674,3,17,0.77,0.87,0.28,24.754,20.27,95.0,34.7,20900.0,9052,8883,8672,8874,51.9,52.7,50.7,49.7,2.804,2.76,2.578,2.996,0.86,119.0,25.5,33.3,1005.86,-33.37,1.6,1.4,20.2,36.6,30.1,0,no_anomaly,0.0,0,0,0,0,19.0760016,72.8776994,1.5,0.0
2024-04-08T09:07:00.100Z,MISSION_0070,1,0,takeoff,SITE_BOM_001,19.0759998,72.8777012,3.0,34.72,0.47,0.039,0.13,1.7349,-1.7192,34.7248,0.95415,0.01892,-0.0098,0.29856,-0.0554,-0.0056,-9.8152,0.0203,-0.5942,-0.094,0.0242,3,15,0.68,1.1,0.29,24.56,18.53,94.9,34.4,20889.0,8993,9236,8967,8983,48.5,49.7,48.0,53.8,2.688,2.935,2.962,3.102,1.42,121.1,26.1,33.1,1005.83,-31.13,-2.24,1.85,22.5,40.7,30.2,0,no_anomaly,0.0,0,0,0,0,19.0759998,72.8777012,3.0,0.0
2024-04-08T09:07:00.200Z,MISSION_0070,2,0,takeoff,SITE_BOM_001,19.0759955,72.8777028,4.5,33.42,0.381,0.123,0.59,1.8211,-0.8507,33.4165,0.9576,0.01735,-0.00254,0.28757,-0.1928,-0.0755,-9.7853,0.0115,0.2199,-0.2814,0.1413,3,16,0.82,1.13,0.27,24.675,19.4,94.9,33.6,20878.0,8889,9108,9027,9113,49.5,52.3,49.7,55.2,2.897,2.819,2.86,2.642,0.62,121.1,26.0,33.0,1006.05,-31.33,0.15,1.0,21.3,34.2,28.5,0,no_anomaly,0.0,0,0,0,0,19.0759955,72.8777028,4.5,0.0
2024-04-08T09:07:00.300Z,MISSION_0070,3,0,takeoff,SITE_BOM_001,19.0759924,72.877705,5.0,31.4,0.812,0.032,1.02,0.8955,-1.7443,31.3953,0.96253,0.01164,-0.01254,0.27064,-0.0468,0.0725,-9.8415,-0.6308,0.4391,-0.0319,0.0311,3,16,0.69,1.1,0.29,24.613,23.47,94.8,34.1,20866.0,8820,9131,8981,8759,51.8,51.8,46.0,50.8,2.786,2.739,2.463,2.786,1.37,118.3,25.7,32.0,1005.95,-26.67,-1.32,1.69,17.0,37.4,28.9,0,no_anomaly,0.0,0,0,0,0,19.0759924,72.877705,5.0,0.0
2024-04-08T09:07:00.400Z,MISSION_0070,4,0,takeoff,SITE_BOM_001,19.075994,72.877705,5.0,33.64,0.91,0.061,0.87,0.3611,-2.0122,33.6388,0.95705,0.0081,-0.0159,0.28936,0.0532,0.0312,-9.7959,-0.0471,-0.2717,-0.4234,0.2179,3,11,0.5,0.82,0.2,24.715,18.08,94.8,33.5,20855.0,8900,9020,8991,8995,49.4,52.2,50.4,51.7,2.817,2.7,2.573,2.786,2.17,119.1,25.8,33.2,1005.95,-28.89,-0.49,1.87,21.6,34.5,28.8,0,no_anomaly,0.0,0,0,0,0,19.075994,72.877705,5.0,0.0
2024-04-08T09:07:00.500Z,MISSION_0070,5,0,takeoff,SITE_BOM_001,19.0759966,72.8777065,5.0,34.67,0.633,0.1,0.82,-1.0849,-5.2177,34.6679,0.95368,0.00453,-0.04627,0.29721,0.0039,-0.076,-9.7898,0.5656,0.1587,-0.3013,0.1812,3,13,0.51,0.88,0.2,24.614,17.42,94.7,34.0,20844.0,8677,8966,8943,8818,52.6,51.9,50.1,50.8,2.626,3.042,2.715,2.905,1.16,116.1,26.0,32.2,1005.83,-30.02,-1.47,1.31,18.4,40.8,27.3,0,no_anomaly,0.0,0,0,0,0,19.0759966,72.8777065,5.0,0.0
2024-04-08T09:07:00.600Z,MISSION_0070,6,0,takeoff,SITE_BOM_001,19.0759964,72.8777086,5.0,35.62,0.619,0.092,1.04,1.6849,-1.5323,35.6169,0.95184,0.01809,-0.00823,0.30596,0.0167,0.0868,-9.8084,-0.3856,-0.1621,-0.2129,0.216,3,12,0.86,0.99,0.55,24.647,16.97,94.7,34.1,20833.0,8881,8846,9040,9132,50.9,50.3,49.9,50.6,2.727,2.81,3.003,2.838,1.52,115.0,25.6,33.6,1005.98,-29.58,-1.03,1.51,19.9,33.7,24.8,0,no_anomaly,0.0,0,0,0,0,19.0759964,72.8777086,5.0,0.0
2024-04-08T09:07:00.700Z,MISSION_0070,7,0,takeoff,SITE_BOM_001,19.0759941,72.8777115,5.0,35.54,0.711,0.11,1.44,1.8521,-0.4931,35.5367,0.95214,0.0167,0.00084,0.30519,-0.0354,-0.066,-9.7848,-0.645,-1.3146,0.3459,0.0892,3,19,0.86,0.74,0.26,24.638,21.08,94.6,34.2,20821.0,9068,9097,8939,8978,49.8,52.7,51.2,48.9,2.685,2.626,2.691,2.713,1.74,120.2,25.8,33.0,1006.28,-28.33,1.73,1.21,21.5,36.9,28.5,0,no_anomaly,0.0,0,0,0,0,19.0759941,72.8777115,5.0,0.0
2024-04-08T09:07:00.800Z,MISSION_0070,8,0,takeoff,SITE_BOM_001,19.0759902,72.8777179,5.0,34.26,0.797,0.008,2.27,-0.8372,-0.2271,34.2607,0.95561,-0.0064,-0.00405,0.29452,-0.0292,-0.0295,-9.7499,0.3953,-0.5428,-0.3916,0.1195,3,15,0.92,0.98,0.44,24.792,15.31,94.6,33.2,20810.0,9056,8494,9055,9097,52.5,49.6,51.6,51.4,3.009,2.816,2.623,2.972,0.5,114.2,25.9,33.0,1005.83,-31.03,0.63,1.3,19.3,37.6,28.3,0,no_anomaly,0.0,0,0,0,0,19.0759902,72.8777179,5.0,0.0
2024-04-08T09:07:00.900Z,MISSION_0070,9,0,takeoff,SITE_BOM_001,19.075992,72.8777218,5.0,34.27,1.104,0.104,2.59,0.4337,-0.5736,34.2703,0.95559,0.00509,-0.00367,0.29464,-0.0129,-0.0057,-9.837,0.5953,-0.2009,0.0285,0.1023,3,16,0.76,0.7,0.34,24.677,25.77,94.5,33.6,20799.0,8790,8824,8972,9090,49.5,53.7,47.3,48.1,2.527,3.092,2.619,2.901,0.0,123.6,25.7,33.7,1006.26,-27.28,-0.9,1.59,17.5,35.9,26.7,0,no_anomaly,0.0,0,0,0,0,19.075992,72.8777218,5.0,0.0
2024-04-08T09:07:01.000Z,MISSION_0070,10,0,takeoff,SITE_BOM_001,19.0759925,72.8777153,5.0,33.76,1.11,0.12,1.89,1.8248,-4.221,33.7577,0.95598,0.02592,-0.03062,0.29068,-0.0684,0.0447,-9.8411,0.0573,-0.331,0.0207,0.0727,3,17,0.59,1.0,0.2,24.637,18.43,94.5,34.4,20788.0,8858,8621,8627,8928,49.1,52.0,50.4,53.0,2.673,2.735,2.484,2.806,1.24,128.7,26.0,32.1,1005.87,-30.19,-1.93,1.41,24.6,38.5,30.6,0,no_anomaly,0.0,0,0,0,0,19.0759925,72.8777153,5.0,0.0
2024-04-08T09:07:01.100Z,MISSION_0070,11,0,takeoff,SITE_BOM_001,19.0759946,72.8777122,5.0,33.42,1.361,0.018,1.49,-2.5583,-2.996,33.4201,0.95737,-0.01386,-0.03145,0.2868,0.0673,0.0655,-9.8277,-0.3099,0.2296,0.4268,0.1571,3,17,0.73,0.75,0.36,24.719,18.59,94.4,33.4,20776.0,8905,9018,9015,8964,48.5,50.1,51.5,51.1,3.017,2.626,2.777,2.644,1.61,118.2,25.6,32.9,1005.71,-28.53,-0.15,1.52,20.9,36.5,27.4,0,no_anomaly,0.0,0,0,0,0,19.0759946,72.8777122,5.0,0.0
2024-04-08T09:07:01.200Z,MISSION_0070,12,0,takeoff,SITE_BOM_001,19.0759952,72.8777096,5.0,33.75,1.068,0.081,1.2,-3.0407,-2.1671,33.7509,0.95658,-0.0199,-0.02579,0.28966,0.0647,-0.0284,-9.7995,0.2562,0.0387,-0.5584,0.1556,3,10,0.58,1.0,0.2,24.555,15.34,94.4,33.6,20765.0,9067,8823,8772,9042,50.4,50.1,46.9,49.6,2.68,2.698,2.917,3.054,0.77,118.7,25.8,33.2,1005.71,-31.64,-0.06,1.92,19.5,38.7,26.2,0,no_anomaly,0.0,0,0,0,0,19.0759952,72.8777096,5.0,0.0
2024-04-08T09:07:01.300Z,MISSION_0070,13,0,takeoff,SITE_BOM_001,19.0759974,72.8777094,5.0,32.8,0.909,0.166,1.09,-3.5846,-5.3102,32.8011,0.95822,-0.0169,-0.05324,0.28052,0.142,0.0056,-9.7993,0.5416,-0.0094,-0.1435,0.073,3,20,0.5,1.04,0.23,24.666,19.28,94.3,34.2,20754.0,8709,8800,8831,8935,48.6,50.7,51.1,53.0,2.601,2.773,2.756,2.544,1.17,116.2,25.7,33.5,1005.75,-28.48,1.47,1.08,20.8,40.2,25.8,0,no_anomaly,0.0,0,0,0,0,19.0759974,72.8777094,5.0,0.0
2024-04-08T09:07:01.400Z,MISSION_0070,14,0,takeoff,SITE_BOM_001,19.075997,72.8777086,5.0,34.39,0.79,0.089,1.01,0.9065,-1.8018,34.3926,0.95511,0.0122,-0.01268,0.29572,-0.103,-0.014,-9.8129,0.2573,0.3461,0.2783,0.062,3,19,0.58,1.09,0.2,24.698,16.44,94.3,34.7,20743.0,9021,8743,8987,9126,50.6,48.4,51.0,48.7,2.648,2.856,2.669,2.685,1.39,124.1,26.0,33.0,1006.07,-30.53,-0.15,1.23,25.1,35.1,31.4,0,no_anomaly,0.0,0,0,0,0,19.075997,72.8777086,5.0,0.0
2024-04-08T09:07:01.500Z,MISSION_0070,15,0,takeoff,SITE_BOM_001,19.0760009,72.8777048,5.0,35.24,0.796,0.01,0.55,-2.4414,-2.936,35.2428,0.95271,-0.01254,-0.03086,0.30204,0.0367,-0.0561,-9.8166,-0.1067,-0.1981,-0.2955,0.1525,3,10,0.61,0.85,0.2,24.619,18.7,94.2,34.5,20731.0,8782,8688,8886,9066,51.2,50.6,49.9,51.1,2.618,2.908,2.81,2.749,1.33,117.9,26.3,32.6,1006.36,-25.87,1.01,2.16,18.1,31.3,26.4,0,no_anomaly,0.0,0,0,0,0,19.0760009,72.8777048,5.0,0.0
2024-04-08T09:07:01.600Z,MISSION_0070,16,0,takeoff,SITE_BOM_001,19.076,72.8777132,5.0,34.2,0.389,0.179,1.47,-3.7636,-0.9073,34.198,0.95533,-0.02906,-0.01722,0.29361,-0.1102,0.038,-9.8327,-0.7971,-0.6717,-0.0971,0.1352,3,11,0.99,0.9,0.39,24.641,16.49,94.2,34.2,20720.0,8823,8838,8909,8907,49.3,54.9,52.9,52.7,2.591,2.766,2.789,2.708,0.9,110.8,26.0,33.6,1005.98,-30.5,-0.61,1.41,20.1,33.9,26.2,0,no_anomaly,0.0,0,0,0,0,19.076,72.8777132,5.0,0.0
2024-04-08T09:07:01.700Z,MISSION_0070,17,0,takeoff,SITE_BOM_001,19.0759997,72.8777083,5.0,34.16,0.636,0.117,0.92,4.3162,-1.283,34.1557,0.95504,0.03928,0.00036,0.29385,-0.002,-0.0343,-9.8629,0.4324,0.0413,-0.0956,0.085,3,16,0.81,0.7,0.22,24.608,21.51,94.1,34.7,20709.0,8882,9078,8790,8790,51.4,48.8,50.5,50.0,3.001,2.742,2.643,2.649,1.36,125.0,25.7,32.6,1005.93,-29.14,-0.39,1.29,23.5,35.1,31.0,0,no_anomaly,0.0,0,0,0,0,19.0759997,72.8777083,5.0,0.0
2024-04-08T09:07:01.800Z,MISSION_0070,18,0,takeoff,SITE_BOM_001,19.076004,72.8777038,5.0,34.85,0.691,0.14,0.62,0.6557,-2.308,34.8504,0.95386,0.01149,-0.0175,0.29951,-0.0323,0.0449,-9.861,-0.5945,0.2511,0.198,0.1371,3,17,0.72,0.85,0.2,24.694,18.97,94.1,33.1,20698.0,8854,9158,8926,9064,48.7,51.5,47.2,51.9,2.562,2.802,2.902,2.684,1.21,118.3,25.3,33.0,1005.91,-31.18,-0.08,1.18,18.4,35.6,29.9,0,no_anomaly,0.0,0,0,0,0,19.076004,72.8777038,5.0,0.0
2024-04-08T09:07:01.900Z,MISSION_0070,19,0,takeoff,SITE_BOM_001,19.075996,72.8777031,5.0,33.7,0.473,0.144,0.57,-2.1478,-1.2146,33.7008,0.9569,-0.01486,-0.01557,0.28962,-0.0697,-0.0402,-9.8552,0.5101,0.5468,-0.4204,0.148,3,16,0.56,0.79,0.29,24.637,16.4,94.0,34.2,20686.0,8913,8892,8782,8608,50.8,47.1,50.4,48.8,2.817,2.843,2.698,2.763,1.41,122.3,26.0,33.3,1005.7,-33.11,-2.38,1.54,20.8,39.4,28.6,0,no_anomaly,0.0,0,0,0,0,19.075996,72.8777031,5.0,0.0
2024-04-08T09:07:02.000Z,MISSION_0070,20,0,takeoff,SITE_BOM_001,19.0759952,72.8777026,5.0,32.65,0.81,0.101,0.61,-1.1391,-1.8389,32.6528,0.95955,-0.00503,-0.01819,0.28091,-0.0454,0.0354,-9.8921,0.5121,-0.1554,-0.4908,0.0937,3,16,0.84,0.86,0.33,24.681,16.87,94.0,33.7,20675.0,8837,9129,8890,8951,51.3,52.1,51.5,51.2,2.836,2.892,2.51,2.825,1.38,127.9,25.5,33.0,1005.97,-32.53,1.57,1.98,20.9,37.0,26.8,0,no_anomaly,0.0,0,0,0,0,19.0759952,72.8777026,5.0,0.0
2024-04-08T09:07:02.100Z,MISSION_0070,21,0,takeoff,SITE_BOM_001,19.0759946,72.877702,5.0,31.85,1.022,0.123,0.64,0.3307,-0.9376,31.8512,0.96158,0.00502,-0.00708,0.2744,-0.0206,0.0693,-9.7399,0.4696,0.3294,-0.0706,0.0722,3,12,0.65,1.0,0.25,24.61,17.6,93.9,34.1,20664.0,8896,8897,9045,9166,49.8,54.5,47.4,49.6,2.799,2.578,2.522,2.683,0.92,120.4,25.8,32.7,1005.72,-33.95,-0.91,1.75,22.9,31.2,29.9,0,no_anomaly,0.0,0,0,0,0,19.0759946,72.877702,5.0,0.0
2024-04-08T09:07:02.200Z,MISSION_0070,22,0,takeoff,SITE_BOM_001,19.0760029,72.8777031,5.0,30.0,0.866,0.08,0.47,1.2306,-4.0825,30.0034,0.96515,0.01959,-0.03162,0.25904,-0.1633,0.0056,-9.826,0.0599,-0.624,-0.1104,0.0831,3,11,0.77,0.97,0.37,24.618,17.69,93.9,33.9,20653.0,9118,8926,8911,8780,54.7,49.1,50.1,48.3,2.974,3.008,2.676,2.827,1.36,117.8,25.7,32.9,1005.92,-27.92,-0.17,2.22,22.3,34.3,26.0,0,no_anomaly,0.0,0,0,0,0,19.0760029,72.8777031,5.0,0.0
2024-04-08T09:07:02.300Z,MISSION_0070,23,0,takeoff,SITE_BOM_001,19.0759993,72.8777043,5.0,29.34,0.936,0.09,0.48,-4.2048,-0.6734,29.3391,0.96679,-0.034,-0.01497,0.25286,-0.0215,-0.0144,-9.8824,0.4729,0.1013,-0.2931,0.1355,3,19,0.57,0.87,0.2,24.591,20.98,93.8,33.1,20642.0,8725,8916,9058,8891,51.1,51.5,47.4,48.3,2.574,2.658,2.867,2.578,0.36,127.0,25.9,34.3,1005.68,-27.77,0.17,1.24,22.3,41.0,31.8,0,no_anomaly,0.0,0,0,0,0,19.0759993,72.8777043,5.0,0.0
2024-04-08T09:07:02.400Z,MISSION_0070,24,0,takeoff,SITE_BOM_001,19.076002,72.8777015,5.0,31.85,1.209,0.109,0.28,-0.6655,-0.9778,31.8542,0.96157,-0.00324,-0.0098,0.27435,-0.066,-0.0595,-9.7609,-0.1643,0.1554,-0.2911,0.1381,3,12,0.76,1.15,0.4,24.652,16.46,93.8,33.6,20630.0,9102,8902,8752,9057,50.6,52.2,52.1,49.0,2.658,2.977,2.531,2.752,0.82,112.2,25.9,33.0,1006.18,-22.55,-0.79,1.64,18.7,39.8,25.5,0,no_anomaly,0.0,0,0,0,0,19.076002,72.8777015,5.0,0.0
2024-04-08T09:07:02.500Z,MISSION_0070,25,0,takeoff,SITE_BOM_001,19.0760002,72.8777026,5.0,31.4,1.26,0.05,0.29,-0.8892,-4.3134,31.3955,0.96207,0.00272,-0.03833,0.27008,0.1417,0.0094,-9.7494,-0.6124,-0.1112,0.1054,0.1446,3,16,0.65,0.82,0.29,24.699,12.26,93.7,34.0,20619.0,8942,9021,8980,8737,50.1,55.0,55.9,47.1,2.676,2.803,2.811,2.799,1.41,119.1,25.8,33.1,1005.49,-30.93,1.08,1.19,19.2,36.7,26.4,0,no_anomaly,0.0,0,0,0,0,19.0760002,72.8777026,5.0,0.0
2024-04-08T09:07:02.600Z,MISSION_0070,26,0,takeoff,SITE_BOM_001,19.0759999,72.8777031,5.0,35.72,1.016,0.118,0.34,-2.0471,-4.0205,35.72,0.95126,-0.00624,-0.03886,0.30586,-0.0957,0.0539,-9.9032,-1.0406,-0.683,-0.1307,0.1422,3,10,0.58,0.97,0.2,24.607,17.15,93.7,34.0,20608.0,9151,9001,8994,8925,52.4,50.3,49.7,51.2,2.832,3.106,2.662,2.677,1.92,108.3,25.9,32.8,1006.07,-30.31,0.17,1.92,19.7,37.0,30.5,0,no_anomaly,0.0,0,0,0,0,19.0759999,72.8777031,5.0,0.0
2024-04-08T09:07:02.700Z,MISSION_0070,27,0,takeoff,SITE_BOM_001,19.0759941,72.877704,5.0,33.47,0.869,0.106,0.79,1.3312,-0.5579,33.4726,0.95755,0.01253,-0.00132,0.288,-0.1044,-0.0425,-9.8289,-0.5956,0.4095,-0.4038,0.1505,3,14,0.61,0.65,0.2,24.641,14.19,93.6,34.1,20597.0,9088,8612,8879,9042,46.0,55.1,54.1,51.5,2.904,2.687,2.67,2.679,1.12,125.1,26.1,33.4,1006.08,-27.04,-0.17,1.27,21.9,34.1,28.7,0,no_anomaly,0.0,0,0,0,0,19.0759941,72.877704,5.0,0.0
2024-04-08T09:07:02.800Z,MISSION_0070,28,0,takeoff,SITE_BOM_001,19.0759983,72.8777069,5.0,34.29,0.974,0.111,0.8,1.1308,-1.0826,34.2924,0.95544,0.01221,-0.00612,0.29487,0.0812,0.0794,-9.8397,0.2222,0.1205,0.2336,0.2665,3,10,0.62,0.9,0.27,24.661,22.11,93.6,33.7,20585.0,8973,8867,8927,8867,51.7,50.3,53.2,53.7,2.824,2.821,2.643,2.766,1.24,119.5,25.9,32.9,1005.6,-24.49,0.83,1.35,18.4,33.0,28.1,0,no_anomaly,0.0,0,0,0,0,19.0759983,72.8777069,5.0,0.0
2024-04-08T09:07:02.900Z,MISSION_0070,29,0,takeoff,SITE_BOM_001,19.0759983,72.8777084,5.0,35.4,0.345,0.102,0.95,-4.6473,-0.7435,35.3985,0.95194,-0.03665,-0.0185,0.30351,-0.0916,-0.0032,-9.8595,-0.1087,-0.1114,0.0274,0.1546,3,14,0.64,0.93,0.23,24.608,14.22,93.5,33.5,20574.0,9076,8794,8869,8870,49.8,52.2,49.5,52.4,2.722,2.58,2.934,2.718,1.61,125.7,25.3,32.8,1006.06,-28.95,-2.22,1.48,19.8,38.3,26.9,0,no_anomaly,0.0,0,0,0,0,19.0759983,72.8777084,5.0,0.0
2024-04-08T09:07:03.000Z,MISSION_0070,30,0,takeoff,SITE_BOM_001,19.0759954,72.8777072,5.0,33.61,0.179,0.128,0.95,2.2186,-2.3693,33.6085,0.9568,0.0245,-0.01419,0.28937,-0.0898,-0.0028,-9.803,-0.4032,-0.0805,-0.3043,0.148,3,13,0.51,0.86,0.2,24.549,18.9,93.5,34.6,20563.0,9068,9082,8817,8912,51.7,52.1,50.1,53.6,2.755,2.69,2.831,2.701,1.24,120.3,26.0,32.3,1005.91,-30.26,1.52,1.51,17.9,39.8,25.7,0,no_anomaly,0.0,0,0,0,0,19.0759954,72.8777072,5.0,0.0
2024-04-08T09:07:03.100Z,MISSION_0070,31,0,takeoff,SITE_BOM_001,19.0759959,72.8777097,5.0,36.07,0.335,0.05,1.17,-0.2511,-4.9333,36.0681,0.95002,0.01124,-0.0416,0.3092,-0.13,0.0054,-9.8315,0.7383,-0.3083,0.1442,0.0966,3,12,0.88,1.02,0.4,24.638,20.82,93.4,33.9,20552.0,9060,9110,8997,8895,50.5,53.6,54.0,50.3,2.807,2.616,3.024,2.838,0.9,116.8,25.5,32.9,1006.08,-30.35,0.34,1.4,20.5,35.8,25.4,0,no_anomaly,0.0,0,0,0,0,19.0759959,72.8777097,5.0,0.0
2024-04-08T09:07:03.200Z,MISSION_0070,32,0,takeoff,SITE_BOM_001,19.0759959,72.8777088,5.0,35.55,0.724,0.114,1.08,3.3337,-3.4665,35.5494,0.95116,0.03692,-0.01991,0.30584,-0.0436,-0.0608,-9.8476,0.4539,0.3135,0.5288,0.1402,3,18,0.67,0.88,0.33,24.606,20.87,93.4,34.1,20540.0,8879,9078,9037,9131,50.7,49.7,49.3,54.7,3.004,2.963,2.828,3.125,1.68,114.1,26.1,32.3,1005.79,-28.07,-0.31,1.84,19.2,37.6,28.6,0,no_anomaly,0.0,0,0,0,0,19.0759959,72.8777088,5.0,0.0
2024-04-08T09:07:03.300Z,MISSION_0070,33,0,takeoff,SITE_BOM_001,19.0759979,72.8777125,5.0,36.19,1.281,0.118,1.41,-0.9041,-2.2603,36.1908,0.95037,-0.00137,-0.0212,0.31038,0.1445,0.0382,-9.8226,0.3653,0.2223,0.4195,0.1508,3,10,0.62,1.11,0.25,24.73,21.45,93.3,34.3,20529.0,8803,9000,9004,8986,50.6,52.3,53.8,45.8,2.99,2.879,3.044,2.618,1.45,125.3,25.7,33.9,1006.1,-34.09,0.8,1.0,18.5,30.3,25.1,0,no_anomaly,0.0,0,0,0,0,19.0759979,72.8777125,5.0,0.0
2024-04-08T09:07:03.400Z,MISSION_0070,34,0,takeoff,SITE_BOM_001,19.0759974,72.8777102,5.0,34.75,1.285,0.067,1.17,-3.3036,-2.9635,34.7533,0.95387,-0.01978,-0.03327,0.29772,-0.0898,-0.025,-9.7513,0.4119,0.5708,-0.2494,0.1355,3,18,0.7,0.92,0.2,24.67,16.94,93.3,33.2,20518.0,8988,8926,8849,8789,55.3,52.8,49.9,51.7,2.934,2.846,2.637,2.554,0.0,129.0,25.8,33.3,1006.1,-28.73,0.28,1.98,22.9,35.9,26.1,0,no_anomaly,0.0,0,0,0,0,19.0759974,72.8777102,5.0,0.0
2024-04-08T09:07:03.500Z,MISSION_0070,35,0,takeoff,SITE_BOM_001,19.0759975,72.8777098,5.0,33.94,1.891,0.163,1.13,-0.9807,-1.5883,33.9354,0.95638,-0.00414,-0.01575,0.29168,0.0486,-0.0189,-9.7924,-0.9432,0.1962,0.1841,0.2545,3,18,0.65,0.98,0.25,24.608,13.81,93.2,34.2,20507.0,8855,8904,8890,8990,51.6,50.5,49.7,49.7,2.818,2.957,3.008,2.712,1.33,113.3,25.5,33.2,1005.75,-33.71,1.29,1.07,21.5,32.7,29.8,0,no_anomaly,0.0,0,0,0,0,19.0759975,72.8777098,5.0,0.0
2024-04-08T09:07:03.600Z,MISSION_0070,36,0,takeoff,SITE_BOM_001,19.0759984,72.8777087,5.0,35.4,1.848,0.172,0.99,-0.6815,-3.3977,35.3975,0.95229,0.00335,-0.03005,0.30371,-0.0778,0.0008,-9.7267,0.0333,0.1788,0.0645,0.1204,3,12,0.64,0.86,0.35,24.525,19.98,93.2,33.9,20495.0,8846,8850,8852,8937,49.4,48.1,52.3,51.3,2.713,2.816,2.98,2.578,0.91,120.2,25.9,33.1,1005.89,-33.42,-0.78,1.09,20.5,31.1,28.2,0,no_anomaly,0.0,0,0,0,0,19.0759984,72.8777087,5.0,0.0
2024-04-08T09:07:03.700Z,MISSION_0070,37,0,takeoff,SITE_BOM_001,19.0759965,72.877709,5.0,37.61,2.344,0.081,1.08,-4.6376,-1.0436,37.6089,0.94593,-0.03536,-0.02166,0.32171,-0.1067,0.0134,-9.8089,0.2679,0.2674,0.1498,0.1098,3,18,0.62,0.92,0.37,24.688,21.81,93.1,34.7,20484.0,9088,8812,9208,8799,50.3,52.0,51.2,54.2,2.742,3.009,2.668,2.811,1.83,126.2,25.7,32.8,1005.99,-27.34,0.05,1.0,23.7,32.7,30.4,0,no_anomaly,0.0,0,0,0,0,19.0759965,72.877709,5.0,0.0
2024-04-08T09:07:03.800Z,MISSION_0070,38,0,takeoff,SITE_BOM_001,19.0759977,72.8777099,5.0,37.93,2.121,0.159,1.13,0.2825,-1.0978,37.9268,0.94567,0.00544,-0.00826,0.32497,0.0146,0.0313,-9.8634,-0.393,0.8833,0.3785,0.1432,3,13,0.65,1.08,0.28,24.606,17.26,93.1,34.2,20473.0,9081,9071,9037,9195,54.8,53.2,49.8,48.8,2.754,2.897,3.022,2.655,1.2,116.0,25.5,32.6,1005.94,-29.63,0.94,1.79,22.4,37.6,28.8,0,no_anomaly,0.0,0,0,0,0,19.0759977,72.8777099,5.0,0.0
2024-04-08T09:07:03.900Z,MISSION_0070,39,0,takeoff,SITE_BOM_001,19.0759947,72.8777147,5.0,38.61,1.698,0.08,1.74,2.9702,-1.0009,38.6147,0.94333,0.02735,0.00033,0.33073,-0.0733,-0.05,-9.8639,-0.1719,0.5017,0.0602,0.153,3,17,0.63,0.77,0.2,24.598,20.89,93.0,33.7,20462.0,8875,8879,8815,8793,51.8,48.2,51.4,52.1,3.155,2.985,3.035,2.719,0.54,127.5,25.8,33.6,1005.89,-27.1,1.88,1.61,21.6,35.7,27.0,0,no_anomaly,0.0,0,0,0,0,19.0759947,72.8777147,5.0,0.0
2024-04-08T09:07:04.000Z,MISSION_0070,40,0,takeoff,SITE_BOM_001,19.0759978,72.8777119,5.0,37.02,1.092,0.139,1.35,0.218,-4.2338,37.0158,0.94761,0.01353,-0.03442,0.31729,-0.1296,0.1044,-9.8409,1.1218,-0.0269,0.2011,0.1208,3,12,0.81,1.07,0.28,24.647,18.7,93.0,33.9,20450.0,9012,8881,9013,8897,50.8,45.8,49.8,51.3,2.916,2.806,2.894,3.193,0.92,118.4,25.9,33.5,1005.85,-33.82,-0.67,1.48,20.9,32.0,28.6,0,no_anomaly,0.0,0,0,0,0,19.0759978,72.8777119,5.0,0.0
2024-04-08T09:07:04.100Z,MISSION_0070,41,0,takeoff,SITE_BOM_001,19.076001,72.8777098,5.0,38.63,0.424,0.095,1.1,-0.6144,-4.4295,38.6311,0.94306,0.00773,-0.03824,0.33032,0.1373,0.0042,-9.7974,0.467,0.5848,-0.0998,0.1252,3,15,0.83,0.76,0.34,24.639,15.98,92.9,33.3,20439.0,8837,8908,8733,9135,48.7,47.6,51.7,51.4,2.868,2.749,2.925,2.584,1.6,117.1,25.9,33.0,1006.16,-32.31,0.64,1.13,23.5,34.6,29.6,0,no_anomaly,0.0,0,0,0,0,19.076001,72.8777098,5.0,0.0
2024-04-08T09:07:04.200Z,MISSION_0070,42,0,takeoff,SITE_BOM_001,19.0760057,72.8777088,5.0,39.18,0.157,0.069,1.16,0.7307,-5.0865,39.1805,0.94107,0.02088,-0.03967,0.33522,-0.0227,0.0047,-9.8021,0.8564,0.7788,-0.0436,0.0521,3,19,0.75,0.95,0.34,24.56,11.98,92.9,34.0,20428.0,9006,9046,8959,8954,50.7,50.4,50.3,51.2,2.784,2.772,2.84,2.906,0.7,114.8,26.1,33.2,1005.98,-31.6,0.13,1.6,20.5,34.8,30.1,0,no_anomaly,0.0,0,0,0,0,19.0760057,72.8777088,5.0,0.0
2024-04-08T09:07:04.300Z,MISSION_0070,43,0,takeoff,SITE_BOM_001,19.0760041,72.8777069,5.0,38.02,0.43,0.195,0.89,2.1155,0.4312,38.021,0.94531,0.01623,0.00957,0.32562,-0.0645,-0.0527,-9.7864,-0.1158,0.3996,-0.2359,0.0776,3,11,0.7,0.88,0.26,24.683,16.8,92.8,34.3,20417.0,8848,9050,8803,8784,51.2,52.2,50.1,49.8,2.743,2.778,2.987,2.617,1.25,123.3,26.0,32.6,1005.82,-27.22,0.37,1.32,21.6,38.6,25.4,0,no_anomaly,0.0,0,0,0,0,19.0760041,72.8777069,5.0,0.0
2024-04-08T09:07:04.400Z,MISSION_0070,44,0,takeoff,SITE_BOM_001,19.0760041,72.8777039,5.0,36.84,0.8,0.083,0.63,-1.6079,-3.4676,36.8408,0.94837,-0.00375,-0.03313,0.31541,-0.0017,0.0903,-9.8151,0.1766,-0.0554,0.3558,0.1776,3,15,0.54,0.7,0.2,24.657,20.28,92.8,34.2,20405.0,8819,8966,8910,8786,49.3,51.3,52.6,53.6,3.06,2.82,2.726,2.877,1.25,130.4,25.8,32.6,1005.76,-25.72,-0.65,1.26,18.8,34.8,30.0,0,no_anomaly,0.0,0,0,0,0,19.0760041,72.8777039,5.0,0.0
2024-04-08T09:07:04.500Z,MISSION_0070,45,0,takeoff,SITE_BOM_001,19.0760045,72.8777007,5.0,34.57,0.945,0.156,0.51,-3.3952,-0.065,34.5706,0.95442,-0.02812,-0.00934,0.29698,-0.0324,-0.0039,-9.8143,-0.5295,0.2611,0.0486,0.1162,3,16,0.76,1.13,0.22,24.624,17.83,92.7,33.8,20394.0,8743,9035,8891,9027,48.2,51.4,51.6,48.8,2.824,2.772,2.753,2.433,2.12,120.1,25.3,34.1,1005.85,-29.48,-0.42,1.57,22.2,32.3,29.7,0,no_anomaly,0.0,0,0,0,0,19.0760045,72.8777007,5.0,0.0
2024-04-08T09:07:04.600Z,MISSION_0070,46,0,takeoff,SITE_BOM_001,19.0760079,72.8777036,5.0,36.83,0.683,0.121,0.96,0.5341,-5.3562,36.8279,0.94768,0.01918,-0.04286,0.31574,-0.1288,0.0363,-9.8861,1.232,-0.1067,0.0478,0.0289,3,14,0.5,0.72,0.24,24.589,20.67,92.6,34.4,20383.0,8638,8910,8754,8924,50.3,52.0,50.4,54.6,2.728,2.779,2.874,2.797,1.43,137.4,26.2,32.4,1006.1,-37.3,-0.44,1.22,21.9,38.8,27.5,0,no_anomaly,0.0,0,0,0,0,19.0760079,72.8777036,5.0,0.0
2024-04-08T09:07:04.700Z,MISSION_0070,47,0,takeoff,SITE_BOM_001,19.0760078,72.8777045,5.0,37.22,0.441,0.14,1.0,-1.7742,-4.5222,37.2224,0.94705,-0.00207,-0.04232,0.31828,0.0254,0.0059,-9.861,-0.0187,-0.5885,-0.0626,0.1157,3,11,0.57,0.91,0.22,24.584,18.59,92.6,33.1,20372.0,9224,8995,8948,9205,51.2,50.0,51.2,50.9,2.787,2.568,2.833,2.975,0.81,122.6,25.8,32.8,1006.16,-30.99,1.03,1.43,19.1,36.5,26.4,0,no_anomaly,0.0,0,0,0,0,19.0760078,72.8777045,5.0,0.0
2024-04-08T09:07:04.800Z,MISSION_0070,48,0,takeoff,SITE_BOM_001,19.0760061,72.8777097,5.0,34.95,0.184,0.118,1.28,-1.5228,-1.805,34.9467,0.95372,-0.00794,-0.01901,0.3,-0.1213,0.1308,-9.7291,-0.8345,0.2813,0.0011,0.1189,3,20,0.87,0.84,0.26,24.58,16.93,92.5,34.3,20360.0,8826,9027,9084,8779,50.7,51.8,48.0,52.5,3.039,2.513,2.87,2.917,0.95,117.1,25.7,33.5,1006.61,-31.55,0.13,1.88,23.1,43.2,31.9,0,no_anomaly,0.0,0,0,0,0,19.0760061,72.8777097,5.0,0.0
2024-04-08T09:07:04.900Z,MISSION_0070,49,0,takeoff,SITE_BOM_001,19.0760041,72.8777147,5.0,36.04,0.0,0.112,1.7,-1.471,-5.6817,36.0364,0.94991,0.00314,-0.05109,0.30831,-0.04,0.0111,-9.8229,0.8442,0.071,0.3077,0.138,3,13,0.84,1.02,0.32,24.54,18.76,92.5,33.7,20349.0,8915,9051,8800,9047,51.3,52.5,52.9,57.1,2.598,2.878,2.884,2.883,1.23,112.7,25.7,32.2,1005.96,-27.18,2.29,1.44,19.6,36.3,27.3,0,no_anomaly,0.0,0,0,0,0,19.0760041,72.8777147,5.0,0.0
2024-04-08T09:07:05.000Z,MISSION_0070,50,0,takeoff,SITE_BOM_001,19.0760085,72.8777156,5.0,37.74,0.0,0.137,1.98,0.1234,-0.65,37.7445,0.94622,0.00285,-0.00502,0.32346,-0.0316,-0.0822,-9.8516,0.0353,-0.0694,0.3642,0.0736,3,11,0.79,0.84,0.3,24.578,18.08,92.4,34.6,20338.0,8935,8757,8841,8953,47.9,54.1,46.9,52.8,2.901,2.891,2.492,2.922,0.94,128.3,25.6,32.7,1005.6,-30.2,0.21,1.34,21.1,34.1,25.3,0,no_anomaly,0.0,0,0,0,0,19.0760085,72.8777156,5.0,0.0
2024-04-08T09:07:05.100Z,MISSION_0070,51,0,takeoff,SITE_BOM_001,19.0760119,72.8777157,5.0,35.56,0.184,0.091,2.19,1.31,-3.4007,35.5588,0.95165,0.01994,-0.02476,0.30552,0.0577,-0.1214,-9.7582,-0.2678,-0.5735,-0.2988,0.0676,3,14,0.64,0.96,0.2,24.51,18.36,92.4,33.9,20327.0,8867,9020,9069,8798,54.0,49.6,50.7,50.0,2.934,2.857,2.927,3.048,0.91,127.8,26.4,32.5,1005.75,-30.4,-1.4,1.33,21.2,36.7,31.6,0,no_anomaly,0.0,0,0,0,0,19.0760119,72.8777157,5.0,0.0
2024-04-08T09:07:05.200Z,MISSION_0070,52,0,takeoff,SITE_BOM_001,19.0760123,72.8777193,5.0,37.01,0.0,0.032,2.55,1.6358,-2.3218,37.0125,0.94791,0.01996,-0.01468,0.31758,0.1542,0.0938,-9.7387,0.5185,-0.0125,-0.7164,0.1004,3,10,0.55,0.75,0.24,24.639,24.66,92.3,33.5,20315.0,9079,9104,8751,8960,53.9,52.5,49.6,48.8,2.832,2.822,2.953,2.807,1.45,126.0,25.9,33.6,1006.01,-24.71,-0.62,1.26,21.3,38.4,29.1,0,no_anomaly,0.0,0,0,0,0,19.0760123,72.8777193,5.0,0.0
2024-04-08T09:07:05.300Z,MISSION_0070,53,0,takeoff,SITE_BOM_001,19.0760135,72.8777198,5.0,41.18,0.0,0.109,2.67,-1.0519,-1.6386,41.1781,0.93604,-0.00356,-0.01661,0.35149,0.108,-0.0074,-9.8315,0.5242,-0.2454,-0.0342,0.1696,3,14,0.83,0.82,0.35,24.572,14.95,92.3,33.8,20304.0,8682,9312,8924,8647,51.0,50.6,51.5,51.9,2.763,2.664,3.19,2.95,1.7,119.6,26.0,34.1,1006.17,-26.54,-1.58,1.23,19.9,32.4,29.0,0,no_anomaly,0.0,0,0,0,0,19.0760135,72.8777198,5.0,0.0
2024-04-08T09:07:05.400Z,MISSION_0070,54,0,takeoff,SITE_BOM_001,19.0760129,72.8777226,5.0,40.62,0.0,0.166,2.9,3.8388,0.2963,40.6198,0.93733,0.03051,0.01405,0.34682,-0.1448,-0.0141,-9.8423,-0.5481,-1.0217,0.2494,0.1756,3,16,0.62,1.04,0.21,24.666,18.39,92.2,34.2,20293.0,8990,9040,8869,8958,49.3,50.5,53.5,49.5,2.699,2.618,2.979,2.676,1.17,116.3,25.8,33.3,1005.81,-26.92,1.61,1.87,18.5,32.2,26.9,0,no_anomaly,0.0,0,0,0,0,19.0760129,72.8777226,5.0,0.0
2024-04-08T09:07:05.500Z,MISSION_0070,55,0,takeoff,SITE_BOM_001,19.0760127,72.8777235,5.0,39.17,0.0,-0.011,2.98,0.2053,-2.2726,39.172,0.94194,0.00834,-0.01808,0.33519,-0.0461,0.0653,-9.8347,0.5506,0.4244,0.3786,0.1259,3,15,0.74,1.08,0.21,24.574,18.95,92.2,33.7,20282.0,9109,9057,9042,8749,50.8,50.4,52.4,52.5,2.525,2.795,2.529,2.917,1.45,127.1,25.3,33.5,1005.79,-30.26,0.98,1.77,19.5,29.6,24.5,0,no_anomaly,0.0,0,0,0,0,19.0760127,72.8777235,5.0,0.0
2024-04-08T09:07:05.600Z,MISSION_0070,56,0,takeoff,SITE_BOM_001,19.0760109,72.8777246,5.0,38.14,0.299,-0.009,3.0,1.5553,-0.9141,38.1362,0.94498,0.01543,-0.0031,0.32675,-0.0849,-0.0816,-9.8888,-0.2731,0.0489,0.3328,0.1004,3,14,0.53,0.68,0.2,24.561,18.32,92.1,34.4,20270.0,8772,8766,8814,8986,48.5,50.9,48.2,51.9,2.932,2.99,2.925,2.611,1.73,119.9,26.0,33.2,1005.98,-29.77,-1.0,1.86,20.3,36.1,25.4,0,no_anomaly,0.0,0,0,0,0,19.0760109,72.8777246,5.0,0.0
2024-04-08T09:07:05.700Z,MISSION_0070,57,0,takeoff,SITE_BOM_001,19.076009,72.8777286,5.0,37.7,0.277,0.029,3.33,1.7646,-1.9122,37.7001,0.94604,0.01996,-0.01082,0.32325,0.1375,0.0199,-9.7877,-0.2196,0.3582,-0.1006,0.1224,3,14,0.7,0.7,0.33,24.597,20.66,92.1,33.6,20259.0,9007,8853,9095,8874,50.0,52.7,51.7,53.6,2.904,2.775,3.148,3.141,2.12,117.7,25.9,33.4,1006.46,-35.3,0.91,1.94,19.5,33.3,28.9,0,no_anomaly,0.0,0,0,0,0,19.076009,72.8777286,5.0,0.0
2024-04-08T09:07:05.800Z,MISSION_0070,58,0,takeoff,SITE_BOM_001,19.0760098,72.8777286,5.0,37.61,0.624,0.094,3.37,-2.3575,-2.6782,37.6127,0.94631,-0.01194,-0.02875,0.32176,-0.0014,0.0395,-9.7571,0.0879,-0.2164,0.0713,0.1516,3,17,0.56,0.78,0.27,24.654,17.98,92.0,33.0,20248.0,9061,8970,8859,8702,50.1,49.8,49.4,48.3,2.675,2.757,2.604,2.795,0.72,107.1,26.1,33.1,1005.76,-38.03,-1.41,1.08,21.9,32.5,28.9,0,no_anomaly,0.0,0,0,0,0,19.0760098,72.8777286,5.0,0.0
2024-04-08T09:07:05.900Z,MISSION_0070,59,0,takeoff,SITE_BOM_001,19.076009,72.8777258,5.0,36.58,0.598,0.07,3.05,1.4715,0.4955,36.5786,0.94941,0.01084,0.00814,0.31373,-0.0748,0.034,-9.8164,-0.3423,-0.5869,0.2162,0.1308,3,17,0.63,0.88,0.2,24.575,16.16,92.0,34.2,20237.0,8792,9168,8677,8741,51.8,49.4,52.1,53.4,2.748,2.891,2.772,2.854,1.06,111.8,25.8,33.2,1005.89,-30.85,-0.14,1.15,21.9,39.1,28.5,0,no_anomaly,0.0,0,0,0,0,19.076009,72.8777258,5.0,0.0
2024-04-08T09:07:06.000Z,MISSION_0070,60,0,takeoff,SITE_BOM_001,19.0760104,72.8777238,5.0,35.7,0.865,0.163,2.89,-0.5005,-2.3024,35.6985,0.95169,0.002,-0.02046,0.30637,-0.0098,0.0236,-9.8275,0.1182,0.0991,-0.2087,0.2128,3,10,0.77,0.76,0.28,24.555,15.52,91.9,33.7,20226.0,8872,9021,9213,9083,51.2,52.8,47.4,51.0,3.053,2.883,2.8,2.76,0.74,116.5,25.7,32.9,1006.2,-31.03,-0.08,1.51,18.0,38.9,29.2,0,no_anomaly,0.0,0,0,0,0,19.0760104,72.8777238,5.0,0.0
2024-04-08T09:07:06.100Z,MISSION_0070,61,0,takeoff,SITE_BOM_001,19.0760085,72.8777228,5.0,36.31,1.253,0.085,2.71,1.3957,-3.6785,36.31,0.94954,0.02157,-0.0267,0.31178,-0.1168,-0.0033,-9.7521,0.146,-0.3383,-0.1247,0.1264,3,18,0.65,0.88,0.33,24.703,17.37,91.9,34.2,20214.0,8906,8667,8969,9316,52.4,51.0,50.0,49.7,2.833,2.787,2.888,2.985,1.45,119.7,25.5,33.2,1005.69,-34.19,-0.59,1.31,23.6,40.8,32.6,0,no_anomaly,0.0,0,0,0,0,19.0760085,72.8777228,5.0,0.0
2024-04-08T09:07:06.200Z,MISSION_0070,62,0,takeoff,SITE_BOM_001,19.0760069,72.8777193,5.0,35.68,0.726,0.104,2.28,0.0491,-4.4621,35.6766,0.9512,0.01233,-0.03693,0.30612,-0.0159,-0.017,-9.8648,-0.6004,0.0271,0.5271,0.0985,3,15,0.64,0.92,0.37,24.563,16.87,91.8,34.3,20203.0,8883,8921,8788,8938,53.6,53.2,53.9,52.8,2.825,2.703,2.833,2.646,2.21,110.7,26.0,33.1,1005.75,-32.53,-0.85,1.77,19.7,34.1,25.7,0,no_anomaly,0.0,0,0,0,0,19.0760069,72.8777193,5.0,0.0
2024-04-08T09:07:06.300Z,MISSION_0070,63,0,takeoff,SITE_BOM_001,19.0760125,72.8777207,5.0,34.03,1.044,0.088,2.69,0.8455,-3.139,34.0289,0.95579,0.01507,-0.02403,0.29269,0.0611,0.0366,-9.775,-0.33,0.7292,0.2917,0.1417,3,15,0.76,0.89,0.24,24.625,20.66,91.8,34.8,20192.0,8822,8770,9035,8766,51.9,49.9,51.1,50.6,2.582,2.669,2.834,2.577,0.98,116.7,26.1,32.6,1006.21,-32.34,-1.56,1.25,17.3,38.5,28.4,0,no_anomaly,0.0,0,0,0,0,19.0760125,72.8777207,5.0,0.0
2024-04-08T09:07:06.400Z,MISSION_0070,64,0,takeoff,SITE_BOM_001,19.0760119,72.8777188,5.0,32.95,0.865,0.112,2.48,-3.0445,-1.2268,32.9488,0.95863,-0.02244,-0.0178,0.2832,-0.0637,0.0005,-9.8424,0.3328,-0.0098,-0.0876,0.1131,3,19,0.7,1.09,0.27,24.559,17.08,91.7,34.3,20181.0,8877,8901,8631,8911,51.0,48.9,50.2,48.5,2.853,2.883,2.781,2.621,1.68,125.3,25.9,32.8,1005.88,-27.34,-1.28,1.56,20.8,36.9,29.8,0,no_anomaly,0.0,0,0,0,0,19.0760119,72.8777188,5.0,0.0
2024-04-08T09:07:06.500Z,MISSION_0070,65,0,takeoff,SITE_BOM_001,19.0760061,72.8777168,5.0,34.76,1.752,0.146,1.98,1.2506,-2.973,34.7573,0.95389,0.01816,-0.0215,0.29884,-0.0015,0.0386,-9.7327,-0.4739,0.2842,0.6989,0.1751,3,17,0.6,1.09,0.21,24.615,18.7,91.7,33.7,20169.0,8851,8966,8762,9168,48.2,51.7,48.2,52.2,3.019,2.886,2.805,2.702,2.31,124.8,25.9,33.8,1005.86,-27.18,-2.24,1.33,21.6,40.6,29.7,0,no_anomaly,0.0,0,0,0,0,19.0760061,72.8777168,5.0,0.0
2024-04-08T09:07:06.600Z,MISSION_0070,66,0,takeoff,SITE_BOM_001,19.0760029,72.877717,5.0,33.77,1.472,0.081,1.92,-3.0171,-1.3281,33.7715,0.95658,-0.02182,-0.01873,0.29005,-0.0146,0.0031,-9.8583,-0.1017,0.5652,-0.2073,0.1251,3,14,0.69,0.89,0.2,24.6,21.47,91.6,33.7,20158.0,8983,9009,8874,9026,49.7,49.3,55.8,51.8,2.648,2.737,3.101,2.738,0.62,123.7,25.9,32.3,1005.91,-26.91,-0.78,1.51,24.8,32.5,30.1,0,no_anomaly,0.0,0,0,0,0,19.0760029,72.877717,5.0,0.0
2024-04-08T09:07:06.700Z,MISSION_0070,67,0,takeoff,SITE_BOM_001,19.0760033,72.8777144,5.0,34.93,1.204,0.058,1.64,0.8142,-1.2663,34.9337,0.95378,0.01009,-0.00841,0.3002,-0.1747,-0.0644,-9.8652,0.4935,0.4011,0.1475,0.1442,3,18,0.81,0.83,0.27,24.605,23.61,91.6,34.8,20147.0,9004,8787,8768,8770,53.2,51.4,51.7,50.2,2.468,2.812,2.831,2.796,0.93,121.2,25.7,33.2,1006.03,-30.71,-1.05,1.6,18.7,33.5,27.0,0,no_anomaly,0.0,0,0,0,0,19.0760033,72.8777144,5.0,0.0
2024-04-08T09:07:06.800Z,MISSION_0070,68,0,takeoff,SITE_BOM_001,19.0760047,72.8777155,5.0,37.19,1.602,0.069,1.81,-0.1317,-0.3949,37.192,0.94779,1e-05,-0.00363,0.31889,-0.0352,-0.0707,-9.8543,0.5627,-0.8083,0.4676,0.0753,3,17,0.7,1.02,0.29,24.641,22.16,91.5,35.0,20136.0,9081,8742,8618,8755,47.9,48.2,53.1,49.9,2.727,2.696,2.817,2.737,1.29,121.7,26.0,33.0,1005.9,-35.03,0.57,1.62,20.2,30.1,27.3,0,no_anomaly,0.0,0,0,0,0,19.0760047,72.8777155,5.0,0.0
2024-04-08T09:07:06.900Z,MISSION_0070,69,0,takeoff,SITE_BOM_001,19.0760049,72.8777178,5.0,38.33,1.705,0.012,2.06,-0.7698,-2.7218,38.3328,0.94433,0.00145,-0.02464,0.32806,-0.0118,0.1049,-9.8615,-0.5236,-0.0402,-0.1304,0.0729,3,11,0.86,0.71,0.2,24.587,18.87,91.5,33.6,20124.0,8852,8944,9003,9008,48.7,50.0,52.3,51.7,2.816,2.712,2.726,2.675,0.56,126.1,26.0,33.7,1005.76,-34.32,-0.21,1.72,22.1,40.6,31.2,0,no_anomaly,0.0,0,0,0,0,19.0760049,72.8777178,5.0,0.0
2024-04-08T09:07:07.000Z,MISSION_0070,70,0,takeoff,SITE_BOM_001,19.0760024,72.8777155,5.0,35.81,2.209,0.163,1.74,2.0322,-2.3555,35.8074,0.95111,0.02319,-0.01411,0.30765,-0.0217,0.0655,-9.7792,0.0457,0.0135,-0.0774,0.2114,3,14,0.62,0.99,0.24,24.607,24.15,91.4,34.0,20113.0,9123,8918,8894,8799,51.5,52.2,52.3,53.1,2.886,2.735,2.445,2.797,0.79,116.2,25.9,34.1,1006.29,-27.47,-0.56,1.25,19.0,31.9,26.6,0,no_anomaly,0.0,0,0,0,0,19.0760024,72.8777155,5.0,0.0
2024-04-08T09:07:07.100Z,MISSION_0070,71,0,takeoff,SITE_BOM_001,19.0759994,72.8777129,5.0,34.67,2.33,0.047,1.44,-0.8804,-0.2792,34.6723,0.95455,-0.00661,-0.00461,0.29795,0.0342,-0.0411,-9.7929,0.4433,-0.7477,0.0817,0.1903,3,12,0.76,0.83,0.35,24.602,15.83,91.4,34.2,20102.0,8998,9261,9129,9176,51.1,52.1,47.1,51.5,2.793,3.023,2.586,2.893,1.16,121.6,25.4,32.8,1006.13,-34.58,-0.9,1.47,19.1,37.4,25.7,0,no_anomaly,0.0,0,0,0,0,19.0759994,72.8777129,5.0,0.0
2024-04-08T09:07:07.200Z,MISSION_0070,72,0,takeoff,SITE_BOM_001,19.0760023,72.8777156,5.0,34.92,2.601,0.113,1.75,-0.533,-1.4633,34.9183,0.95386,-0.00061,-0.01358,0.29994,0.028,-0.048,-9.8853,-0.1841,-0.4401,-0.4454,0.1374,3,16,0.74,1.13,0.21,24.572,25.2,91.3,33.7,20091.0,9010,8741,8614,8914,51.5,52.3,53.0,53.1,2.98,3.012,2.975,2.572,1.21,119.7,26.2,33.6,1005.83,-32.14,0.13,1.22,17.2,39.5,26.3,0,no_anomaly,0.0,0,0,0,0,19.0760023,72.8777156,5.0,0.0
2024-04-08T09:07:07.300Z,MISSION_0070,73,0,takeoff,SITE_BOM_001,19.0760043,72.8777174,5.0,37.21,2.744,0.093,1.99,-0.5047,-2.3655,37.2093,0.94756,0.00241,-0.02097,0.31888,0.0208,-0.007,-9.8246,-0.1407,-0.3364,0.1695,0.0855,3,11,0.87,0.98,0.36,24.639,18.81,91.3,34.2,20079.0,9302,8948,9173,8935,53.1,51.2,49.7,49.0,2.96,2.822,2.867,2.596,1.21,119.4,26.1,32.6,1005.74,-27.72,-0.6,1.26,22.8,32.1,29.3,0,no_anomaly,0.0,0,0,0,0,19.0760043,72.8777174,5.0,0.0
2024-04-08T09:07:07.400Z,MISSION_0070,74,0,takeoff,SITE_BOM_001,19.0760099,72.8777188,5.0,36.8,2.668,0.126,2.36,-0.422,0.2852,36.7986,0.94887,-0.00428,0.0012,0.31564,-0.0155,-0.0176,-9.843,-0.466,-0.006,-0.3424,0.1074,3,14,0.78,0.95,0.32,24.647,18.5,91.2,34.2,20068.0,9075,9157,8969,8987,50.5,50.5,48.2,54.6,2.894,2.957,2.614,2.799,1.18,120.7,26.1,34.1,1005.98,-28.29,0.49,1.53,21.6,37.6,31.3,0,no_anomaly,0.0,0,0,0,0,19.0760099,72.8777188,5.0,0.0
2024-04-08T09:07:07.500Z,MISSION_0070,75,0,takeoff,SITE_BOM_001,19.07601,72.8777221,5.0,39.9,3.071,-0.053,2.71,1.3943,-0.3517,39.8993,0.93991,0.01248,0.00127,0.3412,0.0657,-0.0734,-9.799,-0.6015,-0.0718,-0.5241,0.0772,3,18,0.65,1.08,0.2,24.589,19.67,91.2,33.8,20057.0,8643,9024,8979,8900,53.2,48.6,50.1,50.5,2.638,3.232,2.917,2.734,1.59,114.4,25.6,33.4,1006.34,-29.21,-1.0,1.23,22.4,37.1,29.4,0,no_anomaly,0.0,0,0,0,0,19.07601,72.8777221,5.0,0.0
2024-04-08T09:07:07.600Z,MISSION_0070,76,0,takeoff,SITE_BOM_001,19.0760108,72.8777234,5.0,41.74,2.95,0.065,2.87,-0.9181,-3.2032,41.744,0.93406,0.00247,-0.02897,0.35592,0.0226,-0.042,-9.8644,0.9066,-0.3224,0.3872,0.1138,3,15,0.66,0.63,0.2,24.55,20.12,91.1,33.5,20046.0,8913,8733,8723,8747,50.5,50.7,54.1,48.7,2.849,2.96,2.855,2.96,0.79,118.0,25.5,33.5,1006.19,-28.64,0.75,1.24,18.0,32.0,28.4,0,no_anomaly,0.0,0,0,0,0,19.0760108,72.8777234,5.0,0.0
2024-04-08T09:07:07.700Z,MISSION_0070,77,0,takeoff,SITE_BOM_001,19.0760139,72.8777243,5.0,45.46,3.03,0.106,3.12,-1.7476,-4.7237,45.4634,0.92168,0.00187,-0.04389,0.38546,0.0083,0.0795,-9.8843,0.1233,-0.2246,-0.1979,0.198,3,12,0.61,0.71,0.28,24.61,20.8,91.1,34.5,20034.0,8980,8904,8789,8854,48.3,51.7,54.1,51.1,2.905,2.672,2.584,2.916,0.46,119.3,26.0,33.0,1006.15,-23.57,0.49,1.08,21.2,40.3,28.2,0,no_anomaly,0.0,0,0,0,0,19.0760139,72.8777243,5.0,0.0
2024-04-08T09:07:07.800Z,MISSION_0070,78,0,takeoff,SITE_BOM_001,19.0760145,72.877722,5.0,47.56,3.262,0.109,2.93,1.4931,-2.1118,47.5627,0.91476,0.01935,-0.01161,0.40336,0.0881,0.0089,-9.7849,-0.701,-0.7319,0.0678,0.1601,3,15,0.77,0.86,0.3,24.516,21.76,91.0,34.1,20023.0,9056,8914,8874,9035,48.2,55.1,50.2,51.0,2.556,2.755,2.628,2.978,0.84,116.7,25.6,33.8,1006.08,-27.08,-0.96,1.75,20.7,34.1,27.7,0,no_anomaly,0.0,0,0,0,0,19.0760145,72.877722,5.0,0.0
2024-04-08T09:07:07.900Z,MISSION_0070,79,0,transit,SITE_BOM_001,19.0760133,72.8777235,5.5,48.34,3.385,0.144,3.0,-1.3572,-0.7292,48.3404,0.91228,-0.0082,-0.01065,0.40934,0.0628,0.0739,-9.7971,0.6694,0.1495,0.0712,0.1159,3,10,0.79,0.98,0.4,24.54,22.61,91.0,33.6,20012.0,8979,8883,9242,9054,51.5,49.4,54.7,51.2,2.957,2.919,2.665,2.63,0.65,114.3,26.0,33.0,1005.46,-23.14,-2.47,1.53,24.4,36.2,31.1,0,no_anomaly,0.0,0,0,0,0,19.0760133,72.8777235,5.5,0.0
2024-04-08T09:07:08.000Z,MISSION_0070,80,0,transit,SITE_BOM_001,19.0760166,72.8777216,6.0,49.73,3.345,0.107,3.04,0.1475,2.1422,49.7331,0.90714,-0.00669,0.0175,0.42041,-0.0791,0.0967,-9.8488,0.5561,1.359,0.4928,0.1481,3,13,0.81,0.74,0.38,24.585,20.03,90.9,34.2,20001.0,8990,8749,9146,9033,50.5,51.2,50.2,51.4,2.683,2.885,2.93,3.113,1.4,120.6,25.7,33.7,1006.07,-32.94,0.6,1.64,19.4,39.3,25.5,0,no_anomaly,0.0,0,0,0,0,19.0760166,72.8777216,6.0,0.0
2024-04-08T09:07:08.100Z,MISSION_0070,81,0,transit,SITE_BOM_001,19.0760158,72.8777235,6.5,49.85,3.541,-0.019,3.15,-1.0849,-1.1108,49.8529,0.90681,-0.0045,-0.01278,0.42133,0.0141,0.008,-9.8577,0.8923,1.0101,-0.7246,0.0893,3,12,0.77,0.91,0.39,24.548,16.18,90.9,34.2,19989.0,9065,9066,9105,9075,51.1,48.3,52.9,53.9,2.491,3.044,2.493,2.946,1.7,116.6,26.0,33.5,1005.87,-30.9,-2.57,1.74,21.6,32.9,30.1,0,no_anomaly,0.0,0,0,0,0,19.0760158,72.8777235,6.5,0.0
2024-04-08T09:07:08.200Z,MISSION_0070,82,0,transit,SITE_BOM_001,19.0760207,72.8777178,7.0,49.36,3.535,0.055,3.04,2.7741,-0.3915,49.3605,0.90835,0.02342,0.007,0.4175,0.0685,0.0307,-9.7951,-0.7351,-0.2879,-0.1175,0.152,3,14,0.63,0.79,0.2,24.526,20.2,90.8,33.3,19978.0,8808,8828,8987,8808,55.7,55.4,50.7,49.5,2.698,2.88,2.81,2.599,1.25,119.0,25.5,32.6,1006.07,-31.33,0.32,1.42,21.9,33.5,30.2,0,no_anomaly,0.0,0,0,0,0,19.0760207,72.8777178,7.0,0.0
2024-04-08T09:07:08.300Z,MISSION_0070,83,0,transit,SITE_BOM_001,19.0760183,72.8777219,7.5,48.36,3.293,0.094,3.17,0.8519,-4.7735,48.3585,0.91133,0.02383,-0.03495,0.40951,0.1797,-0.0022,-9.8353,0.7509,-0.18,0.0463,0.0962,3,11,0.59,0.68,0.33,24.609,19.44,90.8,33.8,19967.0,8953,9176,8698,8991,52.8,52.3,54.7,52.6,3.056,2.708,2.863,2.712,0.92,125.2,25.7,31.9,1006.19,-28.6,-1.03,1.44,18.5,35.7,26.8,0,no_anomaly,0.0,0,0,0,0,19.0760183,72.8777219,7.5,0.0
2024-04-08T09:07:08.400Z,MISSION_0070,84,0,transit,SITE_BOM_001,19.0760265,72.8777205,8.0,46.1,3.221,0.084,3.73,0.3001,-6.1824,46.1023,0.91876,0.02352,-0.0486,0.39111,-0.0071,-0.0277,-9.8754,0.3111,0.0193,-0.1707,0.0865,3,17,0.73,0.83,0.34,24.469,19.33,90.7,34.1,19956.0,8971,9064,9145,8745,54.8,49.7,51.7,50.9,2.615,2.694,2.897,2.712,1.53,121.3,25.8,33.2,1005.7,-32.05,-0.72,1.53,20.5,32.0,27.5,0,no_anomaly,0.0,0,0,0,0,19.0760265,72.8777205,8.0,0.0
2024-04-08T09:07:08.500Z,MISSION_0070,85,0,transit,SITE_BOM_001,19.0760244,72.8777273,8.5,47.03,2.941,-0.004,4.07,0.8535,-4.8324,47.0308,0.91599,0.02364,-0.03569,0.39892,-0.0929,-0.0329,-9.8315,0.7487,-0.3786,-0.1923,0.2306,3,14,0.59,1.12,0.26,24.58,15.61,90.7,33.7,19944.0,9152,8980,8818,8903,51.8,51.5,52.0,53.9,2.53,2.89,2.913,2.744,1.36,115.9,25.6,33.2,1005.97,-31.62,-1.57,1.59,20.0,33.8,29.0,0,no_anomaly,0.0,0,0,0,0,19.0760244,72.8777273,8.5,0.0
2024-04-08T09:07:08.600Z,MISSION_0070,86,0,transit,SITE_BOM_001,19.0760236,72.8777289,9.0,46.21,2.313,0.056,4.15,-1.2404,-1.6702,46.2124,0.91969,-0.00424,-0.01765,0.39223,-0.0673,0.0181,-9.7709,-0.5382,0.2875,0.3202,0.1684,3,17,0.84,0.86,0.52,24.556,15.5,90.6,34.3,19933.0,9002,8670,9062,9112,52.5,50.8,53.5,50.9,2.916,2.66,3.086,2.992,0.48,113.9,25.6,33.0,1006.1,-32.79,0.83,1.49,21.6,33.7,32.3,0,no_anomaly,0.0,0,0,0,0,19.0760236,72.8777289,9.0,0.0
2024-04-08T09:07:08.700Z,MISSION_0070,87,0,transit,SITE_BOM_001,19.0760213,72.8777324,9.5,44.77,2.243,0.045,4.31,-3.3233,-2.5288,44.7702,0.92427,-0.01841,-0.03143,0.37999,0.0982,0.0797,-9.8614,-0.4602,-0.7961,0.5626,0.2079,3,11,0.66,1.19,0.24,24.516,22.39,90.6,34.4,19922.0,8580,8966,8715,8784,52.8,48.5,52.1,52.9,2.959,2.715,2.714,2.94,0.97,117.2,26.0,34.2,1005.9,-28.68,-0.1,1.93,22.5,32.3,27.8,0,no_anomaly,0.0,0,0,0,0,19.0760213,72.8777324,9.5,0.0
2024-04-08T09:07:08.800Z,MISSION_0070,88,0,transit,SITE_BOM_001,19.0760176,72.8777314,10.0,41.04,2.02,0.089,4.01,0.9637,-2.859,41.0397,0.93615,0.01662,-0.02042,0.35061,-0.0782,-0.0029,-9.8573,0.0636,-0.0802,0.0867,0.0125,3,18,0.79,0.83,0.23,24.574,12.03,90.5,33.4,19911.0,9189,9264,9097,8938,50.3,56.6,51.8,52.1,2.707,2.819,2.65,2.609,1.48,123.1,26.1,33.0,1005.76,-30.13,0.19,1.6,20.1,35.9,27.0,0,no_anomaly,0.0,0,0,0,0,19.0760176,72.8777314,10.0,0.0
2024-04-08T09:07:08.900Z,MISSION_0070,89,0,transit,SITE_BOM_001,19.0760173,72.8777382,10.5,39.85,1.864,0.065,4.67,0.9912,-4.2093,39.854,0.93935,0.02064,-0.03158,0.34088,0.101,-0.056,-9.8165,0.025,0.2025,-0.299,0.1182,3,17,0.81,0.94,0.2,24.576,17.75,90.5,33.7,19899.0,8924,8802,9080,8641,50.2,51.1,49.8,48.7,2.787,3.048,2.938,3.029,1.73,123.8,26.0,34.2,1005.83,-25.46,0.43,1.0,16.4,34.3,26.6,0,no_anomaly,0.0,0,0,0,0,19.0760173,72.8777382,10.5,0.0
2024-04-08T09:07:09.000Z,MISSION_0070,90,0,transit,SITE_BOM_001,19.0760225,72.8777391,11.0,40.71,1.753,0.128,5.02,2.9799,-2.7871,40.7066,0.93675,0.03283,-0.01375,0.34818,0.0638,0.0554,-9.7553,-0.3557,-0.3717,-0.0453,0.0,3,14,0.73,0.92,0.25,24.597,17.13,90.4,34.2,19888.0,8858,9239,9019,9043,54.4,47.6,51.9,50.9,2.669,2.69,3.062,2.467,1.16,122.0,25.3,32.6,1006.51,-33.25,-0.44,1.25,17.7,38.6,29.2,0,no_anomaly,0.0,0,0,0,0,19.0760225,72.8777391,11.0,0.0
2024-04-08T09:07:09.100Z,MISSION_0070,91,0,transit,SITE_BOM_001,19.0760285,72.8777422,11.5,43.76,1.708,0.15,5.66,-0.1727,-2.8112,43.7637,0.92769,0.00774,-0.02332,0.37255,0.0116,-0.0829,-9.7636,-0.1484,-0.3523,-0.2017,0.1938,3,16,0.7,0.82,0.22,24.527,14.81,90.3,33.6,19877.0,8869,8716,8804,9009,53.2,49.4,55.3,53.0,2.982,2.899,2.778,2.91,0.25,124.1,25.8,33.6,1005.69,-34.64,-0.58,1.64,22.9,35.1,29.3,0,no_anomaly,0.0,0,0,0,0,19.0760285,72.8777422,11.5,0.0
2024-04-08T09:07:09.200Z,MISSION_0070,92,0,transit,SITE_BOM_001,19.0760279,72.8777416,12.0,41.5,1.965,0.047,5.57,1.6865,-1.6166,41.4953,0.93488,0.01876,-0.00798,0.35437,0.0648,-0.0304,-9.7625,-0.4674,0.664,-0.1188,0.0452,3,15,0.58,1.0,0.23,24.61,22.91,90.3,33.7,19866.0,9006,8907,8806,8978,49.9,47.7,53.6,55.0,2.902,2.413,3.132,2.674,1.03,122.5,25.9,33.2,1005.93,-36.92,-0.19,1.81,22.3,33.9,26.9,0,no_anomaly,0.0,0,0,0,0,19.0760279,72.8777416,12.0,0.0
2024-04-08T09:07:09.300Z,MISSION_0070,93,0,transit,SITE_BOM_001,19.0760321,72.8777447,12.5,41.54,1.851,0.046,6.12,-0.441,-0.7143,41.5435,0.93498,-0.00139,-0.00719,0.35461,0.11,-0.0674,-9.764,-0.2212,0.8174,0.4809,0.1275,3,12,0.84,0.94,0.37,24.591,15.17,90.2,32.9,19855.0,8848,8823,9115,8780,49.3,45.0,50.5,50.1,2.991,2.669,2.734,2.788,2.02,127.1,25.9,33.3,1006.38,-24.05,-0.42,1.04,21.4,31.1,25.6,0,no_anomaly,0.0,0,0,0,0,19.0760321,72.8777447,12.5,0.0
2024-04-08T09:07:09.400Z,MISSION_0070,94,0,transit,SITE_BOM_001,19.0760341,72.877746,13.0,40.34,2.217,0.057,6.37,0.0165,-3.4254,40.3433,0.93824,0.01044,-0.02801,0.34468,0.0084,-0.0334,-9.7945,-0.4735,-0.4751,0.3164,0.1099,3,20,0.59,1.04,0.26,24.488,19.45,90.2,33.7,19843.0,8971,8940,8781,8916,49.6,51.2,49.9,50.0,2.778,2.961,2.897,2.987,1.22,109.4,25.6,33.1,1006.09,-29.34,-0.1,2.01,23.3,39.2,30.6,0,no_anomaly,0.0,0,0,0,0,19.0760341,72.877746,13.0,0.0
2024-04-08T09:07:09.500Z,MISSION_0070,95,0,transit,SITE_BOM_001,19.0760367,72.8777476,13.5,37.89,2.264,0.1,6.7,-3.1866,-1.854,37.8925,0.94548,-0.02104,-0.02432,0.32409,-0.0961,0.03,-9.7196,0.0649,-0.2026,-0.1681,0.081,3,13,0.71,0.81,0.2,24.592,24.39,90.1,33.8,19832.0,8651,9026,8983,9067,48.6,48.6,50.2,53.0,2.977,2.923,3.089,2.882,0.69,121.7,25.8,32.1,1005.69,-34.59,-1.02,1.66,20.9,30.0,25.1,0,no_anomaly,0.0,0,0,0,0,19.0760367,72.8777476,13.5,0.0
2024-04-08T09:07:09.600Z,MISSION_0070,96,0,transit,SITE_BOM_001,19.0760378,72.8777487,14.0,39.95,2.364,0.097,6.86,0.398,1.5333,39.9482,0.93977,-0.00131,0.01376,0.34152,-0.0665,0.0178,-9.835,-0.0208,-0.0528,0.0432,0.1425,3,11,0.74,0.76,0.36,24.579,24.62,90.1,34.9,19821.0,9016,8856,9185,8556,50.5,51.1,50.5,52.0,2.884,2.669,2.731,2.843,0.89,124.6,26.0,33.4,1006.08,-29.34,-0.08,1.95,22.3,37.5,29.5,0,no_anomaly,0.0,0,0,0,0,19.0760378,72.8777487,14.0,0.0
2024-04-08T09:07:09.700Z,MISSION_0070,97,0,transit,SITE_BOM_001,19.0760416,72.8777449,14.5,38.81,2.567,0.076,6.81,3.714,-3.5544,38.8145,0.9419,0.04085,-0.01847,0.33289,0.0402,-0.0188,-9.7747,-0.8648,0.3009,0.2658,0.1607,3,18,0.66,0.79,0.4,24.524,23.88,90.0,33.7,19810.0,9079,9009,8708,8749,53.6,54.1,51.5,51.0,2.974,2.897,2.798,2.837,1.92,118.2,25.7,33.5,1006.0,-24.37,-0.29,1.74,19.1,30.5,29.8,0,no_anomaly,0.0,0,0,0,0,19.0760416,72.8777449,14.5,0.0
2024-04-08T09:07:09.800Z,MISSION_0070,98,0,transit,SITE_BOM_001,19.0760444,72.8777428,15.0,37.85,2.259,0.137,6.86,1.293,-2.7995,37.8472,0.94552,0.01859,-0.01945,0.32445,-0.0699,0.0714,-9.7922,-0.4399,-0.6832,0.2942,0.1128,3,12,0.87,1.08,0.22,24.51,18.68,90.0,34.4,19798.0,8734,8894,8994,8946,51.0,50.8,52.0,49.0,3.009,2.48,2.588,2.812,1.46,116.5,25.9,32.6,1006.01,-33.61,0.05,1.8,17.2,38.3,28.7,0,no_anomaly,0.0,0,0,0,0,19.0760444,72.8777428,15.0,0.0
2024-04-08T09:07:09.900Z,MISSION_0070,99,0,transit,SITE_BOM_001,19.0760432,72.8777479,15.5,37.0,2.486,0.095,7.18,0.2901,-2.0369,37.0007,0.94815,0.00804,-0.01605,0.3173,-0.0983,0.0269,-9.771,0.3104,0.3829,0.302,0.0462,3,15,0.81,1.1,0.32,24.437,18.6,89.9,33.9,19787.0,9086,8944,8959,9033,51.6,50.6,54.0,50.0,2.758,3.058,2.728,2.609,0.64,113.3,25.8,33.9,1006.0,-28.37,-1.86,1.22,17.9,39.2,29.9,0,no_anomaly,0.0,0,0,0,0,19.0760432,72.8777479,15.5,0.0
2024-04-08T09:07:10.000Z,MISSION_0070,100,0,transit,SITE_BOM_001,19.0760396,72.8777496,16.0,36.99,2.725,0.179,7.06,-1.6986,-2.5236,36.9873,0.94813,-0.00707,-0.02558,0.31678,-0.0982,-0.0361,-9.8509,-0.0334,-0.0051,-0.102,0.1431,3,19,0.91,0.95,0.37,24.5,21.85,89.9,34.4,19776.0,9494,9057,9154,8924,48.5,50.8,55.2,49.5,2.93,2.87,2.869,2.67,0.5,112.2,25.7,33.3,1005.91,-30.07,-2.51,1.53,22.4,33.2,26.5,0,no_anomaly,0.0,0,0,0,0,19.0760396,72.8777496,16.0,0.0
2024-04-08T09:07:10.100Z,MISSION_0070,101,0,transit,SITE_BOM_001,19.0760383,72.8777454,16.5,39.36,2.762,0.034,6.61,2.3878,-1.3445,39.3641,0.94122,0.02357,-0.00403,0.33693,-0.078,0.0,-9.7689,-0.5625,-0.2586,0.0043,0.1309,3,19,0.62,0.9,0.39,24.586,18.25,89.8,33.6,19765.0,9151,8934,8975,9274,57.6,51.6,46.6,52.7,2.941,2.899,2.88,2.732,0.0,112.7,25.8,32.0,1005.44,-27.85,-0.24,1.31,24.3,32.2,26.9,0,no_anomaly,0.0,0,0,0,0,19.0760383,72.8777454,16.5,0.0
2024-04-08T09:07:10.200Z,MISSION_0070,102,0,transit,SITE_BOM_001,19.0760355,72.8777514,16.8,39.45,2.215,0.077,6.95,-0.6446,-4.3122,39.4519,0.94071,0.00741,-0.03731,0.33708,-0.1949,-0.0109,-9.8524,-0.2159,-0.0607,-0.1142,0.1367,3,20,0.64,0.71,0.29,24.491,19.58,89.8,34.0,19753.0,9037,8741,8814,9316,50.6,50.2,48.1,51.3,2.783,2.902,3.033,2.723,0.49,116.9,25.7,33.9,1005.83,-29.24,0.35,1.63,17.2,36.4,24.5,0,no_anomaly,0.0,0,0,0,0,19.0760355,72.8777514,16.8,0.0
2024-04-08T09:07:10.300Z,MISSION_0070,103,0,transit,SITE_BOM_001,19.0760308,72.8777524,16.8,39.51,2.06,0.092,6.76,2.7858,-6.0251,39.5067,0.93915,0.0406,-0.04124,0.33861,-0.0445,-0.0014,-9.8627,0.6337,0.1376,-0.0639,0.1363,3,20,0.57,1.29,0.2,24.559,16.2,89.7,33.8,19742.0,9129,8564,8967,8963,48.5,48.3,50.0,50.7,2.942,2.833,2.752,2.872,1.9,131.3,25.7,33.7,1005.66,-30.75,1.29,1.58,19.6,36.2,28.8,0,no_anomaly,0.0,0,0,0,0,19.0760308,72.8777524,16.8,0.0
2024-04-08T09:07:10.400Z,MISSION_0070,104,0,transit,SITE_BOM_001,19.0760346,72.8777492,16.8,39.69,2.412,0.159,6.7,0.4889,-2.7174,39.6888,0.94031,0.01206,-0.02086,0.33946,-0.0915,0.058,-9.8818,0.9446,-0.2816,-0.2778,0.1434,3,11,0.76,0.9,0.27,24.587,17.29,89.7,34.2,19731.0,9110,9208,8919,8800,51.5,51.1,49.5,50.4,2.824,2.742,2.885,2.655,1.55,117.8,26.0,32.5,1006.09,-25.45,-1.57,1.35,21.4,36.8,26.5,0,no_anomaly,0.0,0,0,0,0,19.0760346,72.8777492,16.8,0.0
2024-04-08T09:07:10.500Z,MISSION_0070,105,0,transit,SITE_BOM_001,19.076033,72.8777455,16.8,39.5,3.178,0.062,6.26,0.509,1.0917,39.5017,0.94113,0.00096,0.01047,0.33787,0.1239,-0.0696,-9.8821,-0.3715,-0.0855,0.1925,0.1072,3,11,0.71,0.93,0.32,24.562,17.76,89.6,34.6,19720.0,8835,9170,8982,8669,49.2,51.1,50.4,53.7,3.056,2.976,2.897,2.676,1.36,114.1,26.1,33.5,1005.98,-29.25,-2.1,1.14,19.6,35.0,27.2,0,no_anomaly,0.0,0,0,0,0,19.076033,72.8777455,16.8,0.0
2024-04-08T09:07:10.600Z,MISSION_0070,106,0,transit,SITE_BOM_001,19.0760388,72.877743,16.8,39.52,2.557,0.118,6.45,-0.876,-1.2554,39.5209,0.94106,-0.00349,-0.01289,0.33798,-0.0027,-0.0309,-9.7387,-0.3593,0.2068,0.1785,0.0385,3,10,0.5,1.01,0.2,24.581,16.47,89.6,34.3,19708.0,8905,8732,9090,8818,50.9,55.0,50.7,54.1,2.531,2.797,2.961,2.8,0.84,117.2,25.8,34.0,1005.74,-26.9,1.55,1.67,25.6,36.4,29.6,0,no_anomaly,0.0,0,0,0,0,19.0760388,72.877743,16.8,0.0
2024-04-08T09:07:10.700Z,MISSION_0070,107,0,transit,SITE_BOM_001,19.0760429,72.877747,16.8,42.13,2.807,0.137,7.08,0.8493,-0.957,42.1344,0.93308,0.00992,-0.00513,0.3595,-0.075,0.1052,-9.7409,-0.1865,0.6799,0.416,0.1253,3,12,0.57,0.83,0.33,24.584,18.98,89.5,33.0,19697.0,8897,8889,9056,9045,48.2,51.1,50.1,54.2,2.946,2.8,2.659,2.864,1.49,116.7,25.8,32.5,1005.94,-26.63,1.96,1.73,18.5,37.6,25.6,0,no_anomaly,0.0,0,0,0,0,19.0760429,72.877747,16.8,0.0
2024-04-08T09:07:10.800Z,MISSION_0070,108,0,transit,SITE_BOM_001,19.0760419,72.8777414,16.8,43.0,2.531,0.2,6.56,-0.4332,-1.6055,42.9954,0.93035,0.00162,-0.01442,0.36638,-0.0475,0.0229,-9.803,-0.2749,0.3026,-0.4886,0.0946,3,17,0.75,0.88,0.21,24.473,18.26,89.5,34.0,19686.0,8824,8985,8908,9128,51.8,52.1,50.9,48.6,2.768,2.702,2.994,2.831,1.8,126.8,26.0,33.3,1005.75,-28.45,-0.52,1.5,24.0,32.7,29.4,0,no_anomaly,0.0,0,0,0,0,19.0760419,72.8777414,16.8,0.0
2024-04-08T09:07:10.900Z,MISSION_0070,109,0,transit,SITE_BOM_001,19.0760405,72.8777483,16.8,43.81,2.449,0.084,7.01,2.2904,-0.6196,43.8096,0.92757,0.02056,0.00244,0.37309,-0.0733,0.0642,-9.8901,0.1781,0.0567,-0.3333,0.1804,3,15,0.66,1.11,0.31,24.437,22.97,89.4,33.3,19675.0,9122,9117,9109,9066,49.4,52.2,52.5,47.1,2.768,2.551,2.912,2.861,1.46,125.7,26.0,32.3,1006.04,-31.23,-0.96,1.92,23.1,37.5,28.6,0,no_anomaly,0.0,0,0,0,0,19.0760405,72.8777483,16.8,0.0
2024-04-08T09:07:11.000Z,MISSION_0070,110,0,transit,SITE_BOM_001,19.0760406,72.8777442,16.8,43.82,1.938,0.055,6.68,-2.8798,-3.0534,43.8152,0.92741,-0.01337,-0.03408,0.37224,0.0346,0.1068,-9.7623,0.683,0.1911,0.0029,0.2113,3,10,0.79,0.87,0.53,24.553,22.2,89.4,34.6,19663.0,9209,9345,8919,9101,52.6,48.6,50.0,50.5,2.662,2.737,2.635,2.793,0.61,113.1,26.0,32.4,1005.83,-31.75,0.58,1.43,18.8,29.8,27.2,0,no_anomaly,0.0,0,0,0,0,19.0760406,72.8777442,16.8,0.0
2024-04-08T09:07:11.100Z,MISSION_0070,111,0,transit,SITE_BOM_001,19.0760446,72.8777423,16.8,41.16,1.739,0.157,6.84,2.4848,-0.3508,41.1561,0.93595,0.02137,0.00476,0.35146,-0.0348,0.036,-9.8628,-0.4587,0.1229,0.3135,0.1912,3,11,0.64,0.81,0.2,24.52,24.53,89.3,35.1,19652.0,8896,9097,9154,9181,49.9,50.6,53.2,51.1,2.799,2.783,3.044,2.55,0.9,118.7,25.7,33.0,1005.99,-27.79,1.56,1.76,16.8,38.8,24.3,0,no_anomaly,0.0,0,0,0,0,19.0760446,72.8777423,16.8,0.0
2024-04-08T09:07:11.200Z,MISSION_0070,112,0,transit,SITE_BOM_001,19.0760518,72.877742,16.8,39.92,1.121,0.075,7.42,1.3895,-0.7255,39.9208,0.93981,0.01356,-0.00181,0.34141,-0.0839,0.0614,-9.8533,-0.846,-0.3584,-0.4059,0.173,3,20,0.73,0.76,0.38,24.472,15.95,89.3,34.0,19641.0,8823,8987,9068,8960,50.1,53.7,49.3,53.4,2.817,2.848,2.713,2.524,1.07,120.6,26.1,33.1,1005.69,-22.26,-0.59,1.01,20.8,39.1,26.1,0,no_anomaly,0.0,0,0,0,0,19.0760518,72.877742,16.8,0.0
2024-04-08T09:07:11.300Z,MISSION_0070,113,0,transit,SITE_BOM_001,19.0760479,72.8777469,16.8,42.4,1.351,0.111,7.46,-0.7773,1.0595,42.3984,0.93225,-0.00967,0.00617,0.36165,0.0627,-0.0562,-9.8228,0.7299,-0.3,0.0799,0.0844,3,12,0.69,0.93,0.22,24.475,20.08,89.2,35.2,19630.0,9155,8957,8907,8998,49.1,52.0,51.9,53.5,3.01,2.92,2.635,2.69,1.56,119.0,25.9,32.9,1006.03,-24.99,-2.06,1.51,24.2,41.2,27.7,0,no_anomaly,0.0,0,0,0,0,19.0760479,72.8777469,16.8,0.0
2024-04-08T09:07:11.400Z,MISSION_0070,114,0,transit,SITE_BOM_001,19.0760507,72.8777413,16.8,42.23,1.59,0.169,7.27,2.4452,-1.7176,42.2322,0.93242,0.0253,-0.00629,0.36043,-0.0212,0.0208,-9.9076,-1.0727,0.0374,-0.4686,0.1727,3,17,0.6,0.94,0.2,24.4,24.5,89.2,34.5,19618.0,8992,9095,9054,9216,51.8,48.6,54.8,50.9,2.931,2.952,2.509,2.966,1.21,119.0,25.8,33.0,1005.92,-30.38,0.42,1.37,22.2,34.5,27.1,0,no_anomaly,0.0,0,0,0,0,19.0760507,72.8777413,16.8,0.0
2024-04-08T09:07:11.500Z,MISSION_0070,115,0,transit,SITE_BOM_001,19.0760475,72.8777361,16.8,41.18,1.119,0.181,6.64,0.2861,-2.9321,41.1831,0.93578,0.01133,-0.02307,0.35165,-0.1128,0.0517,-9.8138,-0.0736,-0.4633,-0.0439,0.1,3,16,0.81,0.96,0.32,24.411,12.3,89.1,34.6,19607.0,8801,9072,9366,8796,44.4,52.2,51.6,55.5,2.67,2.899,2.885,3.025,1.56,113.4,26.1,32.9,1006.11,-31.36,-1.52,1.48,20.1,34.2,28.9,0,no_anomaly,0.0,0,0,0,0,19.0760475,72.8777361,16.8,0.0
2024-04-08T09:07:11.600Z,MISSION_0070,116,0,transit,SITE_BOM_001,19.0760492,72.8777399,16.8,40.86,0.622,-0.047,7.05,-2.9561,-3.1018,40.8622,0.93668,-0.01472,-0.03435,0.34818,0.0735,0.0292,-9.6977,0.2404,-0.2784,-0.6709,0.209,3,19,0.67,0.89,0.2,24.473,20.03,89.1,34.3,19596.0,9058,9154,8788,8957,48.6,52.3,54.7,53.8,2.863,2.873,2.765,2.627,1.08,120.9,26.1,33.7,1005.85,-31.94,-0.24,1.88,22.9,36.7,27.0,0,no_anomaly,0.0,0,0,0,0,19.0760492,72.8777399,16.8,0.0
2024-04-08T09:07:11.700Z,MISSION_0070,117,0,transit,SITE_BOM_001,19.0760504,72.8777424,16.8,40.01,1.132,0.113,7.33,-3.3165,-2.7107,40.0075,0.93925,-0.0191,-0.03211,0.3412,-0.0142,-0.029,-9.7239,-0.4518,0.2162,0.2616,0.1411,3,12,0.65,1.08,0.26,24.554,22.95,89.0,34.5,19585.0,8983,8892,8999,9154,52.0,51.1,51.7,50.6,2.612,2.8,2.82,2.801,0.8,122.9,25.8,33.2,1006.2,-25.34,0.48,1.54,19.9,41.6,28.2,0,no_anomaly,0.0,0,0,0,0,19.0760504,72.8777424,16.8,0.0
2024-04-08T09:07:11.800Z,MISSION_0070,118,0,transit,SITE_BOM_001,19.0760537,72.8777446,16.8,41.19,1.103,0.132,7.77,1.2475,-2.6946,41.1851,0.9357,0.01846,-0.01818,0.35184,0.0418,-0.0074,-9.8138,0.087,-0.2883,0.4406,0.0809,3,16,0.69,0.98,0.27,24.491,15.5,89.0,34.7,19573.0,9073,8759,9195,8954,49.4,47.5,54.4,48.0,3.041,2.774,2.496,2.978,1.75,121.0,25.6,33.4,1005.97,-32.03,1.02,1.3,23.0,36.8,29.0,0,no_anomaly,0.0,0,0,0,0,19.0760537,72.8777446,16.8,0.0
2024-04-08T09:07:11.900Z,MISSION_0070,119,0,transit,SITE_BOM_001,19.0760568,72.877742,16.8,42.05,1.72,0.155,7.87,1.0551,-2.4179,42.0529,0.9331,0.01616,-0.01639,0.35889,0.019,0.0162,-9.8671,-0.0905,-0.6931,-0.0879,0.1955,3,10,0.66,0.84,0.33,24.54,16.3,88.9,34.5,19562.0,9066,9115,9145,9036,51.1,49.9,50.3,52.1,2.769,2.746,2.901,2.736,1.8,113.1,25.7,33.0,1005.69,-32.96,-0.01,1.21,20.3,37.9,29.5,0,no_anomaly,0.0,0,0,0,0,19.0760568,72.877742,16.8,0.0
2024-04-08T09:07:12.000Z,MISSION_0070,120,0,transit,SITE_BOM_001,19.0760554,72.8777382,16.8,43.3,1.881,0.101,7.49,-0.9289,-3.1245,43.3007,0.92916,0.00253,-0.02833,0.36859,0.0394,-0.0308,-9.8883,-0.0787,-0.386,0.3574,0.1301,3,18,0.63,0.98,0.2,24.445,17.81,88.9,34.6,19551.0,9028,9073,8890,8888,48.8,50.5,51.8,48.9,2.952,3.03,2.979,2.808,1.03,119.7,25.7,33.2,1005.7,-31.37,-0.27,1.42,21.2,37.3,30.5,0,no_anomaly,0.0,0,0,0,0,19.0760554,72.8777382,16.8,0.0
2024-04-08T09:07:12.100Z,MISSION_0070,121,0,transit,SITE_BOM_001,19.0760534,72.8777421,16.8,44.56,2.258,0.074,7.57,-0.8665,-1.4286,44.5618,0.92527,-0.00227,-0.0144,0.37902,0.0381,-0.0213,-9.7887,-0.6391,-0.3177,-0.2988,0.1095,3,12,0.58,0.94,0.26,24.533,13.47,88.8,34.9,19540.0,9142,8781,9152,9079,53.2,51.7,49.7,48.1,3.02,2.603,2.658,2.812,0.93,116.9,25.7,32.1,1006.05,-28.38,-0.3,1.82,22.7,36.6,30.9,0,no_anomaly,0.0,0,0,0,0,19.0760534,72.8777421,16.8,0.0
2024-04-08T09:07:12.200Z,MISSION_0070,122,0,transit,SITE_BOM_001,19.0760529,72.877745,16.8,45.5,2.557,0.139,7.73,4.0872,-0.0975,45.5011,0.9216,0.03321,0.01301,0.3865,0.0617,-0.008,-9.8137,-0.435,0.5564,0.2709,0.0448,3,15,0.58,0.87,0.23,24.566,18.14,88.8,34.8,19528.0,8802,9250,8953,9067,48.9,48.4,47.0,48.4,2.893,2.845,3.008,2.963,0.78,124.9,25.8,32.7,1006.23,-28.97,1.72,1.55,21.9,31.7,30.6,0,no_anomaly,0.0,0,0,0,0,19.0760529,72.877745,16.8,0.0
2024-04-08T09:07:12.300Z,MISSION_0070,123,0,transit,SITE_BOM_001,19.0760539,72.8777463,16.8,48.31,2.848,0.144,7.9,2.572,-4.5531,48.309,0.91113,0.03671,-0.02706,0.40959,0.0496,0.0184,-9.7926,0.4743,0.2673,-0.318,0.1361,3,10,0.51,1.03,0.33,24.524,19.04,88.7,35.2,19517.0,9117,9034,8779,8829,47.2,51.4,52.4,49.6,2.909,2.596,2.806,2.976,1.22,121.5,25.9,34.2,1005.86,-39.07,1.32,1.5,16.8,32.0,25.5,0,no_anomaly,0.0,0,0,0,0,19.0760539,72.8777463,16.8,0.0
2024-04-08T09:07:12.400Z,MISSION_0070,124,0,transit,SITE_BOM_001,19.0760563,72.8777473,16.8,49.29,2.83,0.064,8.18,1.7465,-0.4055,49.2883,0.90878,0.01533,0.00314,0.41698,0.0296,0.0664,-9.8024,0.3709,0.0028,0.2921,0.1731,3,19,0.82,0.94,0.36,24.581,20.37,88.7,34.1,19506.0,9274,8977,9050,8912,51.9,53.6,52.2,49.3,2.953,2.756,2.773,3.01,1.52,114.6,25.4,32.8,1005.93,-30.94,-0.7,1.21,23.5,35.1,29.3,0,no_anomaly,0.0,0,0,0,0,19.0760563,72.8777473,16.8,0.0
2024-04-08T09:07:12.500Z,MISSION_0070,125,0,transit,SITE_BOM_001,19.0760511,72.8777516,16.8,50.86,2.923,0.099,8.08,-1.804,-0.8166,50.8608,0.90302,-0.01116,-0.01319,0.42925,0.0382,0.0987,-9.8331,-0.0917,-0.0597,-0.009,0.0913,3,10,0.77,0.87,0.27,24.433,17.27,88.6,34.1,19495.0,8899,8882,9119,9161,52.0,50.7,50.3,50.3,2.889,2.813,2.781,2.903,1.57,123.8,25.6,32.9,1006.3,-26.06,-1.59,1.26,18.2,36.6,28.6,0,no_anomaly,0.0,0,0,0,0,19.0760511,72.8777516,16.8,0.0
2024-04-08T09:07:12.600Z,MISSION_0070,126,0,transit,SITE_BOM_001,19.0760535,72.8777511,16.8,50.83,3.567,0.158,8.24,2.1087,-5.4882,50.8343,0.90164,0.03715,-0.03535,0.42944,0.157,0.0664,-9.773,0.5374,0.3641,-0.2223,0.1354,3,20,0.76,1.09,0.2,24.446,19.57,88.6,34.8,19483.0,9255,9297,8920,9179,54.4,50.5,52.8,49.3,2.855,2.804,2.969,2.753,1.13,120.8,25.7,32.3,1006.32,-29.24,0.65,1.45,23.0,38.7,25.7,0,no_anomaly,0.0,0,0,0,0,19.0760535,72.8777511,16.8,0.0
2024-04-08T09:07:12.700Z,MISSION_0070,127,0,transit,SITE_BOM_001,19.0760504,72.8777499,16.8,51.4,3.371,0.103,7.9,1.059,-0.32,51.4022,0.90102,0.00954,0.00149,0.43368,-0.0696,-0.0347,-9.9267,0.1647,-0.277,-0.1585,0.1031,3,11,0.69,0.82,0.28,24.548,23.29,88.5,34.4,19472.0,9080,8975,9060,9054,52.7,50.1,51.3,52.7,2.872,2.942,2.85,2.845,1.23,122.4,25.8,33.4,1006.13,-31.81,-0.55,1.8,20.4,37.1,30.4,0,no_anomaly,0.0,0,0,0,0,19.0760504,72.8777499,16.8,0.0
2024-04-08T09:07:12.800Z,MISSION_0070,128,0,transit,SITE_BOM_001,19.0760453,72.8777516,16.8,52.48,3.199,0.045,7.64,-0.4884,-1.8673,52.4774,0.89686,0.00338,-0.0165,0.44199,-0.1101,-0.0149,-9.8158,0.1891,-0.4034,0.3358,0.1954,3,18,0.66,1.13,0.39,24.518,18.64,88.5,34.5,19461.0,8701,9165,9167,9028,48.0,52.4,46.6,52.2,2.908,2.909,2.776,2.811,1.82,111.8,26.0,33.0,1006.29,-25.24,-1.95,1.63,21.9,31.4,28.4,0,no_anomaly,0.0,0,0,0,0,19.0760453,72.8777516,16.8,0.0
2024-04-08T09:07:12.900Z,MISSION_0070,129,0,transit,SITE_BOM_001,19.0760466,72.8777534,16.8,53.42,2.972,0.08,7.89,1.8974,-1.3292,53.4151,0.89304,0.02,-0.00292,0.44952,-0.0819,0.0418,-9.7942,-0.2388,-0.7213,-0.1115,0.1774,3,16,0.85,0.72,0.32,24.422,21.23,88.4,34.2,19450.0,8965,9085,9056,9052,48.6,50.3,50.5,51.5,2.572,3.121,2.913,3.035,2.39,116.5,25.9,34.3,1006.04,-27.77,0.83,1.66,24.4,40.6,30.7,0,no_anomaly,0.0,0,0,0,0,19.0760466,72.8777534,16.8,0.0
2024-04-08T09:07:13.000Z,MISSION_0070,130,0,transit,SITE_BOM_001,19.0760445,72.8777494,16.8,54.49,3.181,0.12,7.4,0.4003,2.0316,54.4922,0.88893,-0.00501,0.01736,0.45768,-0.0123,-0.03,-9.7819,-0.0012,-0.8274,-0.7587,0.1761,3,16,0.73,0.92,0.36,24.441,17.92,88.4,34.5,19439.0,8754,8997,8959,8691,49.9,52.7,46.5,54.3,2.703,2.852,2.519,2.58,1.47,122.9,25.6,33.4,1005.86,-26.07,-0.18,1.38,21.9,34.9,28.1,0,no_anomaly,0.0,0,0,0,0,19.0760445,72.8777494,16.8,0.0
