timestamp_utc,mission_id,frame_id,waypoint_id,inspection_phase,site_id,latitude_deg,longitude_deg,altitude_m,heading_deg,ground_speed_ms,vertical_speed_ms,distance_to_tower_m,roll_deg,pitch_deg,yaw_deg,quat_w,quat_x,quat_y,quat_z,accel_x_ms2,accel_y_ms2,accel_z_ms2,gyro_x_rads,gyro_y_rads,gyro_z_rads,vibration_level,gps_fix_type,gps_satellite_count,gps_hdop,gps_vdop,position_error_m,battery_voltage_v,battery_current_a,battery_remaining_pct,battery_temp_c,battery_capacity_mah,motor_fl_rpm,motor_fr_rpm,motor_rl_rpm,motor_rr_rpm,motor_fl_temp_c,motor_fr_temp_c,motor_rl_temp_c,motor_rr_temp_c,motor_fl_thrust_n,motor_fr_thrust_n,motor_rl_thrust_n,motor_rr_thrust_n,wind_speed_ms,wind_dir_deg,air_temp_c,humidity_pct,pressure_hpa,gimbal_pitch_deg,gimbal_roll_deg,zoom_factor,ir_temp_min_c,ir_temp_max_c,ir_temp_avg_c,anomaly_detected,anomaly_class,anomaly_confidence,anomaly_bbox_x,anomaly_bbox_y,anomaly_bbox_w,anomaly_bbox_h,anomaly_gps_lat,anomaly_gps_lon,anomaly_gps_alt_m,ir_temp_delta_c
2024-07-19T06:10:00.000Z,MISSION_0021,0,0,takeoff,SITE_DEL_002,28.6139006,77.2090031,1.5,166.67,0.474,0.087,0.35,-0.61,-4.7977,166.6652,0.11622,0.04095,-0.01014,0.99233,-0.1127,0.0693,-9.7563,0.1871,-0.8418,0.0727,0.1858,3,13,0.68,0.96,0.22,24.684,23.03,96.4,41.8,21201.0,7764,7958,7699,7848,57.1,56.4,57.6,58.9,3.064,3.042,2.531,2.769,7.24,264.5,33.6,32.2,1013.48,-31.68,2.44,1.02,29.6,46.7,35.8,0,no_anomaly,0.0,0,0,0,0,28.6139006,77.2090031,1.5,0.0
2024-07-19T06:10:00.100Z,MISSION_0021,1,0,takeoff,SITE_DEL_002,28.6139,77.2090003,3.0,163.48,0.291,0.122,0.03,3.0284,-2.8605,163.4822,0.1429,0.02849,0.02256,0.98907,0.3042,-0.0058,-9.7976,0.0332,-0.5622,-0.4909,0.2258,3,20,0.88,0.8,0.2,24.76,21.96,96.3,40.4,21186.0,7862,7745,7897,7832,59.5,57.5,57.0,56.0,2.606,2.902,2.766,2.876,6.5,266.9,33.5,32.5,1013.3,-29.31,0.81,1.43,24.7,44.3,35.5,0,no_anomaly,0.0,0,0,0,0,28.6139,77.2090003,3.0,0.0
2024-07-19T06:10:00.200Z,MISSION_0021,2,0,takeoff,SITE_DEL_002,28.6138979,77.2089941,4.5,166.61,0.34,0.09,0.7,8.1526,-2.8786,166.6063,0.11451,0.03317,0.06766,0.99056,0.1629,0.0031,-9.6714,-0.0165,0.4361,0.5394,0.202,3,15,0.64,0.92,0.2,24.663,21.86,96.2,40.7,21170.0,7841,7813,7829,8003,57.2,55.5,59.7,59.5,2.77,2.866,2.75,2.831,6.87,258.0,33.5,32.6,1013.53,-30.17,-1.32,1.57,25.4,44.2,35.6,0,no_anomaly,0.0,0,0,0,0,28.6138979,77.2089941,4.5,0.0
2024-07-19T06:10:00.300Z,MISSION_0021,3,0,takeoff,SITE_DEL_002,28.6138958,77.2089921,5.0,165.79,0.291,0.139,1.0,-1.3956,-4.5747,165.7857,0.1241,0.0381,-0.01701,0.99139,0.0919,0.0936,-9.8971,-0.356,0.2537,0.1935,0.1996,3,19,0.84,0.63,0.37,24.699,21.08,96.2,40.5,21154.0,7887,7895,7832,7943,58.0,58.7,60.1,61.3,2.736,2.642,2.782,2.656,8.16,262.4,33.1,32.4,1013.79,-29.43,0.92,1.74,23.6,41.5,32.5,0,no_anomaly,0.0,0,0,0,0,28.6138958,77.2089921,5.0,0.0
2024-07-19T06:10:00.400Z,MISSION_0021,4,0,takeoff,SITE_DEL_002,28.6138984,77.2089904,5.0,166.26,0.054,0.111,1.09,5.7554,-3.1466,166.264,0.11802,0.03323,0.04655,0.99136,0.0165,-0.0674,-9.8754,-0.009,-0.3338,-0.0236,0.1751,3,17,0.52,1.08,0.26,24.712,18.7,96.1,41.1,21139.0,7931,7827,7769,8068,58.1,56.1,59.0,57.7,2.856,2.67,2.687,2.626,7.42,266.2,33.1,32.3,1013.87,-25.46,-1.32,1.0,24.9,43.4,35.1,0,no_anomaly,0.0,0,0,0,0,28.6138984,77.2089904,5.0,0.0
2024-07-19T06:10:00.500Z,MISSION_0021,5,0,takeoff,SITE_DEL_002,28.6139018,77.2089926,5.0,167.75,0.345,0.088,0.85,0.2524,-0.3666,167.7484,0.1067,0.00342,0.00185,0.99428,0.5208,0.0193,-9.842,0.1628,1.1053,0.0413,0.1909,3,17,0.57,1.07,0.21,24.728,14.27,96.0,41.8,21123.0,8006,7928,7722,7797,55.3,60.8,59.5,59.8,2.862,2.541,2.547,2.719,8.08,257.6,33.4,31.8,1013.77,-33.06,0.2,1.63,30.3,46.0,33.4,0,no_anomaly,0.0,0,0,0,0,28.6139018,77.2089926,5.0,0.0
2024-07-19T06:10:00.600Z,MISSION_0021,6,0,takeoff,SITE_DEL_002,28.6139033,77.2089946,5.0,167.23,0.432,0.006,0.7,-1.3142,-4.3703,167.2294,0.11156,0.03661,-0.01563,0.99296,0.1747,-0.0396,-9.7498,0.2896,0.281,-0.5296,0.2904,3,11,0.73,0.82,0.3,24.714,16.34,95.9,40.9,21107.0,7764,7814,7670,7913,61.6,59.0,61.2,60.3,2.784,2.811,2.629,2.762,7.56,260.1,33.4,32.3,1013.82,-26.32,0.97,1.91,28.5,46.8,33.8,0,no_anomaly,0.0,0,0,0,0,28.6139033,77.2089946,5.0,0.0
2024-07-19T06:10:00.700Z,MISSION_0021,7,0,takeoff,SITE_DEL_002,28.6139025,77.2089925,5.0,166.61,0.404,0.125,0.88,1.8885,-3.2039,166.6062,0.1161,0.02968,0.0131,0.99271,0.1823,-0.0152,-9.8112,-0.4596,-0.1049,-0.2378,0.2806,3,19,0.76,0.6,0.27,24.749,14.48,95.9,41.8,21091.0,7886,7899,7786,7961,61.2,60.9,60.0,58.0,3.11,2.889,2.882,2.927,7.77,261.6,33.1,32.6,1013.77,-31.06,-0.75,1.27,25.6,46.0,33.1,0,no_anomaly,0.0,0,0,0,0,28.6139025,77.2089925,5.0,0.0
2024-07-19T06:10:00.800Z,MISSION_0021,8,0,takeoff,SITE_DEL_002,28.6139012,77.2089975,5.0,167.37,0.27,0.218,0.31,-3.5363,-1.1662,167.3726,0.11023,0.00672,-0.03179,0.99338,0.1152,-0.072,-9.8376,-0.2506,-0.3104,0.6424,0.2429,3,18,0.8,0.94,0.37,24.795,19.29,95.8,40.9,21076.0,7660,7837,7683,8091,57.1,58.2,57.1,57.4,2.645,2.788,2.846,3.025,7.83,253.4,32.9,33.3,1013.61,-26.21,-2.08,1.5,26.7,39.9,38.0,0,no_anomaly,0.0,0,0,0,0,28.6139012,77.2089975,5.0,0.0
2024-07-19T06:10:00.900Z,MISSION_0021,9,0,takeoff,SITE_DEL_002,28.6138964,77.2089977,5.0,163.09,0.321,0.173,0.47,2.5237,-6.1882,163.0935,0.14558,0.05661,0.01382,0.98763,-0.0938,-0.0214,-9.7108,0.3868,0.4617,0.1738,0.2573,3,12,0.58,1.19,0.27,24.646,18.34,95.7,41.3,21060.0,7946,7799,7975,7951,63.0,60.8,59.5,59.2,2.862,2.914,3.006,2.821,7.63,264.3,33.5,32.6,1013.66,-32.84,0.01,1.0,25.2,44.2,35.9,0,no_anomaly,0.0,0,0,0,0,28.6138964,77.2089977,5.0,0.0
2024-07-19T06:10:01.000Z,MISSION_0021,10,0,takeoff,SITE_DEL_002,28.613896,77.2089984,5.0,161.99,0.376,0.136,0.48,2.1596,-1.4121,161.9911,0.15624,0.01512,0.01668,0.98746,-0.2039,-0.0105,-9.8968,0.4259,0.4903,0.0127,0.185,3,17,0.89,0.73,0.37,24.698,20.03,95.7,41.5,21044.0,7933,7707,8072,7854,58.8,52.0,57.5,56.4,2.763,2.732,2.751,2.905,7.79,269.8,33.3,32.7,1013.74,-32.57,-0.61,1.16,31.6,43.7,37.5,0,no_anomaly,0.0,0,0,0,0,28.613896,77.2089984,5.0,0.0
2024-07-19T06:10:01.100Z,MISSION_0021,11,0,takeoff,SITE_DEL_002,28.6138929,77.2089984,5.0,162.81,0.511,0.048,0.81,4.5259,-0.9719,162.8062,0.14903,0.01428,0.03777,0.98801,0.0654,0.0512,-9.7357,0.9738,-0.2178,-0.4726,0.3453,3,18,0.5,1.03,0.2,24.735,20.85,95.6,40.8,21029.0,7841,7862,7744,7902,59.6,58.1,56.9,60.3,2.769,2.722,2.701,2.802,7.46,266.0,33.3,33.2,1013.62,-30.89,-0.56,1.72,27.2,43.5,34.1,0,no_anomaly,0.0,0,0,0,0,28.6138929,77.2089984,5.0,0.0
2024-07-19T06:10:01.200Z,MISSION_0021,12,0,takeoff,SITE_DEL_002,28.6138946,77.209,5.0,161.84,0.0,0.143,0.61,2.4411,-1.6472,161.8356,0.1575,0.01755,0.01876,0.98719,0.035,-0.0056,-9.7717,-0.3192,0.0477,0.3203,0.1908,3,18,0.63,0.82,0.22,24.626,18.23,95.5,41.4,21013.0,7564,8046,8066,8090,55.9,58.4,59.7,58.6,2.58,3.084,2.783,3.095,7.67,272.7,33.3,32.5,1013.64,-32.82,-1.08,2.14,29.8,46.0,37.0,0,no_anomaly,0.0,0,0,0,0,28.6138946,77.209,5.0,0.0
2024-07-19T06:10:01.300Z,MISSION_0021,13,0,takeoff,SITE_DEL_002,28.6138933,77.2089972,5.0,162.08,0.267,0.153,0.81,5.9168,-2.6177,162.0768,0.15436,0.03057,0.04741,0.9864,0.2232,0.0144,-9.7767,-0.2187,-0.3686,-0.2027,0.2572,3,13,0.59,1.01,0.29,24.71,18.47,95.4,40.8,20997.0,8007,7898,7814,7792,58.6,56.0,53.5,59.0,2.804,2.557,3.037,2.852,7.06,259.9,33.2,32.9,1013.53,-31.49,-0.34,1.11,29.2,47.3,34.6,0,no_anomaly,0.0,0,0,0,0,28.6138933,77.2089972,5.0,0.0
2024-07-19T06:10:01.400Z,MISSION_0021,14,0,takeoff,SITE_DEL_002,28.6138934,77.2089983,5.0,162.6,0.0,0.091,0.75,-6.681,-2.3469,162.5995,0.15216,0.0114,-0.06068,0.98643,0.1064,0.1064,-9.783,0.3601,0.0631,-0.0014,0.2396,3,17,0.65,0.83,0.23,24.658,21.1,95.4,41.4,20981.0,7876,7979,7742,7846,57.1,54.7,56.0,55.1,2.584,2.804,2.944,2.664,7.15,261.6,33.1,33.0,1014.0,-30.66,0.75,1.88,27.6,40.4,37.2,0,no_anomaly,0.0,0,0,0,0,28.6138934,77.2089983,5.0,0.0
2024-07-19T06:10:01.500Z,MISSION_0021,15,0,takeoff,SITE_DEL_002,28.6138926,77.2090013,5.0,161.24,0.0,0.021,0.83,0.1275,-1.6747,161.2436,0.16292,0.0146,-0.00128,0.98653,-0.3253,-0.0538,-9.8986,-0.489,0.3902,0.0582,0.1422,3,17,0.89,0.83,0.43,24.59,21.52,95.3,41.4,20966.0,7674,7630,7981,8013,58.2,55.6,60.9,59.9,2.735,3.045,2.795,2.853,6.86,263.6,33.1,31.9,1013.47,-27.1,-1.06,1.45,27.6,38.3,33.9,0,no_anomaly,0.0,0,0,0,0,28.6138926,77.2090013,5.0,0.0
2024-07-19T06:10:01.600Z,MISSION_0021,16,0,takeoff,SITE_DEL_002,28.6138923,77.209002,5.0,161.02,0.0,0.074,0.89,-4.248,-2.9521,161.0181,0.16567,0.01928,-0.04079,0.98515,0.2869,0.0078,-9.7971,0.0329,-0.2923,-0.1261,0.3525,3,10,0.69,1.14,0.23,24.711,18.62,95.2,41.2,20950.0,8144,8061,7638,7772,59.5,55.8,58.2,57.0,3.029,2.743,2.558,2.785,7.59,270.8,33.5,32.0,1013.21,-32.19,-1.64,1.16,27.9,46.6,34.6,0,no_anomaly,0.0,0,0,0,0,28.6138923,77.209002,5.0,0.0
2024-07-19T06:10:01.700Z,MISSION_0021,17,0,takeoff,SITE_DEL_002,28.6138878,77.2090023,5.0,161.59,0.0,0.09,1.39,-1.6121,-2.2389,161.5851,0.16023,0.01703,-0.01701,0.98679,-0.0915,-0.0249,-9.6686,0.2953,0.0696,-0.3423,0.2262,3,16,0.59,0.81,0.27,24.594,23.25,95.2,41.2,20934.0,7954,7908,7968,7681,60.8,59.1,57.4,57.9,2.652,3.103,2.65,2.534,7.13,267.9,33.4,32.0,1014.21,-29.92,0.32,1.43,31.2,43.4,35.0,0,no_anomaly,0.0,0,0,0,0,28.6138878,77.2090023,5.0,0.0
2024-07-19T06:10:01.800Z,MISSION_0021,18,0,takeoff,SITE_DEL_002,28.6138833,77.2090063,5.0,161.25,0.0,0.106,1.99,7.7011,-2.934,161.2515,0.16077,0.03614,0.06208,0.98438,0.0529,0.0151,-9.8568,-0.0425,-1.0946,0.0144,0.2487,3,16,0.5,0.95,0.28,24.731,15.43,95.1,41.5,20919.0,7913,7813,8061,7751,57.1,60.8,55.2,58.4,2.957,2.737,2.709,2.803,7.46,271.4,33.3,32.4,1013.43,-30.61,-2.17,1.74,27.5,42.5,36.5,0,no_anomaly,0.0,0,0,0,0,28.6138833,77.2090063,5.0,0.0
2024-07-19T06:10:01.900Z,MISSION_0021,19,0,takeoff,SITE_DEL_002,28.6138833,77.2090033,5.0,164.22,0.016,0.061,1.9,-1.1545,-1.0464,164.2174,0.13737,0.00766,-0.01123,0.99043,0.2078,0.045,-9.8119,0.5399,0.3947,0.2626,0.3358,3,14,0.71,1.07,0.34,24.616,10.58,95.0,40.7,20903.0,8050,7946,7798,8097,60.2,58.6,56.9,60.5,2.607,3.107,2.974,2.739,7.48,262.0,33.2,32.5,1013.59,-24.96,0.64,1.61,24.2,41.1,34.0,0,no_anomaly,0.0,0,0,0,0,28.6138833,77.2090033,5.0,0.0
2024-07-19T06:10:02.000Z,MISSION_0021,20,0,takeoff,SITE_DEL_002,28.6138852,77.2090009,5.0,163.47,0.0,0.037,1.65,-4.8442,-1.509,163.4679,0.14418,0.00694,-0.04371,0.98856,0.0918,0.0115,-9.7077,0.7411,0.0032,0.2086,0.2154,3,16,0.5,0.97,0.2,24.642,20.62,94.9,41.8,20887.0,7767,7645,7674,7607,55.4,56.3,55.3,56.5,2.766,2.751,2.723,2.961,7.08,267.7,33.7,32.6,1013.44,-28.12,1.71,1.0,28.0,44.8,36.3,0,no_anomaly,0.0,0,0,0,0,28.6138852,77.2090009,5.0,0.0
2024-07-19T06:10:02.100Z,MISSION_0021,21,0,takeoff,SITE_DEL_002,28.613884,77.2089964,5.0,163.13,0.279,0.069,1.82,-0.9258,-1.5849,163.1258,0.14682,0.01249,-0.01002,0.98903,-0.0333,0.1131,-9.8557,0.2768,0.1003,-0.1603,0.2523,3,13,0.66,0.92,0.38,24.633,22.32,94.9,42.0,20871.0,7780,8147,7843,7875,55.2,60.2,59.8,58.7,2.896,2.954,2.778,2.696,8.24,263.0,33.2,33.1,1013.47,-29.96,-0.23,1.6,32.1,44.2,38.3,0,no_anomaly,0.0,0,0,0,0,28.613884,77.2089964,5.0,0.0
2024-07-19T06:10:02.200Z,MISSION_0021,22,0,takeoff,SITE_DEL_002,28.613883,77.2089972,5.0,165.59,0.0,0.123,1.91,-0.405,-0.5112,165.591,0.12542,0.00398,-0.00407,0.99209,-0.0718,0.0516,-9.8065,0.671,-0.5869,-0.1483,0.2984,3,19,0.68,0.72,0.42,24.656,17.14,94.8,41.3,20856.0,7716,7857,8214,7869,59.6,58.6,58.4,56.5,2.906,3.011,2.749,2.891,7.56,257.9,33.5,32.4,1013.76,-27.7,1.09,1.63,26.5,45.2,38.1,0,no_anomaly,0.0,0,0,0,0,28.613883,77.2089972,5.0,0.0
2024-07-19T06:10:02.300Z,MISSION_0021,23,0,takeoff,SITE_DEL_002,28.6138791,77.2089955,5.0,163.21,0.473,0.159,2.38,-6.1942,-1.4085,163.2077,0.14645,0.00425,-0.05524,0.98767,0.0682,0.0105,-9.7553,-0.1086,0.2641,-0.2222,0.2621,3,17,0.72,0.95,0.39,24.734,10.98,94.7,41.2,20840.0,8096,7880,7861,8072,56.7,58.4,57.3,60.6,2.908,2.802,2.514,2.719,7.01,264.5,33.4,32.7,1013.69,-29.14,0.91,1.94,30.4,46.1,35.8,0,no_anomaly,0.0,0,0,0,0,28.6138791,77.2089955,5.0,0.0
2024-07-19T06:10:02.400Z,MISSION_0021,24,0,takeoff,SITE_DEL_002,28.6138806,77.208995,5.0,160.17,0.195,0.117,2.23,5.1896,-2.7744,160.1674,0.1709,0.03162,0.04042,0.98395,-0.0929,-0.0681,-9.8245,-0.361,-0.2427,0.6507,0.2234,3,18,0.57,0.7,0.28,24.746,16.39,94.7,41.8,20824.0,8476,7996,7984,7805,57.9,57.3,57.2,60.7,2.924,2.779,2.702,2.906,6.93,265.8,33.6,32.6,1013.55,-26.6,1.53,1.78,29.3,39.1,33.6,0,no_anomaly,0.0,0,0,0,0,28.6138806,77.208995,5.0,0.0
2024-07-19T06:10:02.500Z,MISSION_0021,25,0,takeoff,SITE_DEL_002,28.6138847,77.2089953,5.0,160.79,0.392,0.106,1.78,-4.0126,-3.7856,160.7932,0.16777,0.02671,-0.04001,0.98465,0.2065,0.0106,-9.7943,-0.0823,-0.947,-0.5821,0.1586,3,15,0.54,0.82,0.21,24.664,20.37,94.6,41.6,20809.0,7730,7766,8008,8054,59.5,57.7,57.2,54.9,2.683,2.945,3.033,2.978,7.1,264.1,33.2,33.0,1013.85,-24.73,0.86,1.46,28.0,41.4,33.9,0,no_anomaly,0.0,0,0,0,0,28.6138847,77.2089953,5.0,0.0
2024-07-19T06:10:02.600Z,MISSION_0021,26,0,takeoff,SITE_DEL_002,28.6138838,77.2089996,5.0,159.96,0.687,0.222,1.8,-2.9115,0.0282,159.9587,0.17394,-0.00466,-0.02497,0.98443,0.1816,-0.0154,-9.7795,-0.7149,1.3049,0.093,0.2323,3,20,0.62,0.6,0.26,24.664,16.29,94.5,41.2,20793.0,7830,7822,7904,7622,57.5,62.0,57.3,59.7,2.85,3.037,2.712,2.836,7.17,259.0,33.6,31.8,1013.68,-32.94,-1.41,1.51,29.9,42.4,35.2,0,no_anomaly,0.0,0,0,0,0,28.6138838,77.2089996,5.0,0.0
2024-07-19T06:10:02.700Z,MISSION_0021,27,0,takeoff,SITE_DEL_002,28.6138843,77.2090008,5.0,160.07,0.875,0.086,1.76,2.203,-0.9272,160.0678,0.17287,0.01129,0.01753,0.98472,0.1638,0.017,-9.7619,0.0687,0.4815,-0.46,0.2701,3,14,0.85,1.09,0.38,24.581,20.15,94.4,41.7,20777.0,8089,7834,7641,7850,55.8,58.9,56.2,55.2,2.923,2.51,2.76,3.107,6.68,266.9,33.6,32.4,1013.65,-32.04,0.09,1.18,26.0,38.1,34.8,0,no_anomaly,0.0,0,0,0,0,28.6138843,77.2090008,5.0,0.0
2024-07-19T06:10:02.800Z,MISSION_0021,28,0,takeoff,SITE_DEL_002,28.6138833,77.2089961,5.0,159.99,0.715,0.006,1.91,1.0151,-0.5894,159.9903,0.17368,0.0066,0.00783,0.98475,0.2594,-0.0262,-9.7256,-0.0563,-0.5095,-0.3095,0.2719,3,18,0.5,0.91,0.2,24.705,20.8,94.4,40.4,20761.0,7912,7919,8204,7732,56.8,56.6,58.2,58.3,2.744,2.765,2.595,2.849,7.66,264.4,33.6,32.1,1013.45,-27.71,-1.69,2.01,25.3,43.6,34.7,0,no_anomaly,0.0,0,0,0,0,28.6138833,77.2089961,5.0,0.0
2024-07-19T06:10:02.900Z,MISSION_0021,29,0,takeoff,SITE_DEL_002,28.6138845,77.2089949,5.0,162.56,0.417,0.026,1.82,-6.5385,-2.2066,162.5601,0.15242,0.01036,-0.05927,0.98648,0.033,-0.0111,-9.8179,0.1441,0.0442,0.1869,0.239,3,14,0.54,0.96,0.2,24.6,19.96,94.3,42.1,20746.0,8076,7934,7852,7814,61.1,57.7,56.0,56.6,2.929,2.757,2.969,2.735,7.1,269.1,33.4,32.8,1013.36,-28.25,2.37,1.3,27.7,43.4,35.7,0,no_anomaly,0.0,0,0,0,0,28.6138845,77.2089949,5.0,0.0
2024-07-19T06:10:03.000Z,MISSION_0021,30,0,takeoff,SITE_DEL_002,28.6138818,77.2089979,5.0,163.56,0.614,0.173,2.04,-4.4894,-2.1146,163.5552,0.1436,0.01265,-0.04139,0.98869,0.0851,-0.0167,-9.7402,-0.7255,-0.2285,0.2002,0.2793,3,10,0.75,0.88,0.23,24.683,18.16,94.2,41.4,20730.0,7991,7843,7908,7987,60.8,59.0,56.8,56.6,3.16,2.678,2.727,2.574,7.84,265.4,33.3,32.2,1013.56,-30.07,-2.25,1.3,25.0,42.3,33.7,0,no_anomaly,0.0,0,0,0,0,28.6138818,77.2089979,5.0,0.0
2024-07-19T06:10:03.100Z,MISSION_0021,31,0,takeoff,SITE_DEL_002,28.6138814,77.2090055,5.0,162.01,1.081,0.065,2.16,7.36,-1.9396,162.0136,0.1549,0.02671,0.06075,0.9857,0.0493,-0.0331,-9.8097,-0.3329,-0.4708,-0.1635,0.2007,3,10,0.75,0.84,0.34,24.606,17.45,94.2,40.9,20714.0,7673,8080,7796,7713,56.5,57.8,59.7,59.2,2.754,2.778,2.894,2.922,7.61,268.7,33.4,33.0,1013.59,-28.59,0.86,1.31,27.0,42.6,36.6,0,no_anomaly,0.0,0,0,0,0,28.6138814,77.2090055,5.0,0.0
2024-07-19T06:10:03.200Z,MISSION_0021,32,0,takeoff,SITE_DEL_002,28.6138802,77.2090001,5.0,162.56,1.045,0.122,2.2,1.8054,-2.3525,162.5583,0.15125,0.02268,0.01246,0.98816,0.2341,-0.046,-9.8122,0.4666,-0.7608,0.175,0.2125,3,13,0.72,0.84,0.31,24.642,13.6,94.1,40.8,20699.0,7964,8056,7927,7852,57.9,56.9,57.6,58.9,2.75,2.918,2.886,2.575,8.67,261.7,33.3,32.9,1013.67,-27.94,1.51,1.7,27.5,40.6,34.6,0,no_anomaly,0.0,0,0,0,0,28.6138802,77.2090001,5.0,0.0
2024-07-19T06:10:03.300Z,MISSION_0021,33,0,takeoff,SITE_DEL_002,28.6138823,77.2090001,5.0,165.25,0.934,0.075,1.97,3.9962,-3.8244,165.2474,0.12708,0.03755,0.03028,0.99072,-0.2403,0.0701,-9.744,-0.3434,0.1907,-0.2573,0.256,3,10,0.52,0.81,0.22,24.734,18.73,94.0,42.1,20683.0,7757,7835,7725,8018,55.3,58.4,57.0,58.6,2.782,2.67,2.643,2.814,7.8,265.4,33.4,32.3,1013.46,-29.07,-0.66,1.61,30.3,39.2,35.3,0,no_anomaly,0.0,0,0,0,0,28.6138823,77.2090001,5.0,0.0
2024-07-19T06:10:03.400Z,MISSION_0021,34,0,takeoff,SITE_DEL_002,28.6138786,77.2090032,5.0,166.08,0.652,0.166,2.41,7.3748,-1.6242,166.076,0.12004,0.02183,0.06212,0.99058,0.2839,0.0277,-9.8034,0.168,0.8629,-0.1485,0.2217,3,18,0.68,1.07,0.36,24.651,15.75,93.9,41.9,20667.0,7887,7871,7826,7715,60.9,58.9,54.9,59.4,2.638,2.842,2.904,3.017,8.04,267.6,33.0,33.0,1014.12,-36.17,-0.47,1.67,29.3,45.3,33.7,0,no_anomaly,0.0,0,0,0,0,28.6138786,77.2090032,5.0,0.0
2024-07-19T06:10:03.500Z,MISSION_0021,35,0,takeoff,SITE_DEL_002,28.6138839,77.209005,5.0,165.17,0.824,0.046,1.88,-1.9785,-1.3622,165.1676,0.12925,0.00956,-0.01865,0.99139,0.2026,-0.0054,-9.7711,-0.0723,-0.0494,0.4374,0.247,3,15,0.79,0.88,0.35,24.603,19.98,93.9,42.1,20651.0,7785,8071,7867,7845,59.4,60.3,59.7,60.4,2.442,2.893,2.77,2.755,8.04,266.7,33.4,31.9,1013.6,-31.53,0.5,1.18,27.3,40.6,36.4,0,no_anomaly,0.0,0,0,0,0,28.6138839,77.209005,5.0,0.0
2024-07-19T06:10:03.600Z,MISSION_0021,36,0,takeoff,SITE_DEL_002,28.613884,77.2090011,5.0,166.17,0.839,0.053,1.78,3.434,-1.1541,166.1685,0.12005,0.0136,0.02853,0.99226,0.0501,0.0404,-9.8261,0.2982,-0.0472,0.0911,0.26,3,20,0.72,0.93,0.26,24.549,21.8,93.8,41.2,20636.0,7873,7993,7602,7550,61.1,57.3,58.9,54.4,3.2,2.89,2.909,2.924,7.96,267.1,33.3,32.7,1013.81,-23.5,-0.78,1.53,28.8,47.9,34.8,0,no_anomaly,0.0,0,0,0,0,28.613884,77.2090011,5.0,0.0
2024-07-19T06:10:03.700Z,MISSION_0021,37,0,takeoff,SITE_DEL_002,28.6138833,77.2090045,5.0,167.47,0.287,0.173,1.93,0.7147,0.8866,167.4666,0.1092,-0.00701,0.00704,0.99397,0.3126,0.0091,-9.8148,0.4609,-0.065,0.3901,0.2309,3,16,0.84,0.86,0.23,24.609,18.33,93.7,41.7,20620.0,7953,7890,8012,7615,54.5,55.9,57.4,53.8,2.663,2.832,2.36,2.783,6.97,259.0,33.5,31.7,1013.53,-33.38,-0.47,2.03,30.6,43.7,34.6,0,no_anomaly,0.0,0,0,0,0,28.6138833,77.2090045,5.0,0.0
2024-07-19T06:10:03.800Z,MISSION_0021,38,0,takeoff,SITE_DEL_002,28.613882,77.2090054,5.0,168.11,0.621,0.088,2.09,-0.9803,-0.0246,168.1068,0.1036,-0.00067,-0.00853,0.99458,-0.3439,0.0095,-9.7388,-0.4075,-0.602,-0.1456,0.2467,3,18,0.78,0.8,0.33,24.609,19.04,93.7,41.3,20604.0,8055,8098,8034,7774,59.8,61.5,57.4,56.3,2.865,2.68,2.784,2.607,7.3,262.7,33.3,33.0,1013.66,-23.45,-0.06,1.7,29.0,48.2,35.0,0,no_anomaly,0.0,0,0,0,0,28.613882,77.2090054,5.0,0.0
2024-07-19T06:10:03.900Z,MISSION_0021,39,0,takeoff,SITE_DEL_002,28.6138848,77.2090043,5.0,164.38,0.921,0.162,1.76,2.9966,-2.0923,164.3816,0.13533,0.02163,0.02342,0.99029,-0.2491,-0.0885,-9.8552,-0.0882,0.7567,-0.0595,0.2609,3,18,0.61,0.94,0.24,24.667,16.33,93.6,41.4,20589.0,8024,7831,7709,8093,60.5,55.7,59.5,60.6,3.053,2.834,2.758,3.058,6.81,261.3,33.4,32.1,1013.69,-28.81,1.15,1.89,27.5,41.9,34.9,0,no_anomaly,0.0,0,0,0,0,28.6138848,77.2090043,5.0,0.0
2024-07-19T06:10:04.000Z,MISSION_0021,40,0,takeoff,SITE_DEL_002,28.613881,77.2090015,5.0,164.28,0.693,0.064,2.12,-6.0939,-3.3506,164.279,0.13805,0.02165,-0.05662,0.98857,0.096,-0.0388,-9.8694,-0.3041,0.0202,0.007,0.2686,3,15,0.64,1.03,0.25,24.662,16.38,93.5,40.7,20573.0,8103,7684,7789,7629,58.7,58.4,56.1,58.7,2.976,3.003,2.97,3.004,7.07,268.3,33.2,33.5,1013.67,-31.88,0.32,1.0,29.1,46.1,36.2,0,no_anomaly,0.0,0,0,0,0,28.613881,77.2090015,5.0,0.0
2024-07-19T06:10:04.100Z,MISSION_0021,41,0,takeoff,SITE_DEL_002,28.6138787,77.2090006,5.0,161.79,0.691,0.091,2.37,-4.4257,-2.9906,161.793,0.15904,0.01964,-0.04224,0.98617,-0.2016,-0.1091,-9.7896,-0.0052,0.4473,0.1652,0.2852,3,19,0.64,0.82,0.22,24.661,21.1,93.4,40.7,20557.0,8244,7829,8021,7807,56.9,56.8,61.0,58.0,2.791,2.957,2.9,2.947,7.23,270.9,33.4,32.4,1013.61,-29.56,-1.54,1.54,29.2,46.8,34.9,0,no_anomaly,0.0,0,0,0,0,28.6138787,77.2090006,5.0,0.0
2024-07-19T06:10:04.200Z,MISSION_0021,42,0,takeoff,SITE_DEL_002,28.6138755,77.2089911,5.0,162.45,0.516,0.084,2.9,-5.676,-0.879,162.453,0.15271,2e-05,-0.0501,0.987,0.2047,-0.0034,-9.7259,0.468,-0.7151,-0.1567,0.2801,3,11,0.66,0.65,0.28,24.633,22.14,93.4,42.0,20541.0,7735,7757,7535,7867,58.8,57.1,59.3,58.6,2.496,2.896,2.736,2.657,7.47,263.9,33.2,32.6,1013.42,-28.44,-1.08,2.23,30.4,46.8,37.7,0,no_anomaly,0.0,0,0,0,0,28.6138755,77.2089911,5.0,0.0
2024-07-19T06:10:04.300Z,MISSION_0021,43,0,takeoff,SITE_DEL_002,28.6138739,77.2089908,5.0,162.43,0.629,0.122,3.08,2.4722,-3.4957,162.4261,0.152,0.03343,0.01665,0.98767,0.0172,0.01,-9.8438,-0.9527,-0.0128,-0.136,0.2654,3,19,0.82,1.11,0.24,24.669,19.0,93.3,41.4,20526.0,7823,7710,7867,7876,57.0,56.0,59.7,54.8,2.775,2.7,3.16,2.82,8.5,265.1,33.2,32.7,1013.72,-27.43,0.76,1.48,27.3,42.9,35.3,0,no_anomaly,0.0,0,0,0,0,28.6138739,77.2089908,5.0,0.0
2024-07-19T06:10:04.400Z,MISSION_0021,44,0,takeoff,SITE_DEL_002,28.6138756,77.2089893,5.0,163.12,0.71,0.052,2.96,1.6501,-3.2057,163.1182,0.14632,0.02978,0.01013,0.98874,-0.2235,-0.0063,-9.8561,-0.0442,-1.3054,-0.0382,0.1773,3,12,0.7,0.78,0.24,24.644,19.55,93.2,41.0,20510.0,7905,8000,7947,7880,59.7,58.0,57.0,59.7,2.797,2.723,3.142,2.909,7.48,268.7,33.9,31.7,1013.61,-30.51,0.86,1.63,30.8,46.4,36.6,0,no_anomaly,0.0,0,0,0,0,28.6138756,77.2089893,5.0,0.0
2024-07-19T06:10:04.500Z,MISSION_0021,45,0,takeoff,SITE_DEL_002,28.6138763,77.2089865,5.0,164.31,1.039,0.111,3.04,-1.6516,-1.7527,164.3131,0.13665,0.01318,-0.01636,0.9904,0.0585,-0.0909,-9.7685,-0.3596,-0.7407,0.524,0.2897,3,18,0.75,0.92,0.24,24.705,21.06,93.2,41.2,20494.0,7788,7802,7852,7823,57.8,54.5,59.8,58.8,3.077,2.868,2.77,2.65,7.22,266.1,33.2,32.3,1013.78,-30.44,-0.48,1.6,26.5,46.4,36.7,0,no_anomaly,0.0,0,0,0,0,28.6138763,77.2089865,5.0,0.0
2024-07-19T06:10:04.600Z,MISSION_0021,46,0,takeoff,SITE_DEL_002,28.6138716,77.2089805,5.0,162.18,1.122,0.137,3.83,4.1215,-1.7617,162.176,0.15425,0.02075,0.03314,0.98726,-0.0669,0.0719,-9.8244,0.1523,-0.6953,0.4329,0.3412,3,18,0.73,0.79,0.41,24.688,22.36,93.1,41.0,20479.0,7962,7904,7918,7799,60.0,59.0,59.0,60.7,2.885,2.572,3.12,2.549,7.99,255.8,33.4,32.6,1013.67,-30.8,0.57,1.51,31.0,40.0,34.6,0,no_anomaly,0.0,0,0,0,0,28.6138716,77.2089805,5.0,0.0
2024-07-19T06:10:04.700Z,MISSION_0021,47,0,takeoff,SITE_DEL_002,28.6138724,77.2089818,5.0,162.43,1.184,0.09,3.68,3.0701,-0.1853,162.4335,0.1526,0.00569,0.02623,0.98792,-0.0197,-0.0337,-9.8151,0.3736,-0.1458,0.194,0.2882,3,15,0.72,0.75,0.35,24.525,19.55,93.0,41.5,20463.0,7840,7869,7679,7897,60.3,57.5,55.4,57.3,2.598,2.696,2.829,3.178,6.82,266.2,33.3,32.4,1013.68,-28.45,-0.84,1.33,30.0,47.5,37.8,0,no_anomaly,0.0,0,0,0,0,28.6138724,77.2089818,5.0,0.0
2024-07-19T06:10:04.800Z,MISSION_0021,48,0,takeoff,SITE_DEL_002,28.6138768,77.2089848,5.0,161.38,0.729,0.169,3.09,-5.8756,-0.7913,161.3757,0.16195,-0.00149,-0.05169,0.98544,0.0244,0.0198,-9.805,-0.4036,-0.2197,0.0694,0.2547,3,14,0.51,1.0,0.23,24.59,18.79,92.9,41.9,20447.0,7954,7836,7798,8035,56.4,61.5,58.1,59.3,2.998,2.825,2.628,2.591,7.92,273.5,33.0,32.1,1013.21,-31.34,-2.24,2.18,31.5,44.2,37.4,0,no_anomaly,0.0,0,0,0,0,28.6138768,77.2089848,5.0,0.0
2024-07-19T06:10:04.900Z,MISSION_0021,49,0,takeoff,SITE_DEL_002,28.6138743,77.20899,5.0,160.99,0.626,0.074,3.07,-5.1841,-2.2798,160.9897,0.16582,0.01213,-0.04788,0.98492,0.2351,-0.0517,-9.7239,0.2124,-0.1156,-0.2461,0.2639,3,10,0.62,0.64,0.26,24.522,22.39,92.9,41.7,20431.0,7844,7688,8194,7878,56.8,59.7,57.8,57.3,2.628,2.761,2.866,2.885,7.63,262.5,33.4,33.4,1013.75,-27.53,-1.63,1.52,27.0,42.8,35.4,0,no_anomaly,0.0,0,0,0,0,28.6138743,77.20899,5.0,0.0
2024-07-19T06:10:05.000Z,MISSION_0021,50,0,takeoff,SITE_DEL_002,28.6138743,77.2089877,5.0,162.32,1.141,0.169,3.17,-4.8145,-3.3362,162.3216,0.15467,0.02229,-0.04595,0.98665,0.1293,0.0044,-9.7405,-0.6068,0.251,-0.0696,0.2958,3,14,0.59,1.15,0.29,24.495,19.64,92.8,41.9,20416.0,7995,7823,7769,7794,58.1,61.0,59.9,59.4,2.619,2.918,2.57,2.828,7.59,268.6,33.5,32.8,1013.88,-29.61,-1.24,1.35,31.4,42.3,39.6,0,no_anomaly,0.0,0,0,0,0,28.6138743,77.2089877,5.0,0.0
2024-07-19T06:10:05.100Z,MISSION_0021,51,0,takeoff,SITE_DEL_002,28.6138736,77.2089843,5.0,162.41,0.53,0.087,3.42,0.9421,-0.8663,162.4135,0.1528,0.00873,0.00697,0.98819,-0.1343,0.0377,-9.804,-0.2287,0.1501,0.4138,0.2207,3,17,0.6,0.75,0.38,24.557,19.41,92.7,41.2,20400.0,7976,7813,8144,7981,59.4,58.8,56.4,55.7,2.761,2.856,2.893,2.774,7.07,266.0,33.4,32.1,1013.63,-34.91,2.25,1.39,29.0,48.8,36.0,0,no_anomaly,0.0,0,0,0,0,28.6138736,77.2089843,5.0,0.0
2024-07-19T06:10:05.200Z,MISSION_0021,52,0,takeoff,SITE_DEL_002,28.6138787,77.2089845,5.0,161.43,0.632,0.131,2.93,-2.3965,-1.5072,161.4252,0.16161,0.0096,-0.02276,0.98655,-0.1868,0.0681,-9.7689,-0.085,0.2505,-0.0305,0.2035,3,17,0.74,0.88,0.26,24.631,15.46,92.7,41.6,20384.0,7998,8057,8056,7631,58.2,60.9,57.6,56.3,2.799,2.911,2.981,2.776,7.59,272.1,33.2,32.1,1013.64,-31.78,0.13,1.53,29.4,45.5,33.6,0,no_anomaly,0.0,0,0,0,0,28.6138787,77.2089845,5.0,0.0
2024-07-19T06:10:05.300Z,MISSION_0021,53,0,takeoff,SITE_DEL_002,28.6138814,77.2089837,5.0,161.25,0.261,0.144,2.75,2.5074,-4.1891,161.2482,0.16197,0.03961,0.01562,0.98588,0.4219,0.0802,-9.8881,1.5767,0.0516,0.0253,0.2236,3,16,0.55,0.77,0.2,24.683,15.05,92.6,41.8,20369.0,7820,7722,7824,7812,56.9,56.8,61.2,55.9,2.818,2.812,2.731,2.841,6.78,254.1,33.4,32.2,1013.71,-29.27,1.54,1.38,25.0,39.4,37.6,0,no_anomaly,0.0,0,0,0,0,28.6138814,77.2089837,5.0,0.0
2024-07-19T06:10:05.400Z,MISSION_0021,54,0,takeoff,SITE_DEL_002,28.6138798,77.2089828,5.0,159.69,0.527,0.072,2.95,6.0673,-4.6086,159.6864,0.17386,0.04885,0.04497,0.98253,0.1997,-0.0179,-9.8378,-0.0511,0.4745,-0.008,0.2753,3,17,0.75,0.68,0.37,24.576,22.55,92.5,40.6,20353.0,7832,7857,7709,7718,56.9,57.1,61.4,57.1,2.764,2.922,2.956,2.837,7.82,270.1,33.1,31.5,1013.53,-33.92,0.76,1.69,30.5,45.5,34.8,0,no_anomaly,0.0,0,0,0,0,28.6138798,77.2089828,5.0,0.0
2024-07-19T06:10:05.500Z,MISSION_0021,55,0,takeoff,SITE_DEL_002,28.6138756,77.2089856,5.0,160.28,0.172,0.111,3.15,4.856,-3.0077,160.2832,0.16991,0.03308,0.03723,0.9842,-0.1911,0.0471,-9.8119,-0.2344,0.6592,-0.2068,0.1837,3,16,0.82,0.78,0.38,24.657,17.37,92.4,41.6,20337.0,7893,7681,7769,7589,59.9,56.5,57.9,59.2,2.889,2.706,2.788,2.623,8.03,269.2,33.6,33.3,1013.73,-33.36,0.41,1.4,31.9,40.2,36.0,0,no_anomaly,0.0,0,0,0,0,28.6138756,77.2089856,5.0,0.0
2024-07-19T06:10:05.600Z,MISSION_0021,56,0,takeoff,SITE_DEL_002,28.6138789,77.2089819,5.0,162.05,0.024,0.125,3.1,-1.151,-0.81,162.0452,0.1561,0.00541,-0.01102,0.98766,-0.1896,-0.075,-9.7292,-0.1982,0.7369,-0.1051,0.2402,3,18,0.66,1.02,0.26,24.585,24.49,92.4,41.6,20321.0,7909,7456,7956,7848,60.6,57.4,58.0,60.3,2.825,2.686,3.012,2.698,7.12,264.4,33.2,32.5,1013.69,-30.67,1.74,1.73,25.3,45.7,33.7,0,no_anomaly,0.0,0,0,0,0,28.6138789,77.2089819,5.0,0.0
2024-07-19T06:10:05.700Z,MISSION_0021,57,0,takeoff,SITE_DEL_002,28.613875,77.2089806,5.0,163.15,0.114,0.091,3.52,5.4605,-3.976,163.1505,0.14462,0.04125,0.04201,0.98773,0.3034,0.0085,-9.8264,-0.3832,-0.522,-0.2673,0.232,3,11,0.77,0.92,0.37,24.578,14.72,92.3,41.4,20306.0,8016,8022,7765,7672,60.1,57.3,58.3,60.3,2.824,2.622,2.933,2.759,7.17,263.0,33.4,32.3,1013.5,-29.35,0.78,1.82,28.3,46.5,36.3,0,no_anomaly,0.0,0,0,0,0,28.613875,77.2089806,5.0,0.0
2024-07-19T06:10:05.800Z,MISSION_0021,58,0,takeoff,SITE_DEL_002,28.6138771,77.2089778,5.0,161.23,0.132,0.106,3.56,1.6868,-3.642,161.2277,0.16253,0.03375,0.00933,0.98608,-0.0829,-0.0187,-9.831,-0.5133,-0.346,0.0803,0.2461,3,12,0.71,0.63,0.25,24.445,17.31,92.2,41.3,20290.0,8112,7796,7936,7681,55.8,57.6,56.2,57.8,2.856,2.563,2.75,2.569,8.42,265.4,33.2,32.5,1013.68,-31.24,-0.05,1.66,27.9,46.3,35.3,0,no_anomaly,0.0,0,0,0,0,28.6138771,77.2089778,5.0,0.0
2024-07-19T06:10:05.900Z,MISSION_0021,59,0,takeoff,SITE_DEL_002,28.6138796,77.2089793,5.0,160.26,0.466,0.138,3.24,0.3025,-2.9063,160.2633,0.17126,0.02544,-0.00175,0.9849,-0.0846,-0.048,-9.8065,-0.7576,-0.0329,-0.0304,0.1926,3,11,0.77,0.79,0.27,24.666,15.2,92.2,41.0,20274.0,7842,7975,7782,7947,58.3,57.5,62.2,58.0,2.847,2.932,2.83,2.976,7.11,269.3,33.7,32.6,1013.94,-21.58,2.24,1.0,26.0,46.6,34.4,0,no_anomaly,0.0,0,0,0,0,28.6138796,77.2089793,5.0,0.0
2024-07-19T06:10:06.000Z,MISSION_0021,60,0,takeoff,SITE_DEL_002,28.6138759,77.2089771,5.0,158.15,0.65,0.088,3.7,-3.1295,-4.6082,158.155,0.19034,0.03429,-0.03441,0.98052,-0.3784,0.0207,-9.7953,-0.2126,0.8468,-0.3593,0.3078,3,18,0.77,1.01,0.29,24.577,16.06,92.1,41.1,20259.0,7744,7908,7831,7613,56.6,58.9,60.4,59.9,2.735,2.881,2.633,2.583,7.66,258.6,33.3,33.1,1013.5,-33.15,-0.58,1.54,27.7,47.1,35.3,0,no_anomaly,0.0,0,0,0,0,28.6138759,77.2089771,5.0,0.0
2024-07-19T06:10:06.100Z,MISSION_0021,61,0,takeoff,SITE_DEL_002,28.6138799,77.2089769,5.0,160.13,0.574,0.139,3.41,-0.2043,0.162,160.1294,0.17253,-0.0017,-0.00151,0.985,-0.0068,0.1083,-9.8439,-0.1994,-0.6721,-0.0386,0.1109,3,19,0.64,1.0,0.36,24.537,17.19,92.0,40.5,20243.0,7802,7814,7985,7976,58.5,56.4,56.8,57.8,2.677,2.81,2.663,2.591,7.53,267.7,33.4,32.6,1013.71,-32.42,-1.34,1.24,29.1,46.6,33.6,0,no_anomaly,0.0,0,0,0,0,28.6138799,77.2089769,5.0,0.0
2024-07-19T06:10:06.200Z,MISSION_0021,62,0,takeoff,SITE_DEL_002,28.6138776,77.2089757,5.0,158.96,0.508,0.17,3.68,-3.9552,-2.0586,158.9578,0.18307,0.01135,-0.0372,0.98233,0.0476,0.015,-9.8387,-0.6387,-0.39,-0.047,0.2265,3,11,0.56,1.02,0.2,24.549,18.22,91.9,41.3,20227.0,7536,7893,7716,8163,54.9,55.8,58.3,59.5,2.798,2.518,2.913,2.772,7.22,272.0,33.4,33.2,1013.7,-33.43,0.08,1.33,26.4,48.7,34.4,0,no_anomaly,0.0,0,0,0,0,28.6138776,77.2089757,5.0,0.0
2024-07-19T06:10:06.300Z,MISSION_0021,63,0,takeoff,SITE_DEL_002,28.6138761,77.208972,5.0,160.34,0.396,0.041,4.1,-8.0216,-0.711,160.341,0.17072,-0.00584,-0.06997,0.98281,0.0869,0.1031,-9.8042,-0.793,0.1323,-0.2775,0.2697,3,10,0.73,1.03,0.29,24.61,24.0,91.9,40.9,20211.0,7925,7987,7976,7878,58.6,57.0,58.9,53.3,2.763,3.045,2.91,2.729,7.74,272.5,33.3,32.8,1013.6,-35.86,-2.15,1.68,27.8,45.6,38.6,0,no_anomaly,0.0,0,0,0,0,28.6138761,77.208972,5.0,0.0
2024-07-19T06:10:06.400Z,MISSION_0021,64,0,takeoff,SITE_DEL_002,28.6138735,77.2089747,5.0,160.22,0.268,0.1,4.08,-3.3805,-2.4529,160.2163,0.1723,0.01601,-0.03273,0.98437,0.0419,0.0296,-9.7717,0.8227,-0.3589,0.4635,0.2264,3,11,0.59,1.0,0.2,24.593,12.59,91.8,40.8,20196.0,7664,7856,8039,7927,57.2,58.9,57.0,57.1,2.989,2.737,2.662,2.523,7.19,266.8,32.8,32.4,1013.19,-29.13,-0.01,1.45,26.0,38.9,36.3,0,no_anomaly,0.0,0,0,0,0,28.6138735,77.2089747,5.0,0.0
2024-07-19T06:10:06.500Z,MISSION_0021,65,0,takeoff,SITE_DEL_002,28.613871,77.2089718,5.0,160.37,0.518,0.041,4.5,-1.2902,-1.5745,160.3663,0.17063,0.01162,-0.01344,0.98518,-0.0718,-0.0509,-9.847,0.1845,-0.4821,0.7114,0.2118,3,19,0.71,0.83,0.29,24.552,19.35,91.7,41.2,20180.0,7867,7945,8029,8059,57.1,56.3,58.5,57.7,2.773,2.787,2.952,2.893,8.24,271.7,33.4,33.4,1013.49,-26.71,1.38,1.46,27.0,48.0,35.1,0,no_anomaly,0.0,0,0,0,0,28.613871,77.2089718,5.0,0.0
2024-07-19T06:10:06.600Z,MISSION_0021,66,0,takeoff,SITE_DEL_002,28.6138746,77.2089714,5.0,161.27,0.619,0.084,4.25,-0.1425,-1.538,161.2668,0.16275,0.01304,-0.00341,0.98657,-0.3414,-0.0398,-9.8331,-0.193,-0.5021,0.1158,0.2228,3,16,0.66,0.8,0.33,24.597,18.0,91.7,41.1,20164.0,7839,7865,7773,7893,60.8,58.7,60.6,58.0,2.506,2.779,2.702,2.903,7.92,260.6,33.1,32.1,1013.68,-25.65,0.67,1.46,26.4,40.1,34.9,0,no_anomaly,0.0,0,0,0,0,28.6138746,77.2089714,5.0,0.0
2024-07-19T06:10:06.700Z,MISSION_0021,67,0,takeoff,SITE_DEL_002,28.6138687,77.2089644,5.0,163.09,1.187,0.171,5.28,0.5688,-3.1286,163.0861,0.14688,0.02773,0.00089,0.98877,0.4345,0.0057,-9.8364,-0.1672,0.372,-0.2384,0.2647,3,17,0.55,0.75,0.24,24.587,19.83,91.6,40.8,20149.0,7696,8024,7856,7745,59.3,59.1,58.8,58.3,2.764,2.979,2.576,2.839,6.93,264.6,33.2,32.0,1013.87,-28.38,0.1,1.35,30.7,47.5,36.6,0,no_anomaly,0.0,0,0,0,0,28.6138687,77.2089644,5.0,0.0
2024-07-19T06:10:06.800Z,MISSION_0021,68,0,takeoff,SITE_DEL_002,28.6138754,77.2089671,5.0,164.08,1.339,0.122,4.57,-4.1368,-2.8382,164.0825,0.13921,0.01952,-0.03916,0.9893,0.1618,0.0011,-9.8294,0.0557,0.4287,-0.1967,0.2374,3,16,0.59,0.7,0.23,24.518,18.76,91.5,41.4,20133.0,7846,7842,7825,7959,56.6,53.3,56.7,61.7,2.911,2.664,2.53,3.064,7.78,256.2,33.4,32.2,1013.56,-34.97,1.31,1.96,27.1,43.2,34.9,0,no_anomaly,0.0,0,0,0,0,28.6138754,77.2089671,5.0,0.0
2024-07-19T06:10:06.900Z,MISSION_0021,69,0,takeoff,SITE_DEL_002,28.6138751,77.2089684,5.0,163.32,1.275,0.121,4.47,1.3215,-2.2896,163.3156,0.14482,0.02144,0.00851,0.98919,-0.0684,-0.072,-9.8,0.0191,-1.1793,0.3796,0.3111,3,16,0.61,0.7,0.2,24.624,20.38,91.4,41.9,20117.0,7814,7753,7921,8090,58.2,59.1,56.2,58.2,2.731,3.077,2.7,2.773,8.09,263.1,33.4,31.6,1013.5,-29.67,-0.1,1.11,30.7,41.9,38.5,0,no_anomaly,0.0,0,0,0,0,28.6138751,77.2089684,5.0,0.0
2024-07-19T06:10:07.000Z,MISSION_0021,70,0,takeoff,SITE_DEL_002,28.6138775,77.2089696,5.0,165.75,1.34,0.154,4.21,-2.5105,-3.3731,165.7469,0.12462,0.02648,-0.02538,0.99153,-0.0038,-0.0171,-9.825,0.5701,-0.1824,-0.0058,0.2796,3,16,0.82,0.93,0.34,24.549,22.43,91.4,42.3,20101.0,7889,7996,7914,7976,58.1,54.7,60.0,55.3,2.943,2.788,2.929,2.727,7.32,265.7,33.5,33.1,1013.38,-32.84,0.15,1.29,28.3,41.9,35.9,0,no_anomaly,0.0,0,0,0,0,28.6138775,77.2089696,5.0,0.0
2024-07-19T06:10:07.100Z,MISSION_0021,71,0,takeoff,SITE_DEL_002,28.6138816,77.2089661,5.0,163.11,1.417,0.016,4.29,-1.0866,-0.0602,163.1113,0.14685,-0.00087,-0.00946,0.98911,-0.1448,-0.0161,-9.8778,-0.602,-0.1418,0.0608,0.2831,3,12,0.76,0.94,0.41,24.466,15.58,91.3,41.8,20086.0,7828,7780,8057,7907,56.1,53.3,58.4,58.6,2.724,3.047,2.835,2.911,7.84,263.2,33.3,32.6,1013.39,-25.83,-1.28,1.36,32.1,48.9,35.9,0,no_anomaly,0.0,0,0,0,0,28.6138816,77.2089661,5.0,0.0
2024-07-19T06:10:07.200Z,MISSION_0021,72,0,takeoff,SITE_DEL_002,28.6138824,77.2089684,5.0,162.26,1.967,0.089,4.03,2.4168,-3.247,162.2611,0.1535,0.03124,0.01646,0.98752,-0.3862,-0.0022,-9.766,0.1403,0.4673,0.1735,0.2441,3,18,0.74,1.23,0.2,24.527,18.99,91.2,40.6,20070.0,7820,7961,8007,7805,59.8,60.4,54.7,60.4,2.87,3.022,2.713,2.761,7.85,263.8,33.5,32.4,1013.84,-36.17,-0.16,1.3,29.8,44.9,36.6,0,no_anomaly,0.0,0,0,0,0,28.6138824,77.2089684,5.0,0.0
2024-07-19T06:10:07.300Z,MISSION_0021,73,0,takeoff,SITE_DEL_002,28.6138825,77.2089618,5.0,162.89,1.799,0.13,4.67,-0.941,-2.27,162.8907,0.14888,0.01837,-0.01106,0.98862,0.1087,-0.0022,-9.7466,-0.6119,-0.3402,0.0633,0.2228,3,18,0.9,0.84,0.46,24.547,18.48,91.2,41.3,20054.0,8134,7762,7975,7846,56.7,60.5,60.6,59.1,2.874,2.754,3.124,2.801,7.55,264.6,33.4,32.7,1013.55,-26.59,-1.34,1.67,28.0,41.6,35.1,0,no_anomaly,0.0,0,0,0,0,28.6138825,77.2089618,5.0,0.0
2024-07-19T06:10:07.400Z,MISSION_0021,74,0,takeoff,SITE_DEL_002,28.6138821,77.2089612,5.0,163.71,1.622,0.107,4.76,-0.9635,-0.0607,163.7111,0.14167,-0.00067,-0.0084,0.98988,0.0396,0.0463,-9.8478,-0.0106,0.531,0.0991,0.2997,3,16,0.8,0.9,0.34,24.646,17.46,91.1,41.4,20039.0,7932,7808,7868,7775,59.2,57.3,56.8,57.8,2.85,3.027,2.856,3.122,7.56,269.0,33.2,32.0,1013.9,-24.34,2.1,1.63,28.0,39.7,33.2,0,no_anomaly,0.0,0,0,0,0,28.6138821,77.2089612,5.0,0.0
2024-07-19T06:10:07.500Z,MISSION_0021,75,0,takeoff,SITE_DEL_002,28.6138789,77.2089637,5.0,163.99,1.922,0.023,4.67,0.3565,-0.5212,163.9941,0.13921,0.00494,0.00245,0.99025,0.2295,0.0354,-9.7304,0.0124,-0.4775,-0.0629,0.2102,3,14,0.74,0.65,0.33,24.571,23.62,91.0,41.7,20023.0,7858,7879,7462,7504,58.2,58.7,60.1,60.6,2.815,2.786,2.646,3.17,7.73,269.4,33.4,31.4,1013.3,-27.67,0.79,1.47,28.7,45.1,38.2,0,no_anomaly,0.0,0,0,0,0,28.6138789,77.2089637,5.0,0.0
2024-07-19T06:10:07.600Z,MISSION_0021,76,0,takeoff,SITE_DEL_002,28.6138798,77.2089668,5.0,167.12,2.07,0.137,4.32,3.5678,-2.4918,167.1168,0.11144,0.02509,0.02849,0.99305,0.052,0.0086,-9.8369,1.1644,0.6456,-0.341,0.2561,3,13,0.68,1.07,0.3,24.543,17.83,90.9,41.6,20007.0,7782,7808,7930,7817,53.8,56.4,58.9,56.9,2.918,2.982,2.499,2.784,7.65,267.5,33.6,32.3,1013.59,-31.09,-1.91,1.15,29.3,39.1,34.9,0,no_anomaly,0.0,0,0,0,0,28.6138798,77.2089668,5.0,0.0
2024-07-19T06:10:07.700Z,MISSION_0021,77,0,transit,SITE_DEL_002,28.6138742,77.2089712,5.5,165.93,2.054,0.135,4.3,-2.6406,-1.5232,165.9326,0.12271,0.01037,-0.02449,0.99209,0.1609,0.0361,-9.7617,0.1009,-0.3711,-0.0215,0.2418,3,18,0.74,1.03,0.25,24.506,17.93,90.9,42.3,19991.0,8053,7868,7944,8013,57.2,59.1,56.3,54.1,2.712,2.743,2.77,2.809,7.21,264.5,33.4,32.4,1013.76,-27.83,1.03,1.47,31.7,47.9,34.1,0,no_anomaly,0.0,0,0,0,0,28.6138742,77.2089712,5.5,0.0
2024-07-19T06:10:07.800Z,MISSION_0021,78,0,transit,SITE_DEL_002,28.613877,77.2089783,6.0,165.56,2.072,0.153,3.52,0.2005,-1.504,165.5561,0.12568,0.01324,9e-05,0.99198,0.1596,-0.0201,-9.886,-0.3054,0.7647,0.1323,0.2372,3,18,0.67,1.0,0.28,24.507,22.41,90.8,42.1,19976.0,8037,7695,7695,7931,59.1,55.9,60.4,59.2,2.826,3.117,2.814,2.865,7.44,258.2,33.4,33.2,1013.81,-34.69,1.21,1.29,28.4,46.3,38.0,0,no_anomaly,0.0,0,0,0,0,28.613877,77.2089783,6.0,0.0
2024-07-19T06:10:07.900Z,MISSION_0021,79,0,transit,SITE_DEL_002,28.6138781,77.2089795,6.5,165.3,2.084,0.048,3.34,-6.4073,-0.9746,165.2956,0.12823,0.00127,-0.05651,0.99013,-0.2781,-0.0523,-9.8784,-0.3608,0.5003,0.0519,0.1165,3,10,0.85,0.77,0.35,24.621,18.27,90.7,40.7,19960.0,7783,8120,7734,8069,54.6,59.4,58.4,54.1,2.787,2.951,2.99,2.835,7.24,260.2,33.3,33.1,1013.66,-26.34,2.15,1.37,30.7,41.7,36.5,0,no_anomaly,0.0,0,0,0,0,28.6138781,77.2089795,6.5,0.0
2024-07-19T06:10:08.000Z,MISSION_0021,80,0,transit,SITE_DEL_002,28.6138854,77.2089761,7.0,164.66,2.192,0.059,3.12,-3.4372,-3.5123,164.6556,0.13429,0.02636,-0.0338,0.99001,0.0315,0.0721,-9.8877,-0.3058,0.3986,0.0137,0.2752,3,10,0.8,0.68,0.31,24.571,17.75,90.7,41.5,19944.0,7947,7902,7827,7541,62.2,58.7,55.7,55.6,2.906,2.655,2.919,2.926,7.66,270.6,33.4,33.1,1013.69,-28.97,-0.69,1.94,26.7,43.7,36.4,0,no_anomaly,0.0,0,0,0,0,28.6138854,77.2089761,7.0,0.0
2024-07-19T06:10:08.100Z,MISSION_0021,81,0,transit,SITE_DEL_002,28.613889,77.2089795,7.5,162.11,2.501,0.084,2.59,-0.2991,-0.2833,162.1084,0.15551,0.00204,-0.00296,0.98783,0.061,0.0235,-9.7725,-0.0049,-0.5708,0.0958,0.1719,3,18,0.83,0.76,0.33,24.547,22.58,90.6,41.5,19929.0,7817,7841,7742,7678,62.2,54.7,58.8,59.3,2.927,2.854,2.482,2.841,7.69,272.3,33.3,32.4,1013.62,-28.34,0.08,2.1,25.1,40.0,34.2,0,no_anomaly,0.0,0,0,0,0,28.613889,77.2089795,7.5,0.0
2024-07-19T06:10:08.200Z,MISSION_0021,82,0,transit,SITE_DEL_002,28.6138917,77.2089767,8.0,162.47,2.199,0.117,2.76,1.1989,-4.829,162.4741,0.15177,0.04323,0.00391,0.98746,0.1322,-0.0204,-9.9252,-0.058,-0.6183,0.269,0.2374,3,13,0.59,0.6,0.2,24.488,18.22,90.5,40.5,19913.0,8109,7715,7725,7825,54.6,55.2,59.0,58.6,2.764,2.8,2.807,2.789,7.17,259.9,33.3,33.4,1013.88,-26.8,1.3,1.27,28.9,47.7,34.8,0,no_anomaly,0.0,0,0,0,0,28.6138917,77.2089767,8.0,0.0
2024-07-19T06:10:08.300Z,MISSION_0021,83,0,transit,SITE_DEL_002,28.6138897,77.2089748,8.5,160.76,1.885,0.026,3.03,3.3746,-2.5904,160.7588,0.16635,0.0272,0.02525,0.98537,0.2733,0.098,-9.9199,0.5104,-0.3931,0.1138,0.2829,3,16,0.75,0.91,0.43,24.581,22.1,90.4,41.4,19897.0,8392,7939,7799,8009,58.8,57.8,59.0,56.5,2.991,2.694,2.868,2.677,6.75,262.5,33.1,32.8,1013.39,-27.38,0.78,1.71,26.4,39.9,33.7,0,no_anomaly,0.0,0,0,0,0,28.6138897,77.2089748,8.5,0.0
2024-07-19T06:10:08.400Z,MISSION_0021,84,0,transit,SITE_DEL_002,28.6138861,77.2089808,9.0,162.44,1.545,0.157,2.64,0.6208,-2.4187,162.4391,0.1525,0.02168,0.00213,0.98806,-0.4357,0.0853,-9.8319,1.0563,-0.079,0.3164,0.2666,3,18,0.75,0.64,0.38,24.466,24.51,90.4,40.6,19881.0,7987,7740,7594,7847,55.7,58.1,59.8,59.0,2.981,2.801,2.776,2.781,7.23,266.1,33.5,33.0,1013.47,-28.44,-0.56,1.53,28.2,44.7,37.1,0,no_anomaly,0.0,0,0,0,0,28.6138861,77.2089808,9.0,0.0
2024-07-19T06:10:08.500Z,MISSION_0021,85,0,transit,SITE_DEL_002,28.613888,77.2089784,9.5,163.69,1.661,0.074,2.75,-5.749,-1.6647,163.6884,0.14239,0.00725,-0.05169,0.98843,0.1135,0.0111,-9.9116,-0.5985,0.1351,-0.3031,0.2022,3,15,0.72,0.84,0.3,24.523,19.85,90.3,41.5,19866.0,8149,8070,7891,7808,58.4,61.1,61.3,57.9,3.016,2.845,2.777,2.615,7.43,274.0,33.2,31.9,1013.69,-23.63,1.27,1.56,29.1,37.9,33.3,0,no_anomaly,0.0,0,0,0,0,28.613888,77.2089784,9.5,0.0
2024-07-19T06:10:08.600Z,MISSION_0021,86,0,transit,SITE_DEL_002,28.6138895,77.2089783,10.0,162.24,1.886,0.179,2.68,-3.3495,-0.6703,162.2408,0.15446,0.00127,-0.02978,0.98755,0.1712,0.0505,-9.7712,0.038,-0.1319,0.1308,0.3035,3,18,0.58,0.96,0.2,24.563,23.75,90.2,41.0,19850.0,7757,7926,7747,8092,60.3,59.9,57.5,57.5,2.615,2.633,2.329,2.988,6.73,258.1,33.5,32.2,1013.97,-27.38,-0.03,1.56,29.2,46.6,35.6,0,no_anomaly,0.0,0,0,0,0,28.6138895,77.2089783,10.0,0.0
2024-07-19T06:10:08.700Z,MISSION_0021,87,0,transit,SITE_DEL_002,28.6138888,77.2089777,10.5,159.75,2.024,0.123,2.78,8.7495,-3.4759,159.7498,0.17293,0.04317,0.06974,0.98151,0.2979,0.1055,-9.7251,-1.2515,-0.5279,0.0784,0.2425,3,16,0.87,1.09,0.38,24.658,15.83,90.2,41.8,19834.0,8052,7866,8001,7969,55.7,60.8,60.2,57.9,2.396,2.634,2.869,2.944,7.0,270.4,33.1,33.0,1013.42,-31.61,0.63,1.52,29.5,42.1,33.2,0,no_anomaly,0.0,0,0,0,0,28.6138888,77.2089777,10.5,0.0
2024-07-19T06:10:08.800Z,MISSION_0021,88,0,transit,SITE_DEL_002,28.6138837,77.2089803,11.0,157.54,1.975,0.038,2.84,1.7818,0.4641,157.5437,0.19475,-0.00094,0.01604,0.98072,0.1737,-0.0222,-9.8089,0.191,0.6429,-0.1031,0.3264,3,19,0.67,1.02,0.2,24.493,24.02,90.1,41.5,19819.0,7771,8080,7656,7583,56.6,60.8,55.9,57.0,2.7,2.867,3.377,2.848,7.0,261.4,33.3,32.9,1013.62,-29.52,0.52,1.33,30.7,41.4,35.5,0,no_anomaly,0.0,0,0,0,0,28.6138837,77.2089803,11.0,0.0
2024-07-19T06:10:08.900Z,MISSION_0021,89,0,transit,SITE_DEL_002,28.6138848,77.2089849,11.5,157.98,2.427,0.139,2.38,-4.7194,-1.7758,157.9838,0.19139,0.00734,-0.04337,0.98053,0.1829,0.0083,-9.7848,0.4585,-0.3996,0.0721,0.2586,3,10,0.95,1.19,0.33,24.568,20.23,90.0,41.9,19803.0,7653,7931,7818,7806,57.6,57.3,58.1,56.6,2.728,2.874,2.783,2.661,7.69,264.7,33.3,32.3,1013.74,-23.44,1.19,1.59,25.4,37.1,35.5,0,no_anomaly,0.0,0,0,0,0,28.6138848,77.2089849,11.5,0.0
2024-07-19T06:10:09.000Z,MISSION_0021,90,0,transit,SITE_DEL_002,28.6138878,77.2089842,12.0,158.11,2.664,0.012,2.22,3.3421,-3.2006,158.1142,0.18888,0.03294,0.02332,0.98117,-0.0233,-0.1613,-9.721,-0.332,0.1851,-0.141,0.2676,3,16,0.78,0.99,0.2,24.49,17.11,89.9,41.1,19787.0,8061,7964,7984,7750,60.9,57.9,57.5,57.2,2.788,2.678,2.972,2.352,6.77,263.4,33.2,31.9,1013.5,-27.42,-1.41,1.6,28.3,41.4,34.8,0,no_anomaly,0.0,0,0,0,0,28.6138878,77.2089842,12.0,0.0
2024-07-19T06:10:09.100Z,MISSION_0021,91,0,transit,SITE_DEL_002,28.6138873,77.2089839,12.5,159.19,2.628,0.143,2.28,-3.2007,-1.7892,159.1881,0.18096,0.01031,-0.03028,0.98297,0.1875,0.0227,-9.8112,-0.3906,0.5819,0.2272,0.2385,3,19,0.74,0.8,0.4,24.508,13.87,89.9,41.8,19771.0,7953,8001,7964,7918,56.4,57.7,58.5,60.5,2.794,2.977,3.014,2.806,7.79,267.2,33.6,32.3,1013.62,-22.59,-0.22,1.42,29.7,46.7,36.8,0,no_anomaly,0.0,0,0,0,0,28.6138873,77.2089839,12.5,0.0
2024-07-19T06:10:09.200Z,MISSION_0021,92,0,transit,SITE_DEL_002,28.613887,77.2089896,13.0,158.8,2.545,0.122,1.85,1.2216,-1.7153,158.8018,0.18375,0.01667,0.00772,0.9828,0.1855,-0.0591,-9.7321,-0.3176,-0.7661,-0.0264,0.308,3,10,0.79,0.84,0.25,24.534,19.97,89.8,41.5,19756.0,7971,7790,7904,7766,60.5,58.3,58.0,59.2,2.811,2.687,2.696,2.951,7.31,270.9,33.5,33.5,1013.96,-26.16,0.94,1.9,29.0,38.4,35.6,0,no_anomaly,0.0,0,0,0,0,28.613887,77.2089896,13.0,0.0
2024-07-19T06:10:09.300Z,MISSION_0021,93,0,transit,SITE_DEL_002,28.6138881,77.208987,13.5,159.32,2.73,0.074,1.97,-3.1728,0.2086,159.3182,0.17939,-0.00676,-0.02691,0.98339,-0.0944,0.0498,-9.7997,-0.0633,-0.0397,-0.1513,0.2177,3,18,0.73,1.05,0.27,24.503,22.2,89.7,41.0,19740.0,7694,7981,7733,8011,57.9,59.4,61.4,56.9,2.821,2.965,2.863,2.913,7.59,260.0,33.5,32.3,1013.67,-35.22,-0.69,1.45,29.6,44.3,37.0,0,no_anomaly,0.0,0,0,0,0,28.6138881,77.208987,13.5,0.0
2024-07-19T06:10:09.400Z,MISSION_0021,94,0,transit,SITE_DEL_002,28.6138902,77.2089914,14.0,159.01,3.042,0.033,1.45,1.7506,-4.0381,159.0124,0.18147,0.03742,0.0086,0.98265,-0.1511,0.0839,-9.7558,0.3799,0.0138,0.3087,0.3249,3,14,0.7,1.15,0.29,24.536,21.1,89.7,41.8,19724.0,7891,8024,7951,8168,57.5,56.9,60.1,59.6,3.025,3.031,2.721,2.713,8.39,265.3,33.2,32.6,1013.64,-31.73,-1.41,1.75,31.2,48.8,35.6,0,no_anomaly,0.0,0,0,0,0,28.6138902,77.2089914,14.0,0.0
2024-07-19T06:10:09.500Z,MISSION_0021,95,0,transit,SITE_DEL_002,28.6138882,77.2089946,14.0,157.59,2.831,0.004,1.44,0.7266,-4.0724,157.5895,0.19398,0.03608,-0.00069,0.98034,-0.2278,-0.0438,-9.8124,0.0425,-0.0813,0.2325,0.3114,3,18,0.75,0.88,0.45,24.607,26.57,89.6,41.5,19708.0,7731,8007,7706,7780,57.9,58.4,58.8,58.4,2.855,2.637,2.654,2.649,7.65,270.3,33.2,31.8,1013.63,-27.05,-0.57,1.17,26.4,39.2,36.5,0,no_anomaly,0.0,0,0,0,0,28.6138882,77.2089946,14.0,0.0
2024-07-19T06:10:09.600Z,MISSION_0021,96,0,transit,SITE_DEL_002,28.6138909,77.2089937,14.0,159.48,2.797,0.053,1.24,6.0723,1.7535,159.4829,0.17862,-0.0056,0.05483,0.98237,-0.2267,0.004,-9.8559,-0.4645,0.0995,0.4082,0.2539,3,15,0.74,1.27,0.35,24.521,20.42,89.5,41.1,19693.0,8333,7970,7799,7980,62.2,58.0,55.9,60.5,2.695,2.666,2.742,2.724,7.34,256.5,33.2,33.3,1013.59,-30.79,2.04,1.39,29.4,43.0,35.6,0,no_anomaly,0.0,0,0,0,0,28.6138909,77.2089937,14.0,0.0
2024-07-19T06:10:09.700Z,MISSION_0021,97,0,transit,SITE_DEL_002,28.6138862,77.2089946,14.0,156.27,2.395,0.126,1.65,3.8228,-0.4938,156.2742,0.20531,0.01107,0.03176,0.97812,0.1703,-0.0266,-9.8498,-0.4152,-0.3123,0.1723,0.2445,3,18,0.7,0.92,0.29,24.551,21.94,89.4,42.1,19677.0,7875,7928,8025,7846,54.6,56.9,57.7,58.4,2.735,2.852,2.877,2.834,7.98,258.8,33.3,32.6,1013.77,-32.36,1.35,1.81,26.4,41.7,36.0,0,no_anomaly,0.0,0,0,0,0,28.6138862,77.2089946,14.0,0.0
2024-07-19T06:10:09.800Z,MISSION_0021,98,0,transit,SITE_DEL_002,28.6138838,77.2089951,14.0,155.27,2.934,0.172,1.89,2.1048,-3.1298,155.2725,0.21351,0.0306,0.01209,0.97639,0.4694,0.0357,-9.7982,0.3871,-0.3264,-0.0073,0.2822,3,18,0.63,0.85,0.2,24.573,16.17,89.4,41.9,19661.0,8079,7918,7863,7975,58.1,56.3,62.1,57.1,2.635,2.603,2.494,2.897,7.55,269.4,33.3,31.9,1013.42,-30.81,1.99,1.29,30.5,41.3,34.3,0,no_anomaly,0.0,0,0,0,0,28.6138838,77.2089951,14.0,0.0
2024-07-19T06:10:09.900Z,MISSION_0021,99,0,transit,SITE_DEL_002,28.6138784,77.2089931,14.0,156.73,2.388,0.071,2.52,5.0824,-1.856,156.7338,0.20072,0.02479,0.04016,0.97851,0.0031,0.0315,-9.8005,-0.1646,-0.1498,0.0138,0.1513,3,16,0.7,0.97,0.29,24.558,19.28,89.3,40.8,19646.0,7907,7961,7735,8148,62.0,60.7,58.1,58.2,2.968,2.919,2.917,2.974,7.26,259.2,32.9,32.8,1013.71,-25.54,1.45,1.52,30.1,43.7,33.8,0,no_anomaly,0.0,0,0,0,0,28.6138784,77.2089931,14.0,0.0
2024-07-19T06:10:10.000Z,MISSION_0021,100,0,transit,SITE_DEL_002,28.613878,77.2089895,14.0,157.8,2.596,0.093,2.71,-1.2678,-2.1302,157.803,0.19265,0.01611,-0.01443,0.98103,-0.0125,0.0162,-9.8891,-0.1291,-0.2976,0.2676,0.1568,3,12,0.94,0.8,0.33,24.57,20.48,89.2,41.6,19630.0,7649,8144,7995,7989,58.6,55.7,59.8,56.2,2.767,2.687,3.002,2.893,7.24,269.0,33.3,32.3,1013.53,-31.36,-2.53,1.37,29.7,42.7,36.3,0,no_anomaly,0.0,0,0,0,0,28.613878,77.2089895,14.0,0.0
2024-07-19T06:10:10.100Z,MISSION_0021,101,0,transit,SITE_DEL_002,28.6138752,77.2089893,14.0,155.88,2.565,0.183,3.01,-4.0422,-2.8265,155.8812,0.20958,0.01674,-0.03963,0.97684,-0.1402,-0.0089,-9.7499,-0.8284,0.3842,0.3126,0.2742,3,15,0.75,0.97,0.22,24.544,20.31,89.2,42.4,19614.0,8041,7674,7948,8013,60.5,59.3,60.4,55.2,2.734,2.747,2.762,3.035,7.41,270.7,33.6,32.7,1013.23,-29.04,-0.36,2.18,30.0,38.0,35.8,0,no_anomaly,0.0,0,0,0,0,28.6138752,77.2089893,14.0,0.0
2024-07-19T06:10:10.200Z,MISSION_0021,102,0,transit,SITE_DEL_002,28.61387,77.208987,14.0,156.33,3.038,0.157,3.64,-3.0688,-2.3465,156.33,0.20551,0.01454,-0.0304,0.97807,-0.091,0.0455,-9.8474,-0.7283,1.0997,0.4188,0.3169,3,19,0.68,0.98,0.23,24.545,18.88,89.1,41.3,19598.0,7877,7727,7823,7784,59.5,56.5,58.4,60.8,2.773,2.533,2.951,2.622,7.83,259.3,33.3,31.7,1014.04,-30.19,-1.57,1.61,30.0,46.8,36.6,0,no_anomaly,0.0,0,0,0,0,28.61387,77.208987,14.0,0.0
2024-07-19T06:10:10.300Z,MISSION_0021,103,0,transit,SITE_DEL_002,28.6138702,77.208986,14.0,155.89,3.728,0.102,3.67,-1.0128,-2.4036,155.8945,0.20894,0.01867,-0.01302,0.97766,0.1996,-0.0282,-9.7508,-0.3564,-0.0115,-0.3924,0.3319,3,11,0.78,0.76,0.29,24.51,22.8,89.0,42.9,19583.0,8009,7996,7887,8120,55.9,60.4,58.7,60.4,2.595,2.822,2.79,2.827,7.12,254.6,33.2,33.2,1013.57,-34.35,-1.0,1.77,26.1,38.9,31.1,0,no_anomaly,0.0,0,0,0,0,28.6138702,77.208986,14.0,0.0
2024-07-19T06:10:10.400Z,MISSION_0021,104,0,transit,SITE_DEL_002,28.6138695,77.2089852,14.0,156.73,3.61,0.061,3.77,3.8696,-0.4604,156.7314,0.20141,0.01074,0.03226,0.97892,0.2816,0.0874,-9.7482,-0.1653,-0.1759,0.9505,0.2489,3,12,0.54,0.93,0.25,24.597,24.46,88.9,41.9,19567.0,7923,7763,7835,7954,57.9,56.8,57.2,55.3,3.034,2.816,2.856,2.989,7.18,263.3,33.7,33.1,1013.76,-32.97,0.91,1.56,27.1,41.9,34.1,0,no_anomaly,0.0,0,0,0,0,28.6138695,77.2089852,14.0,0.0
2024-07-19T06:10:10.500Z,MISSION_0021,105,0,transit,SITE_DEL_002,28.6138715,77.2089816,14.0,157.71,3.388,0.084,3.78,1.0387,-3.3492,157.7091,0.19295,0.03042,0.00324,0.98073,-0.1662,0.0327,-9.8647,-0.1438,-0.6113,0.2978,0.2385,3,16,0.69,0.86,0.26,24.501,19.83,88.9,41.5,19551.0,8169,8043,7983,7826,60.4,58.4,58.9,57.7,2.967,2.891,2.861,2.858,7.69,268.6,33.1,33.2,1013.33,-33.33,-0.35,1.79,26.1,46.2,32.6,0,no_anomaly,0.0,0,0,0,0,28.6138715,77.2089816,14.0,0.0
2024-07-19T06:10:10.600Z,MISSION_0021,106,0,transit,SITE_DEL_002,28.6138764,77.2089847,14.0,155.44,3.591,0.128,3.13,7.0463,-1.8869,155.4361,0.2113,0.02913,0.05654,0.97535,0.1751,0.0324,-9.7698,-0.7067,0.4308,-0.2552,0.272,3,19,0.84,0.71,0.2,24.526,21.88,88.8,41.0,19536.0,8045,7873,7904,7936,57.3,59.6,61.2,57.7,2.658,2.59,2.429,2.682,8.17,255.4,33.3,32.4,1013.95,-30.79,-0.0,1.39,27.3,43.1,34.1,0,no_anomaly,0.0,0,0,0,0,28.6138764,77.2089847,14.0,0.0
2024-07-19T06:10:10.700Z,MISSION_0021,107,0,transit,SITE_DEL_002,28.6138736,77.2089842,14.0,153.92,3.975,0.011,3.43,-5.3558,-3.0541,153.9165,0.22655,0.01539,-0.05151,0.97252,-0.3162,0.0032,-9.7773,0.24,0.6825,0.1006,0.1726,3,12,0.8,0.72,0.57,24.519,20.72,88.7,42.4,19520.0,7994,8014,7878,7925,55.4,61.0,58.6,58.7,2.648,2.871,2.714,2.848,5.95,264.5,33.1,33.0,1013.64,-33.67,-0.53,1.36,24.0,40.8,32.9,0,no_anomaly,0.0,0,0,0,0,28.6138736,77.2089842,14.0,0.0
2024-07-19T06:10:10.800Z,MISSION_0021,108,0,transit,SITE_DEL_002,28.6138775,77.2089812,14.0,155.31,3.785,-0.002,3.26,-0.0584,0.7552,155.3145,0.21375,-0.00655,0.00091,0.97687,-0.1058,-0.0054,-9.8379,-0.3227,-0.9652,-0.2881,0.277,3,15,0.71,1.13,0.34,24.545,14.31,88.7,40.9,19504.0,7410,8119,8105,8040,57.0,56.7,56.3,57.8,2.808,2.783,2.862,2.549,8.26,264.6,33.1,32.8,1013.56,-31.04,-0.84,1.38,31.6,46.4,37.8,0,no_anomaly,0.0,0,0,0,0,28.6138775,77.2089812,14.0,0.0
2024-07-19T06:10:10.900Z,MISSION_0021,109,0,transit,SITE_DEL_002,28.613876,77.2089776,14.0,157.15,3.536,0.092,3.65,1.029,-3.382,157.1533,0.1977,0.0307,0.00295,0.97978,0.2846,-0.0141,-9.8043,-0.8916,0.4209,-0.2834,0.2454,3,10,0.63,0.88,0.24,24.586,18.14,88.6,41.5,19488.0,7874,8006,7840,7658,55.3,57.6,57.1,58.8,2.787,3.067,2.836,2.766,7.64,259.8,33.1,32.4,1013.85,-31.43,1.53,1.46,31.4,47.9,39.1,0,no_anomaly,0.0,0,0,0,0,28.613876,77.2089776,14.0,0.0
2024-07-19T06:10:11.000Z,MISSION_0021,110,0,transit,SITE_DEL_002,28.6138765,77.2089842,14.0,155.31,3.188,0.148,3.15,1.8284,-1.3154,155.3082,0.21359,0.01462,0.01313,0.97673,0.1133,-0.0068,-9.818,-0.4303,-0.3093,0.0098,0.2752,3,17,0.61,0.79,0.25,24.505,25.17,88.5,41.7,19473.0,7724,8026,8085,7887,58.6,59.1,58.1,54.7,2.832,2.578,2.662,2.856,7.41,250.2,33.4,31.9,1013.74,-33.28,0.02,1.08,29.0,43.9,36.0,0,no_anomaly,0.0,0,0,0,0,28.6138765,77.2089842,14.0,0.0
2024-07-19T06:10:11.100Z,MISSION_0021,111,0,transit,SITE_DEL_002,28.613881,77.2089859,14.0,154.05,3.228,0.075,2.63,4.348,-4.0477,154.0512,0.22291,0.0429,0.02902,0.97346,0.2107,-0.0991,-9.8796,-0.0514,-0.203,0.2924,0.2736,3,13,0.65,1.01,0.29,24.491,21.35,88.4,41.3,19457.0,7847,7948,8009,8173,60.9,56.7,57.1,61.2,2.639,2.467,2.789,2.63,7.57,261.2,33.6,32.9,1013.67,-31.39,-0.29,1.45,29.3,43.5,34.2,0,no_anomaly,0.0,0,0,0,0,28.613881,77.2089859,14.0,0.0
2024-07-19T06:10:11.200Z,MISSION_0021,112,0,transit,SITE_DEL_002,28.6138806,77.2089893,14.0,150.65,3.175,0.113,2.47,-2.9417,-2.739,150.6549,0.25373,0.01661,-0.03088,0.96664,-0.1671,-0.0041,-9.8382,-0.3033,0.7058,0.2523,0.2258,3,12,0.62,0.88,0.2,24.431,21.74,88.4,41.6,19441.0,7826,8048,7954,7886,60.0,59.6,55.0,58.8,3.308,2.964,2.914,2.69,6.09,262.3,33.2,32.2,1013.41,-27.64,-1.97,1.18,31.6,47.3,38.2,0,no_anomaly,0.0,0,0,0,0,28.6138806,77.2089893,14.0,0.0
2024-07-19T06:10:11.300Z,MISSION_0021,113,0,transit,SITE_DEL_002,28.6138822,77.2089881,14.0,153.59,3.217,0.081,2.38,-4.6686,-2.6953,153.5934,0.22909,0.01358,-0.04501,0.97227,0.4772,0.0723,-9.81,-0.3931,-0.6366,-0.0022,0.2505,3,13,0.62,0.85,0.22,24.523,22.16,88.3,41.9,19426.0,7983,8033,8158,8087,60.0,56.3,56.4,59.2,2.96,2.838,3.012,2.955,7.27,265.3,33.1,33.3,1013.52,-23.01,-0.36,1.18,30.5,41.2,38.3,0,no_anomaly,0.0,0,0,0,0,28.6138822,77.2089881,14.0,0.0
2024-07-19T06:10:11.400Z,MISSION_0021,114,0,transit,SITE_DEL_002,28.6138798,77.2089834,14.0,156.32,2.739,0.087,2.92,4.3932,-1.52,156.3174,0.20453,0.02084,0.03479,0.97802,0.0758,0.0005,-9.7722,-0.1553,0.3935,-0.3847,0.2281,3,13,0.5,0.94,0.2,24.449,18.06,88.2,41.2,19410.0,8058,8136,8126,7780,58.4,59.0,58.0,57.4,2.748,2.783,2.75,3.132,7.28,269.2,33.3,32.6,1013.19,-38.67,-0.28,1.0,28.6,39.3,33.8,0,no_anomaly,0.0,0,0,0,0,28.6138798,77.2089834,14.0,0.0
2024-07-19T06:10:11.500Z,MISSION_0021,115,0,transit,SITE_DEL_002,28.6138778,77.2089829,14.0,155.84,2.595,0.147,3.12,1.7196,-0.652,155.8427,0.20914,0.0087,0.01348,0.97775,-0.0084,0.0453,-9.7853,0.4553,-0.347,0.2262,0.2623,3,18,0.75,1.02,0.37,24.434,13.12,88.2,41.1,19394.0,7780,8112,8204,8225,59.0,57.0,58.9,59.2,2.795,2.821,2.866,2.659,7.99,257.0,33.5,32.4,1013.65,-30.92,-1.23,1.4,27.3,46.9,37.6,0,no_anomaly,0.0,0,0,0,0,28.6138778,77.2089829,14.0,0.0
2024-07-19T06:10:11.600Z,MISSION_0021,116,0,transit,SITE_DEL_002,28.6138724,77.2089754,14.0,156.03,2.231,0.104,4.12,2.24,-1.709,156.0315,0.20729,0.01864,0.01602,0.97797,-0.2702,-0.0247,-9.8027,-0.62,-0.0589,0.0903,0.2414,3,16,0.68,1.2,0.31,24.479,17.63,88.1,41.5,19378.0,8090,7912,8083,7937,58.0,57.5,58.1,61.5,2.807,2.765,2.856,2.895,7.55,267.3,33.1,32.6,1013.46,-29.15,0.25,1.0,30.9,41.5,37.0,0,no_anomaly,0.0,0,0,0,0,28.6138724,77.2089754,14.0,0.0
2024-07-19T06:10:11.700Z,MISSION_0021,117,0,transit,SITE_DEL_002,28.6138703,77.2089726,14.0,155.21,1.615,0.098,4.49,-3.9535,-4.5901,155.2131,0.21567,0.03169,-0.04225,0.97504,0.0052,-0.0033,-9.6933,-0.7674,0.0556,0.2046,0.2741,3,19,0.55,0.88,0.2,24.546,16.61,88.0,41.9,19363.0,7884,7880,7652,8120,60.0,57.1,57.7,58.5,2.474,2.681,2.746,2.849,7.25,261.8,33.5,32.5,1013.5,-25.03,0.99,1.67,29.4,45.2,36.5,0,no_anomaly,0.0,0,0,0,0,28.6138703,77.2089726,14.0,0.0
2024-07-19T06:10:11.800Z,MISSION_0021,118,0,transit,SITE_DEL_002,28.6138702,77.2089746,14.0,155.45,1.408,0.121,4.35,-2.9243,-2.8442,155.449,0.2131,0.01882,-0.0302,0.97638,-0.0078,0.0476,-9.8001,0.1606,-0.0178,-0.1964,0.2478,3,13,0.5,1.25,0.2,24.493,22.63,87.9,42.5,19347.0,7796,8030,7896,7981,59.2,60.0,61.8,57.0,2.579,2.626,3.062,2.953,7.48,269.3,33.1,32.3,1013.39,-35.22,-0.19,1.63,27.4,46.7,33.7,0,no_anomaly,0.0,0,0,0,0,28.6138702,77.2089746,14.0,0.0
2024-07-19T06:10:11.900Z,MISSION_0021,119,0,transit,SITE_DEL_002,28.613871,77.2089728,14.0,157.46,1.07,0.116,4.42,-7.2117,-2.0234,157.4646,0.19606,0.005,-0.06511,0.97841,-0.2609,-0.0741,-9.7777,-0.1772,0.6989,0.3876,0.2346,3,11,0.66,0.76,0.25,24.38,19.02,87.9,42.3,19331.0,8053,8175,7932,7943,59.0,58.9,60.0,58.7,2.651,2.85,2.78,2.833,8.98,271.1,33.1,32.4,1013.86,-25.1,-0.49,1.94,29.4,43.1,33.5,0,no_anomaly,0.0,0,0,0,0,28.613871,77.2089728,14.0,0.0
2024-07-19T06:10:12.000Z,MISSION_0021,120,0,transit,SITE_DEL_002,28.6138717,77.2089722,14.0,158.34,1.16,0.129,4.41,10.443,-2.296,158.3449,0.18525,0.03669,0.08562,0.97827,0.0545,0.1021,-9.7782,0.5204,0.31,0.3986,0.2753,3,15,0.85,0.96,0.52,24.485,23.08,87.8,41.4,19316.0,7866,8134,8163,7883,61.4,57.4,56.3,60.0,2.769,2.981,2.824,2.974,7.35,267.8,33.1,32.8,1013.57,-29.18,0.8,1.91,27.5,39.7,36.6,0,no_anomaly,0.0,0,0,0,0,28.6138717,77.2089722,14.0,0.0
2024-07-19T06:10:12.100Z,MISSION_0021,121,0,transit,SITE_DEL_002,28.6138743,77.2089741,14.0,158.55,0.882,0.147,4.06,-4.8758,-0.4238,158.5499,0.18608,-0.00429,-0.04248,0.98161,-0.3078,0.0517,-9.7502,-0.1837,0.2028,-0.207,0.176,3,20,0.75,1.08,0.31,24.462,15.74,87.7,42.0,19300.0,8059,7822,8026,7778,58.5,56.5,60.0,59.0,2.914,2.889,2.674,2.875,7.04,261.2,33.4,32.8,1013.51,-26.33,0.59,1.5,27.9,46.3,40.4,0,no_anomaly,0.0,0,0,0,0,28.6138743,77.2089741,14.0,0.0
2024-07-19T06:10:12.200Z,MISSION_0021,122,0,transit,SITE_DEL_002,28.6138648,77.2089723,14.0,157.41,0.863,0.087,4.99,-3.0913,-2.1239,157.4131,0.19622,0.01289,-0.03007,0.98001,0.2002,-0.0539,-9.9478,1.5432,-1.1218,-0.1566,0.2087,3,14,0.57,0.93,0.24,24.445,16.24,87.7,41.4,19284.0,8088,8026,7857,7881,59.5,61.0,58.7,61.5,2.668,2.788,2.654,2.656,8.5,251.4,33.5,33.5,1013.51,-32.57,1.05,1.33,29.1,39.9,37.0,0,no_anomaly,0.0,0,0,0,0,28.6138648,77.2089723,14.0,0.0
2024-07-19T06:10:12.300Z,MISSION_0021,123,0,transit,SITE_DEL_002,28.6138645,77.2089737,14.0,156.22,1.42,0.11,4.92,-0.4532,-2.5447,156.2196,0.20607,0.02091,-0.00844,0.97828,-0.4372,0.0229,-9.7458,0.8464,-0.4419,0.2059,0.2537,3,15,0.68,0.83,0.24,24.41,19.47,87.6,42.1,19268.0,8094,7917,7760,8040,57.5,58.3,55.6,57.3,3.096,2.88,2.959,2.942,7.62,257.8,33.4,32.9,1013.49,-30.72,-1.27,1.67,28.2,41.2,36.7,0,no_anomaly,0.0,0,0,0,0,28.6138645,77.2089737,14.0,0.0
2024-07-19T06:10:12.400Z,MISSION_0021,124,0,transit,SITE_DEL_002,28.6138683,77.208972,14.0,159.6,1.24,0.072,4.71,2.5134,-3.6642,159.5982,0.17628,0.03534,0.01591,0.98358,-0.203,-0.0089,-9.8683,0.6942,-0.3814,0.2947,0.1743,3,13,0.72,1.02,0.31,24.502,11.16,87.5,41.5,19253.0,7888,7933,7550,7785,57.4,59.1,60.0,57.0,2.968,2.782,2.684,2.604,7.48,268.0,33.4,33.3,1013.7,-29.43,0.43,1.22,29.5,40.4,35.2,0,no_anomaly,0.0,0,0,0,0,28.6138683,77.208972,14.0,0.0
2024-07-19T06:10:12.500Z,MISSION_0021,125,0,transit,SITE_DEL_002,28.6138691,77.2089753,14.0,160.3,0.879,0.092,4.41,1.3956,-0.5116,160.2988,0.17101,0.00648,0.01124,0.98518,0.3734,0.0058,-9.7467,-0.2561,0.1195,-0.0494,0.2245,3,15,0.57,1.13,0.24,24.401,22.75,87.4,42.1,19237.0,7905,7816,8074,8012,62.6,59.8,57.7,59.0,3.09,2.713,2.811,3.042,8.21,264.2,33.2,32.7,1013.54,-32.2,-0.52,1.4,25.1,44.8,33.8,0,no_anomaly,0.0,0,0,0,0,28.6138691,77.2089753,14.0,0.0
2024-07-19T06:10:12.600Z,MISSION_0021,126,0,transit,SITE_DEL_002,28.6138666,77.2089742,14.0,158.75,0.55,0.106,4.7,3.1271,-0.9607,158.7494,0.18409,0.01327,0.02527,0.9825,0.0367,0.0488,-9.868,-0.5018,-0.2889,0.0074,0.2213,3,12,0.71,1.0,0.26,24.409,18.91,87.4,41.4,19221.0,7611,8102,7897,7738,57.6,58.9,59.3,60.6,3.161,2.71,2.735,2.769,7.66,268.3,33.4,32.7,1013.85,-24.26,0.08,1.3,25.7,41.0,31.8,0,no_anomaly,0.0,0,0,0,0,28.6138666,77.2089742,14.0,0.0
2024-07-19T06:10:12.700Z,MISSION_0021,127,0,transit,SITE_DEL_002,28.6138666,77.2089748,14.0,157.46,1.018,0.098,4.66,3.1855,-1.4808,157.4635,0.19496,0.0181,0.02473,0.98033,-0.0505,-0.0302,-9.8349,0.0628,-0.5734,-0.0442,0.2003,3,16,0.56,0.82,0.26,24.457,12.32,87.3,41.7,19206.0,7869,7788,7936,7572,56.8,58.5,57.5,59.8,2.628,2.593,2.772,2.768,7.47,269.7,33.0,32.7,1013.51,-27.01,0.25,1.8,29.6,39.4,35.9,0,no_anomaly,0.0,0,0,0,0,28.6138666,77.2089748,14.0,0.0
2024-07-19T06:10:12.800Z,MISSION_0021,128,0,transit,SITE_DEL_002,28.6138639,77.2089742,14.0,154.85,1.597,0.052,4.94,2.8407,-4.8508,154.8469,0.21646,0.04668,0.01496,0.97506,-0.0942,0.0139,-9.808,0.2905,0.1692,-0.3848,0.2398,3,17,0.57,0.85,0.24,24.438,21.11,87.2,40.9,19190.0,8044,8026,8090,7964,61.3,55.2,58.4,56.8,2.779,2.76,2.818,2.707,7.12,258.9,33.0,32.7,1013.32,-35.3,2.15,1.44,29.4,43.1,33.9,0,no_anomaly,0.0,0,0,0,0,28.6138639,77.2089742,14.0,0.0
2024-07-19T06:10:12.900Z,MISSION_0021,129,0,transit,SITE_DEL_002,28.6138666,77.2089766,14.0,158.08,1.259,0.121,4.54,0.2054,0.4597,158.0819,0.19011,-0.0036,0.00252,0.98175,-0.0369,0.0556,-9.7855,0.0299,-0.0605,-0.0034,0.3047,3,19,0.68,0.87,0.22,24.408,18.21,87.2,41.1,19174.0,7810,8026,7871,7806,60.3,57.6,57.3,55.9,2.642,2.889,2.669,2.951,6.96,271.8,33.5,32.5,1013.22,-29.13,0.25,1.65,27.1,44.9,37.7,0,no_anomaly,0.0,0,0,0,0,28.6138666,77.2089766,14.0,0.0
