timestamp_utc,mission_id,frame_id,waypoint_id,inspection_phase,site_id,latitude_deg,longitude_deg,altitude_m,heading_deg,ground_speed_ms,vertical_speed_ms,distance_to_tower_m,roll_deg,pitch_deg,yaw_deg,quat_w,quat_x,quat_y,quat_z,accel_x_ms2,accel_y_ms2,accel_z_ms2,gyro_x_rads,gyro_y_rads,gyro_z_rads,vibration_level,gps_fix_type,gps_satellite_count,gps_hdop,gps_vdop,position_error_m,battery_voltage_v,battery_current_a,battery_remaining_pct,battery_temp_c,battery_capacity_mah,motor_fl_rpm,motor_fr_rpm,motor_rl_rpm,motor_rr_rpm,motor_fl_temp_c,motor_fr_temp_c,motor_rl_temp_c,motor_rr_temp_c,motor_fl_thrust_n,motor_fr_thrust_n,motor_rl_thrust_n,motor_rr_thrust_n,wind_speed_ms,wind_dir_deg,air_temp_c,humidity_pct,pressure_hpa,gimbal_pitch_deg,gimbal_roll_deg,zoom_factor,ir_temp_min_c,ir_temp_max_c,ir_temp_avg_c,anomaly_detected,anomaly_class,anomaly_confidence,anomaly_bbox_x,anomaly_bbox_y,anomaly_bbox_w,anomaly_bbox_h,anomaly_gps_lat,anomaly_gps_lon,anomaly_gps_alt_m,ir_temp_delta_c
2024-08-12T07:21:00.000Z,MISSION_0061,0,0,takeoff,SITE_DEL_002,28.6139023,77.2089972,1.5,27.29,0.0,0.101,0.4,1.4513,-1.1746,27.2872,0.97162,0.01472,-0.00697,0.23598,-0.0236,0.0091,-9.8029,0.3978,-0.1818,0.0386,0.2372,3,18,0.5,0.95,0.2,24.785,16.42,96.8,41.7,21306.0,8223,8251,8183,8237,60.9,58.2,60.3,57.7,2.979,2.631,2.774,2.847,4.63,110.6,34.1,53.5,1010.34,-30.25,-0.06,1.31,29.8,45.5,38.3,0,no_anomaly,0.0,0,0,0,0,28.6139023,77.2089972,1.5,0.0
2024-08-12T07:21:00.100Z,MISSION_0061,1,0,takeoff,SITE_DEL_002,28.6139018,77.2089994,3.0,24.2,0.0,0.123,0.21,3.5298,-1.4556,24.1979,0.97716,0.03277,-0.00596,0.20987,-0.028,0.0346,-9.7279,0.5806,0.0819,-0.1244,0.2033,3,18,0.62,1.01,0.34,24.696,15.75,96.8,41.6,21294.0,8141,8330,7923,8396,56.0,61.7,53.8,63.2,2.911,3.073,2.892,2.964,4.56,110.6,33.7,53.2,1010.58,-30.52,-0.07,1.84,29.5,47.3,38.8,0,no_anomaly,0.0,0,0,0,0,28.6139018,77.2089994,3.0,0.0
2024-08-12T07:21:00.200Z,MISSION_0061,2,0,takeoff,SITE_DEL_002,28.6138972,77.2089987,4.5,26.43,0.04,0.166,0.34,-4.9976,-1.6639,26.4343,0.97263,-0.03912,-0.02409,0.22778,-0.0259,0.0408,-9.8899,-0.5071,0.1621,-0.478,0.1542,3,10,0.73,0.74,0.2,24.728,18.15,96.7,41.3,21281.0,8338,8223,8090,8295,59.1,58.8,58.7,59.1,2.466,2.742,2.791,2.979,4.4,112.1,33.8,53.7,1010.32,-31.77,0.48,1.02,26.9,40.2,35.6,0,no_anomaly,0.0,0,0,0,0,28.6138972,77.2089987,4.5,0.0
2024-08-12T07:21:00.300Z,MISSION_0061,3,0,takeoff,SITE_DEL_002,28.6138979,77.2090021,5.0,25.21,0.0,0.012,0.33,4.2378,-0.1185,25.2053,0.97523,0.03631,0.00706,0.21808,-0.185,-0.0894,-9.7851,-0.1204,-0.8021,-0.5249,0.118,3,20,0.77,0.9,0.23,24.789,18.22,96.7,42.0,21269.0,8352,8157,8214,8310,60.1,61.7,57.8,57.9,2.446,2.783,2.864,2.857,3.72,98.8,33.3,53.9,1010.36,-29.4,0.54,1.65,31.0,39.4,37.1,0,no_anomaly,0.0,0,0,0,0,28.6138979,77.2090021,5.0,0.0
2024-08-12T07:21:00.400Z,MISSION_0061,4,0,takeoff,SITE_DEL_002,28.6138983,77.2089998,5.0,26.79,0.255,0.108,0.19,-1.8691,-2.6282,26.7859,0.97251,-0.01055,-0.02608,0.23117,0.1908,0.0697,-9.8612,-1.1174,0.2674,-0.0617,0.1877,3,17,0.64,0.79,0.26,24.752,19.49,96.6,42.1,21256.0,8337,8238,8472,8360,58.2,57.4,59.2,55.6,2.84,2.96,2.96,2.802,3.52,108.5,33.8,53.7,1011.0,-33.09,0.29,1.95,30.5,43.0,35.8,0,no_anomaly,0.0,0,0,0,0,28.6138983,77.2089998,5.0,0.0
2024-08-12T07:21:00.500Z,MISSION_0061,5,0,takeoff,SITE_DEL_002,28.6138972,77.2090023,5.0,27.68,0.049,0.094,0.4,2.8382,-1.5149,27.6786,0.97051,0.02721,-0.00691,0.23942,0.1169,0.019,-9.8121,0.4088,-0.6314,0.0397,0.1479,3,20,0.7,0.81,0.29,24.716,16.77,96.6,42.0,21244.0,8484,8259,8544,8128,55.1,58.5,55.0,58.5,2.68,2.912,2.937,2.785,4.59,104.0,33.7,53.6,1010.47,-26.43,-0.46,1.64,27.9,48.0,35.1,0,no_anomaly,0.0,0,0,0,0,28.6138972,77.2090023,5.0,0.0
2024-08-12T07:21:00.600Z,MISSION_0061,6,0,takeoff,SITE_DEL_002,28.6138988,77.2090043,5.0,28.91,0.13,0.057,0.49,4.9325,-3.5743,28.9112,0.96664,0.04943,-0.01943,0.25058,-0.0388,0.0571,-9.799,-0.3455,-0.7702,-0.1829,0.1778,3,14,0.6,0.72,0.2,24.658,20.6,96.5,41.6,21232.0,8332,8209,8138,8144,59.8,58.3,58.6,61.9,2.766,2.826,2.727,2.79,4.4,111.8,33.6,53.5,1010.19,-27.14,-2.59,2.03,25.6,45.1,35.0,0,no_anomaly,0.0,0,0,0,0,28.6138988,77.2090043,5.0,0.0
2024-08-12T07:21:00.700Z,MISSION_0061,7,0,takeoff,SITE_DEL_002,28.6138997,77.209001,5.0,27.47,0.0,0.106,0.11,0.0707,-2.7899,27.4667,0.97112,0.00638,-0.0235,0.23735,0.1664,0.0655,-9.7684,-0.1337,-0.0046,0.6763,0.1599,3,14,0.54,1.25,0.25,24.684,16.95,96.5,41.8,21219.0,8408,8450,8275,8287,57.0,57.7,57.8,59.2,2.992,2.894,2.629,2.665,4.34,96.2,33.9,54.1,1010.34,-24.69,-0.76,1.67,24.1,38.1,35.6,0,no_anomaly,0.0,0,0,0,0,28.6138997,77.209001,5.0,0.0
2024-08-12T07:21:00.800Z,MISSION_0061,8,0,takeoff,SITE_DEL_002,28.6138994,77.2089979,5.0,25.74,0.384,0.159,0.24,-0.927,-3.7621,25.736,0.97439,-0.00057,-0.0338,0.22232,-0.0048,-0.0947,-9.7773,-0.0879,0.5054,0.1959,0.2637,3,11,0.69,0.71,0.34,24.71,21.7,96.4,42.1,21207.0,8176,8349,8212,8253,59.8,57.9,58.2,57.9,2.568,2.545,2.977,2.519,3.75,99.9,33.4,53.4,1010.11,-28.61,0.92,1.76,29.5,38.6,37.1,0,no_anomaly,0.0,0,0,0,0,28.6138994,77.2089979,5.0,0.0
2024-08-12T07:21:00.900Z,MISSION_0061,9,0,takeoff,SITE_DEL_002,28.613896,77.2089927,5.0,23.94,0.582,0.2,0.92,-1.1582,-1.2952,23.9359,0.97817,-0.00754,-0.01315,0.20723,-0.3093,-0.0922,-9.8292,-0.263,-0.243,0.1835,0.1999,3,12,0.82,0.92,0.33,24.683,13.56,96.3,41.7,21194.0,7959,8213,8197,8202,57.6,56.2,60.5,61.2,2.747,2.891,2.9,2.643,4.12,106.0,33.7,53.6,1010.64,-22.16,-0.37,1.81,28.1,45.4,37.0,0,no_anomaly,0.0,0,0,0,0,28.613896,77.2089927,5.0,0.0
2024-08-12T07:21:01.000Z,MISSION_0061,10,0,takeoff,SITE_DEL_002,28.6138944,77.2090026,5.0,26.5,0.52,0.117,0.68,-4.0154,-3.7449,26.5017,0.97252,-0.0266,-0.03981,0.22784,-0.1157,0.0377,-9.718,-0.2508,0.1895,-0.207,0.2626,3,10,0.78,0.94,0.48,24.699,17.71,96.3,41.5,21182.0,8163,8207,8021,8107,58.0,62.5,61.8,56.1,2.669,3.043,2.626,2.47,3.95,104.7,33.8,53.8,1010.62,-28.2,2.48,1.3,30.1,46.0,38.0,0,no_anomaly,0.0,0,0,0,0,28.6138944,77.2090026,5.0,0.0
2024-08-12T07:21:01.100Z,MISSION_0061,11,0,takeoff,SITE_DEL_002,28.6138907,77.2089975,5.0,27.68,0.198,0.035,1.07,3.4438,-3.4682,27.6794,0.96987,0.0364,-0.02218,0.23987,0.238,-0.0479,-9.8214,1.2329,-0.28,-0.0447,0.1358,3,14,0.64,0.95,0.3,24.785,15.06,96.2,41.3,21169.0,8446,7833,8255,7983,61.5,60.5,58.0,58.9,3.021,2.757,2.747,2.551,3.1,110.3,33.6,53.1,1010.62,-32.27,0.74,1.51,25.8,46.7,36.2,0,no_anomaly,0.0,0,0,0,0,28.6138907,77.2089975,5.0,0.0
2024-08-12T07:21:01.200Z,MISSION_0061,12,0,takeoff,SITE_DEL_002,28.6138957,77.2089993,5.0,27.55,0.152,0.065,0.49,-3.2758,-3.2247,27.547,0.97065,-0.02105,-0.03412,0.23711,-0.0093,0.0543,-9.7975,-0.7969,-0.0477,-0.1715,0.1546,3,13,0.7,0.65,0.2,24.696,23.71,96.2,41.4,21157.0,8335,8223,8292,8352,56.3,58.8,56.8,56.1,2.889,2.642,2.821,2.843,4.02,116.0,33.7,53.0,1010.97,-30.8,-0.97,2.01,32.1,43.2,37.3,0,no_anomaly,0.0,0,0,0,0,28.6138957,77.2089993,5.0,0.0
2024-08-12T07:21:01.300Z,MISSION_0061,13,0,takeoff,SITE_DEL_002,28.6139031,77.2089983,5.0,26.47,0.33,0.096,0.39,-0.53,-0.122,26.4675,0.97343,-0.00426,-0.00209,0.22892,-0.0673,0.0372,-9.838,-0.1727,-0.0982,-0.0882,0.2365,3,18,0.79,1.03,0.26,24.7,13.0,96.1,42.4,21145.0,8286,8352,7872,8372,59.1,60.8,59.2,58.7,2.774,2.727,2.992,2.808,3.92,105.1,33.9,53.7,1010.71,-23.37,0.31,1.29,29.6,40.7,35.3,0,no_anomaly,0.0,0,0,0,0,28.6139031,77.2089983,5.0,0.0
2024-08-12T07:21:01.400Z,MISSION_0061,14,0,takeoff,SITE_DEL_002,28.6138975,77.2090011,5.0,23.62,0.289,0.2,0.31,-1.9296,-2.6625,23.6198,0.97851,-0.01172,-0.02618,0.2042,0.106,-0.0617,-9.8128,0.6156,0.09,0.3468,0.1319,3,14,0.67,0.81,0.24,24.706,20.32,96.1,41.4,21132.0,8063,8159,8218,8148,59.7,58.0,57.8,60.9,2.843,2.859,2.933,2.832,4.57,102.6,33.7,53.8,1010.56,-30.55,-0.3,1.63,31.7,44.5,40.3,0,no_anomaly,0.0,0,0,0,0,28.6138975,77.2090011,5.0,0.0
2024-08-12T07:21:01.500Z,MISSION_0061,15,0,takeoff,SITE_DEL_002,28.6138949,77.2090001,5.0,23.13,0.0,0.135,0.57,5.6984,-1.2664,23.1254,0.97833,0.05091,-0.00085,0.20072,0.0237,0.021,-9.7513,-0.5903,0.0381,0.0292,0.1996,3,13,0.7,0.92,0.3,24.64,12.09,96.0,42.0,21120.0,8117,8036,8165,8305,58.6,55.1,62.3,56.8,2.636,2.718,2.477,3.161,4.95,112.9,34.0,54.0,1010.6,-22.26,1.17,1.71,26.5,41.6,36.7,0,no_anomaly,0.0,0,0,0,0,28.6138949,77.2090001,5.0,0.0
2024-08-12T07:21:01.600Z,MISSION_0061,16,0,takeoff,SITE_DEL_002,28.6138995,77.2090026,5.0,20.96,0.0,0.128,0.3,4.3046,-4.0666,20.9633,0.98176,0.04336,-0.02804,0.18299,-0.0286,0.0286,-9.7907,-0.7682,0.215,-0.507,0.1875,3,14,0.73,0.71,0.51,24.716,21.56,95.9,41.2,21107.0,8293,8290,8338,8184,59.8,58.3,60.7,58.9,2.528,3.07,2.873,2.83,4.51,114.9,34.0,54.3,1010.19,-33.07,0.47,1.94,27.7,45.8,34.7,0,no_anomaly,0.0,0,0,0,0,28.6138995,77.2090026,5.0,0.0
2024-08-12T07:21:01.700Z,MISSION_0061,17,0,takeoff,SITE_DEL_002,28.6139051,77.2090027,5.0,17.44,0.0,0.061,0.64,1.1114,0.1247,17.4429,0.98839,0.00942,0.00255,0.15161,-0.0155,0.0778,-9.8042,0.5314,-0.037,-0.3968,0.2399,3,15,0.66,1.05,0.34,24.707,22.72,95.9,41.7,21095.0,8467,8404,8044,8228,58.8,61.4,57.3,58.0,2.573,2.739,2.476,2.651,3.75,106.1,33.7,54.0,1010.28,-28.96,-1.56,1.49,25.9,40.2,37.5,0,no_anomaly,0.0,0,0,0,0,28.6139051,77.2090027,5.0,0.0
2024-08-12T07:21:01.800Z,MISSION_0061,18,0,takeoff,SITE_DEL_002,28.6139068,77.209006,5.0,17.05,0.305,0.113,1.01,-3.266,-2.9667,17.0455,0.98833,-0.02434,-0.02981,0.14736,-0.1772,-0.0429,-9.7461,0.6659,-0.7315,-0.1774,0.1601,3,12,0.78,0.65,0.29,24.667,26.94,95.8,41.3,21083.0,8221,8287,8339,8314,58.2,59.1,57.1,58.7,3.004,2.752,2.809,2.934,3.09,116.1,33.5,53.3,1010.6,-31.56,1.64,1.61,26.5,42.5,37.1,0,no_anomaly,0.0,0,0,0,0,28.6139068,77.209006,5.0,0.0
2024-08-12T07:21:01.900Z,MISSION_0061,19,0,takeoff,SITE_DEL_002,28.6139057,77.2090062,5.0,16.88,0.456,0.123,0.94,2.8488,-1.8405,16.8796,0.98868,0.02694,-0.01223,0.1471,-0.0796,0.0665,-9.8099,-0.1962,-0.3475,-0.4196,0.1475,3,10,0.61,0.82,0.28,24.665,18.7,95.8,42.2,21070.0,8035,8104,8424,8244,61.4,58.7,59.9,61.5,2.606,2.782,2.526,2.906,4.26,113.4,33.7,53.2,1010.44,-30.38,1.08,1.41,32.0,42.6,37.2,0,no_anomaly,0.0,0,0,0,0,28.6139057,77.2090062,5.0,0.0
2024-08-12T07:21:02.000Z,MISSION_0061,20,0,takeoff,SITE_DEL_002,28.6139102,77.2090116,5.0,19.54,0.361,0.049,1.72,-2.5813,-0.0814,19.5367,0.98525,-0.02208,-0.00452,0.16961,-0.1308,0.014,-9.8708,-0.8662,0.0067,-0.2286,0.203,3,19,0.69,0.79,0.2,24.695,14.36,95.7,41.6,21058.0,8196,7992,8232,8157,63.9,59.4,60.4,55.2,2.847,2.72,3.056,2.898,4.26,115.1,33.6,54.1,1010.43,-29.54,-0.06,1.24,29.9,43.2,39.4,0,no_anomaly,0.0,0,0,0,0,28.6139102,77.2090116,5.0,0.0
2024-08-12T07:21:02.100Z,MISSION_0061,21,0,takeoff,SITE_DEL_002,28.613907,77.2090129,5.0,18.74,0.594,0.175,1.63,3.0456,-2.4662,18.7357,0.98599,0.02972,-0.0169,0.16324,-0.127,-0.0415,-9.819,0.0629,0.7674,0.26,0.2249,3,10,0.5,1.31,0.3,24.784,19.2,95.7,41.7,21045.0,8365,8318,8178,8258,56.7,58.6,58.4,57.3,2.854,2.81,2.65,2.613,5.17,105.9,34.1,54.5,1010.5,-25.79,-0.18,1.8,30.3,41.5,34.5,0,no_anomaly,0.0,0,0,0,0,28.613907,77.2090129,5.0,0.0
2024-08-12T07:21:02.200Z,MISSION_0061,22,0,takeoff,SITE_DEL_002,28.6139091,77.2090185,5.0,17.16,0.17,0.075,2.29,2.112,1.0126,17.1627,0.98862,0.0169,0.01149,0.14902,-0.1425,0.0475,-9.7883,-0.3593,-0.9124,0.4457,0.1803,3,13,0.69,0.84,0.24,24.653,17.82,95.6,42.0,21033.0,8518,8299,8341,8085,58.4,56.6,59.2,58.4,3.133,2.707,3.048,2.831,3.94,113.8,33.4,52.9,1009.93,-22.76,-0.13,1.49,24.6,39.1,32.8,0,no_anomaly,0.0,0,0,0,0,28.6139091,77.2090185,5.0,0.0
2024-08-12T07:21:02.300Z,MISSION_0061,23,0,takeoff,SITE_DEL_002,28.6139072,77.2090185,5.0,18.08,0.0,0.008,2.21,0.2952,-0.2921,18.0815,0.98757,0.00294,-0.00211,0.15714,0.0689,0.0118,-9.7291,0.3622,0.037,-0.3013,0.1154,3,12,0.64,0.76,0.2,24.67,18.45,95.5,41.2,21020.0,8269,8283,8424,8349,58.2,57.0,59.3,58.7,2.728,2.76,2.942,2.458,4.59,110.5,33.8,53.8,1010.48,-26.33,0.15,1.46,31.3,39.9,36.2,0,no_anomaly,0.0,0,0,0,0,28.6139072,77.2090185,5.0,0.0
2024-08-12T07:21:02.400Z,MISSION_0061,24,0,takeoff,SITE_DEL_002,28.6139041,77.2090165,5.0,17.45,0.0,0.081,1.9,3.7659,-1.9906,17.4458,0.98766,0.03511,-0.01218,0.15211,0.086,-0.0265,-9.8771,-0.0312,0.441,-0.0816,0.1561,3,19,0.71,0.96,0.36,24.684,22.08,95.5,42.1,21008.0,8499,8322,8502,8041,54.8,58.0,58.3,57.9,2.837,2.953,2.911,3.016,2.87,103.7,33.7,55.0,1010.37,-32.57,-0.8,1.8,25.7,40.0,34.7,0,no_anomaly,0.0,0,0,0,0,28.6139041,77.2090165,5.0,0.0
2024-08-12T07:21:02.500Z,MISSION_0061,25,0,takeoff,SITE_DEL_002,28.6139029,77.2090181,5.0,17.07,0.077,0.157,2.04,-3.8237,-2.0405,17.0728,0.9883,-0.03035,-0.02255,0.14774,0.0478,-0.054,-9.8018,0.5743,-0.0389,0.1019,0.1523,3,11,0.5,0.71,0.2,24.596,16.83,95.4,41.4,20996.0,7928,8098,8051,7930,64.7,57.7,57.4,56.6,2.972,3.03,2.533,2.694,4.45,102.9,33.6,52.6,1010.3,-33.52,-1.59,1.72,30.1,43.5,33.9,0,no_anomaly,0.0,0,0,0,0,28.6139029,77.2090181,5.0,0.0
2024-08-12T07:21:02.600Z,MISSION_0061,26,0,takeoff,SITE_DEL_002,28.6139004,77.2090179,5.0,19.91,0.207,0.057,1.99,1.4687,0.0655,19.9095,0.98486,0.01252,0.00278,0.17285,0.1259,-0.08,-9.7838,-0.2284,0.187,0.2119,0.1638,3,19,0.55,0.74,0.25,24.679,20.74,95.4,41.9,20983.0,8337,8073,8159,8469,61.3,61.8,58.1,58.4,2.731,2.761,3.07,2.663,4.15,111.6,33.7,53.4,1010.42,-31.01,-0.39,1.51,27.3,42.8,35.1,0,no_anomaly,0.0,0,0,0,0,28.6139004,77.2090179,5.0,0.0
2024-08-12T07:21:02.700Z,MISSION_0061,27,0,takeoff,SITE_DEL_002,28.6138952,77.2090201,5.0,20.21,0.395,0.075,2.3,1.927,-1.5677,20.2114,0.98421,0.01895,-0.01052,0.17565,-0.0443,0.0526,-9.8227,-0.2645,0.5898,0.1466,0.1676,3,11,0.7,0.95,0.29,24.689,16.12,95.3,41.4,20971.0,8233,8268,8394,8700,60.3,57.2,56.8,51.7,2.625,2.963,2.962,2.94,4.34,107.7,33.8,53.6,1010.49,-33.19,0.96,1.86,31.8,43.8,37.3,0,no_anomaly,0.0,0,0,0,0,28.6138952,77.2090201,5.0,0.0
2024-08-12T07:21:02.800Z,MISSION_0061,28,0,takeoff,SITE_DEL_002,28.613894,77.2090147,5.0,20.92,0.042,0.125,1.77,0.0377,-1.9974,20.9226,0.98323,0.00349,-0.01708,0.18155,-0.0597,-0.0207,-9.8259,-0.1208,-0.8026,-0.5255,0.2743,3,10,0.71,0.86,0.2,24.652,22.45,95.3,43.1,20958.0,7942,8253,8137,8368,62.3,61.5,59.4,57.4,2.916,2.822,2.881,3.08,3.57,101.5,33.8,53.8,1010.69,-28.0,-0.41,2.07,28.7,41.9,36.2,0,no_anomaly,0.0,0,0,0,0,28.613894,77.2090147,5.0,0.0
2024-08-12T07:21:02.900Z,MISSION_0061,29,0,takeoff,SITE_DEL_002,28.6138934,77.2090169,5.0,17.66,0.218,0.138,2.02,-0.9076,-0.6822,17.6574,0.98811,-0.00691,-0.0071,0.15343,-0.0781,0.0383,-9.8469,-0.148,-0.1562,0.4859,0.1203,3,18,0.71,0.93,0.2,24.786,17.82,95.2,42.3,20946.0,8139,8070,8147,8213,55.8,61.7,57.5,63.5,2.927,2.852,2.824,2.82,5.49,108.7,33.5,53.7,1010.47,-30.79,1.0,1.7,26.5,40.2,33.1,0,no_anomaly,0.0,0,0,0,0,28.6138934,77.2090169,5.0,0.0
2024-08-12T07:21:03.000Z,MISSION_0061,30,0,takeoff,SITE_DEL_002,28.6138937,77.2090193,5.0,15.44,0.433,0.13,2.26,1.9638,-3.9259,15.4378,0.99013,0.02157,-0.03164,0.1348,0.0914,0.0319,-9.8403,-0.9686,-0.0388,0.0874,0.0556,3,14,0.67,0.78,0.22,24.696,19.12,95.2,42.3,20934.0,8215,8222,7907,8260,59.8,56.2,58.5,62.1,2.703,3.017,2.635,2.726,4.07,105.5,34.0,53.9,1010.05,-28.36,-0.3,1.54,26.9,42.9,37.2,0,no_anomaly,0.0,0,0,0,0,28.6138937,77.2090193,5.0,0.0
2024-08-12T07:21:03.100Z,MISSION_0061,31,0,takeoff,SITE_DEL_002,28.613895,77.2090236,5.0,16.14,0.0,0.065,2.68,1.6942,-2.2878,16.1437,0.98975,0.01744,-0.01769,0.14066,0.094,0.0423,-9.8303,-1.0063,-0.239,0.2441,0.1086,3,16,0.71,0.6,0.3,24.662,15.98,95.1,42.6,20921.0,8183,8202,8099,8594,61.3,61.8,59.2,59.3,2.899,2.636,2.924,2.922,3.6,110.0,33.8,53.0,1010.5,-35.98,0.55,1.73,31.3,40.0,37.5,0,no_anomaly,0.0,0,0,0,0,28.613895,77.2090236,5.0,0.0
2024-08-12T07:21:03.200Z,MISSION_0061,32,0,takeoff,SITE_DEL_002,28.6138972,77.2090226,5.0,15.95,0.33,0.066,2.54,-3.0701,-2.6754,15.9518,0.98979,-0.02328,-0.02683,0.13805,0.3474,-0.0635,-9.902,-0.2891,0.0025,0.0834,0.2336,3,10,0.69,0.82,0.25,24.607,13.71,95.0,41.4,20909.0,8359,7876,8176,8188,59.8,60.8,57.0,55.8,2.807,2.785,3.003,2.956,3.52,113.1,33.7,53.5,1010.05,-27.88,-1.1,1.26,28.1,44.8,34.4,0,no_anomaly,0.0,0,0,0,0,28.6138972,77.2090226,5.0,0.0
2024-08-12T07:21:03.300Z,MISSION_0061,33,0,takeoff,SITE_DEL_002,28.6138986,77.2090281,5.0,15.3,0.64,0.122,3.13,1.1944,-2.1482,15.3041,0.99084,0.01282,-0.01719,0.13332,-0.066,-0.0997,-9.9035,-0.0701,-0.4169,-0.062,0.1246,3,18,0.71,0.97,0.3,24.604,15.89,95.0,42.5,20896.0,8408,8422,8039,8352,57.3,57.8,54.2,58.3,2.916,2.958,2.732,2.945,3.91,107.8,33.5,53.3,1010.27,-29.53,-0.78,1.64,24.9,42.4,32.4,0,no_anomaly,0.0,0,0,0,0,28.6138986,77.2090281,5.0,0.0
2024-08-12T07:21:03.400Z,MISSION_0061,34,0,takeoff,SITE_DEL_002,28.6138942,77.2090272,5.0,16.28,0.73,0.065,3.1,-2.6101,-5.8536,16.2833,0.98854,-0.01529,-0.05375,0.14025,0.135,-0.0613,-9.8278,0.2919,-0.0262,0.1443,0.2195,3,20,0.55,0.99,0.25,24.781,17.43,94.9,42.4,20884.0,8186,8052,8141,8154,59.3,55.9,56.0,58.3,2.858,2.867,2.99,2.359,3.85,108.5,33.5,53.3,1010.74,-31.9,-2.33,1.19,28.0,40.6,36.4,0,no_anomaly,0.0,0,0,0,0,28.6138942,77.2090272,5.0,0.0
2024-08-12T07:21:03.500Z,MISSION_0061,35,0,takeoff,SITE_DEL_002,28.6138947,77.2090297,5.0,15.65,0.793,0.016,3.35,2.4749,-3.7874,15.6473,0.98982,0.02588,-0.02979,0.13673,-0.2441,-0.0032,-9.8071,-1.153,-0.2202,-0.1347,0.1593,3,10,0.71,0.92,0.28,24.644,16.45,94.9,41.2,20871.0,8445,8063,8376,8042,54.3,60.2,56.0,56.3,2.817,2.559,2.697,2.639,4.22,114.7,33.6,53.0,1010.17,-29.28,0.2,2.0,30.0,47.4,35.4,0,no_anomaly,0.0,0,0,0,0,28.6138947,77.2090297,5.0,0.0
2024-08-12T07:21:03.600Z,MISSION_0061,36,0,takeoff,SITE_DEL_002,28.6138926,77.2090319,5.0,14.41,0.834,0.071,3.64,2.6887,-2.1651,14.4068,0.9916,0.02564,-0.0158,0.12577,0.1916,-0.0157,-9.842,-0.2092,-0.2844,0.6574,0.1586,3,13,0.89,0.95,0.4,24.674,19.46,94.8,41.5,20859.0,8326,7964,8560,8263,61.2,59.1,60.8,62.2,2.802,2.932,2.829,2.72,3.75,109.8,33.8,53.5,1010.57,-29.13,-0.63,1.07,32.0,47.7,35.1,0,no_anomaly,0.0,0,0,0,0,28.6138926,77.2090319,5.0,0.0
2024-08-12T07:21:03.700Z,MISSION_0061,37,0,takeoff,SITE_DEL_002,28.6138922,77.2090276,5.0,14.28,0.88,0.095,3.2,-0.539,-1.7551,14.2817,0.99213,-0.00276,-0.01578,0.12422,-0.1209,0.0444,-9.7004,0.5196,-0.2757,0.2713,0.1851,3,16,0.72,1.06,0.41,24.69,22.33,94.8,41.8,20847.0,8076,8017,8245,8216,57.2,60.5,57.2,59.8,2.815,3.085,3.072,2.805,3.44,107.3,33.4,53.9,1010.27,-24.18,-0.5,1.88,27.2,46.5,35.1,0,no_anomaly,0.0,0,0,0,0,28.6138922,77.2090276,5.0,0.0
2024-08-12T07:21:03.800Z,MISSION_0061,38,0,takeoff,SITE_DEL_002,28.6138903,77.2090249,5.0,12.84,1.205,0.015,2.97,-0.1389,-1.3972,12.8391,0.99366,0.00016,-0.01225,0.11178,0.0668,0.0075,-9.8552,-0.0552,-0.6208,-0.151,0.3493,3,14,0.81,0.88,0.26,24.629,17.16,94.7,41.5,20834.0,8184,8302,8181,8237,59.9,58.9,63.0,59.2,2.882,2.862,2.786,2.961,3.59,100.8,33.6,53.5,1010.56,-34.9,-1.3,1.16,31.3,44.4,38.9,0,no_anomaly,0.0,0,0,0,0,28.6138903,77.2090249,5.0,0.0
2024-08-12T07:21:03.900Z,MISSION_0061,39,0,takeoff,SITE_DEL_002,28.6138878,77.2090218,5.0,12.08,1.07,0.149,2.78,1.1817,-2.5542,12.0757,0.99413,0.0126,-0.02108,0.10538,-0.119,-0.0297,-9.7553,-0.2399,0.2579,0.0422,0.2157,3,12,0.92,1.04,0.35,24.667,20.04,94.6,42.6,20822.0,8282,8306,8133,8346,59.9,57.7,56.3,59.2,2.856,2.571,2.749,2.889,3.11,99.7,33.7,53.2,1010.8,-29.02,-0.24,1.17,27.0,42.0,34.9,0,no_anomaly,0.0,0,0,0,0,28.6138878,77.2090218,5.0,0.0
2024-08-12T07:21:04.000Z,MISSION_0061,40,0,takeoff,SITE_DEL_002,28.6138844,77.2090239,5.0,11.1,1.556,0.032,3.18,-1.1667,-2.416,11.0969,0.99506,-0.00809,-0.02197,0.09645,0.1111,0.1163,-9.7426,0.3522,0.4759,0.3584,0.13,3,11,0.68,0.8,0.35,24.688,20.84,94.6,41.1,20809.0,7971,8313,8105,7980,60.5,56.8,57.6,57.4,2.874,2.803,2.658,2.759,3.92,96.6,33.4,54.3,1010.56,-31.54,-0.51,1.76,29.7,42.2,34.1,0,no_anomaly,0.0,0,0,0,0,28.6138844,77.2090239,5.0,0.0
2024-08-12T07:21:04.100Z,MISSION_0061,41,0,takeoff,SITE_DEL_002,28.6138829,77.2090226,5.0,12.03,1.247,0.054,3.15,3.4094,-2.3721,12.0306,0.99378,0.03175,-0.01746,0.10534,-0.1829,0.1219,-9.8026,0.0817,0.0742,0.0383,0.217,3,18,0.69,0.94,0.22,24.692,16.55,94.5,41.6,20797.0,8328,8437,8087,8232,57.6,60.8,58.6,60.4,3.06,2.907,2.89,2.681,4.24,111.0,34.1,54.2,1010.63,-30.73,-1.65,2.17,29.8,43.4,32.4,0,no_anomaly,0.0,0,0,0,0,28.6138829,77.2090226,5.0,0.0
2024-08-12T07:21:04.200Z,MISSION_0061,42,0,takeoff,SITE_DEL_002,28.6138838,77.2090216,5.0,10.73,1.328,0.02,3.01,4.1407,-0.0202,10.7327,0.99497,0.03599,0.0032,0.09347,0.0409,0.1238,-9.834,-0.7351,-0.3757,-0.1747,0.1617,3,11,0.65,0.74,0.29,24.68,15.2,94.5,41.1,20785.0,8206,8226,8192,8204,61.8,58.6,60.2,54.9,2.75,2.685,2.694,2.909,4.93,103.7,34.0,53.5,1010.52,-28.09,0.54,1.43,25.6,38.6,36.6,0,no_anomaly,0.0,0,0,0,0,28.6138838,77.2090216,5.0,0.0
2024-08-12T07:21:04.300Z,MISSION_0061,43,0,takeoff,SITE_DEL_002,28.6138824,77.2090218,5.0,12.7,1.781,-0.022,3.12,-2.7431,-1.7641,12.6955,0.99351,-0.02208,-0.01794,0.11015,0.2206,-0.0825,-9.784,0.1374,0.4231,0.0224,0.163,3,18,0.72,1.2,0.22,24.632,24.33,94.4,41.3,20772.0,8328,8230,8392,8186,60.7,59.5,57.2,58.4,2.789,2.548,2.808,2.753,3.83,110.3,34.0,54.0,1010.37,-33.88,1.03,1.84,30.0,40.2,37.1,0,no_anomaly,0.0,0,0,0,0,28.6138824,77.2090218,5.0,0.0
2024-08-12T07:21:04.400Z,MISSION_0061,44,0,takeoff,SITE_DEL_002,28.6138825,77.2090226,5.0,12.36,2.086,0.002,3.18,6.1329,-1.9709,12.3611,0.99252,0.05502,-0.01132,0.10841,-0.0237,-0.0315,-9.8105,0.34,0.4752,0.2367,0.1876,3,11,0.57,1.19,0.27,24.71,20.96,94.4,42.2,20760.0,8228,7925,8151,8168,57.3,62.3,57.2,57.9,2.913,2.681,3.013,2.965,3.77,107.4,33.6,53.7,1010.39,-25.99,-0.86,1.59,27.8,39.5,34.1,0,no_anomaly,0.0,0,0,0,0,28.6138825,77.2090226,5.0,0.0
2024-08-12T07:21:04.500Z,MISSION_0061,45,0,takeoff,SITE_DEL_002,28.6138839,77.2090198,5.0,13.13,1.806,0.161,2.84,1.0759,-1.0521,13.1337,0.99334,0.01038,-0.00805,0.11444,-0.1874,-0.0272,-9.893,0.6946,-0.4505,0.1469,0.259,3,19,0.9,0.85,0.46,24.695,22.4,94.3,41.6,20747.0,8261,8555,8595,8236,63.7,58.5,59.3,60.4,2.819,2.958,2.948,2.632,3.76,108.3,33.8,53.8,1010.56,-28.29,0.25,1.57,28.3,48.3,36.1,0,no_anomaly,0.0,0,0,0,0,28.6138839,77.2090198,5.0,0.0
2024-08-12T07:21:04.600Z,MISSION_0061,46,0,takeoff,SITE_DEL_002,28.613887,77.2090213,5.0,11.67,1.905,0.13,2.78,-1.6997,-1.5804,11.6748,0.99463,-0.01335,-0.01523,0.10148,0.0768,-0.081,-9.8514,0.4053,0.3088,-0.3457,0.1641,3,16,0.65,0.95,0.29,24.558,17.55,94.2,42.1,20735.0,8292,8170,8046,8110,63.9,58.9,59.6,58.5,3.105,2.492,2.755,2.923,3.97,105.0,34.0,53.4,1010.69,-29.79,1.08,2.13,28.6,41.3,34.5,0,no_anomaly,0.0,0,0,0,0,28.613887,77.2090213,5.0,0.0
2024-08-12T07:21:04.700Z,MISSION_0061,47,0,transit,SITE_DEL_002,28.6138839,77.2090268,5.5,15.02,1.752,0.194,3.48,-3.8381,-4.0889,15.0175,0.99039,-0.02852,-0.03972,0.12934,0.178,-0.0226,-9.7444,-0.0478,-0.2148,-0.0963,0.2883,3,17,0.72,0.61,0.33,24.638,19.89,94.2,41.1,20722.0,8197,8179,8218,8459,59.2,60.2,57.3,58.9,2.761,2.702,2.936,2.912,3.85,109.3,34.1,53.7,1010.61,-35.32,0.18,1.29,30.3,48.8,34.8,0,no_anomaly,0.0,0,0,0,0,28.6138839,77.2090268,5.5,0.0
2024-08-12T07:21:04.800Z,MISSION_0061,48,0,transit,SITE_DEL_002,28.6138799,77.2090305,6.0,17.0,1.832,0.172,4.06,-1.2823,-0.3369,17.001,0.98895,-0.01063,-0.00456,0.14778,-0.1209,0.056,-9.8246,0.234,-0.3251,0.36,0.2591,3,16,0.65,0.72,0.2,24.631,20.11,94.1,41.8,20710.0,8231,8470,7859,7942,59.4,60.2,64.3,60.8,2.86,3.073,2.66,2.893,3.5,117.7,33.8,53.1,1010.14,-31.83,-0.43,1.34,31.3,40.6,34.7,0,no_anomaly,0.0,0,0,0,0,28.6138799,77.2090305,6.0,0.0
2024-08-12T07:21:04.900Z,MISSION_0061,49,0,transit,SITE_DEL_002,28.6138741,77.2090295,6.5,16.56,2.091,0.115,4.36,-1.2032,-4.2373,16.5613,0.9889,-0.00506,-0.03809,0.14353,-0.049,-0.0558,-9.7913,0.5178,-0.0818,-0.1094,0.1752,3,18,0.61,1.08,0.27,24.649,21.0,94.1,41.4,20698.0,8175,8007,8231,7910,60.5,60.2,58.8,57.5,2.663,2.895,2.885,2.693,4.37,112.9,33.3,53.8,1010.27,-24.89,-0.67,1.88,29.5,40.4,33.5,0,no_anomaly,0.0,0,0,0,0,28.6138741,77.2090295,6.5,0.0
2024-08-12T07:21:05.000Z,MISSION_0061,50,0,transit,SITE_DEL_002,28.6138741,77.2090287,7.0,15.41,2.103,0.034,4.3,5.1335,-3.055,15.4149,0.98946,0.04793,-0.02039,0.13512,-0.084,-0.0311,-9.7353,-0.0829,-0.254,0.0843,0.1088,3,11,0.76,0.98,0.39,24.57,20.89,94.0,42.4,20685.0,8553,8323,8127,8160,59.2,56.3,56.6,57.5,3.232,2.643,2.587,2.826,4.25,108.7,33.7,53.2,1010.81,-25.09,-0.43,1.35,29.9,41.3,39.7,0,no_anomaly,0.0,0,0,0,0,28.6138741,77.2090287,7.0,0.0
2024-08-12T07:21:05.100Z,MISSION_0061,51,0,transit,SITE_DEL_002,28.6138718,77.2090284,7.5,14.77,2.68,0.126,4.46,2.2549,-4.3632,14.774,0.99069,0.02439,-0.03522,0.1292,-0.1944,-0.0334,-9.7218,0.0584,-0.0431,-0.0002,0.1675,3,14,0.71,0.95,0.2,24.614,15.41,94.0,42.1,20673.0,8230,8379,8489,8348,59.7,58.6,60.9,59.6,2.76,2.749,2.836,2.75,3.78,112.9,33.2,53.1,1010.12,-27.36,-0.85,1.29,31.0,47.1,38.6,0,no_anomaly,0.0,0,0,0,0,28.6138718,77.2090284,7.5,0.0
2024-08-12T07:21:05.200Z,MISSION_0061,52,0,transit,SITE_DEL_002,28.6138726,77.20903,8.0,12.75,2.35,0.124,4.52,0.479,-2.2978,12.7508,0.9936,0.00638,-0.01946,0.1111,0.2597,0.0436,-9.8177,0.0993,-0.51,-0.3331,0.2641,3,18,0.69,0.75,0.21,24.726,15.04,93.9,41.6,20660.0,8310,8364,8270,8158,56.9,59.1,59.1,59.0,3.08,2.755,2.71,2.867,3.86,109.0,33.7,53.0,1010.45,-33.82,1.4,2.21,26.8,43.8,34.6,0,no_anomaly,0.0,0,0,0,0,28.6138726,77.20903,8.0,0.0
2024-08-12T07:21:05.300Z,MISSION_0061,53,0,transit,SITE_DEL_002,28.6138739,77.2090317,8.5,11.92,2.476,0.158,4.57,4.4866,-3.5053,11.9231,0.99324,0.04209,-0.02633,0.10492,-0.133,0.0834,-9.8441,-0.7505,-0.1624,0.037,0.2551,3,10,0.76,1.13,0.2,24.591,24.44,93.9,41.6,20648.0,8116,8455,8338,8159,58.5,57.1,61.1,58.9,2.863,2.938,2.652,2.607,4.93,104.8,33.6,53.7,1010.57,-28.19,-0.72,1.46,26.1,41.0,33.5,0,no_anomaly,0.0,0,0,0,0,28.6138739,77.2090317,8.5,0.0
2024-08-12T07:21:05.400Z,MISSION_0061,54,0,transit,SITE_DEL_002,28.6138785,77.2090303,9.0,9.65,2.974,0.067,4.14,-0.4955,-0.1092,9.6484,0.99645,-0.00423,-0.00131,0.08409,-0.1521,-0.0139,-9.7296,0.2828,-0.4583,-0.0904,0.1903,3,13,0.74,0.88,0.36,24.572,16.57,93.8,42.4,20636.0,8164,8191,8117,8229,58.4,59.6,59.0,60.7,2.929,2.408,2.705,2.913,3.8,107.6,33.9,53.2,1010.33,-30.17,-0.87,1.38,25.9,40.7,33.1,0,no_anomaly,0.0,0,0,0,0,28.6138785,77.2090303,9.0,0.0
2024-08-12T07:21:05.500Z,MISSION_0061,55,0,transit,SITE_DEL_002,28.6138769,77.2090345,9.5,10.62,2.913,0.114,4.62,-2.5427,-6.0864,10.6203,0.99417,-0.01715,-0.0549,0.09122,0.0376,0.0156,-9.8224,-0.1789,0.5063,-0.1493,0.1034,3,16,0.63,1.02,0.21,24.689,16.99,93.7,41.1,20623.0,8034,8467,8465,8221,60.2,57.7,58.4,54.4,2.677,2.483,2.893,2.584,3.78,101.3,33.7,53.5,1010.53,-31.67,1.3,1.49,31.8,46.2,37.9,0,no_anomaly,0.0,0,0,0,0,28.6138769,77.2090345,9.5,0.0
2024-08-12T07:21:05.600Z,MISSION_0061,56,0,transit,SITE_DEL_002,28.6138757,77.2090325,10.0,9.95,2.953,0.105,4.52,4.1443,-2.7158,9.9469,0.99523,0.03807,-0.02046,0.08747,0.0135,-0.1023,-9.7709,-0.7541,0.6175,-0.1944,0.2847,3,14,0.69,1.0,0.37,24.574,20.58,93.7,41.7,20611.0,8494,8103,7982,8410,57.8,58.1,58.1,59.0,3.081,2.77,2.763,2.484,3.48,110.8,33.6,53.5,1010.34,-30.13,1.31,1.32,31.1,39.7,38.4,0,no_anomaly,0.0,0,0,0,0,28.6138757,77.2090325,10.0,0.0
2024-08-12T07:21:05.700Z,MISSION_0061,57,0,transit,SITE_DEL_002,28.61387,77.2090343,10.5,8.21,3.275,0.073,5.07,4.2897,-2.1516,8.2146,0.99651,0.03867,-0.01603,0.07226,-0.232,0.0373,-9.8478,-0.5291,-0.0096,-0.6412,0.2223,3,20,0.86,0.87,0.36,24.654,29.81,93.6,41.8,20598.0,8133,8440,8224,8310,57.5,56.7,59.4,59.4,2.678,2.781,2.668,2.705,3.49,102.9,33.9,54.4,1010.49,-26.4,-1.17,1.36,31.4,45.1,38.1,0,no_anomaly,0.0,0,0,0,0,28.61387,77.2090343,10.5,0.0
2024-08-12T07:21:05.800Z,MISSION_0061,58,0,transit,SITE_DEL_002,28.6138752,77.209035,11.0,7.51,2.849,0.169,4.78,-4.0544,-2.8473,7.5062,0.99698,-0.03366,-0.02709,0.06452,-0.0866,0.0152,-9.8195,0.0866,-0.2514,0.0667,0.2156,3,11,0.72,0.84,0.35,24.64,20.83,93.6,42.6,20586.0,8076,8299,8008,8155,56.5,57.0,60.5,59.5,2.803,2.697,3.027,2.813,3.81,111.6,34.0,54.2,1010.31,-34.64,0.02,1.22,26.6,47.2,37.3,0,no_anomaly,0.0,0,0,0,0,28.6138752,77.209035,11.0,0.0
2024-08-12T07:21:05.900Z,MISSION_0061,59,0,transit,SITE_DEL_002,28.6138722,77.2090358,11.5,8.54,3.199,0.029,5.04,-0.2967,-2.5659,8.5412,0.99697,-0.00091,-0.02252,0.07439,0.1952,-0.0089,-9.8393,0.3259,0.9832,0.3399,0.0759,3,10,0.67,1.1,0.35,24.657,24.88,93.5,42.4,20573.0,8442,8329,8006,8319,64.4,58.9,59.2,59.3,2.772,2.693,3.129,2.833,4.11,98.5,33.7,53.7,1010.46,-28.87,-0.05,1.51,27.1,43.8,38.6,0,no_anomaly,0.0,0,0,0,0,28.6138722,77.2090358,11.5,0.0
2024-08-12T07:21:06.000Z,MISSION_0061,60,0,transit,SITE_DEL_002,28.6138718,77.2090322,12.0,8.71,3.382,0.08,4.77,1.3313,-2.8099,8.7114,0.99672,0.01344,-0.02356,0.0762,-0.0897,0.048,-9.7802,0.3081,-0.0793,-0.1484,0.1952,3,19,0.69,0.7,0.24,24.594,17.48,93.5,42.2,20561.0,8133,8194,8266,8515,59.0,55.7,56.9,56.1,2.682,2.869,2.814,2.857,4.27,102.4,33.7,53.2,1010.66,-31.61,1.02,1.79,31.3,48.1,37.6,0,no_anomaly,0.0,0,0,0,0,28.6138718,77.2090322,12.0,0.0
2024-08-12T07:21:06.100Z,MISSION_0061,61,0,transit,SITE_DEL_002,28.6138681,77.2090353,12.5,9.88,3.493,0.1,5.3,4.1374,-0.4308,9.8846,0.99561,0.03629,-0.00063,0.08623,-0.0817,-0.0972,-9.8467,0.1543,-0.3197,-0.8337,0.2025,3,15,0.76,1.38,0.33,24.648,19.05,93.4,42.8,20549.0,8334,8420,8150,8228,58.6,61.1,57.8,59.9,2.781,2.66,2.645,2.984,3.93,111.9,33.9,54.0,1010.49,-27.78,0.39,1.18,28.2,45.4,35.1,0,no_anomaly,0.0,0,0,0,0,28.6138681,77.2090353,12.5,0.0
2024-08-12T07:21:06.200Z,MISSION_0061,62,0,transit,SITE_DEL_002,28.613869,77.2090292,13.0,9.52,3.614,0.087,4.74,-0.8781,-1.9892,9.5236,0.99638,-0.00619,-0.01793,0.08287,0.0096,0.0018,-9.7768,-0.5102,-0.1297,0.2091,0.184,3,15,0.61,0.77,0.33,24.68,16.52,93.3,42.1,20536.0,8283,8037,8244,8014,60.3,59.5,58.7,59.4,3.066,2.833,2.843,3.086,3.42,98.5,34.0,53.6,1010.53,-24.58,-0.22,1.54,31.1,47.8,36.4,0,no_anomaly,0.0,0,0,0,0,28.613869,77.2090292,13.0,0.0
2024-08-12T07:21:06.300Z,MISSION_0061,63,0,transit,SITE_DEL_002,28.6138685,77.209025,13.5,9.7,3.29,0.016,4.47,-2.0758,-3.5059,9.7042,0.99583,-0.01545,-0.03201,0.08398,-0.1693,0.0092,-9.8152,-0.319,0.0683,0.1577,0.1394,3,14,0.73,1.19,0.41,24.757,16.76,93.3,41.9,20524.0,8234,8543,8514,8460,58.7,60.7,60.9,61.8,2.803,2.653,2.803,2.772,4.04,118.9,33.8,53.0,1010.01,-28.71,1.29,1.61,30.0,44.2,35.6,0,no_anomaly,0.0,0,0,0,0,28.6138685,77.209025,13.5,0.0
2024-08-12T07:21:06.400Z,MISSION_0061,64,0,transit,SITE_DEL_002,28.6138749,77.2090282,14.0,10.41,3.916,0.035,4.2,3.4241,1.3207,10.4117,0.9954,0.02871,0.01418,0.09034,0.003,0.0474,-9.7941,0.3421,-0.8253,-0.4722,0.1519,3,20,0.88,0.81,0.34,24.599,13.43,93.2,42.7,20511.0,8509,8220,8291,8176,58.6,57.2,54.7,57.4,2.443,3.003,3.183,2.978,4.42,108.5,33.9,54.3,1010.48,-34.0,1.61,1.55,29.8,40.4,33.5,0,no_anomaly,0.0,0,0,0,0,28.6138749,77.2090282,14.0,0.0
2024-08-12T07:21:06.500Z,MISSION_0061,65,0,transit,SITE_DEL_002,28.613876,77.2090276,14.0,9.53,3.733,0.082,4.08,1.8975,0.3723,9.5264,0.99641,0.01623,0.00461,0.08297,0.0694,-0.0047,-9.7418,-0.1093,-0.5341,-0.7619,0.191,3,18,0.65,1.08,0.2,24.697,19.79,93.2,42.9,20499.0,8148,8410,8014,8251,59.2,60.0,55.8,59.0,2.563,2.736,2.709,2.719,4.67,98.2,34.0,54.2,1010.67,-24.89,-1.08,1.89,27.6,48.5,37.7,0,no_anomaly,0.0,0,0,0,0,28.613876,77.2090276,14.0,0.0
2024-08-12T07:21:06.600Z,MISSION_0061,66,0,transit,SITE_DEL_002,28.6138757,77.2090294,14.0,10.45,3.331,0.099,4.25,4.2474,-2.6628,10.4549,0.99481,0.03901,-0.01975,0.09188,-0.0771,-0.0405,-9.6874,0.2642,-0.0815,0.4979,0.2608,3,17,0.68,0.81,0.28,24.624,23.5,93.1,42.4,20487.0,8180,8283,8243,8310,58.3,58.0,59.0,57.7,3.039,2.746,2.53,2.765,4.22,105.6,33.6,53.2,1010.44,-30.77,0.86,1.49,25.1,37.9,32.8,0,no_anomaly,0.0,0,0,0,0,28.6138757,77.2090294,14.0,0.0
2024-08-12T07:21:06.700Z,MISSION_0061,67,0,transit,SITE_DEL_002,28.6138768,77.2090331,14.0,12.34,3.315,0.106,4.5,-2.6147,-2.1725,12.3413,0.99382,-0.02064,-0.02129,0.10701,0.1214,-0.0429,-9.7775,0.4949,-0.2685,-0.1239,0.1201,3,17,0.59,0.89,0.36,24.54,16.42,93.1,42.8,20474.0,8025,8108,8230,8557,60.4,58.2,58.6,60.2,2.636,2.554,3.067,2.753,3.56,111.8,33.7,53.2,1010.61,-27.31,-1.06,2.05,27.6,42.5,38.9,0,no_anomaly,0.0,0,0,0,0,28.6138768,77.2090331,14.0,0.0
2024-08-12T07:21:06.800Z,MISSION_0061,68,0,transit,SITE_DEL_002,28.613875,77.2090365,14.0,12.04,2.99,0.005,4.93,0.4429,-2.1512,12.043,0.99429,0.00581,-0.01826,0.10495,0.0875,-0.0167,-9.8665,-0.3628,0.4393,0.0624,0.168,3,18,0.9,1.02,0.42,24.624,19.22,93.0,42.6,20462.0,8231,8191,8333,8360,59.4,58.8,61.1,56.3,3.118,3.139,2.718,2.775,3.95,96.0,33.6,53.4,1010.47,-26.61,-1.15,1.46,26.0,42.7,37.2,0,no_anomaly,0.0,0,0,0,0,28.613875,77.2090365,14.0,0.0
2024-08-12T07:21:06.900Z,MISSION_0061,69,0,transit,SITE_DEL_002,28.6138715,77.2090382,14.0,11.78,3.1,0.137,5.3,-3.8621,-1.6831,11.782,0.9941,-0.03201,-0.01806,0.10207,-0.032,0.0057,-9.8388,0.5981,0.5263,-0.5601,0.193,3,14,0.68,0.96,0.29,24.584,18.02,93.0,41.6,20449.0,8185,8301,8068,8237,56.9,55.7,61.6,61.1,2.803,2.756,2.593,2.831,4.24,103.4,33.9,53.1,1010.52,-32.78,1.65,1.23,27.6,46.7,35.6,0,no_anomaly,0.0,0,0,0,0,28.6138715,77.2090382,14.0,0.0
2024-08-12T07:21:07.000Z,MISSION_0061,70,0,transit,SITE_DEL_002,28.6138685,77.2090366,14.0,12.62,3.448,0.177,5.38,1.9858,-1.4173,12.6236,0.99369,0.01858,-0.01039,0.11013,-0.0023,-0.0608,-9.7678,-0.3629,-0.3079,0.2245,0.1506,3,16,0.74,0.97,0.27,24.64,15.93,92.9,41.9,20437.0,8377,8252,8146,8255,60.2,59.6,58.1,56.5,2.778,2.915,2.736,2.826,4.1,111.0,33.7,53.6,1010.48,-32.57,1.05,1.22,31.3,43.6,36.1,0,no_anomaly,0.0,0,0,0,0,28.6138685,77.2090366,14.0,0.0
2024-08-12T07:21:07.100Z,MISSION_0061,71,0,transit,SITE_DEL_002,28.6138703,77.2090333,14.0,14.22,3.525,0.162,4.97,3.2112,-0.4592,14.2236,0.9919,0.0283,-0.00051,0.12387,-0.0414,-0.0278,-9.7809,-0.4207,0.0,0.2927,0.2072,3,12,0.68,0.76,0.26,24.593,15.9,92.8,41.1,20424.0,8527,8234,8295,8173,58.5,59.9,63.4,58.6,2.614,2.732,2.821,2.777,3.74,102.8,34.0,53.4,1010.75,-33.57,0.55,1.0,28.5,43.9,34.8,0,no_anomaly,0.0,0,0,0,0,28.6138703,77.2090333,14.0,0.0
2024-08-12T07:21:07.200Z,MISSION_0061,72,0,transit,SITE_DEL_002,28.6138761,77.2090347,14.0,13.98,3.337,0.102,4.69,-1.3074,-1.9517,13.9827,0.99238,-0.00925,-0.01829,0.1215,-0.0225,0.0068,-9.9301,-0.2199,-0.8167,0.3267,0.2138,3,16,0.81,0.64,0.37,24.603,17.94,92.8,42.2,20412.0,8488,7980,8309,8269,61.1,59.6,58.5,62.5,3.125,2.994,2.976,2.938,4.4,107.0,33.7,53.2,1010.33,-33.52,0.62,1.44,31.3,49.7,38.1,0,no_anomaly,0.0,0,0,0,0,28.6138761,77.2090347,14.0,0.0
2024-08-12T07:21:07.300Z,MISSION_0061,73,0,transit,SITE_DEL_002,28.6138727,77.209033,14.0,13.06,3.278,0.204,4.77,1.7796,-3.5489,13.0587,0.99286,0.01894,-0.029,0.11412,0.0072,0.0289,-9.7989,-0.6874,0.2535,0.4517,0.1903,3,15,0.72,0.84,0.28,24.634,18.73,92.7,42.1,20400.0,8195,8009,8273,8154,54.2,59.2,61.1,59.0,2.678,2.905,2.753,2.83,4.48,108.5,33.7,53.3,1010.47,-26.56,0.1,1.53,29.0,39.6,31.6,0,no_anomaly,0.0,0,0,0,0,28.6138727,77.209033,14.0,0.0
2024-08-12T07:21:07.400Z,MISSION_0061,74,0,transit,SITE_DEL_002,28.6138774,77.2090299,14.0,13.23,3.091,0.137,4.17,0.7731,-0.1602,13.227,0.99332,0.00686,-0.00061,0.11518,-0.0344,0.0257,-9.8077,-0.582,0.716,-0.005,0.1087,3,13,0.76,0.77,0.29,24.559,17.31,92.7,41.5,20387.0,8444,8133,8279,8350,60.2,57.0,57.9,60.3,2.651,2.726,2.923,2.677,5.02,102.0,34.1,53.5,1010.63,-25.97,-0.48,1.4,30.5,45.5,38.0,0,no_anomaly,0.0,0,0,0,0,28.6138774,77.2090299,14.0,0.0
2024-08-12T07:21:07.500Z,MISSION_0061,75,0,transit,SITE_DEL_002,28.6138696,77.2090285,14.0,10.47,3.199,0.006,4.64,-3.9735,-1.0908,10.4712,0.99521,-0.03365,-0.01264,0.09086,0.1472,0.0068,-9.8499,0.6892,-0.1773,0.1013,0.2392,3,11,0.7,0.75,0.26,24.624,22.02,92.6,40.8,20375.0,8401,8217,8293,7946,59.8,59.1,57.8,58.4,2.653,2.78,2.903,2.56,4.32,104.9,33.9,53.5,1010.2,-29.12,0.57,1.56,25.6,38.9,35.7,0,no_anomaly,0.0,0,0,0,0,28.6138696,77.2090285,14.0,0.0
2024-08-12T07:21:07.600Z,MISSION_0061,76,0,transit,SITE_DEL_002,28.6138763,77.2090263,14.0,8.98,2.892,0.149,3.94,1.5323,-0.6534,8.9781,0.99682,0.01378,-0.00464,0.07834,-0.3108,0.0835,-9.898,-0.1948,0.3248,-0.757,0.1561,3,13,0.61,0.61,0.33,24.652,17.9,92.6,41.4,20362.0,8304,8106,8165,8488,58.2,57.3,59.2,62.4,2.788,3.051,2.81,3.211,3.78,110.9,34.0,53.6,1010.62,-28.66,0.8,1.06,31.5,41.2,37.4,0,no_anomaly,0.0,0,0,0,0,28.6138763,77.2090263,14.0,0.0
2024-08-12T07:21:07.700Z,MISSION_0061,77,0,transit,SITE_DEL_002,28.6138757,77.2090248,14.0,8.07,3.117,0.065,3.87,-2.1696,-2.433,8.075,0.99714,-0.01739,-0.02251,0.06998,-0.0292,0.0032,-9.8324,-0.7929,-0.603,0.1949,0.1687,3,11,0.74,1.08,0.33,24.507,25.55,92.5,42.3,20350.0,8185,8234,8301,8077,57.5,65.9,57.0,57.7,2.791,2.877,2.864,3.073,4.45,112.3,33.9,53.3,1010.55,-22.92,-0.19,1.34,24.0,40.0,36.3,0,no_anomaly,0.0,0,0,0,0,28.6138757,77.2090248,14.0,0.0
2024-08-12T07:21:07.800Z,MISSION_0061,78,0,transit,SITE_DEL_002,28.6138771,77.2090256,14.0,10.11,3.303,0.039,3.83,2.9222,-0.7745,10.108,0.99575,0.02599,-0.00448,0.08824,-0.0593,0.0473,-9.8651,-0.903,0.3083,0.1589,0.151,3,13,0.53,0.82,0.2,24.609,16.58,92.4,41.9,20338.0,8326,8084,8111,8283,53.6,60.9,60.4,60.1,2.736,2.89,3.04,2.723,4.08,100.3,33.5,53.2,1010.45,-30.18,-3.17,1.57,30.8,40.7,37.1,0,no_anomaly,0.0,0,0,0,0,28.6138771,77.2090256,14.0,0.0
2024-08-12T07:21:07.900Z,MISSION_0061,79,0,transit,SITE_DEL_002,28.6138765,77.2090277,14.0,7.48,3.019,0.004,4.05,3.6365,-1.4778,7.4834,0.99726,0.0325,-0.01079,0.06563,-0.062,0.0727,-9.7755,-0.0487,-0.3577,-0.2585,0.2455,3,11,0.77,0.75,0.3,24.642,18.44,92.4,42.7,20325.0,8330,8346,8218,8521,62.1,55.2,61.4,59.8,2.98,2.584,2.78,2.868,4.48,108.2,33.5,52.9,1010.16,-30.88,-0.37,1.58,28.5,39.9,37.8,0,no_anomaly,0.0,0,0,0,0,28.6138765,77.2090277,14.0,0.0
2024-08-12T07:21:08.000Z,MISSION_0061,80,0,transit,SITE_DEL_002,28.613878,77.2090325,14.0,6.57,3.448,0.006,4.38,1.6326,-2.1335,6.5708,0.99807,0.01529,-0.01777,0.05756,-0.2137,0.0256,-9.8784,-0.2799,0.5769,0.4286,0.1715,3,20,0.8,1.0,0.28,24.592,20.56,92.3,42.3,20313.0,8141,8480,8227,8276,59.7,60.3,59.7,61.1,2.607,2.662,2.836,2.611,4.18,115.0,33.7,53.0,1010.68,-21.61,-0.19,1.61,29.1,46.4,33.2,0,no_anomaly,0.0,0,0,0,0,28.613878,77.2090325,14.0,0.0
2024-08-12T07:21:08.100Z,MISSION_0061,81,0,transit,SITE_DEL_002,28.613875,77.2090289,14.0,8.57,3.691,0.141,4.25,-0.8096,-0.105,8.5741,0.99718,-0.00698,-0.00144,0.07475,-0.023,-0.0337,-9.8034,-0.5046,-0.0626,0.2517,0.0868,3,19,0.64,0.9,0.33,24.643,19.85,92.3,42.0,20300.0,8313,8248,8388,8327,60.3,58.4,57.6,60.2,2.84,2.946,2.905,2.733,3.3,108.2,33.9,52.9,1010.6,-30.01,-0.21,1.05,25.7,46.1,36.0,0,no_anomaly,0.0,0,0,0,0,28.613875,77.2090289,14.0,0.0
2024-08-12T07:21:08.200Z,MISSION_0061,82,0,transit,SITE_DEL_002,28.6138737,77.2090267,14.0,8.81,3.995,0.108,4.17,-4.6143,-2.8206,8.8069,0.99601,-0.03824,-0.02761,0.07571,-0.0333,-0.0563,-9.803,-0.784,-0.4467,0.1144,0.1574,3,17,0.61,0.88,0.34,24.583,17.85,92.2,42.6,20288.0,8002,8243,8323,8493,58.8,55.7,58.6,58.5,2.882,3.01,2.761,2.956,4.03,112.9,33.6,54.1,1010.71,-28.82,-0.86,1.09,28.0,39.2,33.8,0,no_anomaly,0.0,0,0,0,0,28.6138737,77.2090267,14.0,0.0
2024-08-12T07:21:08.300Z,MISSION_0061,83,0,transit,SITE_DEL_002,28.6138726,77.2090245,14.0,8.4,4.286,0.081,4.09,-0.1503,-1.0184,8.4026,0.99727,-0.00066,-0.00896,0.07325,-0.1616,0.0272,-9.8818,0.3801,-0.0114,-0.3725,0.1994,3,18,0.77,0.94,0.34,24.656,21.66,92.2,41.3,20275.0,8301,8338,8042,8232,54.8,59.1,62.5,56.3,2.661,2.768,3.046,2.613,3.91,104.8,33.6,53.8,1010.39,-31.97,-0.04,1.92,28.3,40.1,36.5,0,no_anomaly,0.0,0,0,0,0,28.6138726,77.2090245,14.0,0.0
2024-08-12T07:21:08.400Z,MISSION_0061,84,0,transit,SITE_DEL_002,28.6138685,77.2090287,14.0,10.42,4.509,0.091,4.74,-2.5295,-1.2779,10.4156,0.99559,-0.02097,-0.01311,0.0905,0.1044,0.0345,-9.7486,-0.6254,-0.2926,0.1607,0.2521,3,11,0.89,0.79,0.4,24.611,22.72,92.1,42.2,20263.0,8226,8451,8183,8229,59.6,59.9,58.9,55.1,2.879,2.76,2.792,2.693,4.21,108.6,33.5,54.1,1010.55,-37.36,0.17,1.88,25.7,43.5,34.0,0,no_anomaly,0.0,0,0,0,0,28.6138685,77.2090287,14.0,0.0
2024-08-12T07:21:08.500Z,MISSION_0061,85,0,transit,SITE_DEL_002,28.6138662,77.2090286,14.0,10.74,4.709,0.101,4.92,-1.9061,-2.8031,10.7444,0.99521,-0.01427,-0.02591,0.09318,0.0858,-0.0299,-9.8395,0.2282,0.2125,-0.1291,0.2531,3,18,0.81,0.88,0.38,24.653,18.87,92.0,42.3,20251.0,8156,8395,8335,8191,55.7,60.8,54.4,57.6,2.747,2.629,2.603,2.715,3.51,98.8,33.7,53.5,1010.05,-30.02,-0.95,1.77,29.2,38.7,32.2,0,no_anomaly,0.0,0,0,0,0,28.6138662,77.2090286,14.0,0.0
2024-08-12T07:21:08.600Z,MISSION_0061,86,0,transit,SITE_DEL_002,28.6138629,77.2090282,14.0,9.63,4.855,0.201,5.19,-0.1027,-2.8686,9.6296,0.99616,0.00121,-0.02502,0.08389,-0.0191,-0.0062,-9.7585,0.1637,-0.3728,-0.4031,0.0877,3,10,0.52,0.79,0.2,24.644,24.65,92.0,42.4,20238.0,8471,8189,8171,8383,60.8,60.6,58.6,58.2,2.789,2.979,2.56,2.654,2.81,106.9,33.5,54.4,1010.48,-27.17,-0.7,1.4,25.8,43.0,38.3,0,no_anomaly,0.0,0,0,0,0,28.6138629,77.2090282,14.0,0.0
2024-08-12T07:21:08.700Z,MISSION_0061,87,0,transit,SITE_DEL_002,28.6138686,77.2090217,14.0,9.38,4.254,0.059,4.25,0.297,-3.8326,9.3768,0.99609,0.00532,-0.03312,0.08178,-0.0441,0.0269,-9.8716,0.0091,0.2378,0.1423,0.1039,3,13,0.61,1.07,0.24,24.589,18.92,91.9,41.6,20226.0,8250,8408,8057,8239,61.8,57.1,62.6,59.6,2.852,2.9,2.906,2.922,4.09,103.8,33.6,53.9,1010.25,-24.23,0.06,1.71,29.9,46.4,34.2,0,no_anomaly,0.0,0,0,0,0,28.6138686,77.2090217,14.0,0.0
2024-08-12T07:21:08.800Z,MISSION_0061,88,0,transit,SITE_DEL_002,28.6138721,77.2090251,14.0,9.8,4.455,0.02,4.18,5.4115,-1.0534,9.8028,0.99515,0.04782,-0.00512,0.08577,-0.0308,0.0046,-9.8362,-0.1695,-0.5437,-0.3968,0.1465,3,11,0.83,1.1,0.29,24.638,19.06,91.9,42.1,20213.0,8157,8176,8362,8023,56.6,59.9,57.2,61.4,3.074,2.904,2.896,2.849,3.54,105.3,33.6,54.2,1010.77,-29.29,-0.12,1.65,25.5,42.4,36.1,0,no_anomaly,0.0,0,0,0,0,28.6138721,77.2090251,14.0,0.0
2024-08-12T07:21:08.900Z,MISSION_0061,89,0,transit,SITE_DEL_002,28.6138755,77.2090211,14.0,10.47,4.775,0.1,3.59,2.4458,-3.3354,10.4652,0.99513,0.0239,-0.02703,0.09176,-0.1323,-0.0221,-9.8329,-0.0115,-0.0273,-0.1883,0.1646,3,15,0.7,0.87,0.32,24.601,25.08,91.8,42.4,20201.0,8188,8110,8556,8382,58.5,58.1,62.0,57.2,2.747,3.386,2.947,2.7,3.69,104.1,33.4,53.6,1010.58,-34.35,0.95,1.59,28.5,43.5,35.1,0,no_anomaly,0.0,0,0,0,0,28.6138755,77.2090211,14.0,0.0
2024-08-12T07:21:09.000Z,MISSION_0061,90,0,transit,SITE_DEL_002,28.6138782,77.20902,14.0,8.35,4.92,0.156,3.3,-0.3486,-3.2688,8.3538,0.99694,-0.00096,-0.02867,0.07272,-0.1618,-0.0703,-9.8193,-0.351,0.8743,-0.1652,0.1999,3,16,0.63,1.12,0.2,24.61,20.76,91.8,42.2,20189.0,8308,8331,8325,8042,55.3,60.5,60.8,62.8,2.706,2.728,2.701,2.885,4.21,114.5,33.8,53.0,1010.24,-26.7,-1.42,1.73,30.9,44.8,34.2,0,no_anomaly,0.0,0,0,0,0,28.6138782,77.20902,14.0,0.0
2024-08-12T07:21:09.100Z,MISSION_0061,91,0,transit,SITE_DEL_002,28.6138822,77.2090216,14.0,7.59,4.402,0.05,3.12,-2.5766,0.5041,7.589,0.99754,-0.02272,0.0029,0.06626,-0.1441,0.0051,-9.8312,1.3672,-0.6161,-0.5143,0.2304,3,10,0.69,1.05,0.22,24.647,19.47,91.7,41.4,20176.0,8335,8204,8514,8425,60.8,56.8,56.9,54.5,2.728,3.131,2.739,2.94,4.53,102.6,32.9,54.2,1010.47,-29.03,0.79,1.26,25.7,48.1,38.1,0,no_anomaly,0.0,0,0,0,0,28.6138822,77.2090216,14.0,0.0
2024-08-12T07:21:09.200Z,MISSION_0061,92,0,transit,SITE_DEL_002,28.6138819,77.2090184,14.0,7.88,4.327,0.139,2.87,-1.6917,-2.9057,7.8795,0.99723,-0.01298,-0.02631,0.0683,0.0217,-0.0274,-9.81,-0.0319,0.0796,-0.0897,0.2407,3,18,0.7,1.25,0.2,24.557,18.94,91.7,41.2,20164.0,8210,8503,8106,8208,62.3,55.5,55.1,60.5,2.672,2.534,2.698,2.918,4.74,107.5,33.5,53.4,1010.56,-31.45,0.17,1.64,26.8,38.3,33.8,0,no_anomaly,0.0,0,0,0,0,28.6138819,77.2090184,14.0,0.0
2024-08-12T07:21:09.300Z,MISSION_0061,93,0,transit,SITE_DEL_002,28.6138795,77.2090186,14.0,9.5,3.828,0.12,3.08,0.1198,-1.1763,9.5004,0.99651,0.00189,-0.01014,0.08282,-0.3472,-0.0161,-9.8161,0.3148,-0.4024,0.0155,0.1517,3,15,0.68,0.67,0.28,24.669,22.2,91.6,42.0,20151.0,8591,8368,8453,8174,56.8,63.0,59.8,60.4,2.848,2.811,2.784,2.627,4.13,100.1,33.8,53.8,1010.48,-32.31,1.14,1.49,29.4,46.9,34.8,0,no_anomaly,0.0,0,0,0,0,28.6138795,77.2090186,14.0,0.0
2024-08-12T07:21:09.400Z,MISSION_0061,94,1,transit,SITE_DEL_002,28.6138806,77.20902,14.0,7.14,3.937,0.146,3.1,-2.6891,-1.3169,7.1384,0.99774,-0.0227,-0.01293,0.06196,-0.0158,0.0037,-9.8906,-0.3755,0.2978,-0.2454,0.1949,3,19,0.5,1.05,0.2,24.583,19.12,91.5,42.1,20139.0,8305,8002,8228,7853,56.6,58.0,58.6,59.0,2.86,2.629,2.863,2.505,4.26,108.5,34.2,54.0,1010.42,-34.59,-0.24,1.66,30.0,41.8,33.8,0,no_anomaly,0.0,0,0,0,0,28.6138806,77.20902,14.0,0.0
2024-08-12T07:21:09.500Z,MISSION_0061,95,1,transit,SITE_DEL_002,28.6138778,77.2090218,14.0,7.59,3.598,0.053,3.46,-1.6991,-0.9576,7.5946,0.99767,-0.01424,-0.00932,0.06609,-0.0895,-0.0154,-9.8042,0.3524,-0.1039,-0.1619,0.1931,3,13,0.69,0.93,0.2,24.606,19.25,91.5,42.0,20126.0,8181,8402,8369,8208,60.2,58.3,59.7,58.9,2.826,3.072,2.47,2.694,3.51,96.5,33.6,54.1,1010.27,-30.47,-0.23,1.13,28.3,42.8,35.2,0,no_anomaly,0.0,0,0,0,0,28.6138778,77.2090218,14.0,0.0
2024-08-12T07:21:09.600Z,MISSION_0061,96,1,transit,SITE_DEL_002,28.6138824,77.2090207,14.0,7.97,3.216,0.105,3.02,0.2498,-2.6911,7.9693,0.9973,0.00381,-0.02327,0.06952,0.0336,0.0217,-9.7974,-0.4492,-0.2508,0.163,0.2503,3,11,0.81,0.78,0.31,24.562,18.55,91.4,41.7,20114.0,8184,8058,8283,8093,57.1,59.2,58.2,58.1,2.95,2.51,2.66,2.624,4.51,115.9,33.9,53.3,1010.56,-26.48,-1.03,1.09,26.3,41.5,37.9,0,no_anomaly,0.0,0,0,0,0,28.6138824,77.2090207,14.0,0.0
2024-08-12T07:21:09.700Z,MISSION_0061,97,1,transit,SITE_DEL_002,28.613888,77.2090198,14.0,8.61,3.16,0.108,2.58,1.51,-1.7577,8.6093,0.99696,0.01429,-0.0143,0.07525,-0.014,-0.017,-9.8385,0.3415,-0.776,0.2852,0.2447,3,20,0.57,0.78,0.26,24.532,22.32,91.4,41.9,20102.0,8429,8342,8505,8276,59.3,60.8,60.3,63.5,2.86,2.909,2.717,2.435,3.42,105.4,33.9,53.8,1010.64,-34.7,-0.18,1.82,27.6,46.1,39.4,0,no_anomaly,0.0,0,0,0,0,28.613888,77.2090198,14.0,0.0
2024-08-12T07:21:09.800Z,MISSION_0061,98,1,transit,SITE_DEL_002,28.6138847,77.209018,14.0,9.63,3.248,0.079,2.63,-1.5903,-0.51,9.6265,0.99637,-0.01346,-0.0056,0.08384,-0.2245,0.008,-9.8722,-0.371,-0.1541,0.3684,0.219,3,11,0.84,0.9,0.42,24.503,17.41,91.3,41.4,20089.0,8443,8321,8361,8307,62.4,56.6,55.3,59.2,2.723,2.802,2.721,2.618,4.93,117.7,33.7,52.8,1010.52,-28.34,0.13,1.83,28.2,49.4,38.7,0,no_anomaly,0.0,0,0,0,0,28.6138847,77.209018,14.0,0.0
2024-08-12T07:21:09.900Z,MISSION_0061,99,1,transit,SITE_DEL_002,28.613886,77.2090176,14.0,12.24,2.817,0.08,2.5,-1.9807,-0.7531,12.2352,0.99415,-0.01649,-0.00838,0.10644,0.1159,-0.0348,-9.8304,0.0789,-0.696,-0.0484,0.1892,3,14,0.62,0.6,0.27,24.627,21.69,91.3,42.2,20077.0,8331,8102,8408,8269,60.8,61.6,58.4,60.6,2.585,2.904,2.902,2.583,4.25,106.4,33.5,52.9,1010.69,-31.01,0.5,1.66,28.8,45.0,36.8,0,no_anomaly,0.0,0,0,0,0,28.613886,77.2090176,14.0,0.0
2024-08-12T07:21:10.000Z,MISSION_0061,100,1,transit,SITE_DEL_002,28.6138856,77.2090104,14.0,13.08,2.527,0.11,1.98,1.8826,-0.4559,13.079,0.99334,0.01677,-0.00208,0.11394,-0.1843,-0.0287,-9.8202,-0.249,-0.4963,-0.0099,0.1638,3,16,0.77,0.96,0.26,24.578,18.53,91.2,42.0,20064.0,8167,8168,8346,8313,57.9,57.9,57.4,60.3,2.791,2.982,2.745,2.812,3.27,103.3,33.5,53.3,1010.57,-32.27,-0.76,1.67,25.9,45.5,33.9,0,no_anomaly,0.0,0,0,0,0,28.6138856,77.2090104,14.0,0.0
2024-08-12T07:21:10.100Z,MISSION_0061,101,1,transit,SITE_DEL_002,28.6138838,77.2090124,14.0,12.64,2.083,0.049,2.26,-3.6605,-0.155,12.6371,0.99342,-0.0316,-0.00486,0.10996,-0.0904,0.0442,-9.9009,0.4625,-0.6196,-0.0946,0.2375,3,12,0.68,1.08,0.31,24.573,16.16,91.1,42.7,20052.0,8275,8438,8346,8192,61.6,59.4,60.6,60.0,2.695,2.747,2.75,2.799,3.69,98.6,33.5,53.0,1010.45,-32.4,1.55,1.63,26.3,47.3,36.6,0,no_anomaly,0.0,0,0,0,0,28.6138838,77.2090124,14.0,0.0
2024-08-12T07:21:10.200Z,MISSION_0061,102,1,transit,SITE_DEL_002,28.6138828,77.2090089,14.0,10.92,2.561,0.131,2.15,-0.9853,-0.2455,10.9224,0.99542,-0.00836,-0.00295,0.09515,-0.0039,-0.0592,-9.8022,0.1605,0.1419,0.3403,0.1056,3,11,0.66,1.25,0.26,24.515,19.1,91.1,42.2,20040.0,8407,8450,8362,8339,59.7,59.8,57.4,56.7,2.666,2.766,2.783,2.777,3.89,101.9,33.8,53.3,1010.43,-28.48,0.57,1.45,27.3,47.9,36.4,0,no_anomaly,0.0,0,0,0,0,28.6138828,77.2090089,14.0,0.0
2024-08-12T07:21:10.300Z,MISSION_0061,103,1,transit,SITE_DEL_002,28.6138819,77.2090138,14.0,13.36,2.611,0.136,2.53,-0.2697,-4.1542,13.3564,0.99257,0.00188,-0.03627,0.11613,-0.0528,0.0087,-9.7707,-0.7075,0.0223,-0.7425,0.1409,3,18,0.67,1.0,0.35,24.532,17.7,91.0,41.8,20027.0,8222,8303,8405,8032,59.3,59.3,54.8,60.0,2.971,2.256,2.979,3.011,4.25,111.5,33.5,54.0,1010.54,-32.5,0.67,1.03,31.4,42.2,37.4,0,no_anomaly,0.0,0,0,0,0,28.6138819,77.2090138,14.0,0.0
2024-08-12T07:21:10.400Z,MISSION_0061,104,1,transit,SITE_DEL_002,28.6138801,77.2090211,14.0,12.48,2.582,0.173,3.22,-1.7814,0.7366,12.4754,0.99393,-0.01615,0.0047,0.10874,-0.1115,0.0114,-9.8239,0.338,0.4756,-0.0531,0.255,3,15,0.91,1.12,0.44,24.568,19.88,91.0,41.9,20015.0,8460,8293,8268,8176,59.2,58.3,60.4,60.3,2.819,2.864,2.673,2.742,4.44,112.4,33.6,54.3,1010.63,-25.86,-0.41,1.44,27.0,42.9,35.1,0,no_anomaly,0.0,0,0,0,0,28.6138801,77.2090211,14.0,0.0
2024-08-12T07:21:10.500Z,MISSION_0061,105,1,transit,SITE_DEL_002,28.6138824,77.2090263,14.0,12.04,2.893,0.067,3.53,-1.2839,-4.4651,12.0404,0.99371,-0.00705,-0.03991,0.10436,-0.0072,0.0339,-9.8594,-0.16,0.4883,0.1153,0.1442,3,11,0.59,0.68,0.2,24.557,17.43,90.9,42.7,20002.0,8420,8228,8007,8285,59.5,56.9,60.7,55.6,3.006,2.804,2.773,2.862,4.76,111.3,33.7,53.9,1010.51,-31.59,-0.32,1.53,26.7,41.4,37.6,0,no_anomaly,0.0,0,0,0,0,28.6138824,77.2090263,14.0,0.0
2024-08-12T07:21:10.600Z,MISSION_0061,106,1,transit,SITE_DEL_002,28.6138816,77.2090239,14.0,11.79,2.956,0.068,3.36,-0.0697,-1.8232,11.7885,0.99459,0.00103,-0.01589,0.10267,-0.062,0.0095,-9.8726,0.2171,0.291,0.2227,0.2834,3,13,0.93,0.77,0.25,24.621,19.76,90.9,42.4,19990.0,8175,8310,8255,8243,56.0,57.8,59.5,61.7,2.897,2.825,2.74,2.856,4.25,106.3,33.9,53.2,1010.7,-26.25,0.79,1.35,28.5,45.8,39.3,0,no_anomaly,0.0,0,0,0,0,28.6138816,77.2090239,14.0,0.0
2024-08-12T07:21:10.700Z,MISSION_0061,107,1,transit,SITE_DEL_002,28.6138808,77.2090197,14.0,10.63,2.941,0.065,3.06,2.3034,-2.2985,10.6315,0.99526,0.02187,-0.0181,0.09301,0.1916,0.0444,-9.8447,0.7143,0.3914,0.1708,0.1929,3,11,0.76,0.8,0.33,24.532,23.49,90.8,40.9,19977.0,8292,8319,8249,8220,59.7,60.1,58.2,58.9,2.816,2.981,2.903,2.668,4.68,113.1,33.2,53.7,1010.53,-25.04,-0.15,1.55,30.4,47.6,35.2,0,no_anomaly,0.0,0,0,0,0,28.6138808,77.2090197,14.0,0.0
2024-08-12T07:21:10.800Z,MISSION_0061,108,1,transit,SITE_DEL_002,28.6138785,77.2090147,14.0,11.12,2.907,-0.016,2.9,5.0988,-1.886,11.117,0.99411,0.04586,-0.01206,0.09748,-0.0222,0.0332,-9.7776,0.2562,0.4098,-0.0853,0.2249,3,20,0.65,0.92,0.29,24.508,18.3,90.8,41.9,19965.0,8383,8289,8402,8089,60.1,56.9,63.0,63.2,2.969,2.56,2.793,2.825,4.09,113.0,33.6,53.4,1010.53,-30.07,-1.43,2.02,28.2,47.3,38.4,0,no_anomaly,0.0,0,0,0,0,28.6138785,77.2090147,14.0,0.0
2024-08-12T07:21:10.900Z,MISSION_0061,109,1,transit,SITE_DEL_002,28.6138836,77.2090123,14.0,11.2,3.013,0.111,2.28,-2.6862,-2.517,11.2014,0.99476,-0.02118,-0.02414,0.09703,-0.1357,0.0029,-9.7854,-0.6524,-0.0603,-0.463,0.1537,3,20,0.71,0.75,0.36,24.544,21.42,90.7,41.5,19953.0,8090,8179,8380,8005,60.0,57.8,64.2,59.4,3.013,2.917,2.574,2.659,4.28,100.3,33.6,53.2,1010.87,-34.86,0.82,1.64,29.6,37.5,37.0,0,no_anomaly,0.0,0,0,0,0,28.6138836,77.2090123,14.0,0.0
2024-08-12T07:21:11.000Z,MISSION_0061,110,1,transit,SITE_DEL_002,28.613884,77.2090141,14.0,13.1,2.647,0.085,2.37,-1.3392,-1.7495,13.1002,0.99331,-0.00987,-0.0165,0.11387,-0.1236,-0.0741,-9.8107,-0.8568,-0.1808,-0.5417,0.2802,3,14,0.62,0.74,0.27,24.476,22.93,90.6,42.4,19940.0,8301,8181,8296,8257,53.8,57.8,61.7,60.2,3.076,2.916,2.784,2.733,4.24,113.5,33.6,54.6,1010.34,-25.96,0.58,1.63,28.7,38.4,34.2,0,no_anomaly,0.0,0,0,0,0,28.613884,77.2090141,14.0,0.0
2024-08-12T07:21:11.100Z,MISSION_0061,111,1,transit,SITE_DEL_002,28.6138855,77.2090158,14.0,13.78,2.777,0.145,2.39,8.3088,-1.9025,13.7767,0.98989,0.0739,-0.00775,0.1208,-0.0406,0.0176,-9.7859,0.3914,0.1381,-0.1692,0.1803,3,11,0.57,0.9,0.2,24.596,17.21,90.6,42.0,19928.0,8452,8622,8363,8187,57.4,60.9,63.9,59.0,2.788,3.068,2.628,2.656,2.99,93.4,33.4,53.8,1010.47,-35.44,1.09,1.16,30.5,43.3,39.8,0,no_anomaly,0.0,0,0,0,0,28.6138855,77.2090158,14.0,0.0
2024-08-12T07:21:11.200Z,MISSION_0061,112,1,transit,SITE_DEL_002,28.6138863,77.2090117,14.0,13.01,2.978,0.096,2.01,-0.588,0.1731,13.0096,0.99355,-0.00527,0.00092,0.11329,-0.0157,-0.114,-9.7824,0.8424,-0.1456,0.2332,0.1807,3,12,0.62,1.02,0.2,24.524,15.83,90.5,41.3,19915.0,8259,8000,8123,8426,59.3,59.5,59.1,62.2,2.786,2.812,2.978,2.689,4.41,100.5,33.7,53.9,1010.34,-28.36,-0.2,1.79,27.9,38.7,34.2,0,no_anomaly,0.0,0,0,0,0,28.6138863,77.2090117,14.0,0.0
2024-08-12T07:21:11.300Z,MISSION_0061,113,1,orbit_base,SITE_DEL_002,28.6138225,77.2089803,14.3,13.88,3.857,0.139,8.91,0.3613,-1.6562,13.8821,0.99256,0.00488,-0.01397,0.12088,0.0947,0.0191,-9.781,-0.3394,-0.4382,-0.2262,0.1018,3,14,0.69,0.99,0.21,24.608,17.98,90.5,41.4,19903.0,8171,8384,8462,8307,60.9,57.3,58.6,61.6,2.542,2.881,2.937,2.698,4.7,102.3,33.5,54.1,1010.19,-31.41,0.66,1.27,24.0,41.9,35.0,0,no_anomaly,0.0,0,0,0,0,28.6138225,77.2089803,14.3,0.0
2024-08-12T07:21:11.400Z,MISSION_0061,114,1,orbit_base,SITE_DEL_002,28.6138231,77.208978,14.6,14.26,3.832,0.157,8.91,-1.1328,-2.7039,14.2635,0.99197,-0.00688,-0.02464,0.12388,0.0141,0.0844,-9.9393,-0.6407,0.6616,0.0054,0.1983,3,10,0.61,1.01,0.21,24.541,16.8,90.4,41.3,19891.0,8553,8155,8650,8229,59.0,59.3,56.8,59.5,2.918,2.781,2.727,2.78,3.45,111.6,33.6,53.8,1010.81,-32.79,-1.37,1.83,27.5,42.3,36.3,0,no_anomaly,0.0,0,0,0,0,28.6138231,77.208978,14.6,0.0
2024-08-12T07:21:11.500Z,MISSION_0061,115,1,orbit_base,SITE_DEL_002,28.6138238,77.2089757,14.9,11.66,3.704,0.1,8.91,-4.9075,-1.9663,11.6554,0.99385,-0.04084,-0.0214,0.1007,-0.1575,0.0748,-9.7595,-0.1851,-0.3595,0.2296,0.2086,3,13,0.7,1.06,0.27,24.626,15.13,90.4,41.8,19878.0,8134,8271,8370,8534,62.5,59.4,57.5,56.2,2.627,2.615,2.793,2.663,3.75,104.8,33.8,54.5,1010.24,-30.94,-1.28,1.63,27.3,43.7,35.1,0,no_anomaly,0.0,0,0,0,0,28.6138238,77.2089757,14.9,0.0
2024-08-12T07:21:11.600Z,MISSION_0061,116,1,orbit_base,SITE_DEL_002,28.6138245,77.2089734,15.2,13.28,3.81,0.14,8.91,-1.5645,-1.7462,13.2849,0.9931,-0.0118,-0.01671,0.11544,-0.1863,0.0501,-9.7887,-0.1038,-0.7252,0.1364,0.2321,3,18,0.56,0.85,0.2,24.576,17.83,90.3,41.6,19866.0,8248,8442,8464,8381,58.0,58.7,58.6,60.5,2.909,3.0,2.899,2.885,3.21,108.4,33.9,53.8,1010.36,-28.82,1.17,1.41,29.6,43.2,35.5,0,no_anomaly,0.0,0,0,0,0,28.6138245,77.2089734,15.2,0.0
2024-08-12T07:21:11.700Z,MISSION_0061,117,1,orbit_base,SITE_DEL_002,28.6138254,77.2089712,15.5,14.05,4.092,0.112,8.91,-1.5086,1.0014,14.0456,0.99236,-0.01413,0.00706,0.12236,-0.0024,0.0132,-9.7956,0.0442,0.0923,-0.0337,0.2156,3,19,0.54,1.09,0.2,24.512,17.35,90.2,42.1,19853.0,8317,8413,8121,8270,58.3,60.4,58.2,60.8,2.686,2.922,2.944,2.761,4.22,109.8,34.1,52.9,1010.22,-30.15,-0.13,1.0,28.6,40.3,35.9,0,no_anomaly,0.0,0,0,0,0,28.6138254,77.2089712,15.5,0.0
2024-08-12T07:21:11.800Z,MISSION_0061,118,1,orbit_base,SITE_DEL_002,28.6138263,77.208969,15.8,16.95,4.362,0.143,8.91,1.055,0.9958,16.9517,0.98901,0.00783,0.00995,0.1473,0.0589,-0.008,-9.811,0.0705,0.0512,0.2488,0.1747,3,13,0.73,0.7,0.31,24.649,19.6,90.2,42.0,19841.0,8179,8247,8406,8273,58.3,58.7,57.5,56.8,2.883,2.645,2.764,2.744,3.38,105.1,33.9,52.6,1010.59,-30.23,0.19,1.2,32.7,48.7,36.1,0,no_anomaly,0.0,0,0,0,0,28.6138263,77.208969,15.8,0.0
2024-08-12T07:21:11.900Z,MISSION_0061,119,1,orbit_base,SITE_DEL_002,28.6138272,77.2089668,16.1,18.86,4.969,0.109,8.91,2.2485,-0.0597,18.8594,0.9863,0.01944,0.0027,0.16382,0.0561,0.0135,-9.8089,0.0599,0.7012,0.4864,0.1369,3,13,0.6,0.6,0.26,24.618,17.95,90.1,42.5,19828.0,8260,8284,8235,8291,58.9,60.5,57.5,58.4,2.714,2.933,2.865,2.704,4.14,115.6,33.8,54.3,1010.48,-29.3,-1.06,1.75,26.3,37.2,34.2,0,no_anomaly,0.0,0,0,0,0,28.6138272,77.2089668,16.1,0.0
2024-08-12T07:21:12.000Z,MISSION_0061,120,1,orbit_base,SITE_DEL_002,28.6138283,77.2089646,16.4,16.53,4.687,0.084,8.91,1.089,-1.9007,16.5273,0.98941,0.01179,-0.01505,0.14386,-0.0569,0.0072,-9.8095,0.92,-0.016,-0.1835,0.121,3,17,0.79,1.15,0.35,24.547,19.11,90.1,41.8,19816.0,8269,8323,8428,8254,56.6,59.5,56.6,54.8,3.024,2.835,2.887,2.976,3.48,102.7,34.0,54.0,1010.67,-31.13,-1.14,1.52,28.5,44.0,36.7,0,no_anomaly,0.0,0,0,0,0,28.6138283,77.2089646,16.4,0.0
2024-08-12T07:21:12.100Z,MISSION_0061,121,1,orbit_base,SITE_DEL_002,28.6138294,77.2089625,16.7,16.63,4.311,0.046,8.91,2.0735,-5.7871,16.6254,0.98794,0.02518,-0.04733,0.14527,-0.0209,-0.0168,-9.882,0.3436,0.5207,0.2511,0.2581,3,14,0.59,0.77,0.22,24.611,21.56,90.0,42.7,19804.0,8589,8258,8515,8205,59.3,58.6,57.2,54.6,2.706,2.771,2.735,2.713,3.48,105.4,33.6,53.3,1010.2,-25.61,0.57,1.43,29.0,42.8,35.4,0,no_anomaly,0.0,0,0,0,0,28.6138294,77.2089625,16.7,0.0
2024-08-12T07:21:12.200Z,MISSION_0061,122,1,orbit_base,SITE_DEL_002,28.6138305,77.2089604,17.0,16.22,4.444,0.096,8.91,-0.193,-2.5839,16.2168,0.98976,0.00151,-0.02256,0.14097,0.1026,0.06,-9.8807,-0.1584,-0.4876,-0.2965,0.2301,3,10,0.61,0.99,0.2,24.411,17.03,90.0,41.3,19791.0,8482,8204,8307,8555,60.5,55.1,59.3,59.3,2.79,2.949,2.88,3.045,4.2,112.6,33.8,54.4,1010.39,-29.8,0.09,1.82,32.2,44.2,38.2,0,no_anomaly,0.0,0,0,0,0,28.6138305,77.2089604,17.0,0.0
2024-08-12T07:21:12.300Z,MISSION_0061,123,1,orbit_base,SITE_DEL_002,28.6138317,77.2089583,17.3,16.32,4.729,0.08,8.91,5.2032,-4.0364,16.318,0.98802,0.0499,-0.02839,0.14327,-0.0425,-0.0425,-9.8677,-0.4161,0.0216,-0.4776,0.0946,3,10,0.63,1.02,0.2,24.486,24.52,89.9,41.5,19779.0,8324,8430,8279,8142,58.1,59.5,58.1,59.3,2.763,2.854,2.655,2.646,4.38,114.9,33.9,53.4,1010.64,-29.25,0.11,1.1,25.2,47.2,33.2,0,no_anomaly,0.0,0,0,0,0,28.6138317,77.2089583,17.3,0.0
2024-08-12T07:21:12.400Z,MISSION_0061,124,1,orbit_base,SITE_DEL_002,28.613833,77.2089563,17.6,16.64,5.282,0.031,8.91,0.5881,-1.6262,16.6448,0.98935,0.00713,-0.0133,0.1448,0.1877,-0.0428,-9.8843,-0.153,-0.5502,0.4988,0.1413,3,12,0.85,0.76,0.31,24.499,24.53,89.8,41.5,19766.0,8339,8432,8614,8134,55.1,55.8,58.4,63.4,2.678,2.922,2.548,3.122,3.31,114.4,34.1,53.5,1010.3,-32.78,0.57,1.36,28.1,48.7,37.7,0,no_anomaly,0.0,0,0,0,0,28.613833,77.2089563,17.6,0.0
2024-08-12T07:21:12.500Z,MISSION_0061,125,1,orbit_base,SITE_DEL_002,28.6138344,77.2089543,17.9,15.96,4.788,0.183,8.91,7.2388,0.1247,15.9611,0.98835,0.06237,0.00984,0.13849,-0.032,-0.0159,-9.8108,-0.2613,0.0685,0.543,0.1775,3,13,0.69,1.01,0.29,24.527,19.1,89.8,42.3,19754.0,8443,8227,8034,8043,57.7,56.7,63.3,59.0,2.907,2.751,2.622,2.834,3.24,106.5,33.7,53.9,1010.02,-33.45,-0.17,1.92,29.2,41.1,33.6,0,no_anomaly,0.0,0,0,0,0,28.6138344,77.2089543,17.9,0.0
2024-08-12T07:21:12.600Z,MISSION_0061,126,1,orbit_base,SITE_DEL_002,28.6138358,77.2089523,18.2,14.22,5.007,0.173,8.91,-1.4361,-2.7649,14.2185,0.99198,-0.00945,-0.02549,0.12342,0.0458,0.0071,-9.777,-0.3848,0.2266,0.1083,0.1724,3,15,0.69,0.7,0.27,24.503,18.62,89.7,42.2,19742.0,8332,8248,8392,8482,57.3,62.1,58.8,61.5,2.788,2.79,2.861,2.683,3.4,106.4,33.8,53.4,1010.67,-32.09,-0.21,1.46,32.1,45.8,37.7,0,no_anomaly,0.0,0,0,0,0,28.6138358,77.2089523,18.2,0.0
2024-08-12T07:21:12.700Z,MISSION_0061,127,1,orbit_base,SITE_DEL_002,28.6138372,77.2089504,18.5,14.18,4.512,0.103,8.91,-3.1444,-0.8805,14.1775,0.99198,-0.02628,-0.01101,0.12315,0.0113,-0.1008,-9.9063,0.0014,-0.0257,0.5127,0.2154,3,11,0.77,0.78,0.36,24.562,21.22,89.7,42.5,19729.0,8192,8386,8374,8326,56.7,54.0,59.8,58.8,2.9,3.104,2.715,2.517,4.53,109.7,33.6,52.9,1010.43,-33.39,0.67,1.46,27.2,43.6,34.3,0,no_anomaly,0.0,0,0,0,0,28.6138372,77.2089504,18.5,0.0
2024-08-12T07:21:12.800Z,MISSION_0061,128,1,orbit_base,SITE_DEL_002,28.6138387,77.2089486,18.8,14.54,4.644,0.14,8.91,1.7265,-3.596,14.5412,0.9913,0.01891,-0.02921,0.12695,-0.1037,0.014,-9.7961,-0.5158,0.3096,0.0824,0.1047,3,19,0.75,1.22,0.26,24.614,22.28,89.6,41.9,19717.0,8320,8221,8315,8259,56.8,56.1,56.8,57.3,2.859,2.731,2.834,2.995,4.62,107.9,33.5,52.2,1010.51,-28.28,2.36,1.05,27.6,42.7,39.1,0,no_anomaly,0.0,0,0,0,0,28.6138387,77.2089486,18.8,0.0
2024-08-12T07:21:12.900Z,MISSION_0061,129,1,orbit_base,SITE_DEL_002,28.6138403,77.2089467,19.1,15.69,4.496,0.072,8.91,-2.5135,-0.7445,15.6863,0.99041,-0.02084,-0.00943,0.13628,-0.0078,-0.0514,-9.8923,-0.1716,-0.25,-0.057,0.1314,3,16,0.72,1.22,0.28,24.552,15.94,89.6,42.4,19704.0,8164,8090,8453,8254,55.1,60.2,58.5,60.8,2.553,3.137,2.597,2.847,4.13,105.7,33.7,53.8,1010.75,-29.25,-1.34,1.42,30.8,48.3,37.8,0,no_anomaly,0.0,0,0,0,0,28.6138403,77.2089467,19.1,0.0
