timestamp_utc,mission_id,frame_id,waypoint_id,inspection_phase,site_id,latitude_deg,longitude_deg,altitude_m,heading_deg,ground_speed_ms,vertical_speed_ms,distance_to_tower_m,roll_deg,pitch_deg,yaw_deg,quat_w,quat_x,quat_y,quat_z,accel_x_ms2,accel_y_ms2,accel_z_ms2,gyro_x_rads,gyro_y_rads,gyro_z_rads,vibration_level,gps_fix_type,gps_satellite_count,gps_hdop,gps_vdop,position_error_m,battery_voltage_v,battery_current_a,battery_remaining_pct,battery_temp_c,battery_capacity_mah,motor_fl_rpm,motor_fr_rpm,motor_rl_rpm,motor_rr_rpm,motor_fl_temp_c,motor_fr_temp_c,motor_rl_temp_c,motor_rr_temp_c,motor_fl_thrust_n,motor_fr_thrust_n,motor_rl_thrust_n,motor_rr_thrust_n,wind_speed_ms,wind_dir_deg,air_temp_c,humidity_pct,pressure_hpa,gimbal_pitch_deg,gimbal_roll_deg,zoom_factor,ir_temp_min_c,ir_temp_max_c,ir_temp_avg_c,anomaly_detected,anomaly_class,anomaly_confidence,anomaly_bbox_x,anomaly_bbox_y,anomaly_bbox_w,anomaly_bbox_h,anomaly_gps_lat,anomaly_gps_lon,anomaly_gps_alt_m,ir_temp_delta_c
2024-05-25T10:06:00.000Z,MISSION_0014,0,0,takeoff,SITE_HYD_005,17.3849976,78.4867033,1.5,19.25,0.118,0.145,0.45,-0.8927,-1.3054,19.2503,0.98584,-0.00577,-0.01253,0.1671,-0.0565,0.062,-9.8541,-0.6004,0.2698,-0.5269,0.1739,3,14,0.8,0.72,0.25,24.874,20.01,99.7,31.4,21925.0,8008,7856,7952,7815,49.4,49.9,48.1,48.4,2.677,2.597,2.606,2.954,4.29,357.6,23.7,73.6,1010.89,-36.66,-0.93,1.75,17.3,31.3,26.1,0,no_anomaly,0.0,0,0,0,0,17.3849976,78.4867033,1.5,0.0
2024-05-25T10:06:00.100Z,MISSION_0014,1,0,takeoff,SITE_HYD_005,17.3849955,78.4867018,3.0,20.26,0.19,0.194,0.54,-3.0646,-2.8442,20.2554,0.98388,-0.02195,-0.02912,0.17507,0.1592,-0.0044,-9.8355,-0.1764,-0.2826,0.3312,0.1717,3,13,0.72,0.94,0.23,24.815,21.95,99.6,31.5,21913.0,7640,7773,7646,7714,53.0,51.7,47.6,49.0,2.659,2.983,2.91,2.794,5.54,359.1,23.8,74.2,1010.63,-29.31,0.35,1.63,18.1,34.3,24.0,0,no_anomaly,0.0,0,0,0,0,17.3849955,78.4867018,3.0,0.0
2024-05-25T10:06:00.200Z,MISSION_0014,2,0,takeoff,SITE_HYD_005,17.3849923,78.4867011,4.5,19.74,0.413,0.119,0.86,-0.0962,-1.7082,19.7389,0.98509,0.00173,-0.01483,0.17137,0.1618,-0.0064,-9.8275,0.7545,-0.3882,-0.3147,0.2858,3,19,0.65,0.98,0.35,24.714,13.8,99.6,32.0,21901.0,7932,7972,7884,7897,50.8,48.3,48.1,48.2,2.817,2.974,2.694,3.108,5.36,346.5,24.2,74.5,1011.3,-33.2,0.52,1.08,19.0,33.5,26.5,0,no_anomaly,0.0,0,0,0,0,17.3849923,78.4867011,4.5,0.0
2024-05-25T10:06:00.300Z,MISSION_0014,3,0,takeoff,SITE_HYD_005,17.3849903,78.4866989,5.0,20.59,0.0,0.083,1.08,-3.4137,-0.2747,20.5916,0.98347,-0.02888,-0.00768,0.17858,-0.2001,0.0302,-9.7916,-0.0285,0.2253,-0.1286,0.1816,3,14,0.92,0.85,0.4,24.816,17.13,99.5,31.6,21889.0,7781,7835,7890,7756,48.7,50.4,51.0,48.0,2.885,2.916,3.01,2.77,6.51,0.6,23.7,74.6,1011.27,-30.97,0.72,1.46,19.3,33.8,30.0,0,no_anomaly,0.0,0,0,0,0,17.3849903,78.4866989,5.0,0.0
2024-05-25T10:06:00.400Z,MISSION_0014,4,0,takeoff,SITE_HYD_005,17.3849893,78.4866967,5.0,19.26,0.252,0.077,1.25,-4.0394,-2.3558,19.2556,0.98522,-0.0313,-0.02615,0.16639,0.1181,0.0553,-9.8687,-0.0611,-0.0204,0.3607,0.2043,3,19,0.75,0.84,0.27,24.754,20.04,99.4,32.5,21878.0,8060,7771,7741,7915,48.6,47.2,47.5,47.2,2.487,2.712,2.74,2.608,5.0,358.3,23.9,75.1,1010.94,-30.25,1.68,1.52,20.5,36.3,24.9,0,no_anomaly,0.0,0,0,0,0,17.3849893,78.4866967,5.0,0.0
2024-05-25T10:06:00.500Z,MISSION_0014,5,0,takeoff,SITE_HYD_005,17.3849894,78.4866938,5.0,18.14,0.0,0.106,1.37,4.1483,-3.7381,18.145,0.98613,0.04086,-0.02648,0.15866,-0.2514,0.0834,-9.7279,0.4171,-0.5564,-0.3154,0.2765,3,13,0.54,0.96,0.24,24.75,17.9,99.4,31.4,21866.0,7797,7905,7674,7777,48.6,50.9,46.8,51.0,2.805,2.866,2.978,3.109,5.24,351.0,23.5,74.2,1010.82,-32.39,1.59,1.55,17.4,37.9,26.2,0,no_anomaly,0.0,0,0,0,0,17.3849894,78.4866938,5.0,0.0
2024-05-25T10:06:00.600Z,MISSION_0014,6,0,takeoff,SITE_HYD_005,17.3849922,78.486691,5.0,19.57,0.349,0.131,1.33,-1.2153,-5.5793,19.5657,0.98432,-0.00217,-0.04976,0.16919,-0.3237,0.0636,-9.8,0.3101,-0.1227,0.1474,0.1901,3,19,0.55,0.71,0.2,24.712,18.44,99.3,31.5,21854.0,8027,7620,7926,8022,49.8,49.1,50.6,52.8,2.829,3.037,2.736,3.033,5.53,353.2,23.5,73.1,1010.61,-28.53,1.57,1.77,19.3,32.2,27.1,0,no_anomaly,0.0,0,0,0,0,17.3849922,78.486691,5.0,0.0
2024-05-25T10:06:00.700Z,MISSION_0014,7,0,takeoff,SITE_HYD_005,17.3849925,78.4866925,5.0,17.81,0.611,0.051,1.18,1.1918,-1.9136,17.8067,0.98773,0.01286,-0.01489,0.15491,-0.1564,0.0522,-9.8059,-0.0298,-0.126,0.0087,0.1568,3,15,0.95,0.91,0.4,24.797,19.55,99.3,31.3,21842.0,7971,7805,7813,8058,49.1,50.7,49.8,48.7,3.18,2.609,2.757,2.751,5.01,350.6,23.8,74.0,1011.03,-32.31,0.51,1.34,17.9,34.1,27.2,0,no_anomaly,0.0,0,0,0,0,17.3849925,78.4866925,5.0,0.0
2024-05-25T10:06:00.800Z,MISSION_0014,8,0,takeoff,SITE_HYD_005,17.3849976,78.4866913,5.0,18.24,0.238,0.03,1.0,0.3583,0.7665,18.2396,0.98734,0.00203,0.0071,0.15847,0.1231,0.0366,-9.8892,0.6874,0.0752,-0.2523,0.1834,3,14,0.64,1.07,0.33,24.817,12.85,99.2,31.3,21830.0,7976,7754,7855,7847,49.0,50.5,50.5,48.7,2.838,2.841,3.02,2.728,4.64,352.0,23.7,74.2,1010.7,-32.27,-0.8,1.07,19.8,35.4,26.1,0,no_anomaly,0.0,0,0,0,0,17.3849976,78.4866913,5.0,0.0
2024-05-25T10:06:00.900Z,MISSION_0014,9,0,takeoff,SITE_HYD_005,17.384995,78.4866916,5.0,16.05,0.0,0.041,1.09,2.0392,-1.1418,16.0549,0.98997,0.01901,-0.00738,0.13979,-0.2362,0.0404,-9.8378,-0.5858,0.0566,0.0575,0.1531,3,16,0.72,0.65,0.21,24.802,17.47,99.2,31.3,21819.0,7649,7781,7499,7578,46.0,48.1,51.1,47.5,2.82,2.904,2.985,2.53,5.4,351.3,23.7,73.7,1011.05,-27.77,-1.78,1.91,20.4,32.3,24.4,0,no_anomaly,0.0,0,0,0,0,17.384995,78.4866916,5.0,0.0
2024-05-25T10:06:01.000Z,MISSION_0014,10,0,takeoff,SITE_HYD_005,17.3849966,78.4866927,5.0,17.75,0.0,0.098,0.9,-2.34,2.4697,17.7478,0.98753,-0.02349,0.01814,0.15463,0.0744,0.0634,-9.7819,-0.5563,-0.2124,-0.2119,0.174,3,11,0.82,1.04,0.38,24.82,18.77,99.1,31.7,21807.0,7769,7767,7788,7974,46.9,50.3,47.8,48.6,2.56,2.984,2.904,2.55,5.18,351.9,23.8,73.9,1010.56,-34.26,-0.67,1.22,17.2,35.0,24.7,0,no_anomaly,0.0,0,0,0,0,17.3849966,78.4866927,5.0,0.0
2024-05-25T10:06:01.100Z,MISSION_0014,11,0,takeoff,SITE_HYD_005,17.3849977,78.4866929,5.0,18.98,0.378,0.065,0.83,0.2686,-1.8152,18.9823,0.98618,0.00492,-0.01524,0.16491,0.0965,-0.0047,-9.8932,0.9798,0.0629,-0.4246,0.2658,3,16,0.72,1.03,0.23,24.783,15.14,99.1,32.0,21795.0,8009,7950,7748,7741,46.8,45.9,44.6,46.4,2.827,2.661,2.805,2.983,5.09,2.8,23.8,73.6,1010.7,-32.03,-1.36,1.52,21.0,30.3,26.7,0,no_anomaly,0.0,0,0,0,0,17.3849977,78.4866929,5.0,0.0
2024-05-25T10:06:01.200Z,MISSION_0014,12,0,takeoff,SITE_HYD_005,17.3849964,78.486692,5.0,20.57,0.382,0.133,0.98,2.7536,-0.7014,20.5735,0.9836,0.02473,-0.00173,0.17866,0.0705,-0.0223,-9.7659,0.0788,-0.1629,0.0681,0.2668,3,13,0.71,0.81,0.28,24.802,15.94,99.0,32.0,21783.0,7825,8137,7492,8022,49.8,46.6,51.5,47.5,2.692,2.914,2.589,2.649,4.88,1.7,23.6,74.6,1010.89,-30.69,-0.17,1.37,18.9,32.4,29.8,0,no_anomaly,0.0,0,0,0,0,17.3849964,78.486692,5.0,0.0
2024-05-25T10:06:01.300Z,MISSION_0014,13,0,takeoff,SITE_HYD_005,17.384999,78.4866956,5.0,21.64,0.169,0.127,0.5,3.9513,-3.38,21.6394,0.98102,0.03938,-0.02248,0.18852,-0.0831,0.1153,-9.8298,0.2513,-0.6236,-0.1847,0.2037,3,15,0.8,0.95,0.32,24.776,18.87,99.0,31.9,21771.0,7651,7938,8149,7953,49.8,50.4,48.0,50.8,2.937,2.649,2.78,2.926,4.62,352.3,23.9,73.9,1011.42,-27.53,1.02,2.01,18.7,34.3,25.0,0,no_anomaly,0.0,0,0,0,0,17.384999,78.4866956,5.0,0.0
2024-05-25T10:06:01.400Z,MISSION_0014,14,0,takeoff,SITE_HYD_005,17.3850044,78.486698,5.0,22.68,0.0,0.169,0.54,-1.7708,-2.1488,22.6802,0.98024,-0.01146,-0.02142,0.19629,0.2204,0.0093,-9.7906,-0.4892,0.2392,0.4642,0.2334,3,20,0.65,0.64,0.28,24.734,18.0,98.9,31.7,21759.0,7759,7834,7730,8211,44.8,46.3,52.1,49.1,2.686,2.832,2.898,2.81,5.1,0.4,23.6,73.3,1011.1,-31.38,0.85,1.64,21.3,30.6,28.9,0,no_anomaly,0.0,0,0,0,0,17.3850044,78.486698,5.0,0.0
2024-05-25T10:06:01.500Z,MISSION_0014,15,0,takeoff,SITE_HYD_005,17.3850033,78.4866943,5.0,21.02,0.27,0.208,0.73,-0.3945,-1.87,21.019,0.9831,-0.00041,-0.01667,0.18232,-0.036,0.0417,-9.8184,0.0857,0.5212,-0.2773,0.2013,3,10,0.58,0.91,0.22,24.7,15.78,98.9,31.5,21748.0,7791,8251,7781,8190,51.3,45.6,47.6,47.8,2.733,2.631,2.864,2.933,5.5,352.4,23.8,73.7,1011.03,-30.85,1.87,1.5,16.7,31.7,23.6,0,no_anomaly,0.0,0,0,0,0,17.3850033,78.4866943,5.0,0.0
2024-05-25T10:06:01.600Z,MISSION_0014,16,0,takeoff,SITE_HYD_005,17.3850019,78.4866919,5.0,21.51,0.049,0.126,0.93,2.3866,-0.9497,21.5138,0.98215,0.02201,-0.00425,0.18676,0.0607,-0.0878,-9.8304,-0.3883,-0.6561,-0.1362,0.238,3,13,0.67,0.96,0.33,24.77,15.37,98.8,32.2,21736.0,8094,7754,7807,7907,45.7,45.9,46.9,48.8,2.926,2.943,2.778,2.835,4.79,352.4,23.8,74.0,1011.24,-27.24,-0.69,1.46,19.4,29.2,27.2,0,no_anomaly,0.0,0,0,0,0,17.3850019,78.4866919,5.0,0.0
2024-05-25T10:06:01.700Z,MISSION_0014,17,0,takeoff,SITE_HYD_005,17.3850024,78.4866885,5.0,23.17,0.243,0.069,1.3,3.2291,-1.2336,23.1662,0.97913,0.02976,-0.00488,0.20099,0.208,-0.012,-9.8962,-0.4921,0.0525,-0.2267,0.1461,3,12,0.59,0.91,0.29,24.742,21.19,98.7,31.8,21724.0,8113,7862,7784,7881,51.1,49.0,51.4,51.7,2.854,2.994,2.846,2.605,5.78,357.8,23.5,74.2,1011.1,-30.26,0.06,1.95,17.3,30.0,24.6,0,no_anomaly,0.0,0,0,0,0,17.3850024,78.4866885,5.0,0.0
2024-05-25T10:06:01.800Z,MISSION_0014,18,0,takeoff,SITE_HYD_005,17.3850021,78.4866898,5.0,19.12,0.0,0.067,1.15,1.4389,-2.1052,19.1183,0.98583,0.01543,-0.01603,0.16625,0.2336,0.0358,-9.7368,0.9283,-0.543,-0.7473,0.2349,3,12,0.68,0.97,0.38,24.797,17.43,98.7,31.0,21712.0,7626,7774,7855,7728,44.6,48.4,46.5,52.4,2.447,2.662,2.846,2.856,4.8,355.2,24.0,74.4,1010.98,-29.06,-0.74,1.82,19.6,29.8,26.4,0,no_anomaly,0.0,0,0,0,0,17.3850021,78.4866898,5.0,0.0
2024-05-25T10:06:01.900Z,MISSION_0014,19,0,takeoff,SITE_HYD_005,17.3850072,78.4866946,5.0,19.14,0.239,0.103,1.0,4.3173,-1.0927,19.1374,0.98528,0.03872,-0.00313,0.16646,0.0448,-0.0197,-9.7431,-0.1873,-0.213,-0.0445,0.2316,3,13,0.6,0.81,0.25,24.791,24.96,98.6,32.0,21700.0,8019,7926,8085,7744,48.2,46.9,49.0,48.2,2.885,2.621,3.046,2.44,5.67,354.8,23.6,73.4,1011.19,-29.04,0.17,1.76,21.3,35.0,29.4,0,no_anomaly,0.0,0,0,0,0,17.3850072,78.4866946,5.0,0.0
2024-05-25T10:06:02.000Z,MISSION_0014,20,0,takeoff,SITE_HYD_005,17.3850159,78.4867019,5.0,16.3,0.0,0.106,1.79,2.7124,-0.2304,16.2954,0.98962,0.02371,0.00136,0.14173,-0.2591,0.0205,-9.8256,-0.8253,-0.8322,0.0585,0.2397,3,12,0.54,0.86,0.24,24.837,18.11,98.6,31.9,21689.0,7907,7912,7723,8015,49.2,49.4,46.3,46.6,2.702,2.788,2.724,2.584,6.05,350.3,23.8,74.6,1010.73,-25.27,0.35,1.89,21.9,38.9,26.4,0,no_anomaly,0.0,0,0,0,0,17.3850159,78.4867019,5.0,0.0
2024-05-25T10:06:02.100Z,MISSION_0014,21,0,takeoff,SITE_HYD_005,17.3850175,78.486701,5.0,17.68,0.06,0.144,1.96,3.5818,-0.4411,17.6781,0.98762,0.03147,0.001,0.1537,0.1461,-0.0208,-9.8521,0.2199,0.4318,-0.1721,0.1595,3,19,0.72,0.85,0.28,24.859,23.26,98.5,32.3,21677.0,8047,7716,7740,8075,47.1,48.2,49.9,48.6,2.744,2.832,2.856,2.71,4.88,358.7,23.7,73.9,1010.86,-28.61,-0.72,1.23,21.1,29.6,27.1,0,no_anomaly,0.0,0,0,0,0,17.3850175,78.486701,5.0,0.0
2024-05-25T10:06:02.200Z,MISSION_0014,22,0,takeoff,SITE_HYD_005,17.3850201,78.4866934,5.0,16.11,0.583,0.083,2.35,-0.1235,-0.4206,16.1096,0.99013,-0.00055,-0.00379,0.14012,-0.0284,0.0202,-9.7318,0.0572,0.2643,0.0024,0.2012,3,16,0.67,0.81,0.33,24.771,15.29,98.5,31.2,21665.0,7469,7969,7706,8093,49.8,47.4,52.3,46.3,2.71,2.813,2.882,2.912,5.18,351.4,24.3,73.4,1011.06,-26.97,-0.52,1.62,20.0,32.1,24.7,0,no_anomaly,0.0,0,0,0,0,17.3850201,78.4866934,5.0,0.0
2024-05-25T10:06:02.300Z,MISSION_0014,23,0,takeoff,SITE_HYD_005,17.38502,78.4866951,5.0,16.61,1.585,0.073,2.29,2.8596,-0.8159,16.607,0.98916,0.02572,-0.00344,0.14454,0.2155,0.1418,-9.8162,0.21,-0.0038,0.0235,0.2504,3,17,0.56,0.89,0.28,24.785,19.42,98.4,32.5,21653.0,8130,7751,7707,7653,50.1,49.6,50.2,49.6,2.757,2.621,2.686,2.835,4.38,1.6,23.3,74.1,1011.07,-31.14,1.5,1.69,15.9,35.3,25.8,0,no_anomaly,0.0,0,0,0,0,17.38502,78.4866951,5.0,0.0
2024-05-25T10:06:02.400Z,MISSION_0014,24,0,takeoff,SITE_HYD_005,17.3850238,78.4866942,5.0,16.18,1.552,0.2,2.73,-3.9311,-3.3891,16.179,0.98918,-0.02978,-0.03408,0.13957,0.1439,-0.004,-9.817,-0.0621,0.0786,-0.0854,0.2303,3,17,0.71,0.81,0.2,24.789,24.74,98.4,32.1,21641.0,8073,7621,8335,8029,45.7,47.5,47.8,51.8,2.748,3.024,2.684,2.794,5.19,349.5,23.7,74.1,1011.18,-30.75,0.44,1.6,22.2,39.2,26.2,0,no_anomaly,0.0,0,0,0,0,17.3850238,78.4866942,5.0,0.0
2024-05-25T10:06:02.500Z,MISSION_0014,25,0,takeoff,SITE_HYD_005,17.3850233,78.4866938,5.0,15.61,1.293,0.114,2.69,-0.6571,-2.9936,15.6061,0.99041,-0.00213,-0.02666,0.13557,-0.1688,-0.1002,-9.7107,-0.2765,0.5862,0.2382,0.2633,3,14,0.75,0.97,0.2,24.851,18.61,98.3,31.0,21629.0,8016,7506,7988,7884,50.0,47.1,53.1,46.8,2.613,3.086,2.596,2.669,6.12,356.8,23.7,73.7,1011.31,-27.91,2.25,1.67,16.9,32.0,27.5,0,no_anomaly,0.0,0,0,0,0,17.3850233,78.4866938,5.0,0.0
2024-05-25T10:06:02.600Z,MISSION_0014,26,0,takeoff,SITE_HYD_005,17.3850253,78.4866901,5.0,15.43,1.318,0.081,3.02,4.1244,-3.5755,15.4349,0.98967,0.03983,-0.02606,0.13525,-0.0635,-0.0485,-9.8018,-0.0138,0.1857,-0.0667,0.2409,3,11,0.68,0.74,0.3,24.745,17.18,98.3,32.2,21618.0,7657,7867,7854,7966,46.7,48.3,49.7,44.9,2.52,3.129,2.977,2.956,4.75,356.4,23.8,73.7,1010.96,-27.04,-2.99,1.77,19.6,31.1,27.6,0,no_anomaly,0.0,0,0,0,0,17.3850253,78.4866901,5.0,0.0
2024-05-25T10:06:02.700Z,MISSION_0014,27,0,takeoff,SITE_HYD_005,17.3850227,78.4866928,5.0,16.09,1.243,0.091,2.65,0.2191,-0.4601,16.0925,0.99014,0.00245,-0.00371,0.13998,0.2142,0.0658,-9.8028,-0.5074,0.3533,0.3276,0.2402,3,19,0.88,0.8,0.34,24.754,19.9,98.2,32.4,21606.0,7738,7754,8105,7951,48.5,46.2,46.2,48.6,2.599,3.084,2.863,2.92,5.45,357.6,23.5,74.5,1011.41,-34.0,1.12,1.55,18.7,34.7,25.0,0,no_anomaly,0.0,0,0,0,0,17.3850227,78.4866928,5.0,0.0
2024-05-25T10:06:02.800Z,MISSION_0014,28,0,takeoff,SITE_HYD_005,17.3850225,78.4866888,5.0,16.63,1.452,0.086,2.8,0.1161,-1.896,16.6328,0.98935,0.0034,-0.01622,0.14464,0.0936,0.0107,-9.8014,0.4709,0.142,-0.1866,0.126,3,20,0.63,0.93,0.2,24.774,17.14,98.2,31.7,21594.0,7814,7544,7723,7832,48.6,48.0,52.3,45.0,2.55,2.893,2.526,2.911,5.09,350.9,23.8,73.8,1010.7,-26.68,0.02,1.81,16.6,27.5,25.0,0,no_anomaly,0.0,0,0,0,0,17.3850225,78.4866888,5.0,0.0
2024-05-25T10:06:02.900Z,MISSION_0014,29,0,takeoff,SITE_HYD_005,17.3850258,78.4866875,5.0,14.37,1.487,0.116,3.19,-1.798,-1.4584,14.3733,0.99197,-0.01397,-0.01459,0.12488,0.0755,-0.0428,-9.8208,-0.1081,0.2283,-0.3437,0.1155,3,17,0.58,0.91,0.22,24.717,20.56,98.1,31.3,21582.0,7946,7927,8113,7690,50.5,46.9,48.1,49.3,2.789,2.946,2.617,2.844,4.95,0.8,23.7,74.4,1010.54,-31.26,-1.14,1.96,20.1,31.3,28.5,0,no_anomaly,0.0,0,0,0,0,17.3850258,78.4866875,5.0,0.0
2024-05-25T10:06:03.000Z,MISSION_0014,30,0,takeoff,SITE_HYD_005,17.3850228,78.4866891,5.0,16.9,1.677,0.086,2.81,-4.6827,-1.6539,16.8999,0.9883,-0.03829,-0.02027,0.14622,-0.1306,0.0707,-9.9003,0.5448,-0.5806,0.3722,0.25,3,19,0.7,0.7,0.39,24.761,17.43,98.0,32.6,21570.0,7840,7670,8034,7792,48.7,50.2,48.9,49.4,2.928,2.415,2.863,3.027,5.43,356.3,23.9,74.6,1011.22,-28.3,0.5,1.66,17.8,32.2,29.2,0,no_anomaly,0.0,0,0,0,0,17.3850228,78.4866891,5.0,0.0
2024-05-25T10:06:03.100Z,MISSION_0014,31,0,takeoff,SITE_HYD_005,17.3850235,78.4866884,5.0,16.72,1.24,0.041,2.92,-3.5775,-2.3298,16.7168,0.98878,-0.02792,-0.02464,0.14464,0.1086,0.0726,-9.8395,0.1978,1.0308,-0.004,0.168,3,17,0.78,0.99,0.31,24.706,22.5,98.0,32.1,21559.0,7719,7738,7767,7694,50.2,48.8,49.4,46.0,2.889,2.821,2.827,2.895,6.25,351.8,24.0,74.0,1010.97,-28.98,0.05,2.1,16.9,33.5,27.8,0,no_anomaly,0.0,0,0,0,0,17.3850235,78.4866884,5.0,0.0
2024-05-25T10:06:03.200Z,MISSION_0014,32,0,takeoff,SITE_HYD_005,17.3850243,78.4866945,5.0,15.76,1.598,0.099,2.78,2.2861,-1.5984,15.7591,0.99023,0.02167,-0.01108,0.13733,-0.0592,-0.0859,-9.8321,-0.7284,-0.1429,-0.0775,0.226,3,15,0.71,0.91,0.26,24.774,17.13,97.9,31.9,21547.0,7659,7826,8149,7840,51.0,48.5,51.3,49.9,2.585,3.078,2.714,2.581,4.49,349.7,23.7,73.1,1011.25,-31.71,-0.41,1.44,15.7,34.4,25.1,0,no_anomaly,0.0,0,0,0,0,17.3850243,78.4866945,5.0,0.0
2024-05-25T10:06:03.300Z,MISSION_0014,33,0,takeoff,SITE_HYD_005,17.3850242,78.4866924,5.0,17.26,1.217,0.114,2.82,3.3085,-0.7071,17.2567,0.98822,0.02947,-0.00177,0.15013,-0.0082,-0.0349,-9.9164,0.051,-0.4097,-0.3003,0.1621,3,13,0.8,1.29,0.37,24.685,17.2,97.9,30.5,21535.0,7889,8089,7960,7693,47.0,46.0,49.8,47.1,2.882,3.03,2.693,2.779,4.92,0.8,24.0,73.5,1011.15,-26.8,0.14,1.35,18.8,32.2,27.9,0,no_anomaly,0.0,0,0,0,0,17.3850242,78.4866924,5.0,0.0
2024-05-25T10:06:03.400Z,MISSION_0014,34,0,takeoff,SITE_HYD_005,17.385023,78.4866935,5.0,18.1,1.634,0.153,2.66,0.088,-3.6761,18.1013,0.98704,0.0058,-0.03155,0.15725,-0.1027,-0.0325,-9.8258,0.09,0.5985,0.2477,0.2548,3,10,0.69,0.79,0.44,24.699,15.61,97.8,31.2,21523.0,7947,7746,7689,7942,48.2,52.6,49.6,48.3,2.766,3.159,2.772,2.719,4.95,351.3,23.5,74.1,1010.92,-26.12,-1.01,1.25,17.7,35.9,28.4,0,no_anomaly,0.0,0,0,0,0,17.385023,78.4866935,5.0,0.0
2024-05-25T10:06:03.500Z,MISSION_0014,35,0,takeoff,SITE_HYD_005,17.3850191,78.4866952,5.0,20.6,1.972,0.113,2.19,1.8373,-4.0027,20.6046,0.98305,0.02201,-0.03149,0.17926,0.1484,0.0973,-9.7525,0.3262,0.1374,-0.3503,0.1654,3,20,0.67,0.6,0.3,24.708,22.48,97.8,32.0,21511.0,7746,7729,7813,7734,47.2,49.2,50.2,48.1,2.751,2.596,2.742,2.76,4.83,353.4,24.1,74.4,1010.72,-28.49,-0.35,1.59,21.4,30.0,25.3,0,no_anomaly,0.0,0,0,0,0,17.3850191,78.4866952,5.0,0.0
2024-05-25T10:06:03.600Z,MISSION_0014,36,0,takeoff,SITE_HYD_005,17.3850205,78.4866974,5.0,22.51,1.432,0.149,2.3,3.47,-0.3322,22.5116,0.98029,0.03026,0.00307,0.19519,0.117,-0.0025,-9.7859,-0.1401,0.2921,0.1938,0.2077,3,13,0.7,0.92,0.32,24.785,20.79,97.7,31.9,21499.0,7748,7627,7752,7874,51.4,48.1,53.9,46.2,2.838,3.005,2.804,2.637,4.6,356.5,23.9,74.1,1011.09,-29.34,-1.74,1.96,15.4,32.7,24.9,0,no_anomaly,0.0,0,0,0,0,17.3850205,78.4866974,5.0,0.0
2024-05-25T10:06:03.700Z,MISSION_0014,37,0,takeoff,SITE_HYD_005,17.3850175,78.4866954,5.0,22.36,1.99,0.178,2.01,-4.0178,-0.271,22.3631,0.98043,-0.03393,-0.00912,0.19372,-0.0035,-0.0037,-9.8295,-0.6161,-0.0846,-0.1083,0.1845,3,14,0.67,0.8,0.25,24.758,16.06,97.7,31.7,21488.0,7929,7891,7965,7799,46.3,46.1,53.0,47.4,2.667,2.794,2.752,2.774,5.59,353.6,23.8,73.5,1010.52,-32.11,0.85,1.34,20.8,40.4,25.6,0,no_anomaly,0.0,0,0,0,0,17.3850175,78.4866954,5.0,0.0
2024-05-25T10:06:03.800Z,MISSION_0014,38,0,takeoff,SITE_HYD_005,17.3850238,78.486693,5.0,23.55,2.413,0.244,2.76,-0.0242,-2.604,23.5497,0.97871,0.00443,-0.02229,0.20401,-0.0168,-0.0769,-9.8576,0.0273,0.208,0.0203,0.0778,3,11,0.64,1.01,0.31,24.764,25.59,97.6,32.7,21476.0,8084,7989,8023,7928,47.4,48.0,46.4,48.0,2.734,2.692,2.655,2.721,6.16,355.2,23.9,74.3,1010.9,-25.02,0.76,1.0,18.1,37.4,23.6,0,no_anomaly,0.0,0,0,0,0,17.3850238,78.486693,5.0,0.0
2024-05-25T10:06:03.900Z,MISSION_0014,39,0,takeoff,SITE_HYD_005,17.3850253,78.4866929,5.0,23.41,2.175,0.114,2.93,1.7774,-2.8402,23.4105,0.97871,0.02021,-0.02112,0.20317,0.0252,-0.0272,-9.79,-0.2138,-0.5915,-0.8948,0.2331,3,10,0.72,0.8,0.2,24.733,16.95,97.6,31.7,21464.0,7962,7713,7774,7748,48.6,48.9,46.5,47.1,2.676,2.86,2.783,2.664,4.57,356.3,23.7,74.4,1010.8,-30.52,-2.34,1.29,19.5,35.2,27.6,0,no_anomaly,0.0,0,0,0,0,17.3850253,78.4866929,5.0,0.0
2024-05-25T10:06:04.000Z,MISSION_0014,40,0,takeoff,SITE_HYD_005,17.3850259,78.486699,5.0,22.84,2.514,0.21,2.89,-3.838,-2.4317,22.8397,0.97957,-0.02862,-0.02742,0.19714,0.0194,0.065,-9.8301,-0.2709,0.5539,-0.2204,0.1431,3,10,0.67,0.89,0.23,24.778,22.75,97.5,31.5,21452.0,7989,7708,7639,7905,48.7,48.2,49.6,49.4,2.669,2.891,2.727,3.037,4.8,355.4,24.0,74.4,1011.23,-25.06,-0.63,1.9,20.7,35.2,28.1,0,no_anomaly,0.0,0,0,0,0,17.3850259,78.486699,5.0,0.0
2024-05-25T10:06:04.100Z,MISSION_0014,41,0,takeoff,SITE_HYD_005,17.3850235,78.4866954,5.0,21.86,2.598,0.113,2.66,-2.4387,-2.3008,21.8616,0.98152,-0.01708,-0.02374,0.18912,-0.0366,0.0131,-9.7902,-0.3447,0.055,0.6331,0.1872,3,18,0.8,1.06,0.29,24.735,16.11,97.5,31.8,21440.0,7685,7908,7926,7964,48.4,46.4,48.2,47.3,3.027,2.692,2.851,2.836,5.51,348.1,23.9,73.3,1011.27,-26.77,-1.13,1.24,18.0,32.3,26.0,0,no_anomaly,0.0,0,0,0,0,17.3850235,78.4866954,5.0,0.0
2024-05-25T10:06:04.200Z,MISSION_0014,42,0,takeoff,SITE_HYD_005,17.3850288,78.4866981,5.0,20.65,2.858,0.14,3.21,-0.7921,-3.7465,20.6516,0.9833,-0.00094,-0.0334,0.17892,-0.0759,-0.0704,-9.8416,-0.3566,0.3835,-0.1424,0.2071,3,18,0.67,0.79,0.36,24.724,26.63,97.4,32.4,21429.0,7990,7789,7887,7879,50.1,50.5,47.8,45.9,3.003,2.52,2.948,2.857,4.89,1.8,23.5,74.7,1010.87,-29.0,1.47,1.51,21.1,39.8,25.6,0,no_anomaly,0.0,0,0,0,0,17.3850288,78.4866981,5.0,0.0
2024-05-25T10:06:04.300Z,MISSION_0014,43,0,takeoff,SITE_HYD_005,17.3850283,78.4866964,5.0,21.63,2.842,0.075,3.18,1.003,-3.1626,21.6321,0.98178,0.01377,-0.02546,0.18782,-0.0423,0.0229,-9.8422,0.0477,0.3909,0.5187,0.1376,3,11,0.74,0.64,0.37,24.755,18.23,97.3,32.1,21417.0,7781,7633,8025,7982,47.0,45.2,47.9,50.1,2.977,2.972,2.751,2.922,4.53,355.2,24.0,74.3,1011.05,-34.35,-0.4,1.87,19.0,35.2,27.7,0,no_anomaly,0.0,0,0,0,0,17.3850283,78.4866964,5.0,0.0
2024-05-25T10:06:04.400Z,MISSION_0014,44,0,takeoff,SITE_HYD_005,17.3850294,78.4866967,5.0,20.94,2.587,0.114,3.3,2.6112,-0.583,20.9399,0.98306,0.02333,-0.00086,0.18178,-0.0197,0.0188,-9.8128,1.0906,-0.3368,0.0239,0.199,3,13,0.69,0.92,0.34,24.736,13.09,97.3,32.2,21405.0,8005,7899,7865,7769,47.8,46.3,50.8,48.1,2.981,2.558,3.192,2.982,4.56,2.5,23.9,73.5,1011.05,-26.78,-0.32,1.45,19.3,30.5,25.1,0,no_anomaly,0.0,0,0,0,0,17.3850294,78.4866967,5.0,0.0
2024-05-25T10:06:04.500Z,MISSION_0014,45,0,takeoff,SITE_HYD_005,17.3850226,78.4867001,5.0,19.63,3.289,0.217,2.51,0.2086,-1.4472,19.6264,0.98528,0.00395,-0.01213,0.17045,-0.0927,-0.0534,-9.787,-0.3225,-0.4034,0.1795,0.2658,3,14,0.84,0.64,0.49,24.803,18.04,97.2,32.3,21393.0,7744,7916,7888,7943,49.3,46.1,50.2,47.9,2.833,2.922,2.469,2.858,4.99,353.4,23.8,73.9,1010.8,-30.98,-0.73,1.66,16.2,34.3,25.4,0,no_anomaly,0.0,0,0,0,0,17.3850226,78.4867001,5.0,0.0
2024-05-25T10:06:04.600Z,MISSION_0014,46,0,takeoff,SITE_HYD_005,17.3850226,78.4867007,5.0,21.01,3.634,0.071,2.52,0.3228,-2.8222,21.0094,0.98293,0.00726,-0.0237,0.18233,0.036,-0.0173,-9.7318,-0.0367,-0.353,0.2873,0.2731,3,15,0.64,0.85,0.27,24.721,23.38,97.2,31.2,21381.0,7903,7744,8143,7846,45.4,47.3,48.0,49.2,2.714,2.739,2.509,2.731,5.05,356.6,23.9,73.9,1011.08,-27.69,0.53,1.34,15.4,27.9,25.4,0,no_anomaly,0.0,0,0,0,0,17.3850226,78.4867007,5.0,0.0
2024-05-25T10:06:04.700Z,MISSION_0014,47,0,takeoff,SITE_HYD_005,17.3850215,78.4867022,5.0,19.76,3.291,0.072,2.4,-1.228,-3.3417,19.7609,0.98475,-0.00555,-0.03056,0.1712,0.3281,0.0217,-9.8801,0.4723,0.2139,-0.1177,0.2203,3,20,0.76,1.02,0.39,24.779,18.13,97.1,31.3,21369.0,7899,7964,7895,8067,50.0,48.1,49.8,48.1,2.861,2.967,2.711,2.709,5.65,354.9,23.6,74.5,1010.94,-27.71,-1.62,1.33,15.7,32.4,28.2,0,no_anomaly,0.0,0,0,0,0,17.3850215,78.4867022,5.0,0.0
2024-05-25T10:06:04.800Z,MISSION_0014,48,0,takeoff,SITE_HYD_005,17.3850248,78.4866986,5.0,21.98,3.078,0.089,2.76,6.9723,-1.8738,21.982,0.97952,0.0628,-0.00443,0.19125,-0.1364,-0.0086,-9.787,0.0756,-0.13,-0.0365,0.274,3,17,0.66,1.12,0.27,24.784,18.85,97.1,32.7,21358.0,7804,7846,8114,7566,49.4,49.5,51.2,50.2,2.901,2.7,3.03,2.847,5.3,345.5,23.4,73.6,1010.81,-27.46,1.09,1.42,19.4,36.3,26.6,0,no_anomaly,0.0,0,0,0,0,17.3850248,78.4866986,5.0,0.0
2024-05-25T10:06:04.900Z,MISSION_0014,49,0,takeoff,SITE_HYD_005,17.3850238,78.486693,5.0,19.71,2.906,0.171,2.76,-1.9478,-0.4049,19.7054,0.98511,-0.01614,-0.00639,0.17103,0.0346,0.0746,-9.8068,-1.0504,-0.2052,0.2921,0.1813,3,19,0.65,0.85,0.27,24.669,22.62,97.0,31.4,21346.0,7922,7821,8067,7992,51.3,51.3,49.1,44.6,2.756,2.912,2.842,2.997,5.61,349.7,23.8,73.6,1011.23,-27.35,-1.14,2.27,20.3,38.5,27.3,0,no_anomaly,0.0,0,0,0,0,17.3850238,78.486693,5.0,0.0
2024-05-25T10:06:05.000Z,MISSION_0014,50,0,takeoff,SITE_HYD_005,17.385024,78.4866894,5.0,21.07,2.779,0.114,2.92,3.7202,0.3383,21.0669,0.98264,0.03137,0.00884,0.18262,-0.1159,0.0131,-9.7432,-0.3549,-0.6181,0.1732,0.2274,3,13,0.78,1.0,0.28,24.756,21.42,97.0,31.6,21334.0,8136,7934,7937,7773,52.1,52.0,50.2,49.7,2.832,3.132,2.729,2.764,5.38,346.9,23.8,73.8,1010.99,-29.21,-2.59,1.38,19.1,31.3,26.4,0,no_anomaly,0.0,0,0,0,0,17.385024,78.4866894,5.0,0.0
2024-05-25T10:06:05.100Z,MISSION_0014,51,0,takeoff,SITE_HYD_005,17.385021,78.486689,5.0,19.74,2.562,0.107,2.64,3.8862,-1.1,19.7389,0.98453,0.03505,-0.00364,0.17162,0.1016,-0.0232,-9.8393,0.2018,-0.8267,-0.3007,0.1852,3,17,0.78,0.92,0.26,24.703,19.87,96.9,31.4,21322.0,7892,8038,7786,7844,53.0,50.3,48.1,50.4,2.913,2.606,2.793,2.828,4.07,356.8,23.6,73.7,1011.09,-25.37,-0.77,1.72,16.1,30.7,25.0,0,no_anomaly,0.0,0,0,0,0,17.385021,78.486689,5.0,0.0
2024-05-25T10:06:05.200Z,MISSION_0014,52,0,takeoff,SITE_HYD_005,17.3850236,78.4866856,5.0,23.26,2.711,0.045,3.07,4.2563,-0.7648,23.2611,0.97872,0.03772,0.00095,0.2017,-0.3906,0.0002,-9.8372,0.3966,0.2047,0.0388,0.1268,3,14,0.61,1.05,0.25,24.645,14.95,96.9,32.3,21310.0,7872,8025,8026,7681,50.1,49.6,51.2,47.8,2.937,2.624,3.042,2.827,5.55,355.8,23.8,74.1,1010.77,-33.76,-1.14,1.68,20.1,35.1,23.5,0,no_anomaly,0.0,0,0,0,0,17.3850236,78.4866856,5.0,0.0
2024-05-25T10:06:05.300Z,MISSION_0014,53,0,takeoff,SITE_HYD_005,17.3850253,78.4866878,5.0,23.07,3.06,0.031,3.13,2.876,-0.4554,23.0667,0.97947,0.02538,0.00112,0.19997,-0.134,-0.0065,-9.8688,0.912,-0.4069,-0.0851,0.1585,3,18,0.75,0.85,0.36,24.743,20.76,96.8,31.8,21299.0,7852,7796,7998,7756,49.3,53.1,45.3,49.5,2.668,2.764,2.894,2.88,5.07,346.7,23.9,74.0,1010.55,-33.18,0.09,1.36,16.1,31.9,25.5,0,no_anomaly,0.0,0,0,0,0,17.3850253,78.4866878,5.0,0.0
2024-05-25T10:06:05.400Z,MISSION_0014,54,0,takeoff,SITE_HYD_005,17.3850267,78.4866829,5.0,24.02,3.069,0.182,3.53,-3.2331,-2.7896,24.0186,0.97758,-0.02252,-0.02967,0.20725,-0.0568,0.0259,-9.8939,0.492,0.9909,-0.1824,0.2256,3,14,0.52,0.91,0.2,24.681,20.31,96.8,32.3,21287.0,8146,8010,8063,7714,49.8,52.7,51.8,47.3,2.879,2.91,2.901,2.779,5.61,347.1,23.9,74.2,1010.96,-30.81,1.04,1.57,20.1,36.1,25.4,0,no_anomaly,0.0,0,0,0,0,17.3850267,78.4866829,5.0,0.0
2024-05-25T10:06:05.500Z,MISSION_0014,55,0,takeoff,SITE_HYD_005,17.3850305,78.4866813,5.0,24.37,2.509,0.091,3.98,-2.4656,-3.1554,24.3709,0.977,-0.01521,-0.03145,0.21037,-0.0025,0.0736,-9.899,0.4865,-0.1519,0.0283,0.2083,3,15,0.78,1.11,0.28,24.657,14.95,96.7,31.7,21275.0,8067,7770,7766,7663,48.6,46.9,48.4,46.3,3.036,2.714,2.756,2.779,4.49,349.0,23.9,73.6,1011.19,-33.46,0.54,1.72,18.8,32.9,24.1,0,no_anomaly,0.0,0,0,0,0,17.3850305,78.4866813,5.0,0.0
2024-05-25T10:06:05.600Z,MISSION_0014,56,0,takeoff,SITE_HYD_005,17.3850294,78.4866837,5.0,24.08,1.978,0.107,3.74,-3.1285,-4.2864,24.0802,0.97717,-0.01888,-0.04225,0.20737,0.0745,0.0487,-9.6686,-0.5719,0.1285,0.355,0.2149,3,18,0.57,0.71,0.24,24.731,18.75,96.7,31.7,21263.0,7762,7869,7698,7792,47.9,47.3,46.7,46.4,2.907,2.91,2.784,2.736,4.8,350.6,23.7,74.8,1010.81,-26.65,-2.44,2.13,18.3,33.4,24.8,0,no_anomaly,0.0,0,0,0,0,17.3850294,78.4866837,5.0,0.0
2024-05-25T10:06:05.700Z,MISSION_0014,57,0,takeoff,SITE_HYD_005,17.3850303,78.4866821,5.0,22.44,1.294,0.223,3.92,-1.0584,-2.9149,22.4392,0.98058,-0.00411,-0.02674,0.19427,0.0354,0.063,-9.7821,0.269,0.1505,0.0854,0.1845,3,11,0.73,0.93,0.27,24.786,15.17,96.6,31.2,21251.0,7862,8016,7958,7947,50.9,51.0,47.4,47.7,2.894,3.042,2.774,2.825,5.29,3.0,23.8,74.5,1010.69,-30.68,-0.39,1.59,21.9,31.8,28.4,0,no_anomaly,0.0,0,0,0,0,17.3850303,78.4866821,5.0,0.0
2024-05-25T10:06:05.800Z,MISSION_0014,58,0,takeoff,SITE_HYD_005,17.3850268,78.4866807,5.0,21.57,0.75,0.14,3.68,1.0581,-0.2524,21.5729,0.98228,0.00948,-0.00044,0.18716,-0.2762,0.0744,-9.8185,0.0185,-0.7683,-0.0386,0.1302,3,10,0.77,0.82,0.42,24.714,14.79,96.5,32.1,21239.0,8047,7715,7713,8005,47.3,49.2,47.1,51.7,2.62,2.91,3.114,2.872,4.85,2.3,23.8,72.6,1010.71,-29.09,-0.39,1.5,18.8,30.7,26.8,0,no_anomaly,0.0,0,0,0,0,17.3850268,78.4866807,5.0,0.0
2024-05-25T10:06:05.900Z,MISSION_0014,59,0,takeoff,SITE_HYD_005,17.3850297,78.4866818,5.0,20.04,0.906,0.186,3.88,4.4395,-3.4893,20.0395,0.98335,0.04342,-0.02322,0.17494,0.0014,0.0317,-9.8119,0.6956,0.1212,-0.3723,0.1928,3,19,0.57,1.04,0.36,24.776,18.68,96.5,32.8,21228.0,8136,7710,7770,7892,48.8,50.6,49.7,50.9,2.961,2.683,2.781,2.68,4.42,348.1,23.5,74.5,1010.95,-36.07,-0.92,1.44,18.7,32.2,27.1,0,no_anomaly,0.0,0,0,0,0,17.3850297,78.4866818,5.0,0.0
2024-05-25T10:06:06.000Z,MISSION_0014,60,0,takeoff,SITE_HYD_005,17.3850309,78.4866756,5.0,19.35,1.215,0.099,4.38,-3.9271,1.8634,19.3501,0.98497,-0.0365,0.01026,0.16849,0.2144,0.0586,-9.7623,0.4199,-0.4827,0.1071,0.1563,3,18,0.78,0.64,0.36,24.668,19.12,96.4,32.0,21216.0,8027,7785,7989,7958,50.2,48.6,48.1,46.4,2.71,2.684,2.692,2.798,5.25,354.8,23.7,74.8,1010.73,-31.34,-0.63,1.28,20.0,37.2,26.0,0,no_anomaly,0.0,0,0,0,0,17.3850309,78.4866756,5.0,0.0
2024-05-25T10:06:06.100Z,MISSION_0014,61,0,takeoff,SITE_HYD_005,17.3850354,78.4866736,5.0,19.79,1.412,0.049,4.92,3.2717,-4.8912,19.7869,0.98362,0.03543,-0.03712,0.17279,0.1513,0.037,-9.8342,0.5477,0.1479,0.2365,0.17,3,16,0.68,0.72,0.28,24.816,15.51,96.4,32.3,21204.0,7633,7821,7856,7922,47.9,48.3,52.3,53.0,2.472,2.803,2.554,2.83,5.8,358.9,23.8,73.4,1010.99,-27.25,-1.55,1.19,17.0,38.1,24.1,0,no_anomaly,0.0,0,0,0,0,17.3850354,78.4866736,5.0,0.0
2024-05-25T10:06:06.200Z,MISSION_0014,62,0,takeoff,SITE_HYD_005,17.3850339,78.4866748,5.0,20.94,1.11,0.093,4.7,-4.3805,-4.3152,20.9364,0.9822,-0.03072,-0.04393,0.18001,-0.102,0.011,-9.8149,0.1656,-0.3544,-0.0838,0.2082,3,17,0.53,1.17,0.23,24.728,23.81,96.3,32.1,21192.0,7839,7757,7895,7884,50.1,48.2,51.7,53.6,2.8,2.716,2.689,2.67,5.34,356.5,23.9,74.4,1010.47,-29.6,0.81,1.73,19.0,35.4,24.3,0,no_anomaly,0.0,0,0,0,0,17.3850339,78.4866748,5.0,0.0
2024-05-25T10:06:06.300Z,MISSION_0014,63,0,takeoff,SITE_HYD_005,17.3850345,78.4866708,5.0,18.52,1.099,0.089,5.03,-0.8497,-1.2341,18.5164,0.9869,-0.00559,-0.01182,0.16079,0.1092,-0.0215,-9.8496,0.8074,-0.2678,-0.2941,0.244,3,19,0.61,1.01,0.31,24.782,13.2,96.3,32.2,21180.0,7834,8068,7717,7880,44.2,45.9,44.1,50.6,2.861,2.796,2.86,2.561,5.41,347.7,23.8,73.6,1010.6,-27.93,0.13,1.58,19.5,34.9,25.8,0,no_anomaly,0.0,0,0,0,0,17.3850345,78.4866708,5.0,0.0
2024-05-25T10:06:06.400Z,MISSION_0014,64,0,takeoff,SITE_HYD_005,17.3850369,78.4866729,5.0,18.71,0.935,0.081,5.1,-0.0772,-4.0362,18.7111,0.98609,0.00506,-0.03486,0.16244,-0.2725,-0.0158,-9.7751,0.1186,-0.8779,-0.2162,0.2359,3,15,0.62,1.02,0.24,24.668,16.77,96.2,32.3,21169.0,7930,7986,7883,7788,50.9,49.2,48.4,51.7,2.489,2.923,2.659,3.014,5.6,4.1,23.7,74.5,1010.99,-25.82,1.49,1.89,19.1,35.2,29.5,0,no_anomaly,0.0,0,0,0,0,17.3850369,78.4866729,5.0,0.0
2024-05-25T10:06:06.500Z,MISSION_0014,65,0,takeoff,SITE_HYD_005,17.3850376,78.486672,5.0,18.17,0.469,0.131,5.21,-2.2699,-1.4157,18.1656,0.98723,-0.01761,-0.01532,0.15758,0.036,-0.0046,-9.7895,-0.11,0.5212,-0.0614,0.2058,3,16,0.68,0.98,0.23,24.733,15.49,96.2,31.6,21157.0,7689,7908,7410,7954,47.4,50.2,51.9,49.7,2.791,2.623,2.719,2.56,5.23,354.3,24.3,74.4,1010.8,-27.11,-1.47,1.62,17.4,38.7,28.4,0,no_anomaly,0.0,0,0,0,0,17.3850376,78.486672,5.0,0.0
2024-05-25T10:06:06.600Z,MISSION_0014,66,0,takeoff,SITE_HYD_005,17.3850419,78.4866711,5.0,17.65,0.19,0.091,5.67,-8.3539,-0.1154,17.6458,0.98555,-0.07182,-0.01216,0.1529,0.1462,-0.0718,-9.7403,0.0396,0.4359,-0.0308,0.127,3,14,0.77,1.13,0.3,24.649,21.49,96.1,31.9,21145.0,7866,7829,7837,7863,50.8,50.9,51.5,46.8,2.478,2.694,2.983,2.776,4.76,359.1,23.7,74.4,1010.98,-26.4,-0.87,1.31,20.6,29.1,26.2,0,no_anomaly,0.0,0,0,0,0,17.3850419,78.4866711,5.0,0.0
2024-05-25T10:06:06.700Z,MISSION_0014,67,0,takeoff,SITE_HYD_005,17.385038,78.4866709,5.0,16.74,0.009,0.11,5.32,-3.8022,-0.4567,16.743,0.98881,-0.03224,-0.00877,0.14538,0.2269,-0.1225,-9.7956,-0.0046,0.5902,-0.0218,0.2767,3,19,0.7,1.02,0.35,24.747,19.13,96.1,30.7,21133.0,7968,7758,7870,8019,49.7,49.8,48.8,45.5,2.922,2.924,2.892,2.877,4.67,357.3,23.9,74.2,1011.0,-32.02,-0.27,1.39,15.0,35.4,24.6,0,no_anomaly,0.0,0,0,0,0,17.385038,78.4866709,5.0,0.0
2024-05-25T10:06:06.800Z,MISSION_0014,68,0,takeoff,SITE_HYD_005,17.385035,78.4866729,5.0,20.17,0.404,0.037,4.92,1.317,-1.883,20.1667,0.98432,0.01419,-0.01416,0.17523,-0.0956,-0.0697,-9.7418,0.6236,-0.1557,-0.4311,0.2273,3,18,0.86,0.77,0.35,24.625,20.81,96.0,31.5,21121.0,8025,7666,7784,7804,49.5,47.9,50.0,49.3,2.466,2.849,2.701,2.841,5.44,355.6,24.0,73.6,1010.98,-29.83,1.22,1.35,15.4,33.5,27.3,0,no_anomaly,0.0,0,0,0,0,17.385035,78.4866729,5.0,0.0
2024-05-25T10:06:06.900Z,MISSION_0014,69,0,takeoff,SITE_HYD_005,17.3850368,78.4866731,5.0,19.7,0.572,0.108,5.07,-0.9207,-2.0727,19.6966,0.9851,-0.00482,-0.01919,0.17086,0.027,-0.0292,-9.7264,-0.3263,-0.2939,-0.0896,0.1274,3,20,0.76,1.1,0.22,24.692,23.77,96.0,31.9,21109.0,7805,7669,7707,7876,47.8,47.6,50.9,48.5,2.697,2.89,2.687,2.758,4.99,352.3,24.1,73.7,1010.73,-34.74,-0.88,1.51,20.7,36.4,27.8,0,no_anomaly,0.0,0,0,0,0,17.3850368,78.4866731,5.0,0.0
2024-05-25T10:06:07.000Z,MISSION_0014,70,0,takeoff,SITE_HYD_005,17.3850365,78.4866707,5.0,20.4,0.693,0.047,5.21,4.7487,-3.4212,20.395,0.9827,0.04604,-0.02202,0.17803,-0.0187,-0.0696,-9.7958,0.169,0.1532,0.1773,0.1677,3,18,0.76,0.98,0.3,24.702,22.23,95.9,32.1,21098.0,7870,7812,8070,7624,43.8,50.3,47.2,54.4,2.787,2.785,2.903,2.751,5.27,351.9,23.9,73.8,1011.15,-25.09,0.62,1.94,18.5,29.4,28.0,0,no_anomaly,0.0,0,0,0,0,17.3850365,78.4866707,5.0,0.0
2024-05-25T10:06:07.100Z,MISSION_0014,71,0,takeoff,SITE_HYD_005,17.3850319,78.4866756,5.0,21.25,0.72,0.042,4.48,-1.3176,-0.8045,21.2489,0.98278,-0.01001,-0.00902,0.18427,-0.1032,0.0223,-9.8048,-0.3037,0.105,0.0644,0.211,3,13,0.66,0.88,0.24,24.647,15.92,95.8,31.9,21086.0,7863,7970,7829,7724,52.2,52.3,53.3,48.8,3.092,2.859,2.711,3.047,5.22,347.2,23.9,73.8,1010.75,-31.88,-0.68,1.0,16.1,32.8,24.9,0,no_anomaly,0.0,0,0,0,0,17.3850319,78.4866756,5.0,0.0
2024-05-25T10:06:07.200Z,MISSION_0014,72,0,takeoff,SITE_HYD_005,17.385033,78.4866765,5.0,23.15,0.367,0.149,4.52,-0.9123,-1.6101,23.1523,0.97955,-0.00498,-0.01536,0.20053,-0.1357,-0.0563,-9.7631,-0.0763,0.55,0.5403,0.1383,3,20,0.58,1.05,0.2,24.806,18.81,95.8,31.0,21074.0,7968,7868,7734,7699,49.9,46.4,46.5,50.3,2.561,2.795,2.572,2.862,4.26,357.5,23.9,74.1,1010.91,-30.48,0.04,1.48,22.5,40.0,26.9,0,no_anomaly,0.0,0,0,0,0,17.385033,78.4866765,5.0,0.0
2024-05-25T10:06:07.300Z,MISSION_0014,73,0,takeoff,SITE_HYD_005,17.3850346,78.4866748,5.0,22.92,0.294,0.145,4.77,-0.0308,-0.369,22.9213,0.98006,0.00038,-0.00321,0.19869,0.2064,-0.0069,-9.7784,-0.2149,0.1992,-0.596,0.1861,3,18,0.68,0.78,0.28,24.703,20.84,95.7,32.5,21062.0,7736,7971,7918,7707,49.2,49.4,47.7,46.4,2.747,2.819,2.539,2.608,4.44,1.9,24.1,74.6,1011.32,-31.76,2.17,1.25,21.5,36.6,27.6,0,no_anomaly,0.0,0,0,0,0,17.3850346,78.4866748,5.0,0.0
2024-05-25T10:06:07.400Z,MISSION_0014,74,0,takeoff,SITE_HYD_005,17.385033,78.4866754,5.0,24.75,0.608,0.159,4.59,1.5182,-2.9452,24.7527,0.97628,0.01844,-0.02226,0.21458,0.0236,-0.0044,-9.7928,-0.4885,0.3377,-0.0463,0.253,3,17,0.75,0.8,0.34,24.752,17.08,95.7,30.7,21050.0,7933,7919,7749,7911,49.7,52.0,50.2,48.7,2.792,2.915,2.906,2.934,4.74,355.1,23.6,73.7,1010.71,-33.11,-0.27,1.29,19.1,38.0,27.8,0,no_anomaly,0.0,0,0,0,0,17.385033,78.4866754,5.0,0.0
2024-05-25T10:06:07.500Z,MISSION_0014,75,0,takeoff,SITE_HYD_005,17.3850308,78.4866719,5.0,24.55,0.463,0.23,4.64,5.5811,-2.561,24.5533,0.9755,0.05231,-0.01146,0.21339,-0.0181,-0.0311,-9.884,0.4958,-0.1836,-0.1124,0.236,3,15,0.67,0.93,0.28,24.646,15.74,95.6,32.2,21039.0,7785,8003,7781,7969,46.1,49.6,48.1,48.8,2.847,2.715,2.612,2.97,5.34,349.3,23.8,73.8,1010.83,-33.04,1.49,1.17,18.7,37.5,26.0,0,no_anomaly,0.0,0,0,0,0,17.3850308,78.4866719,5.0,0.0
2024-05-25T10:06:07.600Z,MISSION_0014,76,0,takeoff,SITE_HYD_005,17.3850296,78.48667,5.0,27.33,0.458,0.118,4.69,-1.8839,-1.5751,27.3347,0.97151,-0.01273,-0.01724,0.23601,0.1892,0.0531,-9.7552,0.8194,0.573,-0.791,0.1815,3,15,0.9,0.99,0.21,24.705,19.16,95.6,31.5,21027.0,7773,8012,7919,8000,49.8,49.9,47.9,47.9,2.753,2.737,3.032,2.609,4.9,349.2,24.0,73.7,1010.69,-31.71,-1.58,1.52,16.5,34.1,25.1,0,no_anomaly,0.0,0,0,0,0,17.3850296,78.48667,5.0,0.0
2024-05-25T10:06:07.700Z,MISSION_0014,77,0,takeoff,SITE_HYD_005,17.3850316,78.4866657,5.0,25.37,0.514,0.222,5.2,0.1744,-1.36,25.372,0.97551,0.00409,-0.01124,0.21961,-0.0937,0.025,-9.728,-0.1004,0.4953,-0.296,0.1904,3,12,0.84,0.71,0.33,24.717,21.41,95.5,31.1,21015.0,7629,7851,7925,7725,48.0,46.7,51.6,50.8,2.777,2.891,2.859,2.591,5.24,348.5,24.2,74.7,1011.15,-32.52,0.23,1.23,16.1,34.6,25.2,0,no_anomaly,0.0,0,0,0,0,17.3850316,78.4866657,5.0,0.0
2024-05-25T10:06:07.800Z,MISSION_0014,78,0,takeoff,SITE_HYD_005,17.3850307,78.4866644,5.0,25.75,0.668,0.065,5.23,0.3319,-2.8133,25.7463,0.97455,0.00829,-0.02329,0.22279,-0.0263,0.0602,-9.7917,0.3545,0.7989,0.3475,0.2333,3,10,0.65,0.94,0.4,24.667,18.7,95.5,32.3,21003.0,7717,7885,7786,8141,50.6,46.7,48.8,47.8,2.822,2.871,2.702,2.921,4.42,352.3,23.8,75.0,1010.36,-31.03,0.86,1.03,16.4,29.4,24.6,0,no_anomaly,0.0,0,0,0,0,17.3850307,78.4866644,5.0,0.0
2024-05-25T10:06:07.900Z,MISSION_0014,79,0,takeoff,SITE_HYD_005,17.3850282,78.4866637,5.0,25.19,0.796,0.102,5.12,0.327,-1.7798,25.1918,0.9758,0.00617,-0.01453,0.21809,-0.0425,-0.0421,-9.8069,0.1313,0.424,-0.5615,0.1301,3,11,0.66,1.03,0.3,24.608,21.34,95.4,32.1,20991.0,7702,7749,7739,7656,47.5,50.2,51.2,50.6,2.78,3.019,3.024,3.046,5.39,354.8,23.7,74.9,1011.23,-30.06,0.15,1.5,18.2,34.9,24.6,0,no_anomaly,0.0,0,0,0,0,17.3850282,78.4866637,5.0,0.0
2024-05-25T10:06:08.000Z,MISSION_0014,80,0,takeoff,SITE_HYD_005,17.3850305,78.4866622,5.0,25.98,0.888,0.081,5.41,0.3083,-3.6928,25.9791,0.97388,0.00986,-0.03079,0.22474,-0.0672,-0.0083,-9.8181,0.3239,-0.445,-0.0697,0.2135,3,10,0.55,1.17,0.2,24.655,23.63,95.4,32.3,20979.0,8137,7838,7785,7662,47.1,48.5,50.3,49.1,3.164,2.684,2.645,2.744,4.64,349.9,23.9,73.8,1011.02,-35.44,-0.14,1.43,20.6,38.6,26.7,0,no_anomaly,0.0,0,0,0,0,17.3850305,78.4866622,5.0,0.0
2024-05-25T10:06:08.100Z,MISSION_0014,81,0,takeoff,SITE_HYD_005,17.3850306,78.4866636,5.0,24.71,0.87,0.134,5.29,3.4202,-2.4307,24.7087,0.97605,0.03368,-0.01433,0.21443,0.0148,-0.0892,-9.8018,0.9915,0.4651,0.6292,0.2207,3,18,0.68,0.92,0.25,24.678,22.79,95.3,32.8,20968.0,7710,8133,7887,7772,47.9,46.9,46.3,45.6,2.836,2.875,2.88,2.859,4.8,353.5,23.3,74.0,1011.09,-28.24,-1.12,1.25,20.7,36.1,26.4,0,no_anomaly,0.0,0,0,0,0,17.3850306,78.4866636,5.0,0.0
2024-05-25T10:06:08.200Z,MISSION_0014,82,0,transit,SITE_HYD_005,17.3850274,78.4866613,5.5,23.2,1.47,0.039,5.27,-1.2756,-4.484,23.1976,0.97886,-0.00303,-0.04056,0.20046,-0.1302,0.0428,-9.819,0.67,-0.1102,-0.4274,0.3926,3,16,0.5,0.93,0.2,24.588,17.24,95.3,31.9,20956.0,7732,7778,7765,7931,48.9,50.8,49.6,48.5,3.041,2.578,2.683,2.943,5.4,358.4,24.2,73.4,1010.8,-31.71,-2.4,1.46,20.8,37.5,27.4,0,no_anomaly,0.0,0,0,0,0,17.3850274,78.4866613,5.5,0.0
2024-05-25T10:06:08.300Z,MISSION_0014,83,0,transit,SITE_HYD_005,17.3850323,78.4866641,6.0,26.1,1.632,0.097,5.37,8.9753,-2.1572,26.1003,0.97068,0.08045,-0.00062,0.22651,0.4469,0.0024,-9.8247,0.0731,0.2574,-0.2734,0.2197,3,16,0.78,1.14,0.44,24.618,17.51,95.2,32.6,20944.0,8074,7588,7678,8103,48.0,49.4,52.1,47.1,2.753,2.636,2.641,2.833,4.09,357.9,23.9,74.4,1010.84,-27.88,1.04,1.69,19.3,33.2,24.5,0,no_anomaly,0.0,0,0,0,0,17.3850323,78.4866641,6.0,0.0
2024-05-25T10:06:08.400Z,MISSION_0014,84,0,transit,SITE_HYD_005,17.3850341,78.4866677,6.5,26.39,2.161,0.144,5.22,0.9363,-2.1772,26.3922,0.97335,0.01229,-0.01663,0.22839,-0.0629,0.032,-9.7643,-0.0904,-0.1183,-0.1666,0.2367,3,20,0.51,0.75,0.2,24.663,13.63,95.1,33.0,20932.0,7993,7801,7887,7829,50.3,49.8,49.2,46.1,2.939,3.079,2.779,2.876,6.02,1.9,23.6,74.0,1011.22,-30.1,-0.46,1.13,17.7,33.2,24.9,0,no_anomaly,0.0,0,0,0,0,17.3850341,78.4866677,6.5,0.0
2024-05-25T10:06:08.500Z,MISSION_0014,85,0,transit,SITE_HYD_005,17.3850333,78.4866698,7.0,25.43,1.96,0.029,5.0,-1.3916,0.0233,25.4319,0.9754,-0.01189,-0.00247,0.2201,-0.0381,0.017,-9.7819,0.7594,-0.4454,0.3103,0.1097,3,14,0.62,0.92,0.32,24.658,23.06,95.1,32.1,20920.0,7928,8115,7526,7769,50.9,46.1,46.9,47.3,2.641,2.879,2.937,2.352,5.04,347.8,23.7,74.4,1010.88,-32.73,0.39,1.09,16.0,36.5,27.4,0,no_anomaly,0.0,0,0,0,0,17.3850333,78.4866698,7.0,0.0
2024-05-25T10:06:08.600Z,MISSION_0014,86,0,transit,SITE_HYD_005,17.3850267,78.4866676,7.5,24.39,1.972,0.053,4.68,-2.946,-1.5762,24.3905,0.97709,-0.02222,-0.01887,0.21081,-0.4413,-0.0004,-9.8299,-0.3157,-0.4072,-0.0638,0.2644,3,10,0.76,0.9,0.3,24.672,19.02,95.0,33.0,20909.0,8097,7861,7526,7867,50.6,51.9,47.0,45.3,2.93,2.738,2.962,2.774,4.95,355.4,24.0,74.1,1011.04,-35.68,-1.72,1.6,19.7,32.7,28.0,0,no_anomaly,0.0,0,0,0,0,17.3850267,78.4866676,7.5,0.0
2024-05-25T10:06:08.700Z,MISSION_0014,87,0,transit,SITE_HYD_005,17.385027,78.4866676,8.0,24.07,1.94,0.017,4.7,-3.6771,-2.1881,24.0683,0.97747,-0.02739,-0.02535,0.20775,0.0097,0.034,-9.7449,0.8424,-0.1326,0.3295,0.2384,3,16,0.5,0.99,0.2,24.59,16.6,95.0,33.0,20897.0,8040,7549,7868,7807,49.5,50.3,51.3,49.4,2.648,2.803,3.129,2.924,4.91,1.4,23.6,73.6,1011.38,-23.48,0.27,1.65,16.3,37.2,25.9,0,no_anomaly,0.0,0,0,0,0,17.385027,78.4866676,8.0,0.0
2024-05-25T10:06:08.800Z,MISSION_0014,88,0,transit,SITE_HYD_005,17.3850253,78.486669,8.5,23.75,1.809,0.181,4.46,1.8487,-3.7307,23.7487,0.97785,0.02248,-0.02853,0.20614,-0.1189,-0.0985,-9.8393,0.2972,0.095,-0.2861,0.2689,3,10,0.68,0.93,0.23,24.637,20.39,94.9,32.3,20885.0,7691,8052,7619,7939,45.9,52.0,48.0,48.7,2.661,2.674,2.684,2.966,4.86,357.9,23.9,73.9,1010.77,-29.47,-0.0,1.93,21.4,37.1,29.0,0,no_anomaly,0.0,0,0,0,0,17.3850253,78.486669,8.5,0.0
2024-05-25T10:06:08.900Z,MISSION_0014,89,0,transit,SITE_HYD_005,17.385025,78.486675,9.0,24.02,1.786,0.092,3.94,0.9291,-1.6231,24.0186,0.97796,0.01088,-0.01217,0.20815,0.0882,0.0286,-9.8117,-0.642,-0.0276,0.0734,0.1323,3,20,0.5,0.87,0.2,24.677,16.17,94.9,31.9,20873.0,7984,7749,7808,8055,51.1,48.1,49.2,47.7,2.771,2.878,2.889,2.641,5.41,355.4,23.4,73.9,1011.04,-30.99,-1.09,1.41,18.3,34.0,27.8,0,no_anomaly,0.0,0,0,0,0,17.385025,78.486675,9.0,0.0
2024-05-25T10:06:09.000Z,MISSION_0014,90,0,transit,SITE_HYD_005,17.3850243,78.4866764,9.5,25.56,1.955,0.078,3.77,0.3499,-2.9685,25.561,0.97488,0.00871,-0.02458,0.22122,-0.2087,0.0176,-9.8577,-0.1353,0.2153,0.1947,0.2509,3,15,0.69,0.95,0.32,24.66,17.53,94.8,31.7,20861.0,7841,8084,7997,7699,50.0,49.6,48.6,47.2,2.516,2.753,2.797,2.787,4.83,350.5,23.6,74.7,1010.92,-29.31,-0.04,1.62,18.3,33.7,28.1,0,no_anomaly,0.0,0,0,0,0,17.3850243,78.4866764,9.5,0.0
2024-05-25T10:06:09.100Z,MISSION_0014,91,0,transit,SITE_HYD_005,17.385026,78.4866813,10.0,25.7,2.14,0.092,3.57,-0.1657,-2.3521,25.6956,0.97476,0.00315,-0.02033,0.22229,-0.0846,-0.0277,-9.7898,-0.4686,0.2246,0.136,0.2192,3,16,0.54,0.86,0.22,24.736,20.51,94.8,31.9,20849.0,8194,7870,7757,7794,45.9,47.3,51.0,47.3,2.933,2.828,2.911,3.02,5.56,356.8,24.0,73.6,1010.98,-29.66,0.09,1.37,21.1,39.4,27.5,0,no_anomaly,0.0,0,0,0,0,17.385026,78.4866813,10.0,0.0
2024-05-25T10:06:09.200Z,MISSION_0014,92,0,transit,SITE_HYD_005,17.3850228,78.4866822,10.5,23.43,2.672,0.154,3.23,-5.7568,-1.9912,23.4302,0.97796,-0.04564,-0.02719,0.2019,-0.0664,-0.0391,-9.8166,-0.544,-0.834,-0.4323,0.185,3,10,0.84,0.7,0.44,24.73,19.84,94.7,32.2,20838.0,7833,7820,8011,7840,48.3,49.0,52.1,51.5,2.75,2.78,2.819,2.825,5.39,356.2,24.1,73.1,1011.11,-32.0,-1.78,1.53,18.9,28.7,22.7,0,no_anomaly,0.0,0,0,0,0,17.3850228,78.4866822,10.5,0.0
2024-05-25T10:06:09.300Z,MISSION_0014,93,0,transit,SITE_HYD_005,17.3850192,78.4866836,11.0,21.93,1.981,0.189,2.81,-3.3551,-3.1453,21.9346,0.9811,-0.02351,-0.0325,0.18931,-0.0155,-0.0116,-9.7926,-0.3306,0.4578,0.1795,0.2117,3,20,0.68,1.03,0.34,24.659,18.24,94.7,32.6,20826.0,7852,7914,7642,7955,49.8,51.3,48.9,50.5,2.793,2.835,2.645,3.008,5.8,354.4,24.1,73.8,1010.89,-32.28,1.57,1.35,19.6,32.3,27.3,0,no_anomaly,0.0,0,0,0,0,17.3850192,78.4866836,11.0,0.0
2024-05-25T10:06:09.400Z,MISSION_0014,94,0,transit,SITE_HYD_005,17.3850185,78.4866838,11.5,21.82,2.241,0.12,2.73,0.7223,-4.3667,21.8198,0.98115,0.0134,-0.03622,0.18936,0.2919,0.0137,-9.7922,-0.2855,0.2331,0.0033,0.2504,3,16,0.64,1.12,0.23,24.752,13.37,94.6,31.6,20814.0,7793,7850,7974,7896,47.6,47.7,49.5,51.7,2.721,2.6,2.934,2.717,5.12,357.6,23.9,74.1,1010.72,-26.31,0.66,1.88,20.5,36.8,25.4,0,no_anomaly,0.0,0,0,0,0,17.3850185,78.4866838,11.5,0.0
2024-05-25T10:06:09.500Z,MISSION_0014,95,0,transit,SITE_HYD_005,17.3850158,78.4866822,12.0,23.88,2.327,0.106,2.65,-0.7139,-4.1331,23.879,0.97776,0.00137,-0.03657,0.20652,0.2801,-0.0343,-9.7933,0.1328,0.5875,-0.2806,0.2144,3,19,0.73,0.78,0.27,24.666,23.99,94.6,31.7,20802.0,7913,7891,8020,7848,50.1,50.4,48.8,49.5,2.897,2.772,2.747,2.789,4.29,352.1,23.8,74.1,1010.96,-31.62,0.02,1.87,17.1,38.5,26.4,0,no_anomaly,0.0,0,0,0,0,17.3850158,78.4866822,12.0,0.0
2024-05-25T10:06:09.600Z,MISSION_0014,96,0,transit,SITE_HYD_005,17.385018,78.4866805,12.5,22.44,2.421,0.137,2.95,0.4659,-1.2915,22.441,0.98081,0.00618,-0.01026,0.19462,-0.0801,0.0087,-9.7132,-0.3679,0.2097,-0.5652,0.2405,3,14,0.66,0.89,0.27,24.603,20.04,94.5,32.0,20790.0,7781,7984,7888,7998,52.6,51.7,51.8,50.0,2.539,2.849,2.638,2.984,6.13,354.4,24.0,74.4,1011.24,-30.41,-0.21,1.51,17.5,29.6,27.0,0,no_anomaly,0.0,0,0,0,0,17.385018,78.4866805,12.5,0.0
2024-05-25T10:06:09.700Z,MISSION_0014,97,0,transit,SITE_HYD_005,17.3850213,78.4866843,13.0,21.94,2.145,0.104,2.95,-1.5207,0.5748,21.9362,0.98162,-0.01398,0.0024,0.19031,0.1937,0.0269,-9.8807,0.0855,-0.1546,-0.4958,0.2142,3,11,0.56,0.91,0.2,24.684,16.7,94.4,32.8,20779.0,8003,8023,8110,7872,50.3,47.5,52.6,48.5,2.634,2.793,2.959,2.57,5.13,357.6,23.9,75.3,1010.8,-30.73,-0.45,1.53,17.6,32.3,24.2,0,no_anomaly,0.0,0,0,0,0,17.3850213,78.4866843,13.0,0.0
2024-05-25T10:06:09.800Z,MISSION_0014,98,0,transit,SITE_HYD_005,17.3850244,78.4866868,13.5,19.88,2.043,0.174,3.08,-0.3872,-2.0383,19.8817,0.98484,-0.00026,-0.0181,0.17254,-0.0621,0.0365,-9.8173,0.5098,-0.0926,0.1932,0.1525,3,12,0.68,0.72,0.34,24.628,16.92,94.4,31.7,20767.0,7787,7743,7997,7819,48.0,47.2,48.6,48.4,2.689,2.821,2.816,2.854,5.89,350.1,24.2,73.9,1010.98,-25.14,1.34,1.32,18.6,32.7,24.2,0,no_anomaly,0.0,0,0,0,0,17.3850244,78.4866868,13.5,0.0
2024-05-25T10:06:09.900Z,MISSION_0014,99,0,transit,SITE_HYD_005,17.3850231,78.4866864,14.0,20.99,2.143,0.136,2.98,2.7713,-2.1468,20.9863,0.98273,0.02718,-0.01401,0.18248,0.1849,-0.0009,-9.7906,0.0156,-0.2972,-0.0342,0.2546,3,18,0.6,0.89,0.33,24.654,16.5,94.3,31.9,20755.0,7908,7947,7672,7900,46.0,53.3,47.8,48.7,2.853,2.957,2.833,2.539,5.52,355.2,23.8,74.7,1010.83,-28.93,1.27,1.23,16.7,27.8,22.9,0,no_anomaly,0.0,0,0,0,0,17.3850231,78.4866864,14.0,0.0
2024-05-25T10:06:10.000Z,MISSION_0014,100,0,transit,SITE_HYD_005,17.3850217,78.486685,14.5,20.98,2.121,0.088,2.94,0.8603,-2.8321,20.9774,0.98293,0.01188,-0.02293,0.18216,0.0734,0.0031,-9.8412,-0.1423,-0.1375,0.1413,0.1902,3,13,0.83,0.99,0.27,24.636,18.87,94.3,32.9,20743.0,7620,7804,7860,7967,47.9,49.2,48.7,49.6,2.739,2.68,2.796,2.695,4.68,359.3,24.0,74.5,1010.76,-26.1,0.18,1.11,18.5,28.7,26.4,0,no_anomaly,0.0,0,0,0,0,17.3850217,78.486685,14.5,0.0
2024-05-25T10:06:10.100Z,MISSION_0014,101,0,transit,SITE_HYD_005,17.3850164,78.486682,15.0,19.79,2.241,0.106,2.71,3.5998,-2.5594,19.7866,0.98428,0.03477,-0.0166,0.17238,-0.1405,0.1322,-9.7612,-0.4161,-0.3686,-0.0914,0.2488,3,10,0.88,1.09,0.22,24.677,15.12,94.2,32.2,20731.0,7763,7971,8062,7894,51.4,48.0,49.5,51.8,2.807,3.109,2.749,2.632,5.7,5.5,23.7,74.0,1011.27,-31.3,1.09,1.46,16.1,31.0,27.4,0,no_anomaly,0.0,0,0,0,0,17.3850164,78.486682,15.0,0.0
2024-05-25T10:06:10.200Z,MISSION_0014,102,0,transit,SITE_HYD_005,17.3850189,78.4866847,15.5,17.05,2.273,0.18,2.71,-2.0809,-3.0176,17.0474,0.98852,-0.01405,-0.02873,0.14767,-0.1307,0.0639,-9.7984,-0.2014,-0.3961,-0.0397,0.2044,3,18,0.82,0.69,0.25,24.698,21.55,94.2,32.4,20719.0,7938,7826,7967,7924,47.3,50.5,51.8,48.3,2.901,2.773,2.703,2.78,4.75,350.2,24.2,74.1,1010.9,-27.45,-0.14,1.0,20.1,31.7,27.2,0,no_anomaly,0.0,0,0,0,0,17.3850189,78.4866847,15.5,0.0
2024-05-25T10:06:10.300Z,MISSION_0014,103,0,transit,SITE_HYD_005,17.3850216,78.4866855,16.0,18.24,2.177,0.06,2.89,5.434,-2.4585,18.2359,0.98587,0.05019,-0.01365,0.15926,-0.1837,-0.0255,-9.8222,-0.575,-0.6629,-0.0322,0.1745,3,12,0.53,0.89,0.25,24.653,19.32,94.1,32.5,20708.0,8046,7802,7958,7659,49.5,50.5,48.6,48.1,2.79,2.799,2.618,2.891,5.17,357.0,23.7,74.6,1011.1,-29.02,0.57,1.84,15.8,36.3,24.3,0,no_anomaly,0.0,0,0,0,0,17.3850216,78.4866855,16.0,0.0
2024-05-25T10:06:10.400Z,MISSION_0014,104,0,transit,SITE_HYD_005,17.3850231,78.4866841,16.5,17.52,2.538,0.099,3.13,-0.1382,-3.0453,17.5157,0.988,0.00285,-0.02645,0.15217,0.0119,0.0451,-9.8424,-0.7137,-0.4163,0.1334,0.1714,3,14,0.65,1.07,0.2,24.695,18.89,94.1,31.3,20696.0,8027,7955,7870,7612,45.3,48.7,49.1,49.1,2.814,2.702,2.719,2.892,4.64,350.9,23.8,75.0,1011.02,-24.37,-1.59,1.79,21.0,38.3,26.6,0,no_anomaly,0.0,0,0,0,0,17.3850231,78.4866841,16.5,0.0
2024-05-25T10:06:10.500Z,MISSION_0014,105,0,transit,SITE_HYD_005,17.3850227,78.4866823,17.0,15.24,2.48,0.104,3.2,1.4324,-1.7125,15.2422,0.99095,0.01437,-0.01315,0.13278,-0.1036,0.0402,-9.84,-0.125,-0.5569,-0.2536,0.2375,3,15,0.8,0.84,0.32,24.595,18.89,94.0,32.0,20684.0,7827,7991,7583,7850,49.4,50.5,51.1,50.5,2.629,2.86,2.799,2.902,5.25,355.4,23.9,73.4,1011.27,-31.36,-1.07,1.44,16.0,36.2,27.3,0,no_anomaly,0.0,0,0,0,0,17.3850227,78.4866823,17.0,0.0
2024-05-25T10:06:10.600Z,MISSION_0014,106,0,transit,SITE_HYD_005,17.3850203,78.4866814,17.5,15.98,2.355,0.158,3.06,-0.6299,-0.8009,15.9794,0.99026,-0.00447,-0.00769,0.13895,-0.0507,0.0067,-9.7919,-0.5246,-0.3803,0.08,0.1365,3,11,0.74,0.78,0.22,24.716,18.66,94.0,31.7,20672.0,7707,7894,7819,7959,50.9,49.4,49.9,50.9,2.902,2.829,2.885,2.682,5.63,345.0,23.6,74.1,1010.92,-32.9,0.53,1.79,19.7,32.7,26.2,0,no_anomaly,0.0,0,0,0,0,17.3850203,78.4866814,17.5,0.0
2024-05-25T10:06:10.700Z,MISSION_0014,107,0,transit,SITE_HYD_005,17.3850168,78.4866819,18.0,14.2,2.025,0.15,2.75,6.844,-0.8306,14.1972,0.99049,0.06012,0.0002,0.12378,0.1353,-0.001,-9.8119,0.1857,-0.5396,0.0031,0.2022,3,19,0.77,0.67,0.44,24.707,24.73,93.9,31.6,20660.0,7685,7960,8029,8062,49.2,46.7,50.3,50.2,2.765,2.699,2.46,2.729,5.86,353.2,23.8,72.7,1011.13,-30.43,0.42,1.47,16.4,36.9,25.7,0,no_anomaly,0.0,0,0,0,0,17.3850168,78.4866819,18.0,0.0
2024-05-25T10:06:10.800Z,MISSION_0014,108,0,transit,SITE_HYD_005,17.385019,78.4866822,18.5,16.76,1.954,-0.007,2.9,-2.4772,-0.3391,16.7625,0.98909,-0.02095,-0.00608,0.14566,-0.1032,0.0533,-9.7703,-0.0557,0.4406,-0.0203,0.1729,3,11,0.64,1.09,0.26,24.641,19.02,93.9,31.8,20649.0,7683,7784,7658,8081,49.1,49.4,48.8,49.8,2.598,2.794,2.93,2.896,5.34,357.5,23.7,73.2,1010.88,-28.48,0.48,1.28,18.9,29.6,25.2,0,no_anomaly,0.0,0,0,0,0,17.385019,78.4866822,18.5,0.0
2024-05-25T10:06:10.900Z,MISSION_0014,109,0,transit,SITE_HYD_005,17.3850218,78.4866807,19.0,15.97,2.114,0.071,3.24,-2.8311,-2.3333,15.9669,0.98987,-0.02163,-0.02359,0.13832,-0.1238,-0.0228,-9.8648,-0.4537,-0.1689,-0.2452,0.1125,3,17,0.85,1.0,0.41,24.569,11.15,93.8,31.3,20637.0,7827,8120,7987,7801,47.2,47.9,45.6,50.4,2.97,2.549,2.757,3.026,3.9,349.0,23.6,73.7,1010.84,-36.15,0.38,1.28,18.2,36.2,24.7,0,no_anomaly,0.0,0,0,0,0,17.3850218,78.4866807,19.0,0.0
2024-05-25T10:06:11.000Z,MISSION_0014,110,0,transit,SITE_HYD_005,17.3850229,78.4866775,19.5,16.61,1.914,0.086,3.58,3.0282,-2.0803,16.6124,0.98893,0.02876,-0.01414,0.14486,0.0174,0.017,-9.8187,-0.3281,-0.2151,0.2372,0.1961,3,11,0.7,0.7,0.2,24.709,22.48,93.7,32.3,20625.0,7955,8030,8013,7781,50.8,50.8,51.3,49.0,2.877,2.653,2.877,2.512,4.89,355.2,23.9,74.2,1011.02,-26.66,0.82,1.31,20.8,38.1,28.0,0,no_anomaly,0.0,0,0,0,0,17.3850229,78.4866775,19.5,0.0
2024-05-25T10:06:11.100Z,MISSION_0014,111,0,transit,SITE_HYD_005,17.3850249,78.4866755,20.0,16.66,1.834,0.081,3.89,2.1797,-3.7088,16.6632,0.98866,0.0235,-0.02926,0.14541,-0.0305,0.0364,-9.8543,0.1702,0.0483,-0.524,0.2176,3,10,0.62,0.81,0.23,24.668,19.19,93.7,31.6,20613.0,7982,8012,8165,7920,50.4,43.9,45.4,49.7,2.569,2.902,2.837,3.105,4.23,350.7,23.6,74.1,1011.16,-26.12,-0.38,1.4,19.1,33.7,27.9,0,no_anomaly,0.0,0,0,0,0,17.3850249,78.4866755,20.0,0.0
2024-05-25T10:06:11.200Z,MISSION_0014,112,0,transit,SITE_HYD_005,17.3850266,78.486678,20.5,13.16,2.017,0.019,3.84,3.3514,-1.5381,13.1637,0.99285,0.03058,-0.00998,0.11495,-0.0142,0.0018,-9.7614,-0.4997,1.3112,0.3841,0.1795,3,17,0.5,0.61,0.2,24.572,20.18,93.6,32.2,20601.0,8062,8058,7831,7801,49.1,46.3,46.9,46.5,2.707,2.908,3.083,2.923,4.6,354.7,23.6,73.7,1011.02,-34.49,-0.88,1.72,19.0,33.0,28.0,0,no_anomaly,0.0,0,0,0,0,17.3850266,78.486678,20.5,0.0
2024-05-25T10:06:11.300Z,MISSION_0014,113,0,transit,SITE_HYD_005,17.3850256,78.4866752,21.0,14.29,1.879,0.089,3.97,1.7917,-5.0131,14.2869,0.99108,0.02094,-0.04145,0.1249,-0.0961,-0.08,-9.7761,0.0415,-0.7285,-0.4992,0.204,3,11,0.79,1.02,0.35,24.629,16.34,93.6,31.8,20589.0,8069,7851,7964,7908,49.4,52.6,51.1,50.7,2.967,3.215,2.728,3.075,4.86,348.8,23.5,74.0,1011.03,-25.31,1.79,1.38,18.5,34.3,26.4,0,no_anomaly,0.0,0,0,0,0,17.3850256,78.4866752,21.0,0.0
2024-05-25T10:06:11.400Z,MISSION_0014,114,0,transit,SITE_HYD_005,17.3850232,78.4866753,21.5,16.55,1.422,0.139,3.78,5.9253,0.2859,16.5497,0.98828,0.05079,0.0099,0.1436,0.0987,-0.0051,-9.8377,-0.3702,-0.5488,-0.1158,0.1892,3,18,0.62,1.07,0.35,24.679,14.82,93.5,32.5,20578.0,8119,7757,7735,7922,49.7,49.2,51.5,52.2,2.958,2.855,2.888,2.818,4.08,358.5,23.8,73.7,1010.66,-30.83,1.28,2.06,19.3,34.8,26.6,0,no_anomaly,0.0,0,0,0,0,17.3850232,78.4866753,21.5,0.0
2024-05-25T10:06:11.500Z,MISSION_0014,115,0,transit,SITE_HYD_005,17.385021,78.4866764,22.0,17.83,1.198,0.081,3.51,0.5517,-0.6069,17.8286,0.98789,0.00558,-0.00449,0.15498,0.105,-0.0183,-9.8749,0.6944,-1.0724,-0.3246,0.1375,3,20,0.71,0.87,0.46,24.555,17.02,93.5,31.9,20566.0,7928,8016,7838,8202,48.8,49.8,50.3,49.2,2.935,2.754,2.438,2.719,5.31,352.8,23.8,74.1,1010.97,-28.39,-0.26,1.61,19.3,36.3,25.1,0,no_anomaly,0.0,0,0,0,0,17.385021,78.4866764,22.0,0.0
2024-05-25T10:06:11.600Z,MISSION_0014,116,0,transit,SITE_HYD_005,17.3850251,78.4866774,22.5,14.53,1.201,0.025,3.76,-4.9043,-4.1755,14.5264,0.99061,-0.03781,-0.04151,0.12468,0.1468,0.0079,-9.8084,-0.2813,-0.2557,-0.3051,0.2341,3,10,0.58,0.99,0.2,24.586,20.41,93.4,32.4,20554.0,7566,7730,7801,7970,48.2,48.3,48.0,47.7,3.023,2.683,2.777,3.062,5.32,343.4,23.6,73.7,1010.81,-29.38,0.31,1.27,18.9,38.8,26.1,0,no_anomaly,0.0,0,0,0,0,17.3850251,78.4866774,22.5,0.0
2024-05-25T10:06:11.700Z,MISSION_0014,117,0,transit,SITE_HYD_005,17.3850228,78.486677,23.0,11.8,1.232,0.123,3.6,0.6739,-3.0264,11.8013,0.99432,0.00856,-0.02566,0.10292,0.2828,-0.0731,-9.8151,1.1254,0.3466,-0.1841,0.1449,3,20,0.74,0.79,0.32,24.596,21.1,93.4,32.0,20542.0,7936,8036,8017,7834,49.6,47.6,51.1,51.8,2.832,2.758,2.544,2.652,4.35,358.1,24.1,74.2,1011.53,-29.62,1.45,1.17,17.7,35.4,26.8,0,no_anomaly,0.0,0,0,0,0,17.3850228,78.486677,23.0,0.0
2024-05-25T10:06:11.800Z,MISSION_0014,118,0,transit,SITE_HYD_005,17.3850272,78.486675,23.5,11.64,1.235,0.033,4.12,-6.4927,-1.8076,11.636,0.99322,-0.05473,-0.02141,0.10031,-0.1081,0.0175,-9.8482,0.4833,0.0561,-0.6106,0.1803,3,17,0.72,0.88,0.31,24.609,17.53,93.3,31.5,20530.0,7945,7871,7995,7933,45.6,46.7,53.2,46.9,2.702,2.818,2.829,2.749,4.54,348.8,23.5,73.5,1011.15,-26.71,-1.67,1.96,21.7,36.8,27.3,0,no_anomaly,0.0,0,0,0,0,17.3850272,78.486675,23.5,0.0
2024-05-25T10:06:11.900Z,MISSION_0014,119,0,transit,SITE_HYD_005,17.3850271,78.4866793,24.0,10.55,1.428,0.168,3.79,5.0587,0.4366,10.5548,0.9948,0.04359,0.00785,0.09172,0.0239,0.035,-9.8024,0.0229,0.1419,0.5544,0.1979,3,14,0.77,0.87,0.33,24.587,15.56,93.3,32.5,20519.0,7950,8023,8005,7862,51.4,50.4,46.5,50.7,2.788,2.678,2.841,2.55,4.97,355.2,23.7,74.3,1010.79,-26.18,0.36,2.0,19.7,36.4,26.0,0,no_anomaly,0.0,0,0,0,0,17.3850271,78.4866793,24.0,0.0
2024-05-25T10:06:12.000Z,MISSION_0014,120,0,transit,SITE_HYD_005,17.3850252,78.4866821,24.0,11.85,1.297,0.041,3.44,-7.2292,-2.2744,11.8451,0.99262,-0.06065,-0.02621,0.10171,0.2087,0.0576,-9.8554,-0.1607,-0.0268,-0.0623,0.146,3,15,0.5,0.9,0.23,24.663,14.38,93.2,31.7,20507.0,8238,7818,8041,8091,46.7,51.1,50.2,47.3,2.772,2.61,2.504,2.81,4.48,3.3,23.8,72.6,1010.95,-27.94,0.21,1.18,17.1,34.2,24.6,0,no_anomaly,0.0,0,0,0,0,17.3850252,78.4866821,24.0,0.0
2024-05-25T10:06:12.100Z,MISSION_0014,121,0,transit,SITE_HYD_005,17.3850264,78.4866828,24.0,11.22,1.551,0.084,3.51,-2.966,-0.6777,11.2175,0.99488,-0.02518,-0.00841,0.09755,-0.0005,0.0233,-9.8076,-0.3486,-0.0343,-0.4851,0.1904,3,10,0.91,0.85,0.42,24.627,18.18,93.2,32.5,20495.0,7698,8192,8094,7874,49.9,46.7,48.3,52.2,2.506,2.899,3.164,2.677,4.9,357.9,24.0,74.2,1010.74,-27.05,-1.11,1.0,18.9,35.3,25.8,0,no_anomaly,0.0,0,0,0,0,17.3850264,78.4866828,24.0,0.0
2024-05-25T10:06:12.200Z,MISSION_0014,122,0,transit,SITE_HYD_005,17.3850225,78.4866856,24.0,11.57,0.829,0.093,2.98,1.2158,-2.8475,11.5727,0.99452,0.01306,-0.02365,0.10104,0.1204,-0.0383,-9.8101,-0.7144,-0.4888,0.1212,0.1372,3,19,0.75,0.76,0.26,24.578,21.4,93.1,31.7,20483.0,7909,8150,7886,7907,48.5,50.7,52.2,45.6,2.387,2.817,2.751,2.595,5.06,356.3,23.6,74.5,1011.0,-28.75,-0.03,1.88,20.1,33.1,27.8,0,no_anomaly,0.0,0,0,0,0,17.3850225,78.4866856,24.0,0.0
2024-05-25T10:06:12.300Z,MISSION_0014,123,0,transit,SITE_HYD_005,17.3850192,78.4866846,24.0,12.22,0.764,0.019,2.73,-2.9041,0.0769,12.2179,0.994,-0.02527,-0.00203,0.1064,-0.2105,-0.0072,-9.7446,-0.0005,-0.5761,0.1246,0.2236,3,20,0.76,0.82,0.24,24.643,23.84,93.1,32.4,20471.0,7859,7957,8115,7979,48.5,51.1,49.1,51.0,2.887,2.82,2.934,2.524,4.8,1.5,23.5,74.7,1011.1,-27.04,-0.62,1.81,19.0,32.6,24.2,0,no_anomaly,0.0,0,0,0,0,17.3850192,78.4866846,24.0,0.0
2024-05-25T10:06:12.400Z,MISSION_0014,124,0,transit,SITE_HYD_005,17.3850133,78.4866844,24.0,10.98,0.842,0.027,2.27,0.4943,-2.6296,10.9777,0.99513,0.00649,-0.02243,0.09572,0.2392,-0.0146,-9.7947,0.2521,-0.5527,0.4735,0.2195,3,18,0.66,0.97,0.2,24.623,14.97,93.0,31.5,20459.0,7905,7907,8223,8062,48.2,49.6,46.2,49.9,2.9,2.874,3.066,2.829,4.62,352.3,23.5,74.0,1010.73,-29.24,0.13,1.5,20.0,35.1,24.8,0,no_anomaly,0.0,0,0,0,0,17.3850133,78.4866844,24.0,0.0
2024-05-25T10:06:12.500Z,MISSION_0014,125,0,transit,SITE_HYD_005,17.3850163,78.4866836,24.0,10.01,0.875,0.11,2.57,-1.1996,-0.5608,10.0081,0.99613,-0.01,-0.00579,0.08717,0.0224,-0.0633,-9.7723,0.2165,-0.2916,0.1507,0.3082,3,15,0.67,0.96,0.27,24.661,19.5,92.9,31.5,20448.0,8157,7760,7814,8013,49.1,50.4,49.3,53.3,2.861,2.76,2.97,2.874,5.6,356.9,23.7,74.1,1010.57,-26.78,0.19,1.44,15.1,30.2,26.0,0,no_anomaly,0.0,0,0,0,0,17.3850163,78.4866836,24.0,0.0
2024-05-25T10:06:12.600Z,MISSION_0014,126,0,transit,SITE_HYD_005,17.385017,78.4866831,24.0,8.96,0.659,0.044,2.66,4.9633,-4.1813,8.9577,0.99522,0.04598,-0.03296,0.07954,-0.0834,0.144,-9.7351,1.0454,-0.5118,-0.4058,0.1913,3,12,0.73,1.04,0.34,24.564,19.44,92.9,32.0,20436.0,7999,7823,7969,7943,48.2,49.0,45.3,46.1,2.867,2.676,2.859,2.622,5.9,359.2,23.8,74.4,1010.84,-31.87,0.2,1.73,16.4,35.6,27.3,0,no_anomaly,0.0,0,0,0,0,17.385017,78.4866831,24.0,0.0
2024-05-25T10:06:12.700Z,MISSION_0014,127,0,transit,SITE_HYD_005,17.3850187,78.4866801,24.0,10.61,0.722,0.006,3.04,-0.3938,-3.5087,10.607,0.99526,-0.00059,-0.0308,0.09228,-0.0541,-0.0497,-9.8624,-0.1201,0.2471,0.308,0.1155,3,13,0.66,1.24,0.2,24.627,18.97,92.8,32.4,20424.0,7782,7939,7817,7902,49.1,50.3,46.7,46.3,2.709,2.384,2.969,2.803,4.66,348.5,23.6,73.5,1010.9,-34.66,3.4,1.71,18.5,31.9,25.9,0,no_anomaly,0.0,0,0,0,0,17.3850187,78.4866801,24.0,0.0
2024-05-25T10:06:12.800Z,MISSION_0014,128,0,transit,SITE_HYD_005,17.3850139,78.4866772,24.0,9.81,0.908,0.108,2.97,-4.0597,-1.8021,9.8083,0.99564,-0.03394,-0.01869,0.08487,0.062,0.0436,-9.8584,-0.7943,0.6983,-0.3824,0.1934,3,12,0.69,0.6,0.21,24.63,22.73,92.8,32.3,20412.0,8165,7942,7856,7926,46.2,48.0,51.0,53.3,2.726,3.056,2.979,2.806,4.99,355.9,23.5,73.3,1010.81,-27.48,1.34,1.48,16.8,36.1,28.8,0,no_anomaly,0.0,0,0,0,0,17.3850139,78.4866772,24.0,0.0
2024-05-25T10:06:12.900Z,MISSION_0014,129,0,transit,SITE_HYD_005,17.3850162,78.4866761,24.0,9.08,1.01,0.168,3.21,3.433,-0.8332,9.0806,0.99637,0.03043,-0.00487,0.07934,-0.0862,0.0177,-9.8125,0.5949,0.0011,0.2403,0.2102,3,18,0.68,0.79,0.35,24.64,23.23,92.7,31.6,20400.0,7982,7755,7642,7816,49.9,50.1,46.7,53.1,2.793,2.939,2.864,2.591,5.3,350.5,23.6,73.5,1011.31,-29.05,-0.22,1.68,21.7,35.7,25.8,0,no_anomaly,0.0,0,0,0,0,17.3850162,78.4866761,24.0,0.0
2024-05-25T10:06:13.000Z,MISSION_0014,130,0,transit,SITE_HYD_005,17.3850146,78.4866717,24.0,7.09,1.078,0.116,3.54,1.8826,-1.1626,7.087,0.99789,0.01702,-0.00911,0.06196,0.1189,-0.0216,-9.8201,0.0691,-0.5809,0.0033,0.0697,3,18,0.58,1.09,0.33,24.645,15.97,92.7,32.0,20389.0,7874,7902,7808,7866,51.7,45.4,47.5,49.5,2.954,2.734,2.783,2.75,5.14,354.7,24.0,73.5,1011.21,-27.55,0.1,1.92,18.7,29.7,28.9,0,no_anomaly,0.0,0,0,0,0,17.3850146,78.4866717,24.0,0.0
