timestamp_utc,mission_id,frame_id,waypoint_id,inspection_phase,site_id,latitude_deg,longitude_deg,altitude_m,heading_deg,ground_speed_ms,vertical_speed_ms,distance_to_tower_m,roll_deg,pitch_deg,yaw_deg,quat_w,quat_x,quat_y,quat_z,accel_x_ms2,accel_y_ms2,accel_z_ms2,gyro_x_rads,gyro_y_rads,gyro_z_rads,vibration_level,gps_fix_type,gps_satellite_count,gps_hdop,gps_vdop,position_error_m,battery_voltage_v,battery_current_a,battery_remaining_pct,battery_temp_c,battery_capacity_mah,motor_fl_rpm,motor_fr_rpm,motor_rl_rpm,motor_rr_rpm,motor_fl_temp_c,motor_fr_temp_c,motor_rl_temp_c,motor_rr_temp_c,motor_fl_thrust_n,motor_fr_thrust_n,motor_rl_thrust_n,motor_rr_thrust_n,wind_speed_ms,wind_dir_deg,air_temp_c,humidity_pct,pressure_hpa,gimbal_pitch_deg,gimbal_roll_deg,zoom_factor,ir_temp_min_c,ir_temp_max_c,ir_temp_avg_c,anomaly_detected,anomaly_class,anomaly_confidence,anomaly_bbox_x,anomaly_bbox_y,anomaly_bbox_w,anomaly_bbox_h,anomaly_gps_lat,anomaly_gps_lon,anomaly_gps_alt_m,ir_temp_delta_c
2024-06-23T12:05:00.000Z,MISSION_0040,0,0,takeoff,SITE_BOM_001,19.075995,72.8776988,1.5,112.3,0.0,0.034,0.57,-4.1578,-3.3015,112.3004,0.55729,0.00371,-0.04615,0.82903,-0.1829,-0.0956,-9.9103,0.5048,1.0863,0.1831,0.2477,3,16,0.64,1.22,0.33,24.765,18.19,99.1,34.3,21801.0,7898,7835,7647,8022,49.4,51.0,52.8,49.6,2.761,2.887,2.883,2.724,6.5,214.8,25.7,30.3,1014.17,-24.85,-0.54,1.0,23.5,35.5,27.3,0,no_anomaly,0.0,0,0,0,0,19.075995,72.8776988,1.5,0.0
2024-06-23T12:05:00.100Z,MISSION_0040,1,0,takeoff,SITE_BOM_001,19.0759971,72.877703,3.0,112.05,0.0,0.055,0.46,4.5672,-2.4962,112.0516,0.55752,0.04031,0.02087,0.82892,-0.007,0.0328,-9.7802,0.4413,0.5345,-0.2485,0.2386,3,10,0.7,0.87,0.2,24.766,15.74,99.0,34.2,21786.0,7955,7663,7642,7910,50.5,48.4,51.8,50.8,2.81,2.707,2.622,2.805,5.78,221.8,25.6,31.1,1014.28,-32.36,2.12,1.5,17.7,31.4,26.9,0,no_anomaly,0.0,0,0,0,0,19.0759971,72.877703,3.0,0.0
2024-06-23T12:05:00.200Z,MISSION_0040,2,0,takeoff,SITE_BOM_001,19.0759982,72.8777065,4.5,112.84,0.0,0.18,0.75,2.6382,-2.58,112.8432,0.55236,0.03148,0.00673,0.83298,0.1869,-0.0426,-9.8345,0.6159,0.3956,-0.2731,0.3209,3,10,0.94,0.8,0.38,24.709,21.64,99.0,34.7,21771.0,7537,7649,7497,8011,51.0,52.5,47.2,50.3,2.905,2.822,2.728,2.958,5.05,219.4,25.7,31.1,1014.49,-31.57,-1.89,1.45,22.9,32.7,27.4,0,no_anomaly,0.0,0,0,0,0,19.0759982,72.8777065,4.5,0.0
2024-06-23T12:05:00.300Z,MISSION_0040,3,0,takeoff,SITE_BOM_001,19.0760014,72.8777085,5.0,115.66,0.0,0.076,0.96,-1.0672,1.1143,115.6576,0.53233,-0.01319,-0.00271,0.84643,0.2049,0.0096,-9.8068,-0.4207,1.3091,-0.1908,0.2463,3,20,0.89,0.76,0.21,24.755,22.42,98.9,34.4,21756.0,7932,7632,7838,7782,50.7,50.0,49.3,53.5,2.97,2.874,2.779,2.618,5.21,210.8,25.7,30.5,1014.65,-29.5,1.24,1.86,24.5,36.3,29.2,0,no_anomaly,0.0,0,0,0,0,19.0760014,72.8777085,5.0,0.0
2024-06-23T12:05:00.400Z,MISSION_0040,4,0,takeoff,SITE_BOM_001,19.0760037,72.8777108,5.0,114.97,0.0,0.09,1.27,-0.6189,-3.7152,114.9725,0.53736,0.02443,-0.02197,0.84271,-0.1228,0.0413,-9.7786,0.6572,0.0412,-0.3813,0.203,3,17,0.72,0.92,0.32,24.767,17.0,98.8,32.5,21741.0,7864,7995,7695,7705,49.5,47.2,47.2,51.2,2.623,3.025,2.912,2.641,6.05,212.7,26.4,30.6,1013.81,-33.36,-1.2,1.49,20.7,39.8,28.6,0,no_anomaly,0.0,0,0,0,0,19.0760037,72.8777108,5.0,0.0
2024-06-23T12:05:00.500Z,MISSION_0040,5,0,takeoff,SITE_BOM_001,19.0760039,72.8777138,5.0,116.75,0.0,0.103,1.6,0.4855,-4.6494,116.747,0.5238,0.03676,-0.01767,0.85087,0.0204,0.0199,-9.7463,0.2971,-0.0876,-0.1145,0.2155,3,10,0.65,0.88,0.2,24.728,20.16,98.8,33.8,21726.0,7831,7896,7595,7703,51.8,52.5,46.3,50.8,2.712,2.655,2.852,2.994,5.49,222.1,26.0,31.1,1013.91,-26.55,-1.88,1.53,22.7,33.4,28.8,0,no_anomaly,0.0,0,0,0,0,19.0760039,72.8777138,5.0,0.0
2024-06-23T12:05:00.600Z,MISSION_0040,6,0,takeoff,SITE_BOM_001,19.0759994,72.8777176,5.0,117.52,0.0,0.137,1.96,-0.9648,-4.2707,117.5161,0.51854,0.02749,-0.02652,0.8542,-0.0412,-0.052,-9.845,0.4839,0.8003,0.3988,0.2753,3,12,0.78,0.91,0.26,24.743,12.88,98.7,33.8,21711.0,7669,7744,7919,7804,51.9,50.6,49.0,51.7,2.838,2.804,2.751,3.078,5.14,225.9,25.8,29.9,1014.17,-26.61,-0.63,1.85,20.4,33.0,29.3,0,no_anomaly,0.0,0,0,0,0,19.0759994,72.8777176,5.0,0.0
2024-06-23T12:05:00.700Z,MISSION_0040,7,0,takeoff,SITE_BOM_001,19.0760026,72.8777187,5.0,118.1,0.101,0.066,2.11,-0.0624,1.0567,118.0991,0.51427,-0.00819,0.00428,0.85758,0.0813,-0.0396,-9.8062,-0.5692,0.3231,0.0415,0.1756,3,17,0.62,1.05,0.21,24.819,17.45,98.6,34.4,21696.0,7763,7750,7758,7860,47.9,53.2,52.7,48.7,2.852,3.031,2.795,2.992,5.65,220.1,26.3,30.8,1014.35,-29.47,0.77,1.69,17.2,31.1,29.3,0,no_anomaly,0.0,0,0,0,0,19.0760026,72.8777187,5.0,0.0
2024-06-23T12:05:00.800Z,MISSION_0040,8,0,takeoff,SITE_BOM_001,19.0760039,72.8777155,5.0,116.13,0.311,0.075,1.78,4.9488,-3.4686,116.1325,0.52709,0.04849,0.02063,0.84817,0.1181,-0.0242,-9.8613,0.6797,-0.5329,-0.0879,0.2097,3,16,0.66,0.61,0.35,24.743,14.97,98.6,33.8,21681.0,7831,7802,8144,7939,53.1,51.8,51.6,45.6,2.642,2.746,2.796,2.743,5.63,213.5,26.1,30.8,1014.46,-31.74,0.74,1.6,25.7,36.0,32.4,0,no_anomaly,0.0,0,0,0,0,19.0760039,72.8777155,5.0,0.0
2024-06-23T12:05:00.900Z,MISSION_0040,9,0,takeoff,SITE_BOM_001,19.0760019,72.8777074,5.0,113.3,0.164,0.119,0.85,-2.1145,-2.1099,113.3049,0.54981,0.00524,-0.02553,0.83488,-0.0315,0.0324,-9.8369,0.1075,0.2027,0.0353,0.2876,3,16,0.71,0.6,0.27,24.742,18.68,98.5,34.4,21666.0,7658,7763,7875,7613,51.8,50.8,50.8,55.2,2.69,2.784,2.511,2.823,5.68,224.4,25.9,31.3,1014.31,-25.42,-0.14,1.93,19.1,35.6,27.7,0,no_anomaly,0.0,0,0,0,0,19.0760019,72.8777074,5.0,0.0
2024-06-23T12:05:01.000Z,MISSION_0040,10,0,takeoff,SITE_BOM_001,19.076007,72.8777111,5.0,112.04,0.462,0.096,1.46,-0.412,-2.4295,112.0426,0.55882,0.01557,-0.01483,0.82901,0.1447,0.0657,-9.8841,0.4519,0.4522,0.0756,0.1916,3,20,0.59,1.01,0.22,24.725,12.31,98.4,34.2,21651.0,7513,7721,7728,7980,51.8,49.6,55.5,49.8,2.922,2.921,2.72,2.836,5.0,232.8,25.8,31.4,1014.36,-29.59,-0.47,1.2,22.7,32.5,28.7,0,no_anomaly,0.0,0,0,0,0,19.076007,72.8777111,5.0,0.0
2024-06-23T12:05:01.100Z,MISSION_0040,11,0,takeoff,SITE_BOM_001,19.0760046,72.8777079,5.0,112.21,0.539,0.134,1.01,2.3707,-1.4526,112.2054,0.55732,0.02206,0.0101,0.82994,0.025,0.0174,-9.8519,-0.3014,0.3333,0.0501,0.2407,3,16,0.68,0.97,0.35,24.783,19.97,98.3,33.7,21636.0,7769,7820,7894,7798,52.4,48.7,52.8,53.1,2.802,3.038,3.021,2.846,4.94,211.2,26.1,30.9,1014.07,-28.57,-1.1,1.23,19.3,33.7,25.4,0,no_anomaly,0.0,0,0,0,0,19.0760046,72.8777079,5.0,0.0
2024-06-23T12:05:01.200Z,MISSION_0040,12,0,takeoff,SITE_BOM_001,19.0760047,72.8777081,5.0,112.3,0.563,0.07,1.04,-4.9027,-1.2402,112.3045,0.55683,-0.01484,-0.04154,0.82945,0.121,-0.012,-9.7407,0.0865,-0.2411,-0.1012,0.2365,3,17,0.58,0.7,0.32,24.727,23.59,98.3,33.7,21621.0,7965,7675,7656,7673,50.2,50.7,47.8,49.3,2.85,2.945,2.653,2.84,6.4,219.3,26.0,31.0,1014.28,-31.62,-0.25,1.0,19.6,35.2,30.0,0,no_anomaly,0.0,0,0,0,0,19.0760047,72.8777081,5.0,0.0
2024-06-23T12:05:01.300Z,MISSION_0040,13,0,takeoff,SITE_BOM_001,19.0760056,72.8777031,5.0,113.89,0.295,0.135,0.71,-1.2303,-2.0792,113.8859,0.54552,0.00935,-0.01889,0.83784,-0.1308,0.1164,-9.903,0.5168,-0.78,0.4015,0.1952,3,20,0.6,0.87,0.2,24.671,20.5,98.2,35.3,21606.0,7991,7596,7659,7804,46.7,51.2,50.6,51.7,2.87,2.786,2.8,2.873,5.26,217.5,25.8,31.1,1014.09,-25.89,-0.49,1.7,17.7,39.0,28.7,0,no_anomaly,0.0,0,0,0,0,19.0760056,72.8777031,5.0,0.0
2024-06-23T12:05:01.400Z,MISSION_0040,14,0,takeoff,SITE_BOM_001,19.0760055,72.8777051,5.0,115.08,0.013,0.082,0.84,0.7406,-2.0176,115.0843,0.53649,0.01832,-0.004,0.8437,-0.0145,0.0576,-9.807,0.355,0.0231,0.2736,0.2068,3,14,0.83,0.95,0.29,24.761,18.47,98.1,34.3,21591.0,7965,7784,7815,7659,52.4,49.3,46.9,47.0,3.048,2.79,2.787,2.822,5.01,221.1,26.0,30.2,1014.34,-25.72,0.64,1.62,19.3,32.1,25.4,0,no_anomaly,0.0,0,0,0,0,19.0760055,72.8777051,5.0,0.0
2024-06-23T12:05:01.500Z,MISSION_0040,15,0,takeoff,SITE_BOM_001,19.0760026,72.8777047,5.0,116.33,0.043,0.111,0.6,2.1452,-0.4629,116.3317,0.5273,0.01331,0.01377,0.84946,-0.194,0.1052,-9.7061,-0.2649,-0.6529,-0.131,0.2575,3,19,0.69,0.88,0.26,24.8,15.1,98.1,34.0,21576.0,7913,7631,7715,7690,52.2,50.1,50.0,52.3,3.134,2.804,2.894,2.978,5.11,222.7,25.7,31.1,1014.23,-32.0,-0.69,1.36,18.2,38.9,26.3,0,no_anomaly,0.0,0,0,0,0,19.0760026,72.8777047,5.0,0.0
2024-06-23T12:05:01.600Z,MISSION_0040,16,0,takeoff,SITE_BOM_001,19.0760038,72.877701,5.0,117.1,0.0,0.187,0.43,-3.0985,-2.82,117.1047,0.52194,0.00688,-0.03589,0.8522,-0.0667,-0.106,-9.7701,0.0263,-0.1462,0.509,0.2276,3,13,0.88,0.92,0.48,24.811,19.34,98.0,34.3,21561.0,7548,7689,7465,7659,51.6,52.2,51.7,50.6,2.893,3.014,2.371,2.796,5.77,225.3,26.2,30.9,1014.13,-31.62,-2.12,1.54,23.3,36.8,31.1,0,no_anomaly,0.0,0,0,0,0,19.0760038,72.877701,5.0,0.0
2024-06-23T12:05:01.700Z,MISSION_0040,17,0,takeoff,SITE_BOM_001,19.076006,72.877696,5.0,117.71,0.0,0.023,0.81,-0.5633,-2.226,117.707,0.51721,0.01408,-0.01425,0.85563,0.1561,0.0103,-9.7225,-0.0678,-0.6193,0.1726,0.1842,3,13,0.85,1.11,0.43,24.705,14.6,97.9,34.1,21546.0,7980,7793,7514,7775,51.9,46.8,47.9,52.0,2.557,3.005,2.75,2.974,5.52,220.7,26.1,30.9,1013.92,-27.08,-0.2,1.7,18.6,37.8,31.1,0,no_anomaly,0.0,0,0,0,0,19.076006,72.877696,5.0,0.0
2024-06-23T12:05:01.800Z,MISSION_0040,18,0,takeoff,SITE_BOM_001,19.0759974,72.8776942,5.0,118.77,0.0,0.188,0.71,-1.4245,-1.1735,118.7717,0.5093,0.00248,-0.01591,0.86044,0.0876,-0.0033,-9.8369,0.0151,0.428,-0.8994,0.1722,3,17,0.54,0.86,0.26,24.734,23.19,97.9,33.6,21531.0,7686,7931,7561,7619,48.3,50.8,53.5,56.4,2.689,3.033,2.934,2.884,5.31,214.6,26.0,30.1,1014.57,-31.5,-0.73,1.64,18.9,34.5,29.3,0,no_anomaly,0.0,0,0,0,0,19.0759974,72.8776942,5.0,0.0
2024-06-23T12:05:01.900Z,MISSION_0040,19,0,takeoff,SITE_BOM_001,19.0760007,72.8776979,5.0,119.56,0.149,0.093,0.25,2.4205,-1.9967,119.5561,0.50284,0.02568,0.00948,0.86394,-0.0328,0.0016,-9.7985,0.4181,0.2833,-0.0161,0.205,3,16,0.59,1.18,0.3,24.729,20.61,97.8,34.5,21516.0,7764,7851,7831,7734,55.1,51.6,50.2,53.6,2.525,2.626,2.707,2.725,5.42,217.7,26.1,30.2,1014.32,-30.77,-0.33,1.71,21.0,33.4,27.8,0,no_anomaly,0.0,0,0,0,0,19.0760007,72.8776979,5.0,0.0
2024-06-23T12:05:02.000Z,MISSION_0040,20,0,takeoff,SITE_BOM_001,19.0760007,72.8776974,5.0,120.39,0.115,0.054,0.3,-1.4125,-2.22,120.3922,0.49711,0.01068,-0.02032,0.86738,-0.0977,0.0236,-9.8422,0.1174,-0.0315,0.1878,0.218,3,19,0.93,0.84,0.36,24.722,18.56,97.7,34.3,21501.0,7899,7622,7660,7886,48.2,50.2,52.0,53.7,2.99,2.671,2.682,3.035,5.55,224.9,25.9,30.3,1014.36,-29.31,-0.56,1.71,22.6,37.5,31.2,0,no_anomaly,0.0,0,0,0,0,19.0760007,72.8776974,5.0,0.0
2024-06-23T12:05:02.100Z,MISSION_0040,21,0,takeoff,SITE_BOM_001,19.0760046,72.8776967,5.0,123.12,0.085,-0.034,0.62,-1.568,-2.8483,123.1228,0.47632,0.01534,-0.02386,0.87881,0.1047,-0.0114,-9.714,0.1929,-0.4792,0.1602,0.1863,3,15,0.65,1.02,0.31,24.739,15.14,97.7,34.1,21486.0,7799,7823,7868,7667,50.1,52.6,50.8,51.1,2.895,2.605,2.712,2.694,6.0,208.3,25.8,31.5,1014.12,-23.76,0.77,1.25,20.0,38.9,25.5,0,no_anomaly,0.0,0,0,0,0,19.0760046,72.8776967,5.0,0.0
2024-06-23T12:05:02.200Z,MISSION_0040,22,0,takeoff,SITE_BOM_001,19.0760042,72.8777004,5.0,125.75,0.0,0.151,0.47,-4.6617,-4.3113,125.7452,0.45663,0.01492,-0.05331,0.88793,0.1638,0.0176,-9.8609,0.3242,-0.2665,0.3276,0.153,3,15,0.61,0.64,0.28,24.715,14.93,97.6,33.9,21471.0,7654,8046,7810,7772,48.7,50.6,53.8,50.2,2.709,2.863,2.724,3.041,5.86,218.1,25.9,29.5,1014.19,-24.18,-0.31,1.78,20.0,34.5,30.2,0,no_anomaly,0.0,0,0,0,0,19.0760042,72.8777004,5.0,0.0
2024-06-23T12:05:02.300Z,MISSION_0040,23,0,takeoff,SITE_BOM_001,19.076002,72.8776997,5.0,128.62,0.36,0.131,0.23,5.9237,-2.5791,128.6232,0.43174,0.04265,0.03681,0.90024,-0.1213,0.0107,-9.7966,-0.0905,0.2688,-0.2681,0.2444,3,11,0.62,0.77,0.2,24.758,17.39,97.5,34.4,21456.0,7652,7892,8089,7854,45.9,46.0,52.1,52.9,2.729,2.869,2.79,2.653,5.22,223.3,25.9,30.5,1014.05,-30.36,0.25,1.03,23.7,36.1,31.3,0,no_anomaly,0.0,0,0,0,0,19.076002,72.8776997,5.0,0.0
2024-06-23T12:05:02.400Z,MISSION_0040,24,0,takeoff,SITE_BOM_001,19.0759972,72.8777008,5.0,130.43,0.225,0.093,0.33,-0.48,-2.6782,130.4263,0.41921,0.01946,-0.0136,0.90758,-0.0294,0.05,-9.7978,-0.3768,-0.2327,0.4674,0.1751,3,10,0.76,0.77,0.34,24.76,17.98,97.5,33.9,21442.0,7719,7532,8021,7731,53.4,47.1,49.1,52.8,2.77,2.714,2.731,2.806,5.78,216.5,25.8,30.6,1014.3,-33.23,-1.03,1.47,15.7,33.2,25.8,0,no_anomaly,0.0,0,0,0,0,19.0759972,72.8777008,5.0,0.0
2024-06-23T12:05:02.500Z,MISSION_0040,25,0,takeoff,SITE_BOM_001,19.0760008,72.8777023,5.0,129.91,0.562,0.071,0.27,-2.4107,-2.5159,129.9108,0.42355,0.01098,-0.02834,0.90536,0.1599,-0.038,-9.8652,-0.5305,-0.9907,0.2634,0.206,3,20,0.64,1.09,0.24,24.757,11.27,97.4,34.0,21427.0,7530,7691,7703,7939,52.0,52.6,49.4,50.9,2.78,2.986,2.778,2.672,5.16,213.6,25.6,31.2,1014.1,-27.27,0.76,1.51,24.3,38.6,31.0,0,no_anomaly,0.0,0,0,0,0,19.0760008,72.8777023,5.0,0.0
2024-06-23T12:05:02.600Z,MISSION_0040,26,0,takeoff,SITE_BOM_001,19.0759991,72.8776979,5.0,131.61,0.667,0.142,0.25,-0.4659,-2.6736,131.6066,0.40984,0.01961,-0.01327,0.91185,-0.1147,-0.019,-9.8156,-0.1668,-0.5311,0.0799,0.2131,3,17,0.75,0.98,0.3,24.727,20.3,97.3,34.2,21412.0,7766,7838,8035,7900,53.0,50.3,52.3,51.5,2.84,2.978,2.595,3.019,4.16,230.0,25.7,30.1,1014.27,-30.57,1.15,1.71,18.0,31.2,29.4,0,no_anomaly,0.0,0,0,0,0,19.0759991,72.8776979,5.0,0.0
2024-06-23T12:05:02.700Z,MISSION_0040,27,0,takeoff,SITE_BOM_001,19.0760028,72.8777002,5.0,131.48,0.821,0.171,0.32,1.4471,2.3603,131.485,0.41096,-0.01359,0.01997,0.91134,0.0585,0.0721,-9.8043,0.1122,-0.6582,-0.3552,0.2421,3,12,0.8,1.07,0.34,24.679,22.83,97.3,34.4,21397.0,7997,7819,7540,7713,50.8,50.1,53.0,52.7,2.754,3.001,2.671,2.638,4.66,224.0,25.9,32.4,1013.8,-32.14,0.36,1.4,17.8,36.0,30.3,0,no_anomaly,0.0,0,0,0,0,19.0760028,72.8777002,5.0,0.0
2024-06-23T12:05:02.800Z,MISSION_0040,28,0,takeoff,SITE_BOM_001,19.0759974,72.8777033,5.0,131.82,0.746,0.118,0.46,-9.4705,-3.9983,131.8156,0.40919,-0.00194,-0.08951,0.90804,0.0389,-0.015,-9.7899,0.3728,-0.3461,0.3953,0.2062,3,20,0.57,0.83,0.2,24.777,23.32,97.2,33.8,21382.0,7677,8049,7518,7532,49.9,52.0,50.5,54.1,2.918,2.65,2.75,2.642,5.81,215.6,25.8,31.0,1014.02,-32.71,0.41,1.2,25.2,33.9,32.5,0,no_anomaly,0.0,0,0,0,0,19.0759974,72.8777033,5.0,0.0
2024-06-23T12:05:02.900Z,MISSION_0040,29,0,takeoff,SITE_BOM_001,19.0759963,72.8777053,5.0,129.48,0.537,0.105,0.72,0.89,-2.3909,129.4782,0.42649,0.02218,-0.00188,0.90422,0.1931,-0.0033,-9.801,-0.0211,1.0828,-0.1832,0.2138,3,12,0.91,0.76,0.38,24.697,22.93,97.1,33.5,21367.0,7663,7553,7646,7826,51.2,50.4,52.7,51.3,2.485,2.695,2.913,2.733,4.93,218.0,26.3,30.3,1014.09,-30.23,1.15,2.08,23.1,35.4,29.3,0,no_anomaly,0.0,0,0,0,0,19.0759963,72.8777053,5.0,0.0
2024-06-23T12:05:03.000Z,MISSION_0040,30,0,takeoff,SITE_BOM_001,19.0760023,72.8777025,5.0,129.97,0.226,0.095,0.37,5.0079,-2.6274,129.9682,0.42145,0.03923,0.02989,0.90551,-0.2321,-0.0332,-9.8211,0.1045,-0.0509,0.1014,0.1853,3,11,0.84,0.78,0.29,24.689,23.24,97.1,33.4,21352.0,7396,7949,7823,7699,49.7,52.9,49.9,48.9,2.951,2.708,2.702,2.618,5.69,214.3,26.3,30.4,1014.44,-28.51,-0.52,1.87,20.3,37.5,27.6,0,no_anomaly,0.0,0,0,0,0,19.0760023,72.8777025,5.0,0.0
2024-06-23T12:05:03.100Z,MISSION_0040,31,0,takeoff,SITE_BOM_001,19.0760068,72.8777011,5.0,132.76,0.407,0.191,0.77,-1.6214,-2.8745,132.7607,0.40082,0.01731,-0.02301,0.9157,-0.0144,0.0352,-9.7469,0.1394,-0.078,-0.3697,0.2393,3,14,0.58,0.8,0.25,24.772,18.79,97.0,34.4,21337.0,7771,7500,8076,7921,50.7,48.6,49.9,53.2,2.739,3.074,2.678,2.967,5.4,221.0,25.6,30.5,1014.05,-36.67,0.6,1.69,19.2,38.4,25.8,0,no_anomaly,0.0,0,0,0,0,19.0760068,72.8777011,5.0,0.0
2024-06-23T12:05:03.200Z,MISSION_0040,32,0,takeoff,SITE_BOM_001,19.0760072,72.8777014,5.0,132.4,0.291,0.108,0.81,5.7241,0.031,132.4002,0.40305,0.0199,0.04579,0.91381,-0.2284,-0.0417,-9.7554,-0.1294,0.1846,0.1584,0.2388,3,17,0.71,1.22,0.2,24.742,14.87,96.9,34.9,21322.0,7689,7445,7773,7448,48.6,50.0,51.6,50.1,2.635,2.606,2.51,2.789,5.28,214.5,26.0,31.2,1014.23,-29.65,1.48,1.52,19.3,31.2,30.2,0,no_anomaly,0.0,0,0,0,0,19.0760072,72.8777014,5.0,0.0
2024-06-23T12:05:03.300Z,MISSION_0040,33,0,takeoff,SITE_BOM_001,19.0760081,72.877696,5.0,129.56,0.692,0.186,1.01,1.2179,-1.2145,129.5611,0.42594,0.01412,0.0051,0.90463,0.1181,0.0221,-9.8074,-0.4355,0.1878,0.0418,0.2348,3,20,0.65,0.96,0.33,24.743,22.7,96.8,34.4,21307.0,7603,8033,7829,7762,52.6,51.1,47.0,53.1,3.409,2.272,2.9,2.865,5.11,216.4,26.0,31.0,1014.24,-30.82,1.05,1.7,20.4,40.8,31.3,0,no_anomaly,0.0,0,0,0,0,19.0760081,72.877696,5.0,0.0
2024-06-23T12:05:03.400Z,MISSION_0040,34,0,takeoff,SITE_BOM_001,19.0760033,72.877696,5.0,132.98,0.78,0.092,0.58,-2.247,-5.055,132.9777,0.39926,0.03262,-0.03555,0.91557,-0.1608,0.0617,-9.7957,0.3815,0.0475,0.4786,0.2346,3,14,0.77,0.67,0.35,24.691,20.38,96.8,34.2,21292.0,7856,7792,7714,7821,51.7,47.9,54.0,49.8,2.916,2.881,2.763,2.953,5.81,216.7,26.1,31.5,1014.29,-26.54,0.83,1.8,15.9,29.9,26.6,0,no_anomaly,0.0,0,0,0,0,19.0760033,72.877696,5.0,0.0
2024-06-23T12:05:03.500Z,MISSION_0040,35,0,takeoff,SITE_BOM_001,19.0760048,72.8776964,5.0,130.7,0.785,0.119,0.66,-4.9102,-0.7665,130.6975,0.41696,-0.01179,-0.04172,0.90789,-0.0308,0.0353,-9.7657,-0.192,0.1398,-0.6314,0.2416,3,19,0.66,1.02,0.22,24.707,16.5,96.7,33.9,21277.0,7625,7784,7639,7772,52.9,52.0,52.6,51.5,2.834,2.737,2.671,2.769,5.25,222.3,26.3,30.8,1014.13,-30.89,0.56,1.17,22.0,39.3,30.2,0,no_anomaly,0.0,0,0,0,0,19.0760048,72.8776964,5.0,0.0
2024-06-23T12:05:03.600Z,MISSION_0040,36,0,takeoff,SITE_BOM_001,19.0760037,72.8776928,5.0,131.13,0.453,0.102,0.9,0.4915,-4.4603,131.1301,0.41319,0.0372,-0.01219,0.9098,0.1594,-0.0161,-9.8854,0.2393,0.2304,-0.1171,0.1922,3,12,0.59,0.96,0.2,24.713,13.24,96.6,34.6,21262.0,7557,7862,7658,7544,50.0,50.2,52.1,49.4,2.739,2.986,2.84,2.789,4.85,228.2,26.2,31.3,1014.01,-31.0,-1.28,1.64,24.0,36.6,29.5,0,no_anomaly,0.0,0,0,0,0,19.0760037,72.8776928,5.0,0.0
2024-06-23T12:05:03.700Z,MISSION_0040,37,0,takeoff,SITE_BOM_001,19.0760034,72.8776942,5.0,130.88,0.146,0.101,0.74,-3.6703,-1.9281,130.8821,0.41585,0.00199,-0.03611,0.90872,-0.1942,-0.0627,-9.8293,-0.7757,-0.4049,-0.2217,0.126,3,14,0.64,0.88,0.32,24.675,14.58,96.6,34.3,21247.0,7485,7796,7696,7535,50.6,52.0,50.1,46.6,2.644,2.861,2.49,2.617,5.97,216.1,26.1,30.7,1014.52,-29.48,1.98,1.85,23.3,33.9,26.6,0,no_anomaly,0.0,0,0,0,0,19.0760034,72.8776942,5.0,0.0
2024-06-23T12:05:03.800Z,MISSION_0040,38,0,takeoff,SITE_BOM_001,19.0760045,72.8776951,5.0,131.77,0.052,0.058,0.74,1.0082,-2.3601,131.767,0.40833,0.02239,-0.00039,0.91256,0.0219,0.0618,-9.7803,0.4471,-0.2533,-0.1914,0.2026,3,12,0.57,0.79,0.26,24.701,16.91,96.5,33.5,21232.0,7812,7811,7782,7671,48.1,51.5,50.6,51.1,2.574,2.551,2.969,2.679,5.47,219.5,26.2,30.9,1014.4,-29.47,0.86,1.32,20.7,33.4,30.4,0,no_anomaly,0.0,0,0,0,0,19.0760045,72.8776951,5.0,0.0
2024-06-23T12:05:03.900Z,MISSION_0040,39,0,takeoff,SITE_BOM_001,19.0760016,72.8776905,5.0,129.54,0.189,0.119,1.08,4.1595,-1.0245,129.5416,0.42565,0.02355,0.02902,0.90412,0.0226,0.0201,-9.8396,-0.0367,-0.852,0.2742,0.2883,3,15,0.72,0.89,0.27,24.622,16.65,96.4,34.2,21217.0,7570,7906,7724,7598,52.3,50.9,47.7,51.7,2.475,2.727,2.753,2.864,6.04,224.6,25.8,31.1,1014.43,-29.14,-1.08,1.35,18.4,35.4,28.1,0,no_anomaly,0.0,0,0,0,0,19.0760016,72.8776905,5.0,0.0
2024-06-23T12:05:04.000Z,MISSION_0040,40,0,takeoff,SITE_BOM_001,19.076004,72.8776911,5.0,129.99,0.261,0.032,1.08,4.0577,-2.0039,129.9867,0.42183,0.0308,0.02469,0.90581,-0.0752,-0.0035,-9.7256,-0.1346,-0.8053,0.1015,0.0937,3,11,0.81,1.29,0.36,24.714,21.45,96.4,33.9,21202.0,7708,7839,7505,7993,50.6,51.6,52.0,52.7,2.872,2.86,2.821,2.674,4.59,219.8,25.7,29.9,1014.28,-29.61,-0.75,1.33,21.4,38.6,28.1,0,no_anomaly,0.0,0,0,0,0,19.076004,72.8776911,5.0,0.0
2024-06-23T12:05:04.100Z,MISSION_0040,41,0,takeoff,SITE_BOM_001,19.0760027,72.8776909,5.0,129.39,0.802,0.137,1.06,-3.4278,-2.356,129.3934,0.42768,0.0058,-0.03582,0.9032,-0.1015,-0.0066,-9.7546,0.3727,-0.7308,0.4732,0.2864,3,17,0.5,0.71,0.2,24.723,14.45,96.3,34.6,21187.0,7572,7657,7874,8110,46.0,49.1,52.3,53.1,2.51,2.754,2.667,3.087,5.61,214.9,26.1,31.5,1014.13,-29.02,1.23,1.21,17.7,34.0,27.1,0,no_anomaly,0.0,0,0,0,0,19.0760027,72.8776909,5.0,0.0
2024-06-23T12:05:04.200Z,MISSION_0040,42,0,takeoff,SITE_BOM_001,19.0760011,72.8776956,5.0,126.45,1.267,0.148,0.5,2.3849,-1.9259,126.4517,0.45,0.02437,0.01101,0.89263,0.2579,-0.0281,-9.7226,-0.2649,-1.0713,-0.3966,0.1451,3,11,0.89,0.69,0.26,24.697,15.84,96.2,33.8,21172.0,7689,7887,7753,7706,51.6,48.0,47.7,53.4,2.827,2.849,2.954,2.687,5.82,217.3,26.0,30.5,1013.98,-32.15,0.17,1.57,17.6,30.9,25.6,0,no_anomaly,0.0,0,0,0,0,19.0760011,72.8776956,5.0,0.0
2024-06-23T12:05:04.300Z,MISSION_0040,43,0,takeoff,SITE_BOM_001,19.076001,72.8776966,5.0,126.95,0.83,0.069,0.4,5.928,-0.3558,126.9524,0.44583,0.02587,0.04488,0.89362,0.1771,0.0508,-9.8037,0.3722,-0.414,0.1427,0.143,3,12,0.73,1.0,0.33,24.704,22.86,96.2,34.1,21157.0,7642,7629,8063,7740,51.9,50.0,54.4,50.7,2.764,2.646,2.689,2.76,5.93,211.8,26.1,30.9,1014.36,-30.58,-0.49,1.56,21.6,36.8,28.0,0,no_anomaly,0.0,0,0,0,0,19.076001,72.8776966,5.0,0.0
2024-06-23T12:05:04.400Z,MISSION_0040,44,0,takeoff,SITE_BOM_001,19.0760016,72.8776964,5.0,126.72,0.823,0.151,0.44,1.4823,-3.0248,126.7245,0.44785,0.02939,-0.00027,0.89363,-0.2708,-0.084,-9.7453,1.0435,-0.3284,-0.2873,0.2026,3,16,0.86,0.81,0.41,24.69,14.8,96.1,33.6,21142.0,7557,7596,7879,7517,51.9,49.2,51.5,50.8,3.103,3.03,2.823,2.941,6.11,215.4,26.0,30.5,1014.0,-31.47,1.05,1.15,22.8,34.3,29.6,0,no_anomaly,0.0,0,0,0,0,19.0760016,72.8776964,5.0,0.0
2024-06-23T12:05:04.500Z,MISSION_0040,45,0,takeoff,SITE_BOM_001,19.0760046,72.8776924,5.0,127.49,0.441,0.111,0.99,0.005,0.3237,127.4924,0.44235,-0.00251,0.00129,0.89684,-0.0868,-0.0366,-9.8324,-0.116,0.4067,-0.2285,0.2202,3,15,0.59,0.87,0.27,24.667,17.09,96.0,33.9,21127.0,7615,7672,7610,7782,52.6,53.6,51.7,48.8,2.649,2.511,2.728,2.924,5.41,222.6,25.9,31.2,1014.59,-27.62,-0.55,1.71,19.2,41.7,30.4,0,no_anomaly,0.0,0,0,0,0,19.0760046,72.8776924,5.0,0.0
2024-06-23T12:05:04.600Z,MISSION_0040,46,0,transit,SITE_BOM_001,19.0760043,72.877688,5.5,125.57,0.437,0.18,1.42,2.1449,-2.7107,125.574,0.4567,0.02959,0.00583,0.88911,-0.0375,-0.0269,-9.8435,-0.1401,1.12,-0.1173,0.1249,3,14,0.54,0.65,0.25,24.713,16.72,96.0,34.1,21112.0,7960,7610,7860,7872,48.4,50.0,55.0,51.6,2.899,3.073,2.847,2.792,5.34,213.2,26.2,30.2,1014.14,-28.72,0.43,1.74,19.1,37.8,27.3,0,no_anomaly,0.0,0,0,0,0,19.0760043,72.877688,5.5,0.0
2024-06-23T12:05:04.700Z,MISSION_0040,47,0,transit,SITE_BOM_001,19.0760003,72.8776935,6.0,127.21,0.0,0.121,0.72,-4.9413,-1.3105,127.2079,0.44457,-0.00893,-0.04369,0.89463,-0.2959,-0.0178,-9.8654,0.0124,-0.1712,-0.2716,0.1675,3,20,0.63,0.8,0.25,24.772,21.45,95.9,34.4,21097.0,7806,7517,7531,7702,55.3,47.3,55.5,52.3,2.829,2.583,2.755,2.654,5.57,217.5,25.7,29.9,1014.36,-31.75,-0.57,1.38,22.3,35.1,28.8,0,no_anomaly,0.0,0,0,0,0,19.0760003,72.8776935,6.0,0.0
2024-06-23T12:05:04.800Z,MISSION_0040,48,0,transit,SITE_BOM_001,19.0759973,72.8776961,6.5,125.62,0.0,0.236,0.53,-5.464,0.5176,125.6218,0.45621,-0.02579,-0.04034,0.88858,-0.1158,0.1173,-9.9043,0.255,0.069,0.203,0.1931,3,18,0.58,0.93,0.28,24.68,20.63,95.8,33.9,21082.0,8048,8036,7853,7792,48.2,50.6,50.6,50.4,2.705,2.7,2.587,2.854,5.36,225.4,26.2,30.6,1014.22,-28.44,-1.72,1.82,18.8,39.7,27.5,0,no_anomaly,0.0,0,0,0,0,19.0759973,72.8776961,6.5,0.0
2024-06-23T12:05:04.900Z,MISSION_0040,49,0,transit,SITE_BOM_001,19.0759953,72.8776952,7.0,127.19,0.0,0.138,0.75,1.4671,-0.094,127.1945,0.44463,0.00643,0.0111,0.89562,-0.027,-0.0252,-9.7681,0.0358,0.9018,0.0491,0.1748,3,15,0.54,0.97,0.23,24.823,17.63,95.8,34.8,21067.0,7748,7752,7590,7791,50.4,50.6,49.8,51.8,2.669,2.613,2.934,2.52,5.03,218.7,25.9,31.8,1014.73,-27.73,-0.95,1.36,19.3,36.3,28.4,0,no_anomaly,0.0,0,0,0,0,19.0759953,72.8776952,7.0,0.0
2024-06-23T12:05:05.000Z,MISSION_0040,50,0,transit,SITE_BOM_001,19.0759946,72.8776995,7.5,127.23,0.217,0.173,0.6,1.5947,0.0498,127.2324,0.44434,0.0058,0.01266,0.89575,0.0398,-0.0351,-9.7712,-0.5077,-0.4167,-0.0323,0.1648,3,19,0.67,0.93,0.32,24.698,13.4,95.7,33.9,21052.0,7672,7547,7768,7997,49.5,50.0,49.4,53.6,2.891,2.559,2.575,2.701,5.05,225.5,25.8,30.7,1014.18,-29.62,-0.24,1.64,18.2,31.6,27.1,0,no_anomaly,0.0,0,0,0,0,19.0759946,72.8776995,7.5,0.0
2024-06-23T12:05:05.100Z,MISSION_0040,51,0,transit,SITE_BOM_001,19.0759916,72.8776998,8.0,127.18,0.669,0.106,0.93,-1.0387,0.9724,127.18,0.44469,-0.01163,-0.00434,0.8956,0.0326,0.0172,-9.7835,0.2434,-0.1829,-0.2602,0.2306,3,15,0.77,1.06,0.23,24.741,14.73,95.6,33.3,21037.0,7901,7878,7653,7792,52.0,51.8,47.7,53.1,2.862,2.893,2.672,2.764,5.82,220.3,26.0,30.2,1013.49,-30.29,-0.66,1.81,17.7,34.4,26.5,0,no_anomaly,0.0,0,0,0,0,19.0759916,72.8776998,8.0,0.0
2024-06-23T12:05:05.200Z,MISSION_0040,52,0,transit,SITE_BOM_001,19.075988,72.877699,8.5,127.78,1.043,0.081,1.35,-0.3998,-1.6886,127.7771,0.44011,0.0117,-0.00962,0.89781,-0.0584,0.0519,-9.8335,-0.0936,-0.2232,-0.2243,0.1341,3,19,0.76,0.98,0.33,24.735,19.32,95.6,34.7,21022.0,7925,7724,7763,7857,48.3,49.3,51.3,51.5,2.662,2.763,2.877,2.742,5.53,216.6,26.2,31.7,1014.07,-31.26,-0.28,1.86,20.1,38.8,29.0,0,no_anomaly,0.0,0,0,0,0,19.075988,72.877699,8.5,0.0
2024-06-23T12:05:05.300Z,MISSION_0040,53,0,transit,SITE_BOM_001,19.0759865,72.8776987,9.0,126.59,0.731,0.082,1.52,1.9017,0.0324,126.5902,0.44934,0.00721,0.01495,0.89321,-0.155,0.0089,-9.7074,-0.4065,-0.2906,0.3398,0.1857,3,13,0.69,0.68,0.35,24.681,22.09,95.5,33.8,21007.0,7741,8028,7922,7523,53.0,49.8,53.4,52.8,2.533,3.047,3.008,2.987,5.77,223.2,26.2,30.6,1013.9,-36.06,0.34,1.54,18.2,35.5,30.8,0,no_anomaly,0.0,0,0,0,0,19.0759865,72.8776987,9.0,0.0
2024-06-23T12:05:05.400Z,MISSION_0040,54,0,transit,SITE_BOM_001,19.0759824,72.8776989,9.5,126.78,0.735,0.05,1.96,-5.1455,-0.8345,126.7824,0.44773,-0.0136,-0.04339,0.89301,0.0038,-0.087,-9.9183,0.463,-0.6427,-0.1214,0.221,3,12,0.62,1.04,0.26,24.694,16.7,95.4,35.1,20992.0,7942,7648,7653,8001,52.7,51.7,47.4,48.4,2.882,2.7,2.645,2.793,5.14,219.7,25.9,29.8,1014.08,-34.58,0.21,1.4,21.4,39.3,30.4,0,no_anomaly,0.0,0,0,0,0,19.0759824,72.8776989,9.5,0.0
2024-06-23T12:05:05.500Z,MISSION_0040,55,0,transit,SITE_BOM_001,19.0759809,72.8776954,10.0,125.17,0.727,0.089,2.18,1.2608,-3.5517,125.1734,0.45985,0.03257,-0.0045,0.88739,-0.036,0.0949,-9.7883,-0.1681,0.3321,-0.1346,0.2084,3,17,0.5,0.86,0.21,24.662,14.17,95.4,35.2,20977.0,7906,7818,7743,7568,48.2,53.1,55.4,48.1,2.989,2.645,2.84,3.02,5.04,213.7,25.9,31.3,1013.97,-33.74,0.83,1.49,18.4,38.3,24.6,0,no_anomaly,0.0,0,0,0,0,19.0759809,72.8776954,10.0,0.0
2024-06-23T12:05:05.600Z,MISSION_0040,56,0,transit,SITE_BOM_001,19.0759801,72.8776947,10.5,125.29,0.793,0.019,2.29,6.2773,-2.4177,125.2882,0.4577,0.04386,0.03894,0.88717,0.0957,-0.0129,-9.8168,-0.3693,-0.1144,-0.0346,0.2751,3,20,0.5,0.67,0.28,24.684,13.5,95.3,34.6,20962.0,7586,7744,7727,7622,53.6,55.8,54.5,51.8,2.763,2.81,2.896,3.025,5.85,221.2,25.9,31.3,1014.32,-29.57,1.17,1.28,21.1,39.7,25.9,0,no_anomaly,0.0,0,0,0,0,19.0759801,72.8776947,10.5,0.0
2024-06-23T12:05:05.700Z,MISSION_0040,57,0,transit,SITE_BOM_001,19.0759778,72.8776934,11.0,124.0,0.73,0.116,2.58,4.2908,-0.6484,123.9983,0.46896,0.02257,0.0304,0.88241,-0.0714,-0.0383,-9.7706,0.0909,-0.0224,0.1743,0.1082,3,13,0.73,0.74,0.25,24.648,14.27,95.2,33.7,20948.0,7584,7888,7501,7717,50.4,54.4,52.5,53.9,2.911,2.765,2.891,2.93,4.68,225.1,25.9,31.2,1014.46,-28.14,-0.15,1.37,24.3,33.7,32.0,0,no_anomaly,0.0,0,0,0,0,19.0759778,72.8776934,11.0,0.0
2024-06-23T12:05:05.800Z,MISSION_0040,58,0,transit,SITE_BOM_001,19.0759784,72.877695,11.5,125.42,0.549,0.005,2.46,2.9248,-0.4897,125.4221,0.45823,0.0155,0.02072,0.88846,-0.1172,-0.0378,-9.7948,-0.0029,-0.57,-0.4247,0.2147,3,20,0.55,0.81,0.23,24.635,17.11,95.1,34.2,20933.0,7851,7864,7725,7772,49.3,51.3,53.7,52.2,2.436,3.032,2.93,3.131,5.67,220.9,25.9,30.5,1014.05,-34.92,1.26,1.42,18.0,29.5,27.3,0,no_anomaly,0.0,0,0,0,0,19.0759784,72.877695,11.5,0.0
2024-06-23T12:05:05.900Z,MISSION_0040,59,0,transit,SITE_BOM_001,19.0759805,72.8776953,12.0,125.25,0.34,0.058,2.23,-0.3631,-1.4499,125.2548,0.45977,0.00978,-0.00863,0.88794,-0.1137,0.0195,-9.7525,-0.9257,-0.2794,-0.139,0.2079,3,14,0.64,0.83,0.29,24.629,18.69,95.1,34.0,20918.0,7810,7763,7950,7634,50.8,53.6,54.3,49.8,2.938,2.5,2.69,2.895,5.47,219.1,25.7,31.1,1014.22,-27.65,-0.38,1.77,21.2,31.0,29.8,0,no_anomaly,0.0,0,0,0,0,19.0759805,72.8776953,12.0,0.0
2024-06-23T12:05:06.000Z,MISSION_0040,60,0,transit,SITE_BOM_001,19.0759821,72.877691,12.5,127.44,0.021,0.141,2.23,4.968,0.1052,127.4415,0.44237,0.01837,0.03927,0.89579,0.0745,-0.0504,-9.833,-0.467,-0.1365,-0.0064,0.2459,3,20,0.56,0.74,0.23,24.746,16.53,95.0,34.2,20903.0,7890,7657,8085,7888,49.1,50.6,51.0,50.6,2.635,2.901,2.667,2.693,6.03,225.0,25.6,30.0,1014.2,-31.44,0.81,1.35,19.8,38.1,30.4,0,no_anomaly,0.0,0,0,0,0,19.0759821,72.877691,12.5,0.0
2024-06-23T12:05:06.100Z,MISSION_0040,61,0,transit,SITE_BOM_001,19.0759837,72.8776906,13.0,127.63,0.0,0.178,2.09,-4.0391,-2.7964,127.6331,0.44161,0.00634,-0.04238,0.89618,-0.1344,-0.0525,-9.7994,0.1424,0.9608,-0.0946,0.208,3,10,0.73,0.81,0.2,24.801,17.71,94.9,32.9,20888.0,7868,7671,7637,7960,51.1,52.4,50.7,52.3,2.891,2.506,2.729,2.498,5.61,220.6,25.9,30.7,1014.49,-28.33,1.24,1.25,21.6,40.0,30.3,0,no_anomaly,0.0,0,0,0,0,19.0759837,72.8776906,13.0,0.0
2024-06-23T12:05:06.200Z,MISSION_0040,62,0,transit,SITE_BOM_001,19.0759839,72.8776952,13.5,127.08,0.129,0.074,1.87,4.5997,-3.4881,127.0753,0.44395,0.0451,0.02236,0.89464,-0.0349,0.0304,-9.7737,0.3058,-0.6727,-0.3106,0.273,3,12,0.77,0.96,0.29,24.644,15.13,94.9,34.1,20873.0,7951,7738,7737,7869,50.8,56.1,50.6,52.8,2.578,2.655,2.997,2.836,6.42,221.2,26.1,31.0,1014.23,-25.88,-1.09,1.0,18.9,37.9,26.6,0,no_anomaly,0.0,0,0,0,0,19.0759839,72.8776952,13.5,0.0
2024-06-23T12:05:06.300Z,MISSION_0040,63,0,transit,SITE_BOM_001,19.0759831,72.8776962,14.0,127.55,0.367,0.217,1.92,2.0106,-0.4206,127.5486,0.44178,0.01105,0.01412,0.89694,-0.0917,0.0503,-9.6813,-0.046,-0.3611,0.1053,0.1916,3,17,0.51,0.76,0.2,24.68,20.7,94.8,34.6,20858.0,7728,7813,7644,7819,51.4,54.1,52.0,51.0,2.675,2.694,2.853,2.742,5.13,212.2,25.7,31.3,1014.14,-31.43,0.65,2.03,20.4,35.0,31.2,0,no_anomaly,0.0,0,0,0,0,19.0759831,72.8776962,14.0,0.0
2024-06-23T12:05:06.400Z,MISSION_0040,64,0,transit,SITE_BOM_001,19.0759862,72.8776946,14.5,126.68,0.0,0.084,1.65,1.0278,-1.5105,126.6752,0.44857,0.0158,0.0021,0.89361,-0.0145,-0.1037,-9.8059,-0.0482,-0.2243,-0.5603,0.2025,3,14,0.79,0.74,0.26,24.671,17.67,94.7,34.2,20843.0,7739,8048,7610,7895,52.0,50.0,50.5,52.5,2.564,2.762,2.71,2.852,5.18,220.6,26.0,30.1,1014.26,-31.11,0.58,1.74,20.4,34.6,29.0,0,no_anomaly,0.0,0,0,0,0,19.0759862,72.8776946,14.5,0.0
2024-06-23T12:05:06.500Z,MISSION_0040,65,0,transit,SITE_BOM_001,19.0759883,72.8776993,15.0,127.08,0.0,0.133,1.3,-0.0347,-2.2742,127.078,0.44551,0.01763,-0.00911,0.89506,-0.2427,0.0438,-9.789,0.2196,-0.0624,-0.1938,0.2015,3,14,0.67,0.9,0.21,24.76,22.12,94.7,33.8,20828.0,7910,7701,7945,7831,51.1,50.0,53.0,51.6,2.792,2.923,2.846,2.564,5.22,234.3,26.1,31.1,1014.09,-31.72,-0.45,1.51,21.9,36.2,28.2,0,no_anomaly,0.0,0,0,0,0,19.0759883,72.8776993,15.0,0.0
2024-06-23T12:05:06.600Z,MISSION_0040,66,0,transit,SITE_BOM_001,19.0759934,72.877698,15.5,129.04,0.239,-0.021,0.77,-3.5619,-1.0264,129.0362,0.43025,-0.00529,-0.03191,0.90213,-0.1588,-0.0283,-9.7907,-0.4416,0.423,-0.3386,0.1569,3,11,0.69,0.93,0.26,24.646,16.75,94.6,33.6,20813.0,7687,7688,7909,7629,53.0,50.0,49.9,57.9,2.834,2.844,2.793,2.873,4.87,218.8,26.0,31.3,1014.57,-25.56,0.73,1.55,19.3,40.4,29.2,0,no_anomaly,0.0,0,0,0,0,19.0759934,72.877698,15.5,0.0
2024-06-23T12:05:06.700Z,MISSION_0040,67,0,transit,SITE_BOM_001,19.0759906,72.8776989,16.0,131.11,0.0,0.11,1.06,-1.7731,-2.387,131.1136,0.41395,0.01256,-0.0227,0.90993,0.1171,-0.0509,-9.7728,0.606,0.7864,0.3095,0.2477,3,10,0.59,0.93,0.22,24.6,18.95,94.5,32.7,20798.0,7881,7977,7791,7772,48.9,51.4,50.3,55.0,2.679,2.629,2.558,3.072,5.67,215.8,25.9,30.3,1014.36,-28.67,-0.54,1.73,21.0,36.9,31.1,0,no_anomaly,0.0,0,0,0,0,19.0759906,72.8776989,16.0,0.0
2024-06-23T12:05:06.800Z,MISSION_0040,68,0,transit,SITE_BOM_001,19.0759848,72.8776977,16.5,131.8,0.26,0.161,1.71,7.4323,-1.8667,131.7987,0.40646,0.0413,0.05252,0.91122,0.0063,-0.0634,-9.7945,0.3065,-0.6879,-0.145,0.2234,3,14,0.84,0.96,0.28,24.694,16.51,94.5,33.0,20783.0,7649,7758,7750,7877,50.4,53.5,50.2,50.5,2.807,2.918,2.953,2.938,5.22,215.0,26.0,31.1,1014.43,-31.33,0.51,1.28,21.0,37.3,29.2,0,no_anomaly,0.0,0,0,0,0,19.0759848,72.8776977,16.5,0.0
2024-06-23T12:05:06.900Z,MISSION_0040,69,0,transit,SITE_BOM_001,19.0759905,72.8777009,16.8,132.3,0.748,0.153,1.06,-1.0378,-2.5851,132.2965,0.40444,0.01697,-0.0174,0.91424,0.1175,-0.0302,-9.8527,0.292,0.5444,0.164,0.2477,3,15,0.51,0.92,0.21,24.517,15.75,94.4,33.7,20768.0,7862,7950,7875,7955,52.3,50.4,49.4,54.2,2.797,2.786,2.914,2.666,4.44,219.8,25.7,29.8,1014.13,-28.05,0.21,1.32,19.4,36.9,31.9,0,no_anomaly,0.0,0,0,0,0,19.0759905,72.8777009,16.8,0.0
2024-06-23T12:05:07.000Z,MISSION_0040,70,0,transit,SITE_BOM_001,19.0759827,72.8777031,16.8,129.18,1.115,0.23,1.96,4.9154,-2.027,129.1769,0.42797,0.03436,0.03114,0.9026,0.0547,0.0407,-9.8074,0.0456,1.0041,-0.4243,0.2943,3,18,0.76,0.85,0.27,24.739,18.67,94.3,34.3,20753.0,7690,7531,7920,7929,52.2,50.6,53.7,51.3,2.726,3.075,3.104,2.642,5.13,212.7,25.9,31.4,1014.29,-26.14,1.06,1.35,16.9,38.1,27.9,0,no_anomaly,0.0,0,0,0,0,19.0759827,72.8777031,16.8,0.0
2024-06-23T12:05:07.100Z,MISSION_0040,71,0,transit,SITE_BOM_001,19.0759803,72.8777062,16.8,128.62,1.067,0.145,2.3,-5.6779,0.2882,128.6218,0.43284,-0.02373,-0.04354,0.9001,-0.2885,0.0708,-9.787,0.1556,0.034,-0.2014,0.1961,3,20,0.76,0.9,0.27,24.63,19.03,94.3,34.6,20738.0,8105,8060,7692,7747,48.7,48.4,50.8,51.4,2.768,2.854,2.694,2.882,5.99,214.5,26.0,30.7,1014.16,-24.71,-1.41,1.54,20.7,35.9,31.3,0,no_anomaly,0.0,0,0,0,0,19.0759803,72.8777062,16.8,0.0
2024-06-23T12:05:07.200Z,MISSION_0040,72,0,transit,SITE_BOM_001,19.0759788,72.8777065,16.8,126.51,1.289,0.029,2.47,1.9377,-1.0291,126.5147,0.44977,0.01563,0.01106,0.89294,0.2735,-0.0031,-9.7985,0.0696,0.4736,0.2048,0.202,3,13,0.69,0.96,0.36,24.61,16.55,94.2,34.3,20723.0,7559,7817,8007,7915,49.0,50.9,51.1,49.4,2.802,2.889,2.705,2.685,5.53,220.3,25.8,31.6,1014.34,-30.18,0.65,1.65,21.7,38.6,30.3,0,no_anomaly,0.0,0,0,0,0,19.0759788,72.8777065,16.8,0.0
2024-06-23T12:05:07.300Z,MISSION_0040,73,0,transit,SITE_BOM_001,19.0759773,72.8777068,16.8,125.79,1.062,0.096,2.64,-1.6541,-3.6942,125.7893,0.45576,0.02212,-0.02753,0.8894,-0.0499,-0.0501,-9.8026,-0.4442,-0.5045,0.4233,0.2336,3,15,0.93,0.92,0.4,24.703,19.22,94.1,33.9,20708.0,7590,7758,7939,7633,50.7,51.1,52.0,51.9,2.937,3.107,2.68,2.581,5.7,214.1,26.0,30.5,1014.29,-28.63,-0.25,1.53,23.2,40.2,25.3,0,no_anomaly,0.0,0,0,0,0,19.0759773,72.8777068,16.8,0.0
2024-06-23T12:05:07.400Z,MISSION_0040,74,0,transit,SITE_BOM_001,19.075976,72.8777065,16.8,124.5,1.104,0.125,2.77,0.7619,-2.7459,124.498,0.46535,0.0243,-0.00527,0.88478,-0.2388,-0.0742,-9.7329,0.2124,-0.0628,-0.1803,0.2364,3,11,0.73,0.73,0.33,24.612,12.79,94.1,33.6,20693.0,8013,7865,7943,7668,51.8,48.7,47.1,53.3,2.725,2.779,2.771,2.75,5.25,223.9,25.6,30.2,1014.2,-26.46,-0.29,1.39,22.0,34.9,28.4,0,no_anomaly,0.0,0,0,0,0,19.075976,72.8777065,16.8,0.0
2024-06-23T12:05:07.500Z,MISSION_0040,75,0,transit,SITE_BOM_001,19.0759763,72.8777061,16.8,122.98,0.778,0.143,2.73,-6.5536,-3.3964,122.982,0.4778,-0.00127,-0.06433,0.87611,-0.2418,0.0019,-9.8363,0.5706,-0.2893,0.1274,0.2269,3,19,0.68,1.04,0.34,24.634,14.91,94.0,33.8,20678.0,7708,8059,7862,7695,51.2,47.4,50.9,48.1,2.746,3.022,2.981,2.837,5.53,209.7,26.1,30.7,1014.49,-35.84,-1.01,1.94,19.7,35.9,30.0,0,no_anomaly,0.0,0,0,0,0,19.0759763,72.8777061,16.8,0.0
2024-06-23T12:05:07.600Z,MISSION_0040,76,0,transit,SITE_BOM_001,19.0759784,72.8777105,16.8,125.05,0.977,0.023,2.67,1.2263,-2.2511,125.0476,0.46108,0.02236,0.00043,0.88708,-0.094,-0.0277,-9.7892,-0.1298,0.0578,-0.2945,0.1778,3,20,0.74,0.77,0.22,24.664,8.66,93.9,34.5,20663.0,7856,7895,7822,7829,50.2,52.4,50.3,50.8,2.834,2.736,2.823,2.998,5.69,221.0,25.8,30.5,1014.38,-26.56,0.69,1.21,21.5,34.2,26.3,0,no_anomaly,0.0,0,0,0,0,19.0759784,72.8777105,16.8,0.0
2024-06-23T12:05:07.700Z,MISSION_0040,77,0,transit,SITE_BOM_001,19.0759797,72.8777096,16.8,124.65,1.318,0.156,2.5,0.5774,0.7764,124.6497,0.46447,-0.00366,0.00761,0.88555,-0.2526,-0.0709,-9.8586,-0.566,-0.0413,-0.1033,0.1945,3,16,0.76,0.81,0.23,24.642,18.53,93.9,34.7,20648.0,7845,7913,7767,7773,52.0,48.5,53.8,51.7,2.799,2.66,2.677,2.614,6.08,221.6,26.0,30.4,1014.15,-30.82,1.32,1.37,22.1,35.6,31.5,0,no_anomaly,0.0,0,0,0,0,19.0759797,72.8777096,16.8,0.0
2024-06-23T12:05:07.800Z,MISSION_0040,78,0,transit,SITE_BOM_001,19.0759834,72.8777067,16.8,124.28,0.553,-0.0,1.99,7.9867,1.2729,124.2843,0.4668,0.02274,0.06674,0.88155,0.2425,0.0658,-9.8741,0.5442,0.335,0.5332,0.2306,3,11,0.73,1.04,0.26,24.555,20.59,93.8,33.8,20633.0,8041,7843,7615,8100,53.9,52.0,49.1,52.6,2.609,3.008,2.986,2.679,5.56,221.0,26.1,30.0,1014.36,-30.88,-0.62,1.7,21.3,36.6,28.3,0,no_anomaly,0.0,0,0,0,0,19.0759834,72.8777067,16.8,0.0
2024-06-23T12:05:07.900Z,MISSION_0040,79,0,transit,SITE_BOM_001,19.0759844,72.877703,16.8,126.0,0.723,0.131,1.77,1.3383,-1.2014,125.9983,0.45384,0.01464,0.00565,0.89095,-0.0979,-0.0112,-9.8531,-0.8152,0.9911,0.0526,0.1952,3,20,0.59,1.41,0.24,24.576,13.95,93.7,34.6,20618.0,7791,7861,7848,7909,51.0,48.5,50.5,49.5,3.005,2.917,2.812,2.786,5.37,218.9,26.1,30.6,1014.24,-23.47,-1.05,1.31,22.7,38.8,29.2,0,no_anomaly,0.0,0,0,0,0,19.0759844,72.877703,16.8,0.0
2024-06-23T12:05:08.000Z,MISSION_0040,80,0,transit,SITE_BOM_001,19.0759866,72.8777092,16.8,126.54,0.53,0.202,1.81,-0.25,-1.2755,126.5388,0.44979,0.00896,-0.00695,0.89306,-0.029,0.0845,-9.9483,-0.1163,-0.4454,0.1539,0.1725,3,17,0.76,0.93,0.36,24.604,18.21,93.7,34.2,20603.0,7928,7726,7865,7829,52.9,51.2,51.6,51.2,2.825,2.307,2.529,2.813,5.35,222.3,25.9,30.6,1014.53,-27.84,-1.95,1.34,23.6,32.7,27.2,0,no_anomaly,0.0,0,0,0,0,19.0759866,72.8777092,16.8,0.0
2024-06-23T12:05:08.100Z,MISSION_0040,81,0,transit,SITE_BOM_001,19.0759903,72.8777099,16.8,130.54,0.796,0.082,1.54,1.1756,-5.1108,130.538,0.41751,0.04478,-0.00934,0.90752,0.0546,-0.0144,-9.7903,0.4658,0.4107,0.0666,0.2225,3,17,0.63,0.85,0.32,24.643,15.71,93.6,34.3,20588.0,8140,7773,7512,7670,51.1,50.6,53.5,49.9,2.855,2.76,2.756,2.669,5.77,220.8,25.9,31.0,1014.1,-29.63,-1.83,1.18,25.0,41.1,29.7,0,no_anomaly,0.0,0,0,0,0,19.0759903,72.8777099,16.8,0.0
2024-06-23T12:05:08.200Z,MISSION_0040,82,0,transit,SITE_BOM_001,19.0759854,72.8777081,16.8,130.57,1.467,0.116,1.86,-2.1291,-3.6782,130.5701,0.41836,0.02138,-0.03028,0.90753,-0.0487,0.0396,-9.7289,-0.3742,0.1418,0.2127,0.1186,3,17,0.94,0.91,0.5,24.655,21.8,93.5,33.5,20573.0,7710,8055,7979,7847,49.9,53.3,49.0,50.8,2.79,2.747,2.758,2.576,4.37,214.9,26.0,30.7,1014.24,-32.68,-1.06,1.16,17.0,39.5,25.4,0,no_anomaly,0.0,0,0,0,0,19.0759854,72.8777081,16.8,0.0
2024-06-23T12:05:08.300Z,MISSION_0040,83,0,transit,SITE_BOM_001,19.0759859,72.8777074,16.8,129.82,1.938,0.023,1.77,-2.755,-0.5149,129.8177,0.42403,-0.00613,-0.02368,0.90532,-0.039,0.0591,-9.8409,-0.0844,-0.2053,-0.4762,0.2358,3,11,0.74,1.1,0.29,24.58,22.32,93.4,34.4,20558.0,7900,7779,7747,7692,51.4,50.9,53.8,49.3,2.851,2.96,2.661,2.812,5.41,221.8,26.0,30.7,1014.5,-30.63,-0.21,1.24,20.6,33.8,26.5,0,no_anomaly,0.0,0,0,0,0,19.0759859,72.8777074,16.8,0.0
2024-06-23T12:05:08.400Z,MISSION_0040,84,0,transit,SITE_BOM_001,19.075985,72.8777084,16.8,126.68,2.091,0.075,1.91,1.0291,-3.8307,126.6755,0.44819,0.03389,-0.00698,0.89327,0.0148,-0.0265,-9.8341,0.1986,-0.645,0.0531,0.2745,3,20,0.85,1.33,0.3,24.561,21.86,93.4,34.8,20543.0,7714,7882,8039,7613,51.5,53.0,50.2,50.4,2.577,2.838,2.876,2.822,5.88,220.2,26.1,30.9,1014.44,-32.23,-1.5,1.74,24.6,41.5,30.6,0,no_anomaly,0.0,0,0,0,0,19.075985,72.8777084,16.8,0.0
2024-06-23T12:05:08.500Z,MISSION_0040,85,0,transit,SITE_BOM_001,19.0759877,72.8777083,16.8,127.29,2.056,0.064,1.66,3.0915,-1.422,127.2936,0.44341,0.02309,0.01866,0.89583,-0.2624,0.0837,-9.8407,-0.0428,0.4023,-0.1625,0.1586,3,14,0.7,0.75,0.36,24.611,19.91,93.3,34.1,20528.0,7791,7817,7700,7835,47.7,52.6,53.7,48.4,2.756,2.707,2.916,2.8,5.59,214.3,25.8,29.9,1014.38,-27.48,2.51,1.5,21.4,38.0,29.4,0,no_anomaly,0.0,0,0,0,0,19.0759877,72.8777083,16.8,0.0
2024-06-23T12:05:08.600Z,MISSION_0040,86,0,transit,SITE_BOM_001,19.0759819,72.8777062,16.8,126.78,2.081,0.14,2.13,-3.0169,0.5444,126.7806,0.44764,-0.01604,-0.02141,0.89381,0.3725,-0.033,-9.8266,-1.2072,-1.2552,-0.1291,0.2352,3,16,0.72,0.89,0.36,24.588,16.88,93.2,34.1,20513.0,7953,7767,7618,7934,53.7,52.2,51.4,51.7,2.604,2.535,2.907,2.856,6.27,220.6,25.6,30.3,1013.8,-24.37,0.03,1.99,22.4,35.9,30.4,0,no_anomaly,0.0,0,0,0,0,19.0759819,72.8777062,16.8,0.0
2024-06-23T12:05:08.700Z,MISSION_0040,87,0,transit,SITE_BOM_001,19.0759803,72.8777054,16.8,126.07,1.617,0.14,2.27,5.2091,-0.4138,126.0698,0.45283,0.02382,0.03887,0.89043,-0.1424,-0.0196,-9.8431,-0.3267,-0.1734,0.0382,0.2,3,18,0.6,1.11,0.22,24.706,18.51,93.2,34.7,20498.0,7467,7793,7928,7949,48.8,48.5,50.9,49.4,2.737,2.57,2.877,2.825,5.0,223.6,25.9,29.8,1014.16,-30.47,0.62,1.15,20.3,40.2,29.9,0,no_anomaly,0.0,0,0,0,0,19.0759803,72.8777054,16.8,0.0
2024-06-23T12:05:08.800Z,MISSION_0040,88,0,transit,SITE_BOM_001,19.0759829,72.8777093,16.8,127.56,1.661,0.178,2.16,-1.38,-1.9659,127.5597,0.44191,0.01007,-0.01838,0.89681,-0.2799,0.0312,-9.8449,0.3473,-0.0349,0.4086,0.3288,3,16,0.67,0.8,0.29,24.596,25.45,93.1,33.9,20483.0,7846,7755,7881,7995,53.1,49.5,52.5,48.1,2.797,3.139,2.836,2.908,4.96,211.5,25.5,30.7,1014.33,-28.18,-1.28,1.0,20.6,32.0,25.5,0,no_anomaly,0.0,0,0,0,0,19.0759829,72.8777093,16.8,0.0
2024-06-23T12:05:08.900Z,MISSION_0040,89,0,transit,SITE_BOM_001,19.0759827,72.8777124,16.8,126.58,1.667,0.108,2.37,-1.5829,-0.3544,126.5808,0.44946,-0.00345,-0.01373,0.89319,0.1001,0.0076,-9.8171,-0.1198,-0.0197,-0.2532,0.1975,3,19,0.5,0.68,0.23,24.622,23.47,93.0,34.3,20468.0,8056,7719,7728,8030,53.3,48.5,52.3,48.7,2.771,2.833,2.69,2.943,6.48,221.0,25.9,30.8,1014.26,-23.89,0.28,1.21,19.6,35.4,29.8,0,no_anomaly,0.0,0,0,0,0,19.0759827,72.8777124,16.8,0.0
2024-06-23T12:05:09.000Z,MISSION_0040,90,0,transit,SITE_BOM_001,19.0759844,72.8777186,16.8,127.72,1.435,0.111,2.7,-3.0149,-1.1765,127.7179,0.44065,-0.00238,-0.02814,0.89723,-0.1124,-0.0224,-9.7821,0.2984,-0.3906,0.081,0.198,3,17,0.76,1.01,0.34,24.654,18.12,93.0,34.5,20454.0,7650,7638,7734,8015,49.4,54.3,53.0,51.7,2.892,2.893,2.713,2.825,4.82,224.7,25.7,31.9,1014.14,-29.07,-0.61,1.0,19.1,31.2,24.8,0,no_anomaly,0.0,0,0,0,0,19.0759844,72.8777186,16.8,0.0
2024-06-23T12:05:09.100Z,MISSION_0040,91,0,transit,SITE_BOM_001,19.0759824,72.8777224,16.8,128.74,1.213,0.15,3.17,3.1327,-2.8208,128.7369,0.43168,0.034,0.01399,0.90128,-0.1031,0.0136,-9.8177,-0.4222,-0.556,0.3286,0.2162,3,12,0.94,1.06,0.32,24.56,17.42,92.9,34.7,20439.0,7987,7916,7911,7734,51.2,53.7,49.7,53.4,2.887,3.006,3.13,2.871,5.31,219.2,26.2,30.0,1014.2,-29.53,-0.88,1.58,17.0,30.5,27.9,0,no_anomaly,0.0,0,0,0,0,19.0759824,72.8777224,16.8,0.0
2024-06-23T12:05:09.200Z,MISSION_0040,92,1,transit,SITE_BOM_001,19.0759817,72.8777275,16.8,131.67,1.815,0.123,3.68,3.874,-1.7674,131.6685,0.40862,0.0279,0.02452,0.91195,-0.0532,0.0354,-9.8246,-0.5413,-0.0625,-0.3303,0.18,3,15,0.73,0.82,0.24,24.587,16.18,92.8,33.9,20424.0,7806,7742,7810,7750,52.9,51.0,49.9,50.3,3.103,2.756,2.845,2.724,5.93,214.3,25.6,31.2,1014.12,-34.45,-0.57,1.61,22.7,33.0,27.2,0,no_anomaly,0.0,0,0,0,0,19.0759817,72.8777275,16.8,0.0
2024-06-23T12:05:09.300Z,MISSION_0040,93,1,transit,SITE_BOM_001,19.0759779,72.8777239,16.8,130.11,2.268,0.153,3.63,3.3733,-1.6026,130.1096,0.42115,0.02509,0.02079,0.9064,-0.1218,-0.0261,-9.8969,-0.067,-0.0577,0.1443,0.2507,3,12,0.72,0.98,0.31,24.614,21.21,92.8,34.3,20409.0,7794,7722,7866,7755,52.0,51.7,50.7,48.7,2.612,2.976,2.698,2.783,6.24,225.2,26.1,30.8,1014.46,-28.88,-0.15,1.53,25.1,41.4,32.6,0,no_anomaly,0.0,0,0,0,0,19.0759779,72.8777239,16.8,0.0
2024-06-23T12:05:09.400Z,MISSION_0040,94,1,transit,SITE_BOM_001,19.0759802,72.8777242,16.8,129.89,2.648,0.134,3.48,-1.0154,-1.7046,129.8881,0.42356,0.00972,-0.01433,0.9057,0.0151,0.0649,-9.7912,0.172,0.7137,0.3073,0.1983,3,11,0.64,0.7,0.28,24.553,24.62,92.7,34.2,20394.0,7834,7853,7698,8161,50.2,54.2,52.9,48.1,2.794,3.038,2.565,2.961,6.06,220.6,25.9,30.8,1014.29,-30.46,-1.4,1.29,23.4,39.4,30.3,0,no_anomaly,0.0,0,0,0,0,19.0759802,72.8777242,16.8,0.0
2024-06-23T12:05:09.500Z,MISSION_0040,95,1,transit,SITE_BOM_001,19.0759825,72.8777294,16.8,128.59,2.806,0.087,3.81,2.7804,-0.2043,128.5856,0.4336,0.01213,0.02109,0.90077,0.1077,0.0034,-9.9347,-0.5878,-0.797,-0.1265,0.1776,3,17,0.99,0.92,0.4,24.596,18.67,92.6,34.3,20379.0,7680,7847,7797,7748,54.1,51.1,49.7,52.5,3.064,2.837,3.244,2.82,5.75,218.3,26.1,30.8,1014.56,-30.95,-0.17,1.47,22.1,31.6,28.6,0,no_anomaly,0.0,0,0,0,0,19.0759825,72.8777294,16.8,0.0
2024-06-23T12:05:09.600Z,MISSION_0040,96,1,transit,SITE_BOM_001,19.0759805,72.8777298,16.8,128.73,2.687,0.175,3.97,-0.6787,-3.9766,128.7306,0.43255,0.02872,-0.02035,0.90092,-0.1353,-0.0855,-9.7805,-1.0703,-0.0378,-0.2969,0.2365,3,19,0.62,0.77,0.32,24.616,19.76,92.6,34.1,20364.0,7903,7662,7914,7802,50.1,50.8,53.4,52.6,2.833,2.674,2.728,2.506,5.94,225.2,25.9,31.2,1014.12,-30.65,-0.41,1.69,18.5,39.8,27.3,0,no_anomaly,0.0,0,0,0,0,19.0759805,72.8777298,16.8,0.0
2024-06-23T12:05:09.700Z,MISSION_0040,97,1,transit,SITE_BOM_001,19.0759756,72.8777353,16.8,126.43,2.743,0.074,4.78,-4.4155,-2.3464,126.4317,0.45091,0.00091,-0.0436,0.89151,-0.0069,0.0207,-9.8037,0.0119,0.6419,-0.0467,0.1883,3,17,0.62,0.75,0.29,24.559,24.75,92.5,34.6,20349.0,7865,8034,7847,8067,52.3,49.5,48.1,51.8,2.89,2.786,3.016,2.561,5.27,216.9,26.2,30.6,1014.15,-30.41,-0.19,1.0,19.5,36.4,25.0,0,no_anomaly,0.0,0,0,0,0,19.0759756,72.8777353,16.8,0.0
2024-06-23T12:05:09.800Z,MISSION_0040,98,1,transit,SITE_BOM_001,19.0759766,72.8777355,16.8,130.35,2.497,0.033,4.73,-3.0881,-2.2865,130.3543,0.42007,0.00679,-0.03282,0.90687,0.293,-0.0194,-9.7534,-0.6296,0.4509,0.1566,0.1675,3,17,0.73,0.69,0.35,24.498,16.98,92.4,34.7,20334.0,8065,7810,7777,8123,54.5,48.4,50.1,51.8,2.861,2.719,2.783,3.213,4.52,219.6,25.9,31.2,1014.23,-30.97,-0.17,1.32,21.9,36.0,29.4,0,no_anomaly,0.0,0,0,0,0,19.0759766,72.8777355,16.8,0.0
2024-06-23T12:05:09.900Z,MISSION_0040,99,1,transit,SITE_BOM_001,19.0759781,72.8777406,16.8,129.83,2.307,0.097,5.14,0.9512,-5.0199,129.8288,0.42322,0.04318,-0.01106,0.90493,0.0608,-0.0404,-9.779,-0.6592,0.332,-0.0192,0.1572,3,17,0.86,1.09,0.39,24.54,15.48,92.4,33.7,20319.0,8056,7946,8040,7846,54.5,50.8,50.3,49.7,2.728,2.816,2.581,2.902,6.37,228.8,26.1,30.6,1013.76,-24.7,-0.38,1.66,18.0,40.2,27.9,0,no_anomaly,0.0,0,0,0,0,19.0759781,72.8777406,16.8,0.0
2024-06-23T12:05:10.000Z,MISSION_0040,100,1,transit,SITE_BOM_001,19.0759836,72.8777396,16.8,131.24,2.12,0.15,4.77,-2.9873,-1.7201,131.2428,0.41293,0.00291,-0.02993,0.91026,-0.2772,-0.0291,-9.7547,0.5606,0.3166,0.1845,0.226,3,12,0.53,1.04,0.24,24.558,22.29,92.3,34.9,20304.0,8012,8070,7850,7902,54.3,47.9,52.4,51.3,2.56,3.176,2.842,2.845,5.71,219.2,26.2,30.4,1014.4,-32.64,-0.86,1.53,19.4,30.9,30.6,0,no_anomaly,0.0,0,0,0,0,19.0759836,72.8777396,16.8,0.0
2024-06-23T12:05:10.100Z,MISSION_0040,101,1,transit,SITE_BOM_001,19.07598,72.8777398,16.8,132.39,1.656,0.107,4.96,-2.1758,1.4917,132.3862,0.40332,-0.01957,-0.01212,0.91477,-0.0825,0.0478,-9.8695,-0.2898,-0.0018,-0.2342,0.1704,3,20,0.59,1.05,0.27,24.558,19.34,92.2,33.7,20289.0,7941,7777,8006,7617,50.6,49.3,55.0,48.5,2.613,2.77,2.943,2.884,5.77,229.3,25.8,30.4,1014.14,-34.83,-1.83,1.6,22.9,35.7,30.1,0,no_anomaly,0.0,0,0,0,0,19.07598,72.8777398,16.8,0.0
2024-06-23T12:05:10.200Z,MISSION_0040,102,1,transit,SITE_BOM_001,19.0759832,72.8777406,16.8,134.75,1.503,0.173,4.89,-2.2933,-2.0486,134.7486,0.3849,0.0088,-0.02534,0.92257,0.2524,-0.0234,-9.857,0.3208,-0.3365,0.1967,0.2125,3,12,0.7,0.61,0.2,24.558,18.15,92.2,34.2,20274.0,7563,7891,7630,7863,49.3,47.9,53.2,53.8,2.745,2.813,2.808,3.017,5.09,224.7,26.1,31.0,1013.9,-33.42,1.29,1.39,22.0,31.6,27.1,0,no_anomaly,0.0,0,0,0,0,19.0759832,72.8777406,16.8,0.0
2024-06-23T12:05:10.300Z,MISSION_0040,103,1,transit,SITE_BOM_001,19.075985,72.8777405,16.8,133.65,2.363,0.099,4.81,-1.7468,-1.3134,133.6493,0.39364,0.00454,-0.01852,0.91907,0.1881,-0.0073,-9.846,-0.0126,-0.0341,-0.4527,0.1959,3,11,0.69,0.86,0.22,24.637,18.94,92.1,33.3,20259.0,7847,7736,7753,8044,51.3,54.0,53.1,51.6,2.798,3.002,2.625,2.669,5.39,228.8,26.5,30.7,1013.85,-31.04,-0.24,1.57,20.3,39.6,28.2,0,no_anomaly,0.0,0,0,0,0,19.075985,72.8777405,16.8,0.0
2024-06-23T12:05:10.400Z,MISSION_0040,104,1,transit,SITE_BOM_001,19.0759843,72.8777424,16.8,135.52,2.985,0.082,5.04,-0.5208,0.2139,135.5244,0.37844,-0.00345,-0.0035,0.92561,-0.1194,-0.0118,-9.7897,-0.3996,-0.5458,-0.3691,0.1876,3,12,0.72,0.62,0.33,24.622,24.25,92.0,33.6,20244.0,7990,8028,7819,7792,54.1,48.6,49.8,48.8,2.72,2.674,2.441,2.902,5.29,220.5,25.6,30.5,1014.41,-31.47,2.05,1.46,22.4,38.7,28.3,0,no_anomaly,0.0,0,0,0,0,19.0759843,72.8777424,16.8,0.0
2024-06-23T12:05:10.500Z,MISSION_0040,105,1,transit,SITE_BOM_001,19.0759802,72.877741,16.8,134.99,3.081,0.073,5.07,1.7241,-1.6248,134.9923,0.38247,0.01886,0.00847,0.92374,-0.2945,0.0153,-9.8021,0.2702,-0.1825,0.2591,0.1995,3,15,0.81,0.8,0.2,24.486,21.15,91.9,34.4,20229.0,7616,7808,7917,7729,51.3,49.1,55.5,49.1,2.922,2.767,2.815,2.744,5.76,221.0,26.2,30.3,1014.34,-29.79,1.24,1.17,18.6,40.6,26.8,0,no_anomaly,0.0,0,0,0,0,19.0759802,72.877741,16.8,0.0
2024-06-23T12:05:10.600Z,MISSION_0040,106,1,transit,SITE_BOM_001,19.0759794,72.8777385,16.8,133.16,3.307,0.117,4.86,1.0206,-2.5987,133.1637,0.39714,0.02435,-0.00084,0.91744,0.1101,0.0395,-9.7865,0.3658,0.2779,0.0161,0.0786,3,18,0.71,0.89,0.21,24.605,19.73,91.9,33.9,20214.0,7548,7653,7703,7964,50.4,48.5,51.2,53.3,3.094,2.439,2.938,2.979,5.65,223.7,26.3,31.2,1014.29,-29.94,0.09,1.61,22.3,34.9,30.4,0,no_anomaly,0.0,0,0,0,0,19.0759794,72.8777385,16.8,0.0
2024-06-23T12:05:10.700Z,MISSION_0040,107,1,transit,SITE_BOM_001,19.0759794,72.8777405,16.8,134.43,3.708,0.118,5.06,3.1071,-3.6966,134.4253,0.38616,0.04022,0.01249,0.92147,-0.1305,-0.0861,-9.82,0.725,0.4786,-0.432,0.2494,3,19,0.79,0.95,0.42,24.617,20.59,91.8,34.6,20199.0,7842,7970,7928,7732,51.7,53.2,50.5,49.1,2.659,2.797,2.648,3.08,5.53,219.9,26.3,31.0,1014.35,-29.55,-0.1,1.93,19.9,41.5,28.5,0,no_anomaly,0.0,0,0,0,0,19.0759794,72.8777405,16.8,0.0
2024-06-23T12:05:10.800Z,MISSION_0040,108,1,transit,SITE_BOM_001,19.0759756,72.8777406,16.8,133.87,4.002,0.221,5.27,-5.4753,-2.4171,133.8687,0.39218,0.00067,-0.05219,0.91841,-0.0865,0.0252,-9.8478,-0.4256,0.7254,-0.0321,0.1814,3,13,0.64,1.0,0.24,24.653,17.05,91.7,34.7,20184.0,8104,7738,7506,7817,51.9,55.5,53.5,53.1,2.844,2.428,3.003,2.648,5.02,221.9,26.1,30.7,1014.05,-37.51,1.37,1.22,21.5,40.0,25.8,0,no_anomaly,0.0,0,0,0,0,19.0759756,72.8777406,16.8,0.0
2024-06-23T12:05:10.900Z,MISSION_0040,109,1,transit,SITE_BOM_001,19.0759786,72.8777449,16.8,135.89,4.085,0.073,5.54,0.5633,-1.5792,135.8942,0.37536,0.01462,-0.00062,0.92676,-0.1056,0.1219,-9.8104,-0.7334,-0.3011,0.518,0.2416,3,20,0.88,0.86,0.43,24.59,26.07,91.7,33.2,20169.0,7981,7711,7778,7726,52.4,51.3,53.3,49.9,2.683,2.831,2.999,2.716,6.13,217.6,26.0,30.6,1014.25,-28.73,-0.57,1.58,20.9,37.6,26.6,0,no_anomaly,0.0,0,0,0,0,19.0759786,72.8777449,16.8,0.0
2024-06-23T12:05:11.000Z,MISSION_0040,110,1,orbit_base,SITE_BOM_001,19.075921,72.8776874,17.1,134.54,4.677,0.114,8.91,2.1045,0.5897,134.5404,0.3864,0.00235,0.01893,0.92213,-0.2885,-0.0144,-9.806,-0.2684,-0.4588,0.2279,0.1902,3,20,0.88,1.1,0.35,24.605,21.22,91.6,34.5,20154.0,7890,7919,8024,7742,50.0,53.2,47.3,51.0,2.691,2.957,2.633,2.594,5.18,217.5,26.0,30.5,1014.43,-33.02,1.83,2.12,18.2,34.2,28.4,0,no_anomaly,0.0,0,0,0,0,19.075921,72.8776874,17.1,0.0
2024-06-23T12:05:11.100Z,MISSION_0040,111,1,orbit_base,SITE_BOM_001,19.0759214,72.877685,17.4,135.91,4.426,0.109,8.91,-0.6765,-0.8972,135.9134,0.37533,0.00504,-0.00841,0.92684,0.1044,0.0229,-9.8759,0.3187,1.1766,0.2002,0.2086,3,19,0.78,0.78,0.38,24.589,14.81,91.5,34.1,20139.0,7623,7954,8019,8166,51.3,52.4,49.7,54.4,2.915,2.914,2.759,2.704,5.59,222.2,25.9,31.3,1014.14,-29.91,-0.01,1.0,19.2,30.6,28.2,0,no_anomaly,0.0,0,0,0,0,19.0759214,72.877685,17.4,0.0
2024-06-23T12:05:11.200Z,MISSION_0040,112,1,orbit_base,SITE_BOM_001,19.0759219,72.8776827,17.7,134.97,4.589,0.174,8.91,1.4404,-2.5277,134.9727,0.38252,0.02519,0.00316,0.9236,0.0113,-0.0417,-9.9045,0.7823,-0.0168,0.0686,0.2877,3,10,0.76,0.98,0.35,24.589,21.65,91.5,33.7,20124.0,7970,8006,7914,7602,51.2,48.9,52.1,49.5,2.793,2.62,2.672,2.741,5.92,221.2,25.8,30.5,1014.41,-33.94,0.57,1.98,17.3,35.6,26.4,0,no_anomaly,0.0,0,0,0,0,19.0759219,72.8776827,17.7,0.0
2024-06-23T12:05:11.300Z,MISSION_0040,113,1,orbit_base,SITE_BOM_001,19.0759225,72.8776803,18.0,133.32,4.427,0.107,8.91,4.0037,0.6334,133.3216,0.3961,0.00877,0.03426,0.91752,-0.0215,0.0835,-9.7527,0.0813,-0.3503,0.0517,0.2023,3,19,0.62,0.76,0.2,24.609,18.86,91.4,34.3,20109.0,7757,7781,7817,8088,48.8,48.1,53.4,52.7,2.847,2.791,2.778,2.917,5.28,221.7,25.8,30.7,1014.2,-28.78,-2.33,2.15,23.4,37.0,30.4,0,no_anomaly,0.0,0,0,0,0,19.0759225,72.8776803,18.0,0.0
2024-06-23T12:05:11.400Z,MISSION_0040,114,1,orbit_base,SITE_BOM_001,19.0759231,72.877678,18.3,136.58,4.151,0.119,8.91,1.998,-0.1685,136.5781,0.36984,0.00782,0.01565,0.92893,0.1938,0.0189,-9.7351,0.7611,0.7507,0.3216,0.0914,3,19,0.6,0.77,0.2,24.664,24.25,91.3,35.1,20094.0,7654,7620,7657,7939,52.5,49.5,50.9,54.0,2.75,2.901,2.881,2.695,5.0,221.6,25.9,31.3,1014.3,-30.51,0.34,1.55,21.4,41.1,28.9,0,no_anomaly,0.0,0,0,0,0,19.0759231,72.877678,18.3,0.0
2024-06-23T12:05:11.500Z,MISSION_0040,115,1,orbit_base,SITE_BOM_001,19.0759238,72.8776757,18.6,136.57,4.135,0.142,8.91,-2.0274,-2.6453,136.574,0.37018,0.0149,-0.02497,0.9285,-0.0163,-0.0384,-9.783,-0.0137,-0.0479,0.4613,0.1724,3,10,0.72,0.83,0.31,24.479,17.07,91.3,34.0,20079.0,7809,7879,7772,8054,53.8,50.9,54.6,51.8,2.802,3.194,2.545,2.794,5.6,228.1,25.8,30.4,1014.02,-34.98,-1.67,1.89,25.9,34.1,31.2,0,no_anomaly,0.0,0,0,0,0,19.0759238,72.8776757,18.6,0.0
2024-06-23T12:05:11.600Z,MISSION_0040,116,1,orbit_base,SITE_BOM_001,19.0759245,72.8776734,18.9,136.92,4.252,0.145,8.91,-1.0226,-3.0223,136.9246,0.36719,0.02125,-0.01798,0.92973,0.3253,0.0806,-9.7864,0.8025,0.7169,-0.2678,0.1831,3,14,0.57,0.77,0.24,24.556,14.37,91.2,34.6,20064.0,7875,8087,8103,7967,51.8,53.4,52.5,52.0,2.676,2.845,2.807,2.928,5.0,227.2,25.8,30.5,1014.54,-32.08,1.15,1.82,23.4,33.0,26.7,0,no_anomaly,0.0,0,0,0,0,19.0759245,72.8776734,18.9,0.0
2024-06-23T12:05:11.700Z,MISSION_0040,117,1,orbit_base,SITE_BOM_001,19.0759254,72.8776712,19.2,136.17,4.086,0.067,8.91,0.1664,-3.463,136.1673,0.37304,0.02857,-0.00993,0.92732,-0.1537,0.0509,-9.9023,0.4938,-0.0508,0.1915,0.1773,3,10,0.78,1.02,0.32,24.613,21.17,91.1,33.8,20049.0,7852,7760,7713,7545,49.3,50.1,52.1,53.1,2.818,2.874,3.132,2.818,4.85,227.4,26.0,31.0,1013.97,-25.41,-1.06,1.17,24.1,32.4,30.5,0,no_anomaly,0.0,0,0,0,0,19.0759254,72.8776712,19.2,0.0
2024-06-23T12:05:11.800Z,MISSION_0040,118,1,orbit_base,SITE_BOM_001,19.0759263,72.877669,19.5,135.75,3.674,0.198,8.91,-2.8281,-2.9601,135.755,0.37694,0.01463,-0.03258,0.92555,-0.0386,0.0107,-9.812,-0.6777,0.1568,-0.2672,0.208,3,13,0.64,1.1,0.24,24.458,24.75,91.1,34.6,20034.0,7888,7678,7785,8034,48.6,52.5,49.7,50.2,2.883,2.748,2.741,2.83,5.07,209.8,26.1,31.3,1014.3,-32.62,-1.42,1.0,17.2,38.5,27.1,0,no_anomaly,0.0,0,0,0,0,19.0759263,72.877669,19.5,0.0
2024-06-23T12:05:11.900Z,MISSION_0040,119,1,orbit_base,SITE_BOM_001,19.0759272,72.8776668,19.8,137.14,3.032,0.107,8.91,3.1619,-1.3342,137.1376,0.36492,0.02091,0.02143,0.93056,-0.0175,-0.0032,-9.8197,-0.3094,0.0239,-0.1333,0.1267,3,10,0.72,0.97,0.27,24.483,20.93,91.0,34.6,20019.0,7527,7781,7725,7664,50.3,52.1,52.3,54.7,2.848,3.0,2.32,3.055,4.4,215.2,25.9,30.6,1014.51,-29.34,1.39,1.82,19.3,31.6,28.1,0,no_anomaly,0.0,0,0,0,0,19.0759272,72.8776668,19.8,0.0
2024-06-23T12:05:12.000Z,MISSION_0040,120,1,orbit_base,SITE_BOM_001,19.0759283,72.8776646,20.1,138.67,2.998,0.094,8.91,0.7739,-3.4187,138.6698,0.35255,0.03029,-0.00421,0.93529,-0.0571,0.0507,-9.7888,0.1423,0.6467,0.2447,0.1586,3,17,0.75,0.9,0.25,24.498,15.93,90.9,34.2,20004.0,7386,7938,7872,7867,51.2,50.4,51.0,50.4,2.853,2.647,2.761,3.212,5.09,217.4,26.3,30.4,1014.38,-26.88,-0.56,1.47,20.2,37.1,28.2,0,no_anomaly,0.0,0,0,0,0,19.0759283,72.8776646,20.1,0.0
2024-06-23T12:05:12.100Z,MISSION_0040,121,1,orbit_base,SITE_BOM_001,19.0759294,72.8776625,20.4,138.17,2.732,0.116,8.91,3.9323,-0.1483,138.1706,0.35673,0.01346,0.03159,0.93358,-0.0934,0.0014,-9.7773,-0.7838,0.0886,-0.2657,0.18,3,16,0.55,0.8,0.2,24.589,21.12,90.9,33.8,19989.0,7728,7819,7988,7894,49.9,50.3,50.1,49.0,2.829,2.846,2.88,2.592,4.99,213.9,26.1,30.9,1014.21,-32.84,-0.41,1.77,18.0,37.2,26.7,0,no_anomaly,0.0,0,0,0,0,19.0759294,72.8776625,20.4,0.0
2024-06-23T12:05:12.200Z,MISSION_0040,122,1,orbit_base,SITE_BOM_001,19.0759305,72.8776604,20.7,137.53,2.856,0.121,8.91,-2.5016,-1.3796,137.5278,0.36234,0.00331,-0.0247,0.93171,0.0481,0.0318,-9.767,0.0794,0.5994,-0.0159,0.2708,3,18,0.69,0.7,0.23,24.591,22.28,90.8,34.5,19974.0,7654,7657,7466,7908,53.7,48.4,52.7,50.5,2.725,2.667,2.823,2.563,6.51,221.9,25.7,31.0,1014.24,-35.21,0.35,1.73,18.9,31.0,29.7,0,no_anomaly,0.0,0,0,0,0,19.0759305,72.8776604,20.7,0.0
2024-06-23T12:05:12.300Z,MISSION_0040,123,1,orbit_base,SITE_BOM_001,19.0759317,72.8776583,21.0,140.96,2.586,0.088,8.91,0.8758,-3.1003,140.9552,0.33385,0.02805,-0.00184,0.94221,0.0377,0.0395,-9.7821,0.6026,0.4222,0.7013,0.1128,3,14,0.85,0.77,0.3,24.556,19.63,90.7,34.1,19960.0,8009,8279,7866,7743,51.3,50.5,53.1,50.0,2.739,3.043,2.796,3.074,5.32,228.4,25.7,30.8,1014.34,-28.75,0.78,1.11,18.4,34.8,27.3,0,no_anomaly,0.0,0,0,0,0,19.0759317,72.8776583,21.0,0.0
2024-06-23T12:05:12.400Z,MISSION_0040,124,1,orbit_base,SITE_BOM_001,19.075933,72.8776563,21.3,140.94,2.429,0.058,8.91,-0.7812,-1.6554,140.9394,0.33436,0.01134,-0.01125,0.94231,0.065,0.0131,-9.7595,-0.2531,-0.6348,-0.2576,0.2081,3,17,0.76,0.97,0.28,24.53,18.7,90.7,34.4,19945.0,7892,7735,7685,7894,52.1,51.6,51.3,52.0,2.905,2.605,2.959,2.882,6.05,223.8,25.7,31.1,1014.35,-29.21,-0.98,1.2,20.6,36.2,28.9,0,no_anomaly,0.0,0,0,0,0,19.075933,72.8776563,21.3,0.0
2024-06-23T12:05:12.500Z,MISSION_0040,125,1,orbit_base,SITE_BOM_001,19.0759344,72.8776543,21.6,140.41,2.625,0.078,8.91,-0.3432,-2.3807,140.4052,0.33868,0.01853,-0.00985,0.94067,-0.3339,-0.0506,-9.8536,-0.2253,-0.2168,-0.2622,0.1523,3,17,0.7,0.82,0.27,24.563,14.31,90.6,34.7,19930.0,7860,7788,7840,7943,52.1,51.7,51.7,51.4,2.699,2.931,2.586,2.985,5.07,219.1,25.8,30.7,1014.28,-26.41,0.25,1.64,18.4,33.5,27.7,0,no_anomaly,0.0,0,0,0,0,19.0759344,72.8776543,21.6,0.0
2024-06-23T12:05:12.600Z,MISSION_0040,126,1,orbit_base,SITE_BOM_001,19.0759358,72.8776523,21.9,141.11,2.914,0.095,8.91,2.2609,-6.2184,141.1125,0.33132,0.05769,0.00052,0.94175,0.2231,0.0544,-9.8404,-0.1787,0.0399,0.2485,0.3329,3,10,0.76,1.02,0.28,24.537,19.22,90.5,35.2,19915.0,7722,7724,7686,7877,46.6,51.1,51.1,48.6,2.723,3.008,2.671,2.532,4.61,236.7,26.1,30.9,1014.09,-30.49,0.42,1.4,18.5,33.5,26.3,0,no_anomaly,0.0,0,0,0,0,19.0759358,72.8776523,21.9,0.0
2024-06-23T12:05:12.700Z,MISSION_0040,127,1,orbit_base,SITE_BOM_001,19.0759372,72.8776504,22.2,140.09,3.166,0.156,8.91,1.8044,-2.0907,140.092,0.3409,0.02252,0.00857,0.93979,0.028,-0.0166,-9.8148,0.6092,0.5438,0.7104,0.2495,3,10,0.71,0.61,0.2,24.551,20.9,90.5,34.1,19900.0,7572,8047,7721,7681,55.2,49.7,53.1,48.3,2.782,2.968,2.846,2.507,5.97,216.4,25.9,29.9,1013.99,-33.09,0.1,1.55,19.3,41.6,28.7,0,no_anomaly,0.0,0,0,0,0,19.0759372,72.8776504,22.2,0.0
2024-06-23T12:05:12.800Z,MISSION_0040,128,1,orbit_base,SITE_BOM_001,19.0759387,72.8776486,22.5,139.02,3.362,0.142,8.91,-2.0441,-2.6034,139.0162,0.35031,0.01503,-0.02466,0.93619,-0.1612,0.0293,-9.8305,0.4107,-0.139,0.1202,0.2122,3,14,0.79,1.03,0.28,24.615,16.55,90.4,35.0,19885.0,8156,8008,7646,7806,51.0,50.3,53.6,48.6,2.713,2.747,2.517,2.594,5.07,225.8,26.3,30.6,1014.39,-27.56,-0.91,1.03,20.0,34.6,31.8,0,no_anomaly,0.0,0,0,0,0,19.0759387,72.8776486,22.5,0.0
2024-06-23T12:05:12.900Z,MISSION_0040,129,1,orbit_base,SITE_BOM_001,19.0759403,72.8776467,22.8,137.41,2.939,0.169,8.91,0.9564,-2.3955,137.408,0.36293,0.02251,0.00018,0.93154,0.1752,-0.0384,-9.8321,0.4398,0.0557,-0.577,0.2412,3,14,0.69,0.7,0.45,24.571,18.26,90.3,34.2,19870.0,7976,8233,7897,7668,52.8,46.9,51.3,53.4,2.488,2.898,2.864,2.806,5.42,222.9,26.2,30.1,1014.14,-30.42,-0.75,1.48,24.5,34.1,27.8,0,no_anomaly,0.0,0,0,0,0,19.0759403,72.8776467,22.8,0.0
