timestamp_utc,mission_id,frame_id,waypoint_id,inspection_phase,site_id,latitude_deg,longitude_deg,altitude_m,heading_deg,ground_speed_ms,vertical_speed_ms,distance_to_tower_m,roll_deg,pitch_deg,yaw_deg,quat_w,quat_x,quat_y,quat_z,accel_x_ms2,accel_y_ms2,accel_z_ms2,gyro_x_rads,gyro_y_rads,gyro_z_rads,vibration_level,gps_fix_type,gps_satellite_count,gps_hdop,gps_vdop,position_error_m,battery_voltage_v,battery_current_a,battery_remaining_pct,battery_temp_c,battery_capacity_mah,motor_fl_rpm,motor_fr_rpm,motor_rl_rpm,motor_rr_rpm,motor_fl_temp_c,motor_fr_temp_c,motor_rl_temp_c,motor_rr_temp_c,motor_fl_thrust_n,motor_fr_thrust_n,motor_rl_thrust_n,motor_rr_thrust_n,wind_speed_ms,wind_dir_deg,air_temp_c,humidity_pct,pressure_hpa,gimbal_pitch_deg,gimbal_roll_deg,zoom_factor,ir_temp_min_c,ir_temp_max_c,ir_temp_avg_c,anomaly_detected,anomaly_class,anomaly_confidence,anomaly_bbox_x,anomaly_bbox_y,anomaly_bbox_w,anomaly_bbox_h,anomaly_gps_lat,anomaly_gps_lon,anomaly_gps_alt_m,ir_temp_delta_c
2024-03-11T14:34:00.000Z,MISSION_0034,0,0,takeoff,SITE_HYD_005,17.3849958,78.4866998,1.5,281.78,0.099,0.043,0.46,1.1881,-4.5881,281.7787,-0.77553,0.01721,0.03759,0.62996,0.134,0.0243,-9.8632,-0.4268,-0.4944,-0.0144,0.2233,3,18,0.7,0.68,0.26,24.692,18.17,95.3,36.6,20963.0,7188,7103,7194,7237,55.7,54.9,56.0,54.2,2.98,2.728,2.438,2.835,6.82,255.0,29.6,39.1,1007.45,-29.1,-0.3,1.29,24.2,41.8,33.4,0,no_anomaly,0.0,0,0,0,0,17.3849958,78.4866998,1.5,0.0
2024-03-11T14:34:00.100Z,MISSION_0034,1,0,takeoff,SITE_HYD_005,17.3849964,78.4867024,3.0,283.51,0.17,0.121,0.48,-6.9064,-6.0937,283.514,-0.78088,0.08008,0.00444,0.61952,-0.4832,-0.0161,-9.8412,0.3459,-0.084,0.1408,0.2998,3,11,0.61,0.81,0.2,24.649,17.86,95.2,37.7,20950.0,7377,7397,7164,7148,54.3,52.2,55.8,54.9,2.8,2.695,2.523,2.848,8.26,261.8,29.5,40.8,1007.4,-29.12,0.84,1.59,28.6,36.9,33.2,0,no_anomaly,0.0,0,0,0,0,17.3849964,78.4867024,3.0,0.0
2024-03-11T14:34:00.200Z,MISSION_0034,2,0,takeoff,SITE_HYD_005,17.3849966,78.4867012,4.5,282.72,0.0,0.104,0.4,-4.7098,-2.35,282.7237,-0.77975,0.04488,-0.00965,0.6244,0.0116,0.0305,-9.8217,0.8666,0.3088,-0.2896,0.3454,3,16,0.66,0.67,0.21,24.661,17.5,95.2,36.9,20938.0,7478,7319,7389,7365,55.6,56.8,54.5,56.8,2.903,3.086,2.678,2.74,7.16,258.5,29.4,40.0,1007.34,-28.43,-1.01,1.47,21.6,37.9,31.2,0,no_anomaly,0.0,0,0,0,0,17.3849966,78.4867012,4.5,0.0
2024-03-11T14:34:00.300Z,MISSION_0034,3,0,takeoff,SITE_HYD_005,17.3849943,78.4867034,5.0,284.13,0.012,0.2,0.74,2.0744,-1.7543,284.13,-0.78866,-0.00487,0.0232,0.61438,0.1395,0.0677,-9.7808,-0.0711,0.3441,-0.3617,0.203,3,10,0.86,0.91,0.22,24.609,19.76,95.1,37.4,20925.0,7257,7434,7321,7270,57.0,54.5,53.8,55.2,2.723,2.637,2.493,2.856,7.36,259.6,29.5,40.2,1006.98,-29.49,0.23,1.09,21.6,42.3,32.9,0,no_anomaly,0.0,0,0,0,0,17.3849943,78.4867034,5.0,0.0
2024-03-11T14:34:00.400Z,MISSION_0034,4,0,takeoff,SITE_HYD_005,17.3849931,78.4867068,5.0,284.37,0.0,0.04,1.08,4.1022,-4.2864,284.3728,-0.78977,-0.00534,0.05145,0.61122,0.2166,0.104,-9.7949,0.1214,0.4747,-0.1046,0.2797,3,15,0.62,0.67,0.21,24.683,16.2,95.1,38.1,20913.0,7247,7155,7259,7262,56.3,55.6,54.1,55.6,2.686,2.761,2.754,2.615,6.83,256.3,29.7,40.2,1007.24,-31.47,-1.6,1.33,23.8,39.8,32.4,0,no_anomaly,0.0,0,0,0,0,17.3849931,78.4867068,5.0,0.0
2024-03-11T14:34:00.500Z,MISSION_0034,5,0,takeoff,SITE_HYD_005,17.3849888,78.4867108,5.0,284.93,0.0,0.111,1.73,9.4153,1.1377,284.9343,-0.78979,-0.07111,0.04215,0.60778,-0.0127,-0.0081,-9.7689,1.0719,0.0777,0.2585,0.2386,3,19,0.57,0.81,0.2,24.632,17.12,95.0,37.4,20900.0,7535,7285,7280,7236,57.2,55.3,54.0,56.7,2.662,2.805,2.828,2.8,7.39,266.4,29.6,40.6,1007.19,-33.59,0.37,1.46,21.2,34.7,32.4,0,no_anomaly,0.0,0,0,0,0,17.3849888,78.4867108,5.0,0.0
2024-03-11T14:34:00.600Z,MISSION_0034,6,0,takeoff,SITE_HYD_005,17.3849879,78.486709,5.0,282.81,0.632,0.138,1.68,4.2554,-2.6601,282.8149,-0.78139,-0.01454,0.04128,0.62251,-0.094,-0.0723,-9.7841,-0.9824,-0.0674,0.0389,0.215,3,16,0.86,0.99,0.25,24.636,17.56,94.9,38.2,20887.0,7153,7170,7272,7329,56.8,55.2,51.3,54.3,2.838,2.988,2.731,2.408,7.43,262.8,29.7,41.0,1007.29,-23.25,0.49,1.65,26.2,41.1,34.1,0,no_anomaly,0.0,0,0,0,0,17.3849879,78.486709,5.0,0.0
2024-03-11T14:34:00.700Z,MISSION_0034,7,0,takeoff,SITE_HYD_005,17.3849912,78.4867174,5.0,285.91,0.755,0.113,2.17,0.2001,-2.331,285.9058,-0.798,0.01086,0.01729,0.60232,0.0693,-0.0006,-9.8779,0.1964,-0.8979,0.4352,0.2379,3,11,0.79,0.69,0.24,24.691,19.32,94.9,37.5,20875.0,7389,7141,7548,7290,56.0,54.4,56.7,52.2,2.914,2.707,2.96,2.898,6.51,263.3,29.1,40.0,1007.64,-29.24,0.21,1.3,23.0,42.8,32.2,0,no_anomaly,0.0,0,0,0,0,17.3849912,78.4867174,5.0,0.0
2024-03-11T14:34:00.800Z,MISSION_0034,8,0,takeoff,SITE_HYD_005,17.3849895,78.4867188,5.0,284.97,0.591,0.096,2.4,5.3588,-0.8707,284.9749,-0.79255,-0.03246,0.03449,0.60797,0.1933,0.0041,-9.8554,0.5186,-0.5149,-0.2947,0.2326,3,20,0.67,0.83,0.24,24.715,23.03,94.8,37.6,20862.0,7368,7168,7395,7602,55.2,53.5,52.9,55.7,2.561,2.983,3.042,2.765,7.97,267.7,29.5,39.6,1007.14,-32.06,-0.65,1.29,23.3,37.9,33.5,0,no_anomaly,0.0,0,0,0,0,17.3849895,78.4867188,5.0,0.0
2024-03-11T14:34:00.900Z,MISSION_0034,9,0,takeoff,SITE_HYD_005,17.384992,78.4867165,5.0,284.85,1.095,0.196,2.04,-4.2227,-1.0059,284.8456,-0.79177,0.03455,-0.01551,0.60965,-0.0304,-0.047,-9.7782,0.2175,-0.4524,0.2559,0.236,3,18,0.76,0.6,0.29,24.776,24.15,94.8,37.0,20850.0,7470,7410,7171,7216,52.8,55.1,53.7,55.5,2.971,2.418,2.792,2.873,6.51,261.3,29.7,40.1,1007.77,-31.71,-0.63,1.88,26.0,41.7,31.3,0,no_anomaly,0.0,0,0,0,0,17.384992,78.4867165,5.0,0.0
2024-03-11T14:34:01.000Z,MISSION_0034,10,0,takeoff,SITE_HYD_005,17.3849967,78.4867164,5.0,287.49,1.317,0.024,1.86,-5.0593,-1.7093,287.4874,-0.80512,0.0444,-0.01408,0.59129,-0.3233,-0.0651,-9.7534,-0.2182,-0.1233,-0.491,0.2722,3,12,0.81,0.77,0.35,24.677,20.59,94.7,37.1,20837.0,6864,7357,7610,7230,53.8,53.4,54.4,54.5,2.899,3.02,2.696,2.801,7.58,261.6,29.2,39.5,1007.92,-31.44,-1.76,1.0,25.6,35.0,30.2,0,no_anomaly,0.0,0,0,0,0,17.3849967,78.4867164,5.0,0.0
2024-03-11T14:34:01.100Z,MISSION_0034,11,0,takeoff,SITE_HYD_005,17.3849963,78.4867126,5.0,284.8,1.393,0.122,1.46,0.9825,-1.3544,284.8001,-0.79227,0.00042,0.01459,0.61,-0.1077,0.0265,-9.7835,-0.2122,0.219,0.4524,0.2301,3,12,0.6,0.84,0.2,24.656,15.43,94.7,37.9,20824.0,7373,7491,7151,7226,53.6,50.3,52.0,52.7,2.866,2.78,2.894,2.617,7.69,252.7,29.4,39.2,1007.1,-28.96,1.14,1.39,21.4,39.4,33.5,0,no_anomaly,0.0,0,0,0,0,17.3849963,78.4867126,5.0,0.0
2024-03-11T14:34:01.200Z,MISSION_0034,12,0,takeoff,SITE_HYD_005,17.3849932,78.4867099,5.0,284.86,1.154,0.01,1.34,5.7524,-0.8576,284.8619,-0.79183,-0.03521,0.03652,0.60863,0.1185,-0.0357,-9.7364,-0.0329,-0.1979,-0.3846,0.3277,3,19,0.81,0.68,0.26,24.662,24.11,94.6,38.3,20812.0,7652,7395,7176,7311,55.4,56.6,57.1,56.2,2.982,2.89,2.815,2.757,7.24,263.1,29.6,40.3,1007.58,-29.26,-0.38,1.46,24.2,39.0,30.9,0,no_anomaly,0.0,0,0,0,0,17.3849932,78.4867099,5.0,0.0
2024-03-11T14:34:01.300Z,MISSION_0034,13,0,takeoff,SITE_HYD_005,17.3849946,78.4867088,5.0,285.1,0.966,0.22,1.15,2.0217,-2.4179,285.0966,-0.79379,-0.00117,0.02747,0.60757,0.1072,0.0311,-9.9255,0.4199,1.0008,0.0014,0.2428,3,13,0.52,0.66,0.2,24.572,17.01,94.5,37.6,20799.0,7363,7365,7456,7683,53.4,55.3,54.5,57.1,2.976,2.708,2.763,2.764,7.46,263.5,29.6,39.8,1007.45,-28.9,-0.53,1.1,22.2,38.1,30.6,0,no_anomaly,0.0,0,0,0,0,17.3849946,78.4867088,5.0,0.0
2024-03-11T14:34:01.400Z,MISSION_0034,14,0,takeoff,SITE_HYD_005,17.3849926,78.4867095,5.0,283.87,0.917,0.073,1.35,8.3131,-2.3698,283.8712,-0.786,-0.04434,0.06092,0.61361,0.0603,0.0939,-9.7224,0.6703,-0.6407,0.6777,0.1958,3,19,0.61,1.07,0.21,24.637,18.88,94.5,37.9,20787.0,7262,7266,7449,7350,55.8,55.1,56.8,55.6,2.764,2.783,2.941,2.879,7.43,264.8,29.7,40.3,1007.47,-32.76,-0.25,1.44,23.0,39.5,32.2,0,no_anomaly,0.0,0,0,0,0,17.3849926,78.4867095,5.0,0.0
2024-03-11T14:34:01.500Z,MISSION_0034,15,0,takeoff,SITE_HYD_005,17.3849888,78.4867091,5.0,283.21,0.64,0.144,1.61,1.0086,0.8436,283.2089,-0.78365,-0.01147,-0.0003,0.6211,-0.0746,-0.0285,-9.7758,0.9553,-0.2422,-0.0296,0.2194,3,10,0.71,0.62,0.31,24.656,17.81,94.4,36.8,20774.0,7177,7227,7239,7358,55.8,52.3,58.6,57.4,2.801,2.895,2.852,3.049,7.6,252.2,29.5,40.3,1007.25,-31.41,0.32,1.68,27.1,36.2,33.4,0,no_anomaly,0.0,0,0,0,0,17.3849888,78.4867091,5.0,0.0
2024-03-11T14:34:01.600Z,MISSION_0034,16,0,takeoff,SITE_HYD_005,17.3849857,78.4867077,5.0,286.99,0.714,0.07,1.8,-5.4706,-3.1363,286.9943,-0.80183,0.05461,-0.0064,0.59501,-0.1137,0.0294,-9.741,-0.3903,0.5747,-0.001,0.2707,3,14,0.53,0.86,0.26,24.635,22.69,94.4,37.4,20762.0,7172,7197,7185,7421,54.9,54.4,56.0,54.5,2.91,2.84,2.717,2.974,8.39,261.9,29.1,40.5,1007.38,-34.14,-1.22,1.33,26.4,34.1,31.7,0,no_anomaly,0.0,0,0,0,0,17.3849857,78.4867077,5.0,0.0
2024-03-11T14:34:01.700Z,MISSION_0034,17,0,takeoff,SITE_HYD_005,17.3849879,78.4867084,5.0,286.93,0.379,0.065,1.64,4.4059,-3.8498,286.9322,-0.80323,-0.01089,0.04984,0.59349,-0.058,0.0501,-9.8527,-0.1659,-0.2507,0.1211,0.2445,3,13,0.69,1.04,0.34,24.582,22.44,94.3,37.1,20749.0,7586,7496,7451,7410,54.1,51.3,54.9,52.5,2.973,2.873,2.604,2.647,7.96,256.7,29.6,40.3,1007.56,-31.57,0.98,1.4,22.8,42.5,30.5,0,no_anomaly,0.0,0,0,0,0,17.3849879,78.4867084,5.0,0.0
2024-03-11T14:34:01.800Z,MISSION_0034,18,0,takeoff,SITE_HYD_005,17.384986,78.4867071,5.0,284.5,0.11,0.133,1.75,4.3068,-1.3915,284.5027,-0.79037,-0.02228,0.0326,0.61136,-0.0468,-0.0409,-9.7983,-0.1986,-0.7522,-0.4077,0.2143,3,20,0.67,0.82,0.31,24.71,18.26,94.3,37.4,20736.0,7283,7388,7531,7489,51.5,55.0,53.2,52.5,2.61,2.747,2.682,2.933,8.81,266.1,29.3,41.7,1007.57,-30.36,0.51,1.75,26.1,36.2,31.9,0,no_anomaly,0.0,0,0,0,0,17.384986,78.4867071,5.0,0.0
2024-03-11T14:34:01.900Z,MISSION_0034,19,0,takeoff,SITE_HYD_005,17.3849834,78.4867063,5.0,281.29,0.537,0.091,1.97,-2.3582,-1.6617,281.2869,-0.77278,0.0251,-0.00184,0.63417,-0.1491,-0.0139,-9.7324,0.4677,0.4424,0.0963,0.2087,3,10,0.76,0.98,0.33,24.655,15.99,94.2,37.7,20724.0,7464,7025,7297,7342,53.8,56.0,56.8,53.7,2.904,2.385,2.688,2.653,7.6,260.3,29.4,40.3,1007.56,-27.51,-0.81,1.25,25.3,39.1,31.2,0,no_anomaly,0.0,0,0,0,0,17.3849834,78.4867063,5.0,0.0
2024-03-11T14:34:02.000Z,MISSION_0034,20,0,takeoff,SITE_HYD_005,17.3849803,78.4867117,5.0,281.9,0.59,0.07,2.55,-5.128,-0.9288,281.8965,-0.77555,0.03984,-0.0219,0.62965,-0.2697,0.062,-9.8177,0.2182,0.1625,-0.2437,0.2027,3,18,0.64,1.04,0.31,24.693,21.48,94.1,37.2,20711.0,7480,7271,7304,7222,54.2,54.7,54.8,55.1,2.946,2.902,2.888,2.993,6.67,261.1,29.5,39.7,1007.43,-27.9,-0.24,1.21,24.8,43.6,31.9,0,no_anomaly,0.0,0,0,0,0,17.3849803,78.4867117,5.0,0.0
2024-03-11T14:34:02.100Z,MISSION_0034,21,0,takeoff,SITE_HYD_005,17.3849846,78.4867193,5.0,282.99,0.842,0.145,2.75,-5.3275,-0.7214,282.9938,-0.78153,0.04028,-0.02401,0.6221,0.0263,-0.0,-9.8947,0.3011,0.4962,0.0555,0.2023,3,20,0.63,0.75,0.4,24.673,12.41,94.1,37.5,20699.0,7617,7629,7319,7157,52.2,52.9,59.6,55.1,2.867,2.746,2.632,3.16,7.06,268.2,29.4,40.0,1007.35,-32.03,-1.73,1.63,21.6,39.4,29.3,0,no_anomaly,0.0,0,0,0,0,17.3849846,78.4867193,5.0,0.0
2024-03-11T14:34:02.200Z,MISSION_0034,22,0,takeoff,SITE_HYD_005,17.3849892,78.4867242,5.0,280.78,0.549,0.04,2.95,1.2945,0.2433,280.7755,-0.77031,-0.01006,0.00557,0.63756,-0.131,-0.0689,-9.7527,0.1451,0.2102,-0.453,0.1845,3,18,0.64,1.08,0.25,24.568,19.28,94.0,37.2,20686.0,7223,7460,7168,7221,54.1,57.1,54.5,55.9,2.861,2.673,2.798,2.723,7.36,267.1,29.8,40.0,1007.27,-30.86,-0.13,1.18,25.1,36.1,29.5,0,no_anomaly,0.0,0,0,0,0,17.3849892,78.4867242,5.0,0.0
2024-03-11T14:34:02.300Z,MISSION_0034,23,0,takeoff,SITE_HYD_005,17.3849932,78.4867228,5.0,281.8,0.705,0.103,2.65,2.5861,-2.4948,281.798,-0.77596,-0.00378,0.03112,0.63,0.0101,0.0174,-9.8785,0.0385,0.2158,0.0354,0.1298,3,16,0.6,0.86,0.23,24.624,23.74,94.0,37.0,20673.0,7156,7016,7430,7404,56.8,57.5,50.7,56.2,2.725,2.718,2.686,3.04,6.97,264.3,29.7,39.8,1007.37,-27.02,0.08,1.76,21.0,39.4,31.8,0,no_anomaly,0.0,0,0,0,0,17.3849932,78.4867228,5.0,0.0
2024-03-11T14:34:02.400Z,MISSION_0034,24,0,takeoff,SITE_HYD_005,17.3849974,78.4867247,5.0,280.81,0.511,0.084,2.76,3.7105,-3.0969,280.8104,-0.77044,-0.00772,0.04144,0.63611,-0.1169,0.0617,-9.9049,-0.2899,0.1604,-0.5159,0.2311,3,15,0.66,1.05,0.2,24.631,24.33,93.9,37.4,20661.0,7599,7239,7530,7214,55.0,54.4,54.8,56.1,3.042,2.806,2.766,2.952,7.09,258.6,29.7,39.8,1007.34,-26.43,-0.9,1.21,22.7,36.9,30.0,0,no_anomaly,0.0,0,0,0,0,17.3849974,78.4867247,5.0,0.0
2024-03-11T14:34:02.500Z,MISSION_0034,25,0,takeoff,SITE_HYD_005,17.3849966,78.4867221,5.0,279.81,0.531,0.165,2.49,0.6499,-2.8411,279.81,-0.76482,0.01163,0.02262,0.64374,-0.3292,0.0126,-9.8443,-0.5408,-0.0582,-0.2248,0.2638,3,18,0.8,0.79,0.22,24.596,20.56,93.9,37.3,20648.0,7513,7467,7332,7381,53.4,56.9,53.3,55.8,2.716,2.688,2.961,2.655,6.06,256.6,29.1,40.6,1007.68,-28.43,0.07,1.39,22.5,43.0,31.2,0,no_anomaly,0.0,0,0,0,0,17.3849966,78.4867221,5.0,0.0
2024-03-11T14:34:02.600Z,MISSION_0034,26,0,takeoff,SITE_HYD_005,17.3849984,78.4867202,5.0,282.45,0.46,0.168,2.26,-2.9293,-2.106,282.4487,-0.77892,0.03143,-0.00168,0.62633,-0.2488,-0.0359,-9.7684,-0.032,-0.2562,-0.176,0.2108,3,11,0.78,1.1,0.35,24.687,17.44,93.8,37.9,20636.0,7238,7344,7434,7310,51.8,54.4,54.8,56.6,2.702,2.668,2.73,2.803,7.68,254.7,29.3,40.3,1007.39,-30.03,1.01,1.63,27.5,42.3,31.8,0,no_anomaly,0.0,0,0,0,0,17.3849984,78.4867202,5.0,0.0
2024-03-11T14:34:02.700Z,MISSION_0034,27,0,takeoff,SITE_HYD_005,17.3849931,78.486722,5.0,281.3,0.202,0.03,2.57,2.7994,0.4725,281.3021,-0.773,-0.0215,0.0123,0.63393,-0.0109,0.1319,-9.817,1.0417,-0.3081,0.2653,0.2433,3,20,0.59,1.04,0.2,24.736,18.33,93.7,37.4,20623.0,7474,7317,7198,7566,52.8,57.9,53.5,51.6,2.832,2.748,2.823,2.688,7.84,263.9,29.7,40.6,1007.32,-32.93,1.43,1.71,25.9,38.0,34.1,0,no_anomaly,0.0,0,0,0,0,17.3849931,78.486722,5.0,0.0
2024-03-11T14:34:02.800Z,MISSION_0034,28,0,takeoff,SITE_HYD_005,17.3849916,78.4867288,5.0,279.96,0.598,0.082,3.34,3.7549,-4.587,279.9648,-0.76567,0.00065,0.05168,0.64116,0.2936,-0.0656,-9.8749,0.7068,-0.3328,-0.1066,0.2689,3,14,0.63,0.74,0.27,24.677,19.73,93.7,38.0,20610.0,7661,7243,6967,7306,58.5,56.4,52.4,52.8,2.991,3.014,3.138,2.556,7.86,261.0,29.5,39.1,1007.39,-29.63,-0.8,1.45,27.3,39.5,35.0,0,no_anomaly,0.0,0,0,0,0,17.3849916,78.4867288,5.0,0.0
2024-03-11T14:34:02.900Z,MISSION_0034,29,0,takeoff,SITE_HYD_005,17.3849979,78.4867254,5.0,281.24,0.476,0.084,2.84,7.5808,-1.5352,281.2402,-0.77176,-0.04261,0.05227,0.63233,-0.0717,-0.0259,-9.7758,-0.0751,0.3005,-0.0072,0.1815,3,17,0.85,1.18,0.36,24.673,17.26,93.6,37.9,20598.0,7369,7608,7427,7547,55.7,55.0,56.6,55.5,2.618,2.687,2.891,2.68,6.68,261.0,29.5,39.9,1007.53,-26.45,1.56,1.38,21.2,38.8,33.0,0,no_anomaly,0.0,0,0,0,0,17.3849979,78.4867254,5.0,0.0
2024-03-11T14:34:03.000Z,MISSION_0034,30,0,takeoff,SITE_HYD_005,17.384995,78.4867233,5.0,283.61,0.355,0.043,2.65,5.209,-3.7206,283.6089,-0.78559,-0.01564,0.05357,0.61622,0.2244,0.0715,-9.8729,0.7977,0.1354,0.199,0.3425,3,15,0.72,1.09,0.21,24.65,16.14,93.6,36.4,20585.0,7314,7365,7139,7442,56.9,52.9,56.3,54.0,2.937,2.697,2.607,2.594,8.11,250.2,29.4,40.2,1007.37,-28.74,0.6,2.22,26.3,36.8,31.5,0,no_anomaly,0.0,0,0,0,0,17.384995,78.4867233,5.0,0.0
2024-03-11T14:34:03.100Z,MISSION_0034,31,0,takeoff,SITE_HYD_005,17.3849953,78.4867236,5.0,285.96,0.326,0.144,2.68,-2.4877,-2.0202,285.957,-0.79787,0.02794,0.001,0.60218,0.007,0.0508,-9.8462,0.4528,-0.7249,-0.0152,0.2188,3,16,0.64,0.8,0.22,24.674,24.18,93.5,36.9,20573.0,7349,7194,7382,7310,55.7,53.0,53.6,54.7,2.567,2.752,2.433,2.944,7.25,247.4,29.2,39.6,1007.51,-31.97,0.26,1.3,24.6,37.2,29.7,0,no_anomaly,0.0,0,0,0,0,17.3849953,78.4867236,5.0,0.0
2024-03-11T14:34:03.200Z,MISSION_0034,32,0,takeoff,SITE_HYD_005,17.3849944,78.486723,5.0,285.68,0.0,0.056,2.63,-5.6286,-2.5452,285.678,-0.79512,0.05252,-0.01197,0.60405,-0.0116,-0.0025,-9.835,-0.0096,0.6972,-0.0998,0.3412,3,14,0.9,0.77,0.42,24.55,15.76,93.5,37.5,20560.0,7453,7360,7514,7322,54.7,53.9,52.4,55.1,2.863,2.969,2.837,3.092,6.64,257.8,29.5,39.6,1007.48,-25.82,1.13,1.57,24.5,39.2,33.5,0,no_anomaly,0.0,0,0,0,0,17.3849944,78.486723,5.0,0.0
2024-03-11T14:34:03.300Z,MISSION_0034,33,0,takeoff,SITE_HYD_005,17.3849971,78.4867215,5.0,286.4,0.0,0.061,2.41,-0.9453,-2.3503,286.3962,-0.80041,0.01889,0.01148,0.59904,-0.1165,-0.0856,-9.812,0.0253,0.8449,0.3443,0.269,3,20,0.62,0.91,0.24,24.54,22.0,93.4,36.8,20547.0,7532,7592,7555,7123,56.0,55.1,51.8,58.1,2.839,2.763,2.916,2.816,7.07,257.6,29.7,39.9,1006.92,-32.64,-0.13,1.43,24.3,42.2,33.0,0,no_anomaly,0.0,0,0,0,0,17.3849971,78.4867215,5.0,0.0
2024-03-11T14:34:03.400Z,MISSION_0034,34,0,takeoff,SITE_HYD_005,17.3849982,78.4867175,5.0,285.99,0.508,0.112,1.96,-5.2008,-0.4443,285.9878,-0.79764,0.03856,-0.02422,0.60142,0.3741,0.0375,-9.8558,-0.2981,-1.1031,-0.2732,0.2125,3,18,0.77,1.14,0.29,24.585,23.48,93.3,37.6,20535.0,7185,7260,7603,6848,55.3,55.3,55.7,54.5,3.012,2.902,2.791,2.804,6.8,257.6,29.4,39.7,1007.49,-33.31,0.93,1.24,21.7,34.0,33.4,0,no_anomaly,0.0,0,0,0,0,17.3849982,78.4867175,5.0,0.0
2024-03-11T14:34:03.500Z,MISSION_0034,35,0,takeoff,SITE_HYD_005,17.3850009,78.4867172,5.0,283.14,0.0,0.113,1.92,4.1008,-6.1338,283.1365,-0.78292,0.00525,0.06409,0.61879,-0.1005,-0.0049,-9.8537,-0.5378,0.2754,0.2317,0.2102,3,16,0.68,0.92,0.2,24.64,18.62,93.3,38.0,20522.0,7279,7455,7517,7249,54.5,52.7,56.0,53.1,2.765,2.58,2.539,3.001,7.54,265.5,29.6,39.5,1007.35,-32.81,0.2,1.18,21.7,43.2,33.0,0,no_anomaly,0.0,0,0,0,0,17.3850009,78.4867172,5.0,0.0
2024-03-11T14:34:03.600Z,MISSION_0034,36,0,takeoff,SITE_HYD_005,17.3850027,78.4867216,5.0,281.55,0.0,0.189,2.42,2.597,-1.3561,281.555,-0.77461,-0.01007,0.02349,0.63192,-0.1524,0.0038,-9.7805,0.4333,0.0809,0.383,0.3192,3,15,0.74,0.83,0.38,24.571,13.87,93.2,37.9,20510.0,7386,7338,7184,7265,54.6,56.6,54.9,55.4,2.548,2.904,2.814,2.998,7.62,262.4,29.5,40.8,1007.49,-29.41,-0.73,1.29,21.2,40.6,33.4,0,no_anomaly,0.0,0,0,0,0,17.3850027,78.4867216,5.0,0.0
2024-03-11T14:34:03.700Z,MISSION_0034,37,0,takeoff,SITE_HYD_005,17.3850034,78.4867224,5.0,281.55,0.0,0.047,2.52,-3.1291,-2.2018,281.5475,-0.77389,0.03329,-0.00238,0.63244,-0.1424,0.0351,-9.87,0.5064,0.074,-0.2896,0.2385,3,18,0.66,1.08,0.22,24.631,20.05,93.2,37.1,20497.0,7327,7280,7146,7201,53.3,53.4,53.8,55.2,2.834,2.918,2.882,2.753,7.47,267.0,29.6,40.7,1007.49,-28.65,-1.08,1.23,25.4,34.6,29.3,0,no_anomaly,0.0,0,0,0,0,17.3850034,78.4867224,5.0,0.0
2024-03-11T14:34:03.800Z,MISSION_0034,38,0,takeoff,SITE_HYD_005,17.3850017,78.4867213,5.0,280.35,0.216,0.125,2.38,5.2554,0.9129,280.3501,-0.76694,-0.04031,0.02325,0.64003,0.0849,0.0517,-9.8365,0.0634,0.2867,-0.2974,0.2498,3,20,0.57,0.87,0.2,24.6,14.94,93.1,37.6,20485.0,7422,7361,7393,7319,54.2,54.8,53.9,54.6,2.795,2.68,2.761,2.717,8.22,267.9,29.4,39.0,1007.63,-28.45,0.34,1.06,23.4,39.5,31.5,0,no_anomaly,0.0,0,0,0,0,17.3850017,78.4867213,5.0,0.0
2024-03-11T14:34:03.900Z,MISSION_0034,39,0,takeoff,SITE_HYD_005,17.3850038,78.4867281,5.0,276.47,1.06,0.131,3.16,7.2008,-0.8761,276.4657,-0.74468,-0.04175,0.04752,0.66441,0.2525,-0.0144,-9.8497,-0.9176,-0.1638,0.4065,0.1834,3,13,0.65,0.6,0.29,24.657,13.71,93.1,38.0,20472.0,7368,7532,7106,7408,55.9,54.3,57.7,56.6,2.845,2.771,2.694,3.102,7.31,255.0,29.5,40.8,1007.25,-31.66,-1.07,1.6,23.8,39.9,31.4,0,no_anomaly,0.0,0,0,0,0,17.3850038,78.4867281,5.0,0.0
2024-03-11T14:34:04.000Z,MISSION_0034,40,0,takeoff,SITE_HYD_005,17.3850006,78.4867278,5.0,275.55,1.305,0.082,3.1,-0.7432,0.0088,275.5531,-0.74051,0.00475,-0.00442,0.67201,0.0569,-0.0551,-9.8783,-0.0994,-0.8188,-0.4197,0.2503,3,11,0.69,1.06,0.38,24.615,17.97,93.0,37.9,20459.0,7143,7308,7186,7455,54.1,53.3,54.1,52.2,2.747,2.684,2.876,2.956,7.94,259.8,29.4,40.1,1006.85,-24.99,0.7,1.06,25.0,43.9,31.2,0,no_anomaly,0.0,0,0,0,0,17.3850006,78.4867278,5.0,0.0
2024-03-11T14:34:04.100Z,MISSION_0034,41,0,takeoff,SITE_HYD_005,17.3850034,78.4867226,5.0,277.22,1.149,0.202,2.54,-4.4422,-2.1549,277.2213,-0.74906,0.04149,-0.01152,0.66111,0.1274,0.1062,-9.8236,-0.2718,0.0627,0.1862,0.2504,3,16,0.63,0.71,0.31,24.641,19.07,92.9,38.6,20447.0,7261,7181,7439,7396,51.3,52.0,53.3,58.1,3.12,2.92,2.895,2.943,7.34,256.2,29.7,39.6,1007.58,-29.61,-1.18,1.49,22.4,39.5,29.7,0,no_anomaly,0.0,0,0,0,0,17.3850034,78.4867226,5.0,0.0
2024-03-11T14:34:04.200Z,MISSION_0034,42,0,takeoff,SITE_HYD_005,17.385004,78.4867244,5.0,278.68,1.696,0.11,2.75,1.7487,-3.9461,278.6804,-0.7584,0.01086,0.03605,0.65071,0.0951,0.0028,-9.8306,-0.1424,0.6271,-0.1901,0.323,3,20,0.6,0.92,0.28,24.613,18.37,92.9,36.6,20434.0,7421,7300,7362,7405,53.5,52.8,53.7,56.7,2.846,2.664,2.805,2.882,8.2,264.5,29.3,40.5,1007.53,-31.41,-0.41,2.04,22.4,40.6,31.4,0,no_anomaly,0.0,0,0,0,0,17.385004,78.4867244,5.0,0.0
2024-03-11T14:34:04.300Z,MISSION_0034,43,0,takeoff,SITE_HYD_005,17.3850026,78.4867243,5.0,278.92,1.084,0.069,2.72,-6.1432,-3.0997,278.9197,-0.75764,0.05826,-0.01429,0.64991,0.0619,-0.0413,-9.8394,-0.6951,0.1916,-0.2221,0.2187,3,16,0.73,0.97,0.31,24.638,23.36,92.8,37.4,20422.0,7234,7066,7338,7308,58.0,55.4,54.5,54.9,2.729,2.514,2.817,2.924,6.77,257.7,29.5,39.7,1007.35,-26.58,0.15,1.49,23.6,40.9,30.3,0,no_anomaly,0.0,0,0,0,0,17.3850026,78.4867243,5.0,0.0
2024-03-11T14:34:04.400Z,MISSION_0034,44,0,transit,SITE_HYD_005,17.3850023,78.4867234,5.5,279.07,0.747,0.041,2.62,2.3944,-1.5221,279.0701,-0.76075,-0.00728,0.02366,0.64857,-0.109,0.0271,-9.8074,-0.0471,0.1989,-0.2359,0.3281,3,18,0.81,1.05,0.42,24.652,12.81,92.8,37.4,20409.0,7229,7423,7100,7367,54.2,53.1,53.6,52.5,2.789,2.956,2.763,2.952,7.99,271.9,29.4,40.4,1007.12,-26.23,-0.34,1.0,25.3,36.2,31.8,0,no_anomaly,0.0,0,0,0,0,17.3850023,78.4867234,5.5,0.0
2024-03-11T14:34:04.500Z,MISSION_0034,45,0,transit,SITE_HYD_005,17.3850012,78.4867239,6.0,279.37,0.19,0.073,2.66,3.0278,-0.5122,279.3656,-0.76228,-0.01725,0.0205,0.6467,-0.0907,-0.0119,-9.8701,-0.839,-0.13,-0.1538,0.1693,3,18,0.84,1.15,0.28,24.658,11.2,92.7,37.7,20396.0,7187,7546,7164,7153,52.4,51.9,54.9,54.3,2.524,2.614,2.642,2.816,7.93,265.7,29.5,39.9,1007.43,-35.31,-0.19,1.3,25.6,44.5,33.1,0,no_anomaly,0.0,0,0,0,0,17.3850012,78.4867239,6.0,0.0
2024-03-11T14:34:04.600Z,MISSION_0034,46,0,transit,SITE_HYD_005,17.3850001,78.4867245,6.5,279.19,0.186,0.057,2.73,-1.2435,-5.4039,279.1907,-0.76026,0.03881,0.02887,0.64781,0.1321,0.0009,-9.736,-0.2992,0.3993,0.0303,0.2422,3,20,0.74,0.85,0.21,24.569,18.11,92.7,37.4,20384.0,7375,7523,7032,7266,53.8,54.5,51.4,56.1,2.425,2.586,2.858,2.766,7.0,267.9,29.7,40.1,1007.54,-27.48,1.76,1.67,23.5,39.3,32.0,0,no_anomaly,0.0,0,0,0,0,17.3850001,78.4867245,6.5,0.0
2024-03-11T14:34:04.700Z,MISSION_0034,47,0,transit,SITE_HYD_005,17.3849989,78.4867206,7.0,280.5,0.381,0.125,2.3,-2.6031,-0.2017,280.4992,-0.76861,0.01859,-0.01317,0.63931,0.0668,-0.1318,-9.8088,-0.2285,-0.4126,0.1816,0.2629,3,16,0.77,0.85,0.38,24.564,19.23,92.6,37.6,20371.0,7533,7613,7136,7474,55.6,56.6,51.8,55.4,2.644,2.937,2.809,2.903,7.28,260.2,29.3,40.0,1007.51,-32.39,-1.62,1.73,22.8,40.7,31.2,0,no_anomaly,0.0,0,0,0,0,17.3849989,78.4867206,7.0,0.0
2024-03-11T14:34:04.800Z,MISSION_0034,48,0,transit,SITE_HYD_005,17.3849982,78.486725,7.5,279.88,0.704,-0.021,2.79,12.169,-0.1423,279.8784,-0.76113,-0.08033,0.06916,0.63987,0.0778,-0.0218,-9.7698,0.1655,0.5425,-0.3627,0.2634,3,17,0.6,1.13,0.2,24.706,13.55,92.5,37.5,20359.0,7138,7822,7387,7464,55.2,54.9,55.3,50.9,2.674,2.83,2.79,2.625,7.18,268.0,29.4,40.4,1007.66,-28.68,0.65,1.37,28.0,45.0,33.8,0,no_anomaly,0.0,0,0,0,0,17.3849982,78.486725,7.5,0.0
2024-03-11T14:34:04.900Z,MISSION_0034,49,0,transit,SITE_HYD_005,17.3849973,78.4867274,8.0,279.48,1.205,0.135,3.07,1.6512,-3.6484,279.4773,-0.76293,0.00958,0.0336,0.64553,0.2953,-0.0256,-9.7611,0.4906,-0.7023,-0.1427,0.2339,3,16,0.59,0.87,0.22,24.723,25.69,92.5,38.0,20346.0,7041,7336,7434,7171,51.9,57.1,52.5,50.2,2.527,2.866,2.831,2.857,6.82,267.1,29.6,39.9,1007.2,-30.2,0.27,1.79,24.0,34.5,31.0,0,no_anomaly,0.0,0,0,0,0,17.3849973,78.4867274,8.0,0.0
2024-03-11T14:34:05.000Z,MISSION_0034,50,0,transit,SITE_HYD_005,17.3849972,78.4867254,8.5,279.66,1.367,0.066,2.85,-2.6443,0.244,279.6614,-0.76397,0.01626,-0.01651,0.64484,-0.0147,0.0314,-9.766,0.2314,-0.4355,-0.7839,0.1927,3,14,0.69,0.99,0.31,24.545,17.57,92.4,37.0,20333.0,7552,7394,7378,7462,53.8,55.5,54.3,54.1,2.871,2.899,2.698,2.937,7.69,267.1,29.3,40.1,1007.55,-23.75,1.09,1.13,25.0,40.7,32.4,0,no_anomaly,0.0,0,0,0,0,17.3849972,78.4867254,8.5,0.0
2024-03-11T14:34:05.100Z,MISSION_0034,51,0,transit,SITE_HYD_005,17.3849967,78.4867259,9.0,280.81,1.377,0.081,2.91,-3.6163,-1.5026,280.8093,-0.76985,0.03267,-0.01001,0.63731,0.0271,0.0951,-9.7989,-0.9312,0.2967,-0.264,0.1863,3,10,0.63,1.02,0.2,24.552,23.63,92.4,38.8,20321.0,7175,7629,7266,7435,56.7,56.1,57.6,54.4,3.069,3.018,2.699,3.076,7.08,269.1,29.3,40.4,1007.72,-30.09,0.97,1.61,26.2,37.7,31.7,0,no_anomaly,0.0,0,0,0,0,17.3849967,78.4867259,9.0,0.0
2024-03-11T14:34:05.200Z,MISSION_0034,52,0,transit,SITE_HYD_005,17.3849974,78.4867228,9.5,279.56,1.538,0.044,2.55,-1.4652,-1.9337,279.5614,-0.76327,0.02066,0.00463,0.64574,-0.1321,-0.1015,-9.8381,0.7347,0.4404,0.1882,0.2715,3,19,0.7,1.15,0.3,24.562,15.71,92.3,37.9,20308.0,7459,7250,7603,7559,55.7,58.0,53.1,54.4,2.624,2.629,2.783,2.786,6.47,254.1,29.5,40.0,1007.65,-32.5,-1.39,1.33,23.8,36.0,31.1,0,no_anomaly,0.0,0,0,0,0,17.3849974,78.4867228,9.5,0.0
2024-03-11T14:34:05.300Z,MISSION_0034,53,0,transit,SITE_HYD_005,17.384999,78.4867228,10.0,276.13,1.546,0.127,2.54,-4.9486,-3.6176,276.1313,-0.74194,0.05317,-0.00538,0.66834,-0.2826,-0.0033,-9.7807,0.5167,-0.5451,-0.2952,0.3548,3,15,0.86,0.94,0.35,24.538,17.97,92.3,37.6,20296.0,7537,7593,7215,7218,55.3,55.5,52.6,52.7,2.808,2.93,2.715,2.682,6.98,254.6,29.4,40.3,1007.39,-35.3,1.06,1.4,25.4,37.1,31.7,0,no_anomaly,0.0,0,0,0,0,17.384999,78.4867228,10.0,0.0
2024-03-11T14:34:05.400Z,MISSION_0034,54,0,transit,SITE_HYD_005,17.385002,78.4867192,10.5,276.71,1.536,0.047,2.15,10.278,-0.7321,276.706,-0.74461,-0.0627,0.06428,0.66143,-0.3294,0.0744,-9.8037,-0.7614,0.1062,0.3918,0.3298,3,12,0.59,0.92,0.23,24.527,18.94,92.2,37.9,20283.0,7231,7367,7527,7151,52.3,56.0,54.5,56.2,2.814,2.765,2.773,2.849,7.83,264.7,29.4,39.9,1007.43,-33.78,0.79,1.97,28.6,41.1,34.1,0,no_anomaly,0.0,0,0,0,0,17.385002,78.4867192,10.5,0.0
2024-03-11T14:34:05.500Z,MISSION_0034,55,0,transit,SITE_HYD_005,17.384998,78.4867205,11.0,275.88,1.293,0.063,2.3,5.8605,-4.2378,275.8832,-0.74225,-0.01319,0.06164,0.66715,-0.1993,-0.0844,-9.8457,-0.0073,0.3628,-0.4161,0.3088,3,20,0.5,1.17,0.24,24.674,19.02,92.1,37.5,20271.0,7456,7311,7296,7470,54.3,53.3,53.5,53.8,2.602,2.726,2.802,2.749,6.93,262.2,29.4,39.5,1007.54,-29.98,0.46,1.53,26.5,43.3,31.9,0,no_anomaly,0.0,0,0,0,0,17.384998,78.4867205,11.0,0.0
2024-03-11T14:34:05.600Z,MISSION_0034,56,0,transit,SITE_HYD_005,17.385001,78.4867233,11.5,276.21,1.044,0.142,2.6,3.4459,0.8208,276.2064,-0.74385,-0.02716,0.01475,0.66763,-0.3973,-0.0307,-9.8917,0.5401,-0.1369,0.1552,0.28,3,20,0.68,0.65,0.31,24.602,19.76,92.1,37.7,20258.0,7372,7109,7447,7282,52.4,57.2,55.6,51.0,2.791,2.647,2.85,3.001,6.96,261.6,29.7,40.7,1007.79,-29.45,-1.82,1.61,25.1,43.8,30.9,0,no_anomaly,0.0,0,0,0,0,17.385001,78.4867233,11.5,0.0
2024-03-11T14:34:05.700Z,MISSION_0034,57,0,transit,SITE_HYD_005,17.3850053,78.4867239,12.0,273.58,0.555,0.094,2.73,3.6526,-3.3344,273.5806,-0.72881,-0.00331,0.04301,0.68336,0.1933,-0.015,-9.8043,0.6714,-0.0484,-0.2835,0.2413,3,15,0.81,0.83,0.25,24.623,14.59,92.0,37.6,20245.0,7375,7438,7271,7394,56.0,55.9,54.1,56.3,2.769,2.793,2.786,2.858,7.34,264.6,29.4,39.3,1007.4,-32.06,-0.86,1.1,27.4,35.4,32.0,0,no_anomaly,0.0,0,0,0,0,17.3850053,78.4867239,12.0,0.0
2024-03-11T14:34:05.800Z,MISSION_0034,58,0,transit,SITE_HYD_005,17.3850039,78.4867222,12.5,274.37,0.81,0.132,2.51,-4.2024,-0.7867,274.3701,-0.73287,0.03156,-0.01989,0.67934,0.0226,-0.034,-9.6718,0.1964,0.0234,-0.1534,0.2494,3,13,0.74,1.16,0.34,24.566,16.55,92.0,37.6,20233.0,7439,7445,7486,7335,55.3,53.1,51.6,51.5,2.732,2.972,2.677,3.018,6.66,263.9,29.4,39.8,1007.96,-30.58,0.18,2.27,27.3,45.4,35.0,0,no_anomaly,0.0,0,0,0,0,17.3850039,78.4867222,12.5,0.0
2024-03-11T14:34:05.900Z,MISSION_0034,59,0,transit,SITE_HYD_005,17.3850094,78.4867236,13.0,275.74,1.214,0.125,2.82,-4.4513,-2.8379,275.7418,-0.7402,0.04539,-0.00769,0.67081,-0.0832,0.0112,-9.8941,-0.128,-0.1868,0.3719,0.2293,3,11,0.85,0.95,0.45,24.625,15.81,91.9,37.6,20220.0,7198,7280,7210,7405,51.5,53.4,51.8,56.1,2.872,2.802,2.895,2.915,7.63,250.6,29.6,40.3,1007.61,-28.64,0.86,1.76,26.5,38.1,33.4,0,no_anomaly,0.0,0,0,0,0,17.3850094,78.4867236,13.0,0.0
2024-03-11T14:34:06.000Z,MISSION_0034,60,0,transit,SITE_HYD_005,17.3850081,78.4867266,13.5,276.63,1.184,0.035,3.1,-0.8256,0.2642,276.6274,-0.74679,0.00385,-0.00651,0.66502,0.2438,0.025,-9.8778,-0.6014,-0.5297,-0.1956,0.3068,3,13,0.73,0.89,0.32,24.572,16.89,91.9,37.6,20208.0,7371,7365,7511,7064,53.1,55.3,52.9,52.0,2.699,2.725,2.795,2.749,7.31,270.3,29.5,39.6,1007.23,-31.37,0.77,1.31,20.3,37.6,31.3,0,no_anomaly,0.0,0,0,0,0,17.3850081,78.4867266,13.5,0.0
2024-03-11T14:34:06.100Z,MISSION_0034,61,0,transit,SITE_HYD_005,17.3850086,78.4867285,14.0,278.27,1.585,0.143,3.31,4.1349,-2.8358,278.2689,-0.75611,-0.01109,0.0423,0.65299,-0.0464,-0.1036,-9.7077,0.1079,-1.1317,0.0532,0.2299,3,11,0.75,1.09,0.27,24.696,17.85,91.8,37.8,20195.0,7432,7320,7295,7396,55.8,53.8,52.6,51.5,2.695,3.046,2.615,2.686,7.75,262.9,29.5,40.2,1007.26,-29.88,-0.61,1.86,20.9,36.4,30.8,0,no_anomaly,0.0,0,0,0,0,17.3850086,78.4867285,14.0,0.0
2024-03-11T14:34:06.200Z,MISSION_0034,62,0,transit,SITE_HYD_005,17.3850099,78.4867316,14.5,276.49,1.662,0.143,3.69,9.0736,1.1012,276.49,-0.74312,-0.06538,0.04553,0.6644,0.2016,-0.037,-9.8131,-0.308,0.4265,0.0497,0.2078,3,19,0.66,1.01,0.3,24.567,12.09,91.7,37.4,20182.0,7360,7134,7259,7361,54.1,58.1,53.0,53.4,2.546,3.033,2.895,2.655,7.05,262.7,29.4,39.3,1007.47,-33.19,-1.72,1.3,25.3,38.6,30.6,0,no_anomaly,0.0,0,0,0,0,17.3850099,78.4867316,14.5,0.0
2024-03-11T14:34:06.300Z,MISSION_0034,63,0,transit,SITE_HYD_005,17.3850071,78.4867265,15.0,276.86,1.661,0.036,3.06,-4.4666,-1.7352,276.8597,-0.7471,0.03919,-0.01453,0.6634,0.1302,0.0179,-9.7829,0.2202,0.0341,0.1012,0.2725,3,19,0.72,0.8,0.2,24.611,21.88,91.7,37.9,20170.0,7321,7527,7350,7164,56.6,55.2,55.4,54.1,2.778,2.72,2.832,2.573,6.97,256.2,29.6,40.4,1007.74,-31.5,2.16,1.48,28.5,40.1,34.8,0,no_anomaly,0.0,0,0,0,0,17.3850071,78.4867265,15.0,0.0
2024-03-11T14:34:06.400Z,MISSION_0034,64,0,transit,SITE_HYD_005,17.3850035,78.4867258,15.5,276.02,1.442,0.031,2.9,2.4141,-2.0097,276.0173,-0.74321,-0.00392,0.02712,0.66849,0.058,0.0797,-9.883,-0.7076,0.2075,-0.1366,0.1426,3,19,0.69,0.95,0.2,24.542,18.09,91.6,37.1,20157.0,7472,7542,7405,7574,55.2,57.0,50.3,51.5,2.916,2.989,2.73,2.83,7.57,258.0,29.5,39.2,1007.04,-32.63,0.82,1.26,20.8,36.1,32.4,0,no_anomaly,0.0,0,0,0,0,17.3850035,78.4867258,15.5,0.0
2024-03-11T14:34:06.500Z,MISSION_0034,65,0,transit,SITE_HYD_005,17.3850038,78.4867244,16.0,273.85,2.141,0.112,2.75,1.508,-4.1871,273.8505,-0.73024,0.01534,0.03566,0.68209,0.1988,0.0378,-9.8149,0.1034,0.907,-0.4256,0.2861,3,17,0.7,0.98,0.37,24.655,15.84,91.6,37.9,20145.0,7586,7267,7659,7192,55.0,54.3,54.8,55.5,2.778,2.656,2.917,2.744,7.58,263.8,29.4,40.1,1006.94,-33.7,1.95,1.84,26.9,37.8,31.0,0,no_anomaly,0.0,0,0,0,0,17.3850038,78.4867244,16.0,0.0
2024-03-11T14:34:06.600Z,MISSION_0034,66,0,transit,SITE_HYD_005,17.385001,78.4867277,16.5,273.5,1.969,0.16,3.09,-5.6818,-0.8369,273.5037,-0.72723,0.0411,-0.02864,0.68456,-0.0408,-0.0349,-9.8092,-0.2758,0.0782,-0.1161,0.1707,3,10,0.84,0.94,0.38,24.583,18.83,91.5,37.2,20132.0,7323,7237,7362,7465,53.0,55.7,55.0,56.5,2.515,2.69,2.641,3.004,6.94,259.6,29.4,39.6,1007.3,-30.81,-0.15,1.4,24.3,41.5,34.4,0,no_anomaly,0.0,0,0,0,0,17.385001,78.4867277,16.5,0.0
2024-03-11T14:34:06.700Z,MISSION_0034,67,0,transit,SITE_HYD_005,17.3849989,78.4867278,17.0,274.34,1.805,0.047,3.1,-8.454,-4.7227,274.3448,-0.72872,0.08194,-0.01993,0.6796,-0.1287,-0.0223,-9.8767,0.2434,0.8379,-0.3646,0.1871,3,16,0.66,0.97,0.27,24.504,20.69,91.5,39.3,20119.0,7736,7382,7292,7343,56.6,55.8,52.1,53.0,2.789,2.953,2.999,2.977,7.17,257.4,29.7,40.1,1007.65,-24.99,2.02,1.67,25.5,37.9,33.3,0,no_anomaly,0.0,0,0,0,0,17.3849989,78.4867278,17.0,0.0
2024-03-11T14:34:06.800Z,MISSION_0034,68,0,transit,SITE_HYD_005,17.3850041,78.4867234,17.5,276.29,1.916,0.094,2.65,-2.7171,-5.5399,276.2858,-0.74297,0.04988,0.02018,0.66716,-0.1551,0.038,-9.7789,0.0146,-0.2326,-0.614,0.1715,3,15,0.68,0.81,0.23,24.615,20.57,91.4,38.0,20107.0,7465,7429,7365,7443,54.5,54.3,55.2,54.4,2.973,2.947,3.05,2.935,7.24,263.3,29.8,40.7,1007.47,-30.38,-0.9,1.6,21.9,36.5,30.1,0,no_anomaly,0.0,0,0,0,0,17.3850041,78.4867234,17.5,0.0
2024-03-11T14:34:06.900Z,MISSION_0034,69,0,transit,SITE_HYD_005,17.3850056,78.486724,18.0,276.4,2.659,0.086,2.75,5.7474,-2.6254,276.4045,-0.74513,-0.02212,0.05046,0.66463,0.3717,0.0037,-9.7595,0.0118,0.4771,-0.1525,0.2491,3,14,0.59,0.6,0.23,24.519,17.93,91.3,37.8,20094.0,7515,7390,7439,7480,53.4,53.2,51.4,55.2,2.689,2.861,2.551,2.755,6.91,257.0,29.6,40.4,1007.25,-21.16,-0.21,1.43,23.0,39.3,34.0,0,no_anomaly,0.0,0,0,0,0,17.3850056,78.486724,18.0,0.0
2024-03-11T14:34:07.000Z,MISSION_0034,70,0,transit,SITE_HYD_005,17.3850107,78.4867243,18.5,274.73,2.814,0.098,2.95,3.3156,-0.4565,274.7346,-0.73547,-0.01859,0.02252,0.67692,0.3254,0.135,-9.9291,-0.5289,0.2026,0.1896,0.2769,3,13,0.7,0.96,0.2,24.51,22.31,91.3,38.9,20082.0,7206,7678,7377,7669,53.8,53.5,55.1,53.6,2.644,2.859,2.717,2.852,8.04,254.1,29.5,39.6,1007.53,-33.61,-0.72,1.44,24.8,39.3,33.4,0,no_anomaly,0.0,0,0,0,0,17.3850107,78.4867243,18.5,0.0
2024-03-11T14:34:07.100Z,MISSION_0034,71,0,transit,SITE_HYD_005,17.3850132,78.4867241,19.0,276.34,2.906,0.165,3.06,-2.9923,-1.2918,276.3375,-0.74461,0.02697,-0.00902,0.66689,0.2394,0.0101,-9.7313,0.3809,-0.1662,-0.161,0.2221,3,13,0.68,0.92,0.38,24.613,20.28,91.2,37.4,20069.0,7436,7459,7270,7347,53.9,54.4,56.3,55.2,2.908,2.846,2.913,2.663,7.96,265.1,29.2,40.7,1007.45,-30.02,-1.17,1.84,23.1,39.1,32.5,0,no_anomaly,0.0,0,0,0,0,17.3850132,78.4867241,19.0,0.0
2024-03-11T14:34:07.200Z,MISSION_0034,72,0,transit,SITE_HYD_005,17.3850151,78.4867351,19.5,274.84,2.626,0.084,4.25,-0.8741,-2.0964,274.8378,-0.73608,0.01799,0.00831,0.6766,-0.234,0.0059,-9.8388,-0.0406,-0.2206,0.1383,0.2446,3,19,0.76,0.9,0.43,24.59,19.21,91.2,37.0,20057.0,7427,7444,7601,7211,54.4,55.6,54.2,57.3,2.824,2.673,2.789,2.731,7.13,254.1,29.6,40.4,1007.2,-28.96,0.58,1.77,27.2,43.9,31.7,0,no_anomaly,0.0,0,0,0,0,17.3850151,78.4867351,19.5,0.0
2024-03-11T14:34:07.300Z,MISSION_0034,73,0,transit,SITE_HYD_005,17.3850134,78.4867327,20.0,275.15,2.487,0.188,3.94,4.3019,-2.3947,275.1546,-0.73804,-0.01361,0.04073,0.67339,0.4846,-0.0272,-9.8179,0.3611,-0.2975,-0.4337,0.2352,3,12,0.7,0.6,0.25,24.62,19.58,91.1,37.1,20044.0,7502,7235,7273,7497,55.5,51.4,57.0,56.1,2.708,2.72,3.075,2.721,7.97,261.6,29.7,39.1,1007.13,-29.85,-0.15,1.14,25.5,41.5,32.1,0,no_anomaly,0.0,0,0,0,0,17.3850134,78.4867327,20.0,0.0
2024-03-11T14:34:07.400Z,MISSION_0034,74,0,transit,SITE_HYD_005,17.3850118,78.4867353,20.5,270.57,2.292,0.095,4.14,-0.5932,-3.1622,270.574,-0.71026,0.02309,0.01597,0.70338,-0.2015,-0.0347,-9.7146,0.0335,-0.2047,-0.271,0.202,3,17,0.75,0.77,0.38,24.523,25.15,91.1,37.8,20031.0,7201,7189,7451,7310,53.6,59.0,53.4,54.5,2.718,2.678,2.781,2.851,7.95,257.4,29.6,39.8,1007.3,-27.02,0.18,1.44,26.7,42.6,30.3,0,no_anomaly,0.0,0,0,0,0,17.3850118,78.4867353,20.5,0.0
2024-03-11T14:34:07.500Z,MISSION_0034,75,0,transit,SITE_HYD_005,17.385015,78.4867314,21.0,271.18,2.462,0.09,3.87,2.1443,-1.4382,271.1799,-0.71433,-0.00458,0.02206,0.69944,-0.0954,0.0448,-9.8491,1.0133,-0.2388,-0.3182,0.2309,3,11,0.72,0.77,0.25,24.522,14.22,91.0,38.0,20019.0,7123,7387,7244,7353,56.5,55.9,54.7,55.5,2.575,2.863,2.739,2.904,7.08,261.6,29.5,40.4,1007.44,-31.26,-1.2,1.73,21.0,35.0,31.1,0,no_anomaly,0.0,0,0,0,0,17.385015,78.4867314,21.0,0.0
2024-03-11T14:34:07.600Z,MISSION_0034,76,0,transit,SITE_HYD_005,17.3850152,78.4867314,21.5,272.43,2.682,0.076,3.88,-1.023,-0.6815,272.4294,-0.72186,0.01056,-0.00188,0.69196,-0.5509,-0.063,-9.7535,-1.0449,0.0253,0.1115,0.2738,3,18,0.8,0.92,0.27,24.688,17.66,90.9,37.4,20006.0,7410,7343,7484,7218,52.2,53.7,56.0,55.3,2.684,2.983,2.733,2.84,7.26,262.3,29.0,40.8,1007.32,-28.6,-0.17,1.0,27.1,38.1,32.8,0,no_anomaly,0.0,0,0,0,0,17.3850152,78.4867314,21.5,0.0
2024-03-11T14:34:07.700Z,MISSION_0034,77,0,transit,SITE_HYD_005,17.3850159,78.4867262,22.0,273.32,2.735,-0.039,3.41,2.3729,-1.2631,273.3192,-0.72725,-0.0075,0.02222,0.68598,0.2003,-0.0561,-9.8123,0.4001,-0.8022,-0.1682,0.2075,3,13,0.59,1.15,0.2,24.58,22.98,90.9,37.6,19994.0,7565,7138,7415,7765,56.7,52.2,55.9,56.4,2.742,2.509,2.906,2.78,7.47,258.7,29.2,40.2,1007.55,-27.42,-0.19,1.74,19.6,41.5,28.1,0,no_anomaly,0.0,0,0,0,0,17.3850159,78.4867262,22.0,0.0
2024-03-11T14:34:07.800Z,MISSION_0034,78,0,transit,SITE_HYD_005,17.3850143,78.4867265,22.5,274.49,2.791,0.042,3.36,-2.6356,-3.3261,274.4905,-0.73331,0.03658,0.0057,0.67889,0.1282,-0.0251,-9.7811,-0.3148,0.1362,0.1258,0.307,3,12,0.63,0.83,0.28,24.448,20.66,90.8,37.9,19981.0,7173,7535,7371,7487,54.0,55.8,55.0,53.0,3.02,2.88,2.842,2.958,7.8,262.9,29.3,40.1,1007.52,-35.8,-0.41,1.77,25.5,34.7,29.7,0,no_anomaly,0.0,0,0,0,0,17.3850143,78.4867265,22.5,0.0
2024-03-11T14:34:07.900Z,MISSION_0034,79,0,transit,SITE_HYD_005,17.3850174,78.4867225,23.0,274.69,2.849,0.011,3.17,-0.4864,-1.8897,274.6867,-0.73527,0.01429,0.00925,0.67756,0.0968,0.021,-9.894,-0.0221,1.1934,-0.4732,0.3775,3,20,0.8,0.73,0.36,24.52,18.73,90.8,37.6,19968.0,7338,7501,7439,7444,51.6,54.8,54.8,52.5,3.018,2.845,2.82,2.705,7.09,269.0,29.8,40.2,1007.25,-29.75,1.38,1.4,26.2,34.7,30.8,0,no_anomaly,0.0,0,0,0,0,17.3850174,78.4867225,23.0,0.0
2024-03-11T14:34:08.000Z,MISSION_0034,80,0,transit,SITE_HYD_005,17.3850183,78.4867243,23.5,278.31,3.11,0.034,3.39,1.6302,-3.528,278.3137,-0.75635,0.00937,0.03258,0.65328,0.1255,-0.0241,-9.8539,0.5921,0.0327,0.0455,0.2808,3,10,0.66,1.1,0.21,24.6,21.07,90.7,38.4,19956.0,7554,7598,7473,7521,53.3,55.9,56.1,55.1,2.747,2.872,2.981,2.682,7.62,269.3,29.6,39.6,1007.39,-30.35,0.0,1.26,23.2,43.1,32.5,0,no_anomaly,0.0,0,0,0,0,17.3850183,78.4867243,23.5,0.0
2024-03-11T14:34:08.100Z,MISSION_0034,81,0,transit,SITE_HYD_005,17.3850238,78.4867217,24.0,278.32,2.961,0.125,3.59,-0.5278,-1.3667,278.3167,-0.75642,0.01128,0.00601,0.65396,-0.1686,0.0179,-9.8178,-0.1163,-0.8436,-0.0948,0.1998,3,17,0.76,0.99,0.2,24.627,21.61,90.7,37.7,19943.0,7462,7310,7629,7559,51.8,53.4,51.2,55.8,3.188,2.705,2.679,2.72,6.8,275.8,29.5,40.0,1007.18,-30.05,0.51,1.32,24.7,39.9,33.7,0,no_anomaly,0.0,0,0,0,0,17.3850238,78.4867217,24.0,0.0
2024-03-11T14:34:08.200Z,MISSION_0034,82,0,transit,SITE_HYD_005,17.38503,78.486715,24.0,278.19,2.939,0.2,3.73,-1.8052,-1.4193,278.1856,-0.75549,0.02001,-0.00095,0.65485,-0.2147,0.005,-9.9163,0.1476,1.2888,-0.3784,0.1548,3,12,0.74,0.78,0.48,24.593,25.84,90.6,37.5,19931.0,7532,7553,7540,7639,54.2,55.7,50.1,56.3,2.294,2.88,2.626,2.626,6.41,256.0,29.3,41.0,1007.74,-33.62,0.03,1.55,23.6,39.7,33.2,0,no_anomaly,0.0,0,0,0,0,17.38503,78.486715,24.0,0.0
2024-03-11T14:34:08.300Z,MISSION_0034,83,0,transit,SITE_HYD_005,17.38503,78.4867135,24.0,276.89,2.887,0.004,3.67,-1.4877,-1.0406,276.8861,-0.74812,0.01574,-0.00182,0.66337,-0.1851,0.0228,-9.8202,-0.3101,0.145,0.0725,0.1549,3,12,0.74,0.6,0.35,24.572,21.7,90.5,37.2,19918.0,7502,7420,7358,7505,59.6,54.5,54.4,53.7,2.56,2.869,2.874,2.524,8.01,262.1,29.6,40.0,1007.43,-29.58,-2.94,1.0,26.7,34.6,30.3,0,no_anomaly,0.0,0,0,0,0,17.38503,78.4867135,24.0,0.0
2024-03-11T14:34:08.400Z,MISSION_0034,84,0,transit,SITE_HYD_005,17.3850288,78.4867142,24.0,279.92,2.8,0.031,3.58,2.2049,-1.0142,279.9215,-0.76554,-0.00904,0.01915,0.64304,-0.1397,-0.0603,-9.8803,-0.3333,0.1838,-0.0389,0.2983,3,14,0.74,1.04,0.23,24.501,18.77,90.5,38.0,19905.0,7602,7406,7444,7657,55.0,54.1,53.5,54.2,2.899,2.703,2.85,2.965,7.47,255.8,29.2,40.1,1007.62,-29.25,-0.9,1.3,23.9,40.7,32.0,0,no_anomaly,0.0,0,0,0,0,17.3850288,78.4867142,24.0,0.0
2024-03-11T14:34:08.500Z,MISSION_0034,85,0,transit,SITE_HYD_005,17.3850293,78.4867148,24.0,280.29,2.723,0.158,3.66,-0.4806,-0.924,280.2915,-0.76762,0.00839,0.0035,0.64084,0.0568,0.0308,-9.8634,0.5226,0.5945,0.4953,0.2135,3,12,0.66,1.02,0.22,24.557,18.01,90.4,38.2,19893.0,7359,7503,7641,7263,54.8,51.7,51.9,55.2,2.635,2.839,2.811,2.794,7.19,263.0,29.5,39.2,1007.51,-33.37,-1.58,1.03,21.1,35.2,29.8,0,no_anomaly,0.0,0,0,0,0,17.3850293,78.4867148,24.0,0.0
2024-03-11T14:34:08.600Z,MISSION_0034,86,0,transit,SITE_HYD_005,17.3850306,78.4867169,24.0,282.19,2.458,0.073,3.9,-1.6052,-1.5304,282.1868,-0.77791,0.01929,0.00159,0.62808,0.1167,0.0217,-9.8147,0.2704,0.8113,0.0812,0.1946,3,14,0.71,0.87,0.32,24.493,22.65,90.4,37.4,19880.0,7529,7285,7649,7163,51.4,56.2,57.4,56.4,2.82,2.617,2.589,2.684,7.87,267.7,29.6,40.5,1007.38,-28.46,-0.33,2.1,24.7,40.0,30.6,0,no_anomaly,0.0,0,0,0,0,17.3850306,78.4867169,24.0,0.0
2024-03-11T14:34:08.700Z,MISSION_0034,87,1,transit,SITE_HYD_005,17.3850318,78.486717,24.0,283.63,2.198,0.13,4.01,0.9156,-1.0556,283.6348,-0.78603,-0.00059,0.01218,0.61807,0.2885,0.0024,-9.6877,-0.0854,-0.5606,0.1416,0.3063,3,19,0.69,0.82,0.2,24.538,16.15,90.3,38.2,19868.0,7492,7448,7488,7734,53.9,54.5,59.2,56.1,2.872,2.904,2.849,2.856,7.42,260.1,29.8,39.8,1007.23,-30.96,-0.55,1.49,23.0,35.4,28.5,0,no_anomaly,0.0,0,0,0,0,17.3850318,78.486717,24.0,0.0
2024-03-11T14:34:08.800Z,MISSION_0034,88,1,transit,SITE_HYD_005,17.38503,78.486717,24.0,283.36,2.605,0.126,3.84,1.0799,-0.9303,283.3554,-0.78452,-0.00236,0.01221,0.61998,0.4028,-0.0009,-9.8685,-0.6316,-0.7152,0.4256,0.2923,3,16,0.78,1.17,0.39,24.532,18.5,90.3,38.2,19855.0,7647,7584,7572,7301,54.2,49.1,51.8,54.0,2.785,2.833,3.012,2.924,7.26,258.2,29.6,40.3,1007.36,-31.67,-0.44,1.33,26.6,39.0,32.7,0,no_anomaly,0.0,0,0,0,0,17.38503,78.486717,24.0,0.0
2024-03-11T14:34:08.900Z,MISSION_0034,89,1,transit,SITE_HYD_005,17.3850303,78.4867176,24.0,285.48,3.069,0.118,3.9,0.4344,-2.6428,285.4753,-0.79571,0.01095,0.02065,0.60523,0.2918,0.0749,-9.7629,0.728,-0.6693,0.0276,0.3338,3,16,0.57,0.94,0.21,24.561,18.48,90.2,38.3,19843.0,7386,7430,7598,7317,52.9,53.9,54.2,56.0,2.716,2.705,2.453,2.611,7.53,258.1,29.4,39.3,1007.35,-29.17,-2.16,1.38,22.9,37.0,28.6,0,no_anomaly,0.0,0,0,0,0,17.3850303,78.4867176,24.0,0.0
2024-03-11T14:34:09.000Z,MISSION_0034,90,1,transit,SITE_HYD_005,17.3850301,78.4867168,24.0,283.75,3.431,0.087,3.84,2.2443,-1.7168,283.755,-0.78663,-0.00616,0.02387,0.61693,0.235,0.0435,-9.8713,0.4659,-0.1586,0.1142,0.2627,3,12,0.72,0.98,0.27,24.575,18.11,90.1,37.9,19830.0,7373,7199,7434,7419,56.5,56.8,57.2,49.9,2.768,2.908,2.772,2.814,6.76,266.3,29.5,40.6,1007.45,-25.37,1.14,1.95,21.5,39.6,31.1,0,no_anomaly,0.0,0,0,0,0,17.3850301,78.4867168,24.0,0.0
2024-03-11T14:34:09.100Z,MISSION_0034,91,1,transit,SITE_HYD_005,17.3850292,78.4867158,24.0,285.99,2.798,0.175,3.69,1.5729,-1.9461,285.9878,-0.79852,-0.00074,0.02182,0.60157,0.0054,0.0578,-9.7504,0.8386,-0.0291,0.0737,0.1981,3,13,0.67,0.79,0.29,24.554,21.36,90.1,38.2,19817.0,7373,7210,7586,7195,52.2,54.9,54.1,55.5,2.728,2.82,2.561,2.697,8.47,264.4,29.3,39.8,1007.41,-31.1,0.35,1.03,21.8,39.2,31.7,0,no_anomaly,0.0,0,0,0,0,17.3850292,78.4867158,24.0,0.0
2024-03-11T14:34:09.200Z,MISSION_0034,92,1,transit,SITE_HYD_005,17.3850311,78.4867226,24.0,286.91,2.501,0.073,4.28,-0.4372,-2.9562,286.9138,-0.80308,0.01842,0.01845,0.5953,0.1251,-0.0461,-9.9046,0.3165,0.6072,-0.4706,0.2212,3,19,0.86,0.88,0.37,24.503,20.07,90.0,37.1,19805.0,7286,7329,7395,7232,53.9,57.1,56.3,54.4,2.772,2.753,2.847,2.946,7.37,267.3,29.3,40.8,1007.53,-27.76,-1.01,1.56,23.5,36.0,30.8,0,no_anomaly,0.0,0,0,0,0,17.3850311,78.4867226,24.0,0.0
2024-03-11T14:34:09.300Z,MISSION_0034,93,1,transit,SITE_HYD_005,17.385029,78.4867193,24.0,288.14,2.122,0.121,3.88,1.0518,-1.6541,288.1381,-0.80968,0.00104,0.01707,0.58662,0.188,0.088,-9.7746,-0.744,-0.2398,-0.017,0.2842,3,12,0.73,1.07,0.34,24.551,20.07,90.0,37.9,19792.0,7277,7513,7188,7599,53.1,53.2,52.4,53.7,2.992,2.776,2.742,2.956,7.3,269.8,29.2,39.4,1007.3,-34.67,1.2,1.44,23.4,41.3,33.9,0,no_anomaly,0.0,0,0,0,0,17.385029,78.4867193,24.0,0.0
2024-03-11T14:34:09.400Z,MISSION_0034,94,1,transit,SITE_HYD_005,17.3850241,78.4867209,24.0,288.46,1.674,0.067,3.55,-2.0121,-0.7556,288.4628,-0.81117,0.0181,-0.00491,0.5845,0.0126,-0.0719,-9.8205,0.2155,-0.1575,-0.4397,0.2457,3,19,0.72,0.74,0.25,24.465,19.87,89.9,38.0,19780.0,7421,7379,7413,7362,57.0,56.9,55.2,55.0,2.802,3.008,2.548,2.85,7.0,267.9,29.7,40.6,1007.28,-28.1,-0.23,1.99,23.5,40.1,35.0,0,no_anomaly,0.0,0,0,0,0,17.3850241,78.4867209,24.0,0.0
2024-03-11T14:34:09.500Z,MISSION_0034,95,1,transit,SITE_HYD_005,17.3850236,78.4867209,24.0,286.16,1.579,0.088,3.51,5.6624,0.3157,286.161,-0.79842,-0.04114,0.02747,0.60007,0.1002,-0.0023,-9.8558,-0.8278,0.2838,0.0557,0.2207,3,16,0.6,0.84,0.21,24.553,17.25,89.8,38.1,19767.0,7569,7355,7512,7324,55.0,53.0,55.5,55.8,2.956,2.883,2.557,2.791,6.9,258.7,29.4,39.5,1007.71,-28.01,0.51,1.53,23.6,38.3,33.2,0,no_anomaly,0.0,0,0,0,0,17.3850236,78.4867209,24.0,0.0
2024-03-11T14:34:09.600Z,MISSION_0034,96,1,transit,SITE_HYD_005,17.3850262,78.4867195,24.0,288.33,1.8,0.079,3.64,0.711,-1.537,288.3307,-0.81067,0.00282,0.01451,0.58532,0.0779,0.0074,-9.7893,-0.0695,-0.2214,-0.2554,0.1284,3,12,0.79,1.11,0.27,24.555,23.23,89.8,38.0,19754.0,7581,7376,7504,7408,56.4,57.4,55.3,51.6,2.827,2.788,2.502,2.957,7.17,256.5,29.5,39.8,1007.35,-24.88,1.52,1.69,24.3,43.1,32.8,0,no_anomaly,0.0,0,0,0,0,17.3850262,78.4867195,24.0,0.0
2024-03-11T14:34:09.700Z,MISSION_0034,97,1,transit,SITE_HYD_005,17.3850278,78.4867164,24.0,288.45,1.671,0.153,3.59,0.2098,-1.1726,288.451,-0.81129,0.0045,0.00937,0.58455,0.0991,0.063,-9.8705,-1.1926,-0.0285,-0.4022,0.2684,3,18,0.84,1.05,0.28,24.551,22.34,89.7,37.7,19742.0,7490,7351,7436,7585,51.7,53.5,54.4,56.8,2.721,2.848,2.87,2.684,7.05,264.4,29.4,40.5,1007.57,-34.21,-0.3,1.53,22.7,41.8,33.9,0,no_anomaly,0.0,0,0,0,0,17.3850278,78.4867164,24.0,0.0
2024-03-11T14:34:09.800Z,MISSION_0034,98,1,transit,SITE_HYD_005,17.3850254,78.4867126,24.0,288.86,1.953,0.044,3.15,-2.7475,-1.3017,288.8591,-0.81296,0.02611,-0.00471,0.58172,-0.0422,0.01,-9.7454,0.2381,-0.1511,0.1186,0.2372,3,19,0.72,0.85,0.32,24.524,17.15,89.7,37.1,19729.0,7382,7380,7355,7607,54.0,55.6,54.7,54.0,2.95,2.738,2.578,2.594,7.76,262.1,29.7,39.7,1007.35,-32.64,0.73,1.94,21.8,37.4,31.0,0,no_anomaly,0.0,0,0,0,0,17.3850254,78.4867126,24.0,0.0
2024-03-11T14:34:09.900Z,MISSION_0034,99,1,transit,SITE_HYD_005,17.3850221,78.4867142,24.0,288.13,2.17,0.104,2.93,7.1346,-4.4589,288.1295,-0.80892,-0.02756,0.06793,0.58333,-0.1962,-0.0392,-9.7907,-0.2719,-0.4675,-0.0165,0.3708,3,20,0.65,1.04,0.2,24.572,15.63,89.6,37.5,19717.0,7702,7366,7387,7304,47.8,57.6,54.3,54.3,3.257,2.571,2.829,2.913,7.08,261.5,29.7,40.5,1007.52,-29.19,-0.13,1.34,24.3,36.7,35.0,0,no_anomaly,0.0,0,0,0,0,17.3850221,78.4867142,24.0,0.0
2024-03-11T14:34:10.000Z,MISSION_0034,100,1,transit,SITE_HYD_005,17.3850195,78.48671,24.0,288.67,1.886,0.053,2.44,-3.2449,-0.6761,288.6742,-0.81202,0.02644,-0.01172,0.58291,-0.0614,0.0233,-9.7991,0.6584,-0.2319,-0.4016,0.2579,3,16,0.52,1.13,0.29,24.437,23.44,89.6,38.8,19704.0,7521,7149,7378,7327,53.7,55.5,54.6,54.8,2.712,2.959,2.928,2.869,7.37,252.9,29.6,40.2,1007.48,-24.7,1.27,1.28,25.3,38.8,30.6,0,no_anomaly,0.0,0,0,0,0,17.3850195,78.48671,24.0,0.0
2024-03-11T14:34:10.100Z,MISSION_0034,101,1,transit,SITE_HYD_005,17.3850219,78.4867086,24.0,287.2,1.519,0.253,2.61,1.4355,-3.5035,287.2041,-0.8047,0.00806,0.03203,0.59276,-0.3185,-0.04,-9.8274,-0.4857,0.6644,-0.3826,0.322,3,10,0.88,1.02,0.43,24.456,22.97,89.5,38.4,19691.0,7310,7492,7277,7344,54.3,55.3,54.6,56.4,2.686,2.693,3.052,2.832,7.71,259.5,29.4,40.8,1007.49,-26.91,-1.3,1.74,21.5,37.9,34.2,0,no_anomaly,0.0,0,0,0,0,17.3850219,78.4867086,24.0,0.0
2024-03-11T14:34:10.200Z,MISSION_0034,102,1,transit,SITE_HYD_005,17.3850215,78.4867131,24.0,285.41,1.88,0.054,2.8,7.2985,-4.3932,285.4082,-0.7948,-0.02742,0.06897,0.60232,0.1386,-0.0615,-9.786,1.09,-0.2424,0.2825,0.1477,3,10,0.75,1.05,0.42,24.542,22.71,89.4,37.6,19679.0,7600,7555,7144,7447,54.2,53.6,55.7,57.6,2.997,2.818,2.956,2.976,7.45,262.5,29.4,40.7,1007.29,-28.14,-0.34,1.51,27.2,35.6,33.1,0,no_anomaly,0.0,0,0,0,0,17.3850215,78.4867131,24.0,0.0
2024-03-11T14:34:10.300Z,MISSION_0034,103,1,transit,SITE_HYD_005,17.3850184,78.4867106,24.0,285.7,2.194,0.097,2.37,-4.1701,-1.4447,285.6957,-0.79617,0.0366,-0.01193,0.60385,-0.2232,-0.0084,-9.8523,0.4058,1.4229,0.2138,0.2611,3,12,0.67,1.3,0.27,24.503,21.04,89.4,38.3,19666.0,7643,7293,7379,7509,53.5,55.3,57.3,51.6,2.781,2.603,3.083,3.072,7.14,264.2,29.7,40.5,1007.36,-27.97,0.55,1.54,25.3,45.1,31.1,0,no_anomaly,0.0,0,0,0,0,17.3850184,78.4867106,24.0,0.0
2024-03-11T14:34:10.400Z,MISSION_0034,104,1,orbit_base,SITE_HYD_005,17.38492,78.4867017,24.3,287.34,2.564,0.049,8.91,3.3261,-2.6437,287.3363,-0.80544,-0.00971,0.03577,0.59151,-0.0596,-0.0317,-9.8614,0.0931,-0.0274,0.0302,0.2311,3,11,0.82,0.86,0.43,24.519,19.92,89.3,38.7,19654.0,7491,7335,7301,7239,55.4,56.5,54.7,58.6,2.998,2.516,2.803,2.727,7.22,267.3,29.7,40.1,1007.46,-30.68,0.51,1.41,23.2,35.8,32.0,0,no_anomaly,0.0,0,0,0,0,17.38492,78.4867017,24.3,0.0
2024-03-11T14:34:10.500Z,MISSION_0034,105,1,orbit_base,SITE_HYD_005,17.38492,78.4866993,24.6,287.05,2.642,0.054,8.91,-3.8813,-2.5436,287.047,-0.80299,0.04041,-0.00229,0.59461,-0.0671,-0.0075,-9.813,-0.3437,-0.7233,0.0578,0.2585,3,18,0.71,0.86,0.33,24.546,21.31,89.3,37.7,19641.0,7525,7592,7165,7301,56.4,52.9,55.0,53.3,2.698,2.805,2.889,2.718,7.19,257.4,29.4,39.5,1007.36,-23.99,-2.59,1.84,26.4,41.5,31.0,0,no_anomaly,0.0,0,0,0,0,17.38492,78.4866993,24.6,0.0
2024-03-11T14:34:10.600Z,MISSION_0034,106,1,orbit_base,SITE_HYD_005,17.3849201,78.4866969,24.9,285.01,2.582,0.118,8.91,2.2537,-2.5911,285.0143,-0.79334,-0.00184,0.0299,0.60804,-0.2047,0.0878,-9.7909,0.4835,-0.833,-0.141,0.2428,3,18,0.86,0.75,0.41,24.468,21.33,89.2,37.4,19628.0,7351,7661,7490,7317,51.5,51.0,53.6,61.2,2.661,2.947,2.68,2.847,7.19,253.2,29.4,40.2,1006.94,-26.14,-1.84,1.73,22.5,44.5,32.1,0,no_anomaly,0.0,0,0,0,0,17.3849201,78.4866969,24.9,0.0
2024-03-11T14:34:10.700Z,MISSION_0034,107,1,orbit_base,SITE_HYD_005,17.3849202,78.4866945,25.2,287.24,2.529,0.116,8.91,4.0256,-0.9589,287.2376,-0.80474,-0.02332,0.02757,0.59253,-0.3787,-0.068,-9.8409,-0.8407,-0.2242,0.0301,0.2418,3,15,0.62,0.8,0.2,24.569,18.04,89.2,37.7,19616.0,7405,7702,7461,7490,54.4,54.1,54.9,55.7,2.805,3.118,2.923,2.683,6.53,255.5,29.9,40.7,1006.99,-25.55,-0.63,1.66,26.3,44.6,30.9,0,no_anomaly,0.0,0,0,0,0,17.3849202,78.4866945,25.2,0.0
2024-03-11T14:34:10.800Z,MISSION_0034,108,1,orbit_base,SITE_HYD_005,17.3849204,78.4866921,25.5,285.61,2.036,0.106,8.91,1.5702,-2.5119,285.6116,-0.79651,0.00234,0.02574,0.60408,-0.227,0.1039,-9.8235,0.4828,0.9037,-0.3243,0.2185,3,18,0.69,0.86,0.35,24.607,20.54,89.1,37.3,19603.0,7306,7468,7169,7584,55.5,53.8,55.0,56.8,2.906,2.999,2.763,2.962,7.25,249.1,29.6,40.3,1007.39,-32.81,-0.18,1.07,22.4,39.4,31.4,0,no_anomaly,0.0,0,0,0,0,17.3849204,78.4866921,25.5,0.0
2024-03-11T14:34:10.900Z,MISSION_0034,109,1,orbit_base,SITE_HYD_005,17.3849207,78.4866898,25.8,286.52,2.427,0.1,8.91,-1.1384,-2.4908,286.5183,-0.80099,0.02096,0.01148,0.5982,0.0424,-0.0466,-9.7945,1.1459,-0.8036,-0.3558,0.2474,3,16,0.62,0.79,0.33,24.547,20.01,89.0,38.0,19591.0,7384,7288,7263,7345,56.4,53.4,52.7,56.4,2.585,2.561,2.522,2.73,7.62,263.8,29.2,40.6,1007.4,-29.8,0.49,1.31,21.7,35.9,31.6,0,no_anomaly,0.0,0,0,0,0,17.3849207,78.4866898,25.8,0.0
2024-03-11T14:34:11.000Z,MISSION_0034,110,1,orbit_base,SITE_HYD_005,17.384921,78.4866874,26.1,285.23,2.16,0.063,8.91,-3.9433,0.3115,285.227,-0.79414,0.02569,-0.02305,0.60675,-0.3064,0.0003,-9.8606,-0.2319,-0.0381,0.0663,0.3206,3,20,0.72,0.86,0.27,24.46,18.34,89.0,37.9,19578.0,7284,7247,7390,7717,53.4,55.5,56.0,52.5,2.689,2.662,2.465,2.869,7.2,260.9,29.2,40.0,1007.7,-26.55,1.23,1.19,22.6,39.6,29.8,0,no_anomaly,0.0,0,0,0,0,17.384921,78.4866874,26.1,0.0
2024-03-11T14:34:11.100Z,MISSION_0034,111,1,orbit_base,SITE_HYD_005,17.3849214,78.486685,26.4,282.11,1.971,0.062,8.91,2.8378,-0.5832,282.1095,-0.77758,-0.01606,0.01952,0.62828,-0.0234,0.0437,-9.8268,0.0693,-0.2366,0.1984,0.1737,3,12,0.68,0.98,0.23,24.498,21.08,88.9,37.4,19566.0,7668,7455,7336,7575,53.2,52.1,54.8,52.1,3.003,2.967,3.05,2.75,7.16,265.4,30.0,39.7,1007.38,-29.1,-0.9,1.78,27.0,41.0,34.6,0,no_anomaly,0.0,0,0,0,0,17.3849214,78.486685,26.4,0.0
2024-03-11T14:34:11.200Z,MISSION_0034,112,1,orbit_base,SITE_HYD_005,17.3849219,78.4866827,26.7,279.11,2.035,0.131,8.91,5.922,-2.4085,279.1139,-0.76057,-0.02569,0.04948,0.64686,0.3434,0.0019,-9.7741,-0.2826,-0.1632,-0.0639,0.349,3,18,0.73,0.97,0.33,24.499,12.83,88.9,37.9,19553.0,7518,7398,7434,7357,59.5,55.1,53.1,54.4,2.766,2.811,3.061,2.781,6.67,268.5,29.7,39.6,1007.59,-25.93,-0.0,1.45,26.7,44.1,30.5,0,no_anomaly,0.0,0,0,0,0,17.3849219,78.4866827,26.7,0.0
2024-03-11T14:34:11.300Z,MISSION_0034,113,1,orbit_base,SITE_HYD_005,17.3849225,78.4866803,27.0,277.86,1.716,0.06,8.91,1.9008,-2.25,277.8641,-0.7539,0.00039,0.0257,0.65649,-0.2373,0.0377,-9.8571,-0.4961,0.4475,0.5523,0.1994,3,19,0.64,0.86,0.32,24.462,14.65,88.8,38.0,19540.0,7429,7677,7395,7629,54.5,53.7,53.8,53.9,2.757,2.826,2.846,2.812,8.47,257.4,29.5,40.7,1007.84,-28.64,1.73,1.36,22.5,38.1,30.7,0,no_anomaly,0.0,0,0,0,0,17.3849225,78.4866803,27.0,0.0
2024-03-11T14:34:11.400Z,MISSION_0034,114,1,orbit_base,SITE_HYD_005,17.3849231,78.486678,27.3,275.26,1.723,0.046,8.91,-0.3784,-2.8248,275.2621,-0.73854,0.01905,0.01599,0.67375,-0.0137,0.0407,-9.8504,0.0231,0.196,-0.0855,0.2538,3,20,0.63,1.02,0.28,24.461,17.07,88.8,37.4,19528.0,7351,7284,7316,7568,55.3,57.3,55.1,56.0,2.902,2.925,2.709,2.73,6.55,257.4,29.6,39.3,1007.17,-30.98,0.34,1.0,24.2,38.3,34.4,0,no_anomaly,0.0,0,0,0,0,17.3849231,78.486678,27.3,0.0
2024-03-11T14:34:11.500Z,MISSION_0034,115,1,orbit_base,SITE_HYD_005,17.3849238,78.4866757,27.6,276.05,1.848,0.067,8.91,-1.8755,-3.9555,276.0545,-0.74254,0.03524,0.01472,0.66871,-0.2654,0.0599,-9.8288,0.2583,0.3897,0.3622,0.3326,3,11,0.69,0.74,0.37,24.522,13.44,88.7,37.9,19515.0,7339,7417,7589,7517,50.2,55.3,55.1,56.8,2.967,3.045,2.839,2.75,7.12,264.2,29.4,39.7,1007.44,-36.49,-0.03,1.46,23.3,37.7,32.2,0,no_anomaly,0.0,0,0,0,0,17.3849238,78.4866757,27.6,0.0
2024-03-11T14:34:11.600Z,MISSION_0034,116,1,orbit_base,SITE_HYD_005,17.3849245,78.4866734,27.9,275.57,1.646,0.122,8.91,-1.266,-0.0809,275.5678,-0.74057,0.00866,-0.0069,0.67189,-0.2915,0.0671,-9.7832,-0.2718,0.0302,-0.0553,0.2587,3,18,0.53,0.96,0.23,24.417,12.81,88.6,38.3,19503.0,7668,7736,7380,7326,53.8,51.1,50.6,54.1,2.771,2.8,2.871,2.8,7.09,256.8,29.4,39.7,1007.28,-29.15,-0.43,1.83,23.1,42.0,31.3,0,no_anomaly,0.0,0,0,0,0,17.3849245,78.4866734,27.9,0.0
2024-03-11T14:34:11.700Z,MISSION_0034,117,1,orbit_base,SITE_HYD_005,17.3849254,78.4866712,28.2,275.22,1.59,0.1,8.91,-2.1237,-3.3916,275.2247,-0.73778,0.03363,0.00937,0.67414,-0.003,0.0367,-9.7332,1.0097,0.3007,-0.0042,0.3376,3,18,0.89,1.01,0.42,24.483,19.07,88.6,37.8,19490.0,7551,7676,7514,7356,55.0,52.2,53.4,51.8,3.101,2.712,2.867,2.792,5.94,263.8,29.4,39.9,1007.31,-27.76,-1.35,1.39,24.1,39.2,33.6,0,no_anomaly,0.0,0,0,0,0,17.3849254,78.4866712,28.2,0.0
2024-03-11T14:34:11.800Z,MISSION_0034,118,1,orbit_base,SITE_HYD_005,17.3849263,78.486669,28.5,273.93,1.699,0.087,8.91,0.57,-2.8318,273.9342,-0.73081,0.01323,0.02145,0.68211,-0.4598,0.0276,-9.873,-0.2653,0.3464,-0.2415,0.2828,3,15,0.62,0.81,0.2,24.516,18.82,88.5,37.0,19477.0,7297,7483,7170,7683,52.2,55.7,57.8,55.6,2.821,2.975,2.814,2.642,7.49,267.3,29.4,40.4,1007.47,-29.56,-1.48,1.0,25.9,44.8,31.6,0,no_anomaly,0.0,0,0,0,0,17.3849263,78.486669,28.5,0.0
2024-03-11T14:34:11.900Z,MISSION_0034,119,1,orbit_base,SITE_HYD_005,17.3849272,78.4866668,28.8,273.1,1.751,0.121,8.91,2.0426,-1.4282,273.0973,-0.72594,-0.00437,0.0213,0.68741,0.084,-0.0937,-9.8433,-0.6801,-0.3956,0.0823,0.2041,3,18,0.72,0.84,0.24,24.524,23.23,88.5,38.5,19465.0,7569,7643,7342,7413,55.3,54.9,57.2,57.4,2.685,3.074,2.707,2.864,6.72,266.7,29.5,39.6,1007.17,-31.13,0.29,1.63,23.8,44.8,32.0,0,no_anomaly,0.0,0,0,0,0,17.3849272,78.4866668,28.8,0.0
2024-03-11T14:34:12.000Z,MISSION_0034,120,1,orbit_base,SITE_HYD_005,17.3849283,78.4866646,29.1,272.99,1.395,0.035,8.91,-0.7999,-3.7365,272.9931,-0.72477,0.0275,0.01884,0.68818,-0.2606,-0.0944,-9.7489,0.6435,-1.1165,0.5592,0.1608,3,10,0.5,0.73,0.23,24.445,19.53,88.4,37.2,19452.0,7688,7453,7537,7479,55.3,53.5,54.3,55.2,2.424,3.068,2.568,2.908,6.95,259.0,29.4,39.8,1007.51,-31.31,0.05,1.32,26.0,39.6,35.0,0,no_anomaly,0.0,0,0,0,0,17.3849283,78.4866646,29.1,0.0
2024-03-11T14:34:12.100Z,MISSION_0034,121,1,orbit_base,SITE_HYD_005,17.3849294,78.4866625,29.4,272.83,1.34,0.062,8.91,-3.2042,-4.4778,272.8299,-0.72276,0.04716,0.00903,0.68943,-0.0933,0.012,-9.7818,-0.3082,-0.0735,-0.3671,0.2239,3,17,0.69,0.73,0.39,24.467,18.6,88.4,38.7,19440.0,7476,7552,7409,7462,56.0,54.1,55.3,53.1,2.698,2.931,2.877,2.812,7.26,254.1,29.4,40.4,1007.08,-27.72,0.05,1.61,23.3,41.1,31.0,0,no_anomaly,0.0,0,0,0,0,17.3849294,78.4866625,29.4,0.0
2024-03-11T14:34:12.200Z,MISSION_0034,122,1,orbit_base,SITE_HYD_005,17.3849305,78.4866604,29.7,275.71,1.286,0.19,8.91,5.397,-4.0156,275.7053,-0.74125,-0.0114,0.05752,0.66866,-0.0703,0.0455,-9.7135,-0.8371,1.0238,-0.1204,0.3192,3,18,0.74,0.74,0.23,24.472,13.93,88.3,36.8,19427.0,7377,7376,7414,7342,53.6,54.1,50.4,54.3,2.896,2.764,2.369,3.136,8.16,261.9,29.0,40.1,1007.35,-31.33,-0.82,1.38,22.7,35.8,33.2,0,no_anomaly,0.0,0,0,0,0,17.3849305,78.4866604,29.7,0.0
2024-03-11T14:34:12.300Z,MISSION_0034,123,1,orbit_base,SITE_HYD_005,17.3849317,78.4866583,30.0,274.55,1.516,0.109,8.91,-6.21,-2.4596,274.5475,-0.73257,0.05432,-0.021,0.6782,0.0012,-0.0484,-9.7485,-0.2241,-1.0066,0.0097,0.1943,3,18,0.82,0.78,0.28,24.445,16.14,88.2,38.4,19414.0,7636,7237,7292,7523,53.0,54.6,54.0,56.4,2.663,2.703,2.699,2.898,7.96,256.0,29.4,40.0,1007.36,-30.16,-0.86,1.37,22.9,41.3,31.3,0,no_anomaly,0.0,0,0,0,0,17.3849317,78.4866583,30.0,0.0
2024-03-11T14:34:12.400Z,MISSION_0034,124,1,orbit_base,SITE_HYD_005,17.384933,78.4866563,30.3,275.52,1.658,0.068,8.91,0.4585,0.0438,275.5228,-0.74034,-0.00322,0.00241,0.67222,0.3778,0.0418,-9.7466,0.4365,0.8501,-0.0948,0.191,3,16,0.65,1.08,0.2,24.532,18.05,88.2,38.6,19402.0,7623,7627,7479,7567,54.1,54.1,56.0,55.8,2.952,2.751,2.558,3.114,6.65,260.9,29.5,40.0,1007.41,-26.88,0.06,1.79,23.9,37.8,34.9,0,no_anomaly,0.0,0,0,0,0,17.384933,78.4866563,30.3,0.0
2024-03-11T14:34:12.500Z,MISSION_0034,125,1,orbit_base,SITE_HYD_005,17.3849344,78.4866543,30.6,276.09,1.744,0.142,8.91,2.7575,-0.0886,276.0896,-0.74346,-0.01738,0.01666,0.66834,0.0276,-0.0034,-9.7686,-0.1174,0.8324,-0.2278,0.2525,3,20,0.56,1.05,0.22,24.46,20.28,88.1,38.2,19389.0,7425,7734,7576,7454,58.0,57.7,54.1,54.2,2.899,2.584,2.788,2.814,7.76,264.6,29.7,40.9,1007.41,-33.41,2.16,1.58,25.4,36.6,32.7,0,no_anomaly,0.0,0,0,0,0,17.3849344,78.4866543,30.6,0.0
2024-03-11T14:34:12.600Z,MISSION_0034,126,1,orbit_base,SITE_HYD_005,17.3849358,78.4866523,30.9,278.34,1.572,0.123,8.91,-1.7891,0.641,278.3359,-0.75658,0.00816,-0.01444,0.65369,0.0653,-0.0143,-9.7735,-0.688,-0.5203,0.5594,0.2802,3,16,0.77,1.06,0.29,24.408,16.47,88.1,37.3,19377.0,7649,7699,7447,7588,55.5,55.0,54.2,55.5,2.587,2.945,2.823,2.63,6.9,266.3,29.4,40.2,1007.41,-38.29,-1.63,1.37,26.4,39.6,30.1,0,no_anomaly,0.0,0,0,0,0,17.3849358,78.4866523,30.9,0.0
2024-03-11T14:34:12.700Z,MISSION_0034,127,1,orbit_base,SITE_HYD_005,17.3849372,78.4866504,31.2,276.55,1.505,0.007,8.91,0.6188,-1.265,276.5549,-0.74636,0.00332,0.01183,0.66543,0.3012,0.108,-9.7584,-0.0639,0.6095,-0.1341,0.2819,3,15,0.61,0.77,0.28,24.452,20.03,88.0,38.4,19364.0,7538,7554,7403,7575,54.2,55.8,56.2,55.3,2.697,2.981,2.87,2.871,7.01,255.8,29.7,40.2,1007.59,-32.68,-1.06,1.56,23.3,42.6,31.4,0,no_anomaly,0.0,0,0,0,0,17.3849372,78.4866504,31.2,0.0
2024-03-11T14:34:12.800Z,MISSION_0034,128,1,orbit_base,SITE_HYD_005,17.3849387,78.4866486,31.5,274.77,1.338,0.133,8.91,-1.4051,-2.9671,274.7743,-0.73543,0.02655,0.01075,0.677,0.0884,0.0246,-9.8781,0.32,-0.471,0.0712,0.2572,3,14,0.74,0.73,0.3,24.492,16.32,88.0,37.2,19352.0,7504,7548,7449,7508,56.8,52.4,52.5,58.3,2.751,2.945,3.146,2.935,8.19,256.8,29.6,39.9,1007.18,-29.11,1.56,1.0,22.9,35.6,34.0,0,no_anomaly,0.0,0,0,0,0,17.3849387,78.4866486,31.5,0.0
2024-03-11T14:34:12.900Z,MISSION_0034,129,1,orbit_base,SITE_HYD_005,17.3849403,78.4866467,31.8,275.03,1.743,0.165,8.91,0.052,-3.3039,275.0287,-0.73715,0.01914,0.02157,0.67512,0.2047,0.0912,-9.8271,0.5154,-0.4328,-0.0499,0.3199,3,20,0.68,0.98,0.27,24.424,16.36,87.9,37.9,19339.0,7788,7375,7399,7373,57.9,56.6,53.8,56.5,3.162,2.765,2.889,2.806,6.85,262.2,29.3,39.2,1007.38,-30.97,-1.39,1.33,27.2,43.8,29.7,0,no_anomaly,0.0,0,0,0,0,17.3849403,78.4866467,31.8,0.0
