timestamp_utc,mission_id,frame_id,waypoint_id,inspection_phase,site_id,latitude_deg,longitude_deg,altitude_m,heading_deg,ground_speed_ms,vertical_speed_ms,distance_to_tower_m,roll_deg,pitch_deg,yaw_deg,quat_w,quat_x,quat_y,quat_z,accel_x_ms2,accel_y_ms2,accel_z_ms2,gyro_x_rads,gyro_y_rads,gyro_z_rads,vibration_level,gps_fix_type,gps_satellite_count,gps_hdop,gps_vdop,position_error_m,battery_voltage_v,battery_current_a,battery_remaining_pct,battery_temp_c,battery_capacity_mah,motor_fl_rpm,motor_fr_rpm,motor_rl_rpm,motor_rr_rpm,motor_fl_temp_c,motor_fr_temp_c,motor_rl_temp_c,motor_rr_temp_c,motor_fl_thrust_n,motor_fr_thrust_n,motor_rl_thrust_n,motor_rr_thrust_n,wind_speed_ms,wind_dir_deg,air_temp_c,humidity_pct,pressure_hpa,gimbal_pitch_deg,gimbal_roll_deg,zoom_factor,ir_temp_min_c,ir_temp_max_c,ir_temp_avg_c,anomaly_detected,anomaly_class,anomaly_confidence,anomaly_bbox_x,anomaly_bbox_y,anomaly_bbox_w,anomaly_bbox_h,anomaly_gps_lat,anomaly_gps_lon,anomaly_gps_alt_m,ir_temp_delta_c
2024-03-08T15:53:00.000Z,MISSION_0068,0,0,takeoff,SITE_JAI_009,26.9124011,75.7872987,1.5,213.1,0.0,0.107,0.19,-1.4023,-2.0121,213.0954,-0.28454,0.02031,-0.00673,0.95842,0.0232,0.0628,-9.7971,0.0001,-0.0418,0.2606,0.2612,3,20,0.67,1.21,0.21,24.69,18.13,95.3,39.2,20957.0,7469,7577,7398,7455,57.5,57.6,59.1,58.6,2.747,2.654,2.915,2.866,2.71,276.8,31.2,73.7,1012.6,-29.74,0.34,1.37,25.2,44.3,32.8,0,no_anomaly,0.0,0,0,0,0,26.9124011,75.7872987,1.5,0.0
2024-03-08T15:53:00.100Z,MISSION_0068,1,0,takeoff,SITE_JAI_009,26.9124067,75.7873004,3.0,213.89,0.0,0.17,0.75,7.2388,-1.2858,213.8905,-0.29154,-0.00769,0.06365,0.95441,0.0457,0.0998,-9.8136,0.1446,0.3556,0.5303,0.2275,3,19,0.62,0.75,0.2,24.711,21.13,95.2,39.0,20936.0,7615,7488,7262,7581,54.7,54.6,53.2,53.9,2.729,2.793,2.94,2.577,2.46,287.1,31.3,74.5,1012.76,-27.15,-0.48,1.08,27.0,41.1,35.2,0,no_anomaly,0.0,0,0,0,0,26.9124067,75.7873004,3.0,0.0
2024-03-08T15:53:00.200Z,MISSION_0068,2,0,takeoff,SITE_JAI_009,26.9124014,75.7872998,4.5,211.78,0.0,0.035,0.16,1.0802,-2.4717,211.7802,-0.27391,0.01816,0.01497,0.96147,-0.0339,0.1171,-9.7686,-0.4732,-0.212,0.0396,0.1681,3,15,0.58,0.86,0.28,24.551,18.87,95.1,40.0,20915.0,7709,7876,7974,7677,55.8,60.4,53.6,55.8,2.693,2.709,2.786,2.85,3.28,286.9,31.5,74.5,1012.95,-32.51,1.3,1.39,29.0,44.8,38.0,0,no_anomaly,0.0,0,0,0,0,26.9124014,75.7872998,4.5,0.0
2024-03-08T15:53:00.300Z,MISSION_0068,3,0,takeoff,SITE_JAI_009,26.9124047,75.7873009,5.0,210.48,0.0,0.095,0.53,-5.5781,-2.0343,210.4759,-0.26164,0.02989,-0.04228,0.96377,0.0164,0.0268,-9.7913,0.2743,-0.4118,0.252,0.2273,3,16,0.64,0.97,0.2,24.66,16.55,95.0,38.4,20894.0,7667,7770,7530,7461,52.7,55.7,56.8,57.4,2.847,2.765,2.477,2.723,2.33,284.1,31.2,74.6,1012.88,-30.75,-1.52,1.5,27.2,41.6,31.7,0,no_anomaly,0.0,0,0,0,0,26.9124047,75.7873009,5.0,0.0
2024-03-08T15:53:00.400Z,MISSION_0068,4,0,takeoff,SITE_JAI_009,26.9124049,75.7873041,5.0,212.65,0.0,0.025,0.71,-3.1209,-3.0294,212.6465,-0.28016,0.03301,-0.0187,0.9592,-0.0368,-0.0433,-9.7576,0.1058,-0.073,0.7003,0.1829,3,11,0.69,0.87,0.32,24.727,18.4,94.9,38.7,20873.0,7484,7661,7584,7788,53.3,52.7,54.0,56.5,2.681,2.584,2.64,2.692,1.95,277.7,31.2,74.9,1012.91,-28.67,0.42,1.64,25.5,38.1,34.4,0,no_anomaly,0.0,0,0,0,0,26.9124049,75.7873041,5.0,0.0
2024-03-08T15:53:00.500Z,MISSION_0068,5,0,takeoff,SITE_JAI_009,26.9124026,75.7873062,5.0,214.81,0.0,0.148,0.75,1.8119,-1.16,214.8088,-0.29921,0.00493,0.01811,0.954,-0.1246,0.0026,-9.866,0.0922,-0.0603,0.3733,0.0077,3,20,0.84,0.99,0.48,24.735,18.22,94.8,39.2,20852.0,7896,7745,7424,7822,53.4,59.0,56.9,58.2,2.85,2.575,2.92,2.722,2.71,291.5,31.0,75.2,1012.94,-21.47,-0.73,2.14,24.9,38.9,34.5,0,no_anomaly,0.0,0,0,0,0,26.9124026,75.7873062,5.0,0.0
2024-03-08T15:53:00.600Z,MISSION_0068,6,0,takeoff,SITE_JAI_009,26.9123991,75.7873051,5.0,215.96,0.143,0.038,0.58,-2.1918,-2.0296,215.9644,-0.30829,0.02275,-0.01272,0.95093,-0.1398,-0.0184,-9.779,-0.735,0.3314,-0.0434,0.1244,3,14,0.88,0.9,0.39,24.667,13.29,94.7,38.9,20830.0,7553,7681,7955,7637,52.6,55.2,57.0,56.9,2.729,2.856,2.751,2.74,2.22,283.2,30.9,74.9,1012.96,-30.2,1.56,1.33,26.0,39.1,33.7,0,no_anomaly,0.0,0,0,0,0,26.9123991,75.7873051,5.0,0.0
2024-03-08T15:53:00.700Z,MISSION_0068,7,0,takeoff,SITE_JAI_009,26.9124078,75.7873049,5.0,214.66,0.313,0.106,1.02,2.8728,-0.8759,214.6636,-0.29799,-0.00017,0.0262,0.95421,0.043,-0.0315,-9.7655,0.0949,0.4443,-0.0578,0.1499,3,10,0.58,0.98,0.29,24.609,13.49,94.6,39.3,20809.0,7839,7577,7683,7485,57.7,59.0,55.4,52.3,2.796,2.616,2.427,2.915,2.46,278.2,31.2,74.7,1012.95,-30.89,0.05,1.12,26.4,43.7,34.0,0,no_anomaly,0.0,0,0,0,0,26.9124078,75.7873049,5.0,0.0
2024-03-08T15:53:00.800Z,MISSION_0068,8,0,takeoff,SITE_JAI_009,26.9124108,75.7872977,5.0,212.07,1.099,0.102,1.23,1.299,-3.4346,212.0664,-0.27638,0.02567,0.01917,0.96051,-0.0441,-0.0086,-9.858,-1.1308,-0.1683,-0.1237,0.1866,3,19,0.5,1.04,0.2,24.591,19.54,94.5,39.1,20788.0,7635,7976,7520,7749,57.3,53.6,56.2,53.4,2.598,3.017,2.788,2.753,3.09,287.8,31.4,74.5,1013.11,-26.85,0.93,1.7,23.9,36.0,34.9,0,no_anomaly,0.0,0,0,0,0,26.9124108,75.7872977,5.0,0.0
2024-03-08T15:53:00.900Z,MISSION_0068,9,0,takeoff,SITE_JAI_009,26.9124122,75.7873025,5.0,211.34,1.073,0.119,1.38,1.0883,-5.658,211.3387,-0.2702,0.04496,0.02246,0.96149,0.0384,0.0836,-9.8609,-0.2306,-0.0105,-0.2574,0.1208,3,18,0.69,0.66,0.3,24.601,16.54,94.4,38.9,20767.0,7608,7699,7622,7432,56.6,56.8,55.0,54.7,2.909,2.939,3.093,2.902,2.84,278.5,31.3,74.2,1013.08,-37.1,-0.9,1.97,25.9,42.0,32.6,0,no_anomaly,0.0,0,0,0,0,26.9124122,75.7873025,5.0,0.0
2024-03-08T15:53:01.000Z,MISSION_0068,10,0,takeoff,SITE_JAI_009,26.9124105,75.7873031,5.0,210.67,1.067,0.084,1.22,2.2118,-2.1551,210.6714,-0.26473,0.01303,0.02358,0.96395,0.0428,-0.0434,-9.8024,0.2515,-0.3617,-0.7196,0.2808,3,16,0.7,0.93,0.32,24.639,20.76,94.3,39.4,20746.0,7339,7429,7526,7681,54.8,54.1,57.6,56.5,2.536,2.804,2.961,2.925,3.53,289.4,31.5,75.4,1012.8,-31.84,-1.32,1.9,27.9,36.9,33.5,0,no_anomaly,0.0,0,0,0,0,26.9124105,75.7873031,5.0,0.0
2024-03-08T15:53:01.100Z,MISSION_0068,11,0,takeoff,SITE_JAI_009,26.9124098,75.7873012,5.0,209.69,1.213,0.089,1.1,3.043,-0.7484,209.6893,-0.25627,-0.00049,0.02734,0.96622,-0.0443,-0.0307,-9.8712,-0.3699,-0.2991,-0.4028,0.1062,3,11,0.77,0.98,0.3,24.709,22.28,94.2,39.2,20725.0,7461,7580,7682,7252,54.4,52.2,54.2,55.1,2.729,2.767,2.747,2.575,1.98,287.7,31.1,74.9,1012.52,-30.87,-1.58,1.66,25.0,39.4,32.1,0,no_anomaly,0.0,0,0,0,0,26.9124098,75.7873012,5.0,0.0
2024-03-08T15:53:01.200Z,MISSION_0068,12,0,takeoff,SITE_JAI_009,26.9124071,75.7873009,5.0,208.43,0.742,0.139,0.79,-0.4477,-0.8075,208.4335,-0.24556,0.00779,-0.00206,0.96935,-0.1441,-0.0036,-9.8302,0.1404,-0.601,0.2806,0.1967,3,13,0.68,0.75,0.36,24.653,15.51,94.1,39.5,20703.0,7738,7636,7933,7503,59.8,58.9,55.0,57.6,2.85,2.947,2.882,2.759,3.49,298.9,31.1,74.4,1012.77,-26.58,-1.1,1.86,28.1,40.4,31.4,0,no_anomaly,0.0,0,0,0,0,26.9124071,75.7873009,5.0,0.0
2024-03-08T15:53:01.300Z,MISSION_0068,13,0,takeoff,SITE_JAI_009,26.9124157,75.7872992,5.0,208.87,1.091,0.147,1.75,3.489,1.6134,208.8693,-0.24872,-0.02122,0.02597,0.96799,-0.1459,-0.0444,-9.781,0.2102,0.1604,-0.0527,0.1461,3,20,0.8,1.02,0.34,24.599,17.77,94.0,39.3,20682.0,7568,7600,7530,7497,55.1,55.9,55.1,56.6,2.903,2.867,2.646,3.03,2.6,284.3,31.0,73.6,1012.71,-29.58,-1.57,1.91,26.7,44.1,35.6,0,no_anomaly,0.0,0,0,0,0,26.9124157,75.7872992,5.0,0.0
2024-03-08T15:53:01.400Z,MISSION_0068,14,0,takeoff,SITE_JAI_009,26.9124163,75.7872937,5.0,210.8,1.176,0.13,1.95,-1.4997,-0.9274,210.7988,-0.26541,0.01128,-0.01047,0.96401,0.1771,0.0144,-9.8343,-0.6283,0.1608,-0.0591,0.1582,3,11,0.72,0.63,0.39,24.6,22.05,93.9,40.2,20661.0,7775,7666,7812,7509,54.7,56.7,55.8,55.3,3.104,2.743,2.701,2.846,2.1,284.8,31.2,74.5,1012.72,-28.69,-0.21,1.47,25.7,37.3,29.6,0,no_anomaly,0.0,0,0,0,0,26.9124163,75.7872937,5.0,0.0
2024-03-08T15:53:01.500Z,MISSION_0068,15,0,takeoff,SITE_JAI_009,26.9124147,75.7872965,5.0,206.92,1.439,0.097,1.69,0.8095,-2.0975,206.9172,-0.23282,0.01616,0.01113,0.97232,0.1394,-0.028,-9.8343,-0.3191,-0.5258,0.1555,0.1697,3,17,0.74,1.05,0.2,24.69,14.33,93.8,38.5,20640.0,7634,7621,7675,7926,60.1,55.7,55.7,53.0,2.669,2.752,2.824,2.933,2.71,284.2,31.0,74.8,1012.69,-32.9,0.29,1.44,22.2,38.5,33.1,0,no_anomaly,0.0,0,0,0,0,26.9124147,75.7872965,5.0,0.0
2024-03-08T15:53:01.600Z,MISSION_0068,16,0,takeoff,SITE_JAI_009,26.9124166,75.7872921,5.0,206.33,1.503,0.198,2.05,5.092,-0.5268,206.3257,-0.22769,-0.00564,0.0443,0.97271,0.0088,0.0192,-9.8156,0.7125,0.7164,0.3993,0.0721,3,20,0.7,0.8,0.31,24.608,20.66,93.7,39.5,20619.0,7831,7657,7828,7542,58.8,54.3,55.1,58.2,2.797,2.712,2.689,2.698,2.82,279.4,31.0,75.0,1013.01,-32.92,0.29,2.05,24.0,41.2,33.7,0,no_anomaly,0.0,0,0,0,0,26.9124166,75.7872921,5.0,0.0
2024-03-08T15:53:01.700Z,MISSION_0068,17,0,takeoff,SITE_JAI_009,26.9124142,75.7872905,5.0,203.81,1.64,0.076,1.9,1.0695,-1.9529,203.8091,-0.2064,0.01475,0.01265,0.97828,0.1191,-0.0341,-9.8251,-0.1676,-0.2988,0.6163,0.1311,3,19,0.76,1.08,0.23,24.536,13.1,93.6,38.8,20598.0,7384,7529,7660,7598,57.2,54.7,56.6,58.5,2.723,2.834,3.079,2.67,2.87,281.3,31.3,74.9,1012.61,-30.13,-0.19,1.71,27.1,35.9,34.8,0,no_anomaly,0.0,0,0,0,0,26.9124142,75.7872905,5.0,0.0
2024-03-08T15:53:01.800Z,MISSION_0068,18,0,takeoff,SITE_JAI_009,26.9124102,75.7872907,5.0,202.8,1.323,0.185,1.54,-1.3908,0.5032,202.7973,-0.19767,-0.00191,-0.01277,0.98018,-0.0064,0.0106,-9.9469,0.3613,-0.6439,-0.2543,0.1956,3,12,0.64,0.6,0.2,24.784,26.83,93.5,39.8,20577.0,7647,7822,7621,7755,56.5,56.5,53.1,54.6,2.709,2.912,2.678,2.694,2.02,283.0,31.3,74.4,1012.85,-29.66,0.02,1.35,30.5,44.6,34.4,0,no_anomaly,0.0,0,0,0,0,26.9124102,75.7872907,5.0,0.0
2024-03-08T15:53:01.900Z,MISSION_0068,19,0,takeoff,SITE_JAI_009,26.9124143,75.7872917,5.0,202.96,1.33,0.094,1.84,-3.1211,-2.7025,202.9641,-0.1983,0.02852,-0.02199,0.97948,-0.2306,-0.0538,-9.7806,0.0715,0.3666,0.5055,0.1613,3,17,0.84,0.9,0.39,24.611,20.07,93.4,39.8,20555.0,7712,7682,7698,7655,56.5,58.4,55.7,55.7,2.672,2.895,2.95,2.694,2.02,279.8,31.2,74.3,1012.43,-32.43,-1.62,1.5,27.4,38.5,36.6,0,no_anomaly,0.0,0,0,0,0,26.9124143,75.7872917,5.0,0.0
2024-03-08T15:53:02.000Z,MISSION_0068,20,0,takeoff,SITE_JAI_009,26.9124154,75.7872946,5.0,202.73,1.611,0.102,1.81,-0.4532,-3.3892,202.7302,-0.19686,0.02977,0.00195,0.97998,-0.123,0.045,-9.7758,-0.428,-0.1849,-0.5802,0.2058,3,12,0.72,0.91,0.32,24.512,19.17,93.3,38.6,20534.0,7685,7477,7660,7626,56.2,55.0,57.9,54.4,2.88,2.816,2.963,2.966,2.12,279.4,31.0,74.6,1012.82,-30.83,-0.45,1.67,26.8,44.1,33.5,0,no_anomaly,0.0,0,0,0,0,26.9124154,75.7872946,5.0,0.0
2024-03-08T15:53:02.100Z,MISSION_0068,21,0,takeoff,SITE_JAI_009,26.9124079,75.7872965,5.0,202.42,1.485,0.102,0.97,-0.3623,-1.0115,202.4237,-0.1944,0.00927,-0.00138,0.98088,0.0222,-0.0308,-9.825,0.2156,0.1551,0.2517,0.191,3,13,0.62,0.92,0.2,24.663,21.55,93.2,39.5,20513.0,7546,7383,7851,7546,57.2,50.7,55.3,56.3,2.738,2.823,2.929,2.904,2.18,281.8,31.3,74.5,1013.14,-30.35,-0.62,2.27,24.7,39.6,30.2,0,no_anomaly,0.0,0,0,0,0,26.9124079,75.7872965,5.0,0.0
2024-03-08T15:53:02.200Z,MISSION_0068,22,0,takeoff,SITE_JAI_009,26.9124076,75.7872953,5.0,201.23,1.659,0.063,0.99,1.4684,0.4553,201.2343,-0.18418,-0.00627,0.01186,0.9828,0.2147,0.0428,-9.8386,-0.1469,-1.6202,-0.3213,0.1597,3,20,0.8,1.16,0.27,24.633,12.6,93.1,39.0,20492.0,8105,7854,7764,7725,56.1,58.6,56.6,54.5,3.034,2.72,2.691,2.805,3.05,275.4,31.0,74.5,1012.71,-35.7,1.58,1.79,24.2,36.7,34.5,0,no_anomaly,0.0,0,0,0,0,26.9124076,75.7872953,5.0,0.0
2024-03-08T15:53:02.300Z,MISSION_0068,23,0,takeoff,SITE_JAI_009,26.9124095,75.7872972,5.0,201.3,1.664,0.076,1.1,-0.8947,-1.9421,201.2998,-0.18464,0.0181,-0.00454,0.98263,0.1525,-0.0146,-9.9037,0.4321,0.7417,0.2584,0.1992,3,11,0.79,0.98,0.38,24.528,15.39,93.0,40.4,20471.0,7811,7586,7448,7954,54.7,58.6,55.7,57.5,2.924,2.946,2.671,2.725,3.1,285.2,31.1,75.1,1013.04,-30.3,-2.37,2.02,27.1,40.9,33.5,0,no_anomaly,0.0,0,0,0,0,26.9124095,75.7872972,5.0,0.0
2024-03-08T15:53:02.400Z,MISSION_0068,24,0,takeoff,SITE_JAI_009,26.9124114,75.7872926,5.0,201.93,1.832,0.112,1.51,-0.5418,0.1126,201.9291,-0.1902,-7e-05,-0.00483,0.98173,0.1849,0.0188,-9.7654,-0.8051,0.34,-0.4997,0.2018,3,16,0.82,0.63,0.25,24.632,19.54,93.0,39.2,20450.0,7655,7575,7529,7463,55.3,58.0,55.3,54.8,2.773,2.809,2.665,2.594,2.27,285.4,31.2,74.7,1013.05,-29.4,-0.52,1.75,26.9,41.9,33.6,0,no_anomaly,0.0,0,0,0,0,26.9124114,75.7872926,5.0,0.0
2024-03-08T15:53:02.500Z,MISSION_0068,25,0,takeoff,SITE_JAI_009,26.9124141,75.7872867,5.0,202.13,1.81,0.15,2.16,-0.5914,-1.7074,202.1332,-0.19185,0.01561,-0.0022,0.9813,0.0181,0.0248,-9.8624,-0.0782,0.8738,0.131,0.2273,3,20,0.5,0.76,0.2,24.604,17.99,92.9,39.0,20429.0,7773,7721,7576,7573,55.9,52.4,57.3,58.9,2.794,2.604,2.881,3.035,3.05,290.6,31.2,73.8,1012.48,-29.08,0.44,1.24,24.1,37.2,31.3,0,no_anomaly,0.0,0,0,0,0,26.9124141,75.7872867,5.0,0.0
2024-03-08T15:53:02.600Z,MISSION_0068,26,0,takeoff,SITE_JAI_009,26.9124104,75.787286,5.0,202.75,1.59,0.16,1.94,0.7244,-4.162,202.7534,-0.19735,0.03435,0.01336,0.97964,-0.0104,0.0029,-9.8452,0.3389,-0.4812,-0.0186,0.085,3,18,0.5,1.05,0.2,24.582,22.32,92.8,40.1,20407.0,7608,7531,7631,7446,54.6,57.8,58.6,58.2,3.045,2.807,2.904,2.506,2.7,286.2,30.9,74.9,1012.69,-28.75,-1.49,1.69,23.4,40.3,33.8,0,no_anomaly,0.0,0,0,0,0,26.9124104,75.787286,5.0,0.0
2024-03-08T15:53:02.700Z,MISSION_0068,27,0,takeoff,SITE_JAI_009,26.9124141,75.7872855,5.0,204.76,1.895,0.2,2.25,3.1501,-2.4968,204.7641,-0.21488,0.01538,0.03151,0.97601,-0.0267,-0.0094,-9.8019,0.0944,-0.4579,-0.0352,0.2305,3,15,0.88,0.94,0.31,24.559,23.99,92.7,39.7,20386.0,7449,7340,7403,7668,57.5,57.7,55.9,56.3,2.781,2.596,2.737,2.925,3.07,283.8,31.0,75.7,1012.75,-31.61,0.94,1.42,29.5,45.4,33.7,0,no_anomaly,0.0,0,0,0,0,26.9124141,75.7872855,5.0,0.0
2024-03-08T15:53:02.800Z,MISSION_0068,28,0,takeoff,SITE_JAI_009,26.912414,75.7872822,5.0,204.92,2.263,0.117,2.52,2.2389,-0.6907,204.9214,-0.21584,0.00167,0.02038,0.97621,0.0976,-0.0354,-9.7998,-0.2145,0.596,-0.9181,0.1612,3,14,0.69,0.93,0.33,24.566,19.57,92.6,39.2,20365.0,7825,7631,7861,7481,56.2,55.5,54.5,51.0,2.715,2.768,2.856,2.668,2.63,286.1,31.4,73.8,1012.61,-33.94,-1.94,1.6,26.4,38.8,34.7,0,no_anomaly,0.0,0,0,0,0,26.912414,75.7872822,5.0,0.0
2024-03-08T15:53:02.900Z,MISSION_0068,29,0,takeoff,SITE_JAI_009,26.9124135,75.7872817,5.0,204.29,2.167,0.036,2.53,-0.0514,-4.0063,204.2916,-0.21026,0.03427,0.00692,0.97702,0.1501,-0.0195,-9.6935,-0.0569,-0.2424,-0.3174,0.1394,3,17,0.6,0.91,0.31,24.543,15.64,92.5,40.0,20344.0,7624,7485,7529,7677,54.9,58.1,57.5,57.0,2.603,2.733,2.797,3.115,3.02,280.1,31.0,74.8,1013.15,-30.31,-1.18,1.56,29.1,39.6,35.2,0,no_anomaly,0.0,0,0,0,0,26.9124135,75.7872817,5.0,0.0
2024-03-08T15:53:03.000Z,MISSION_0068,30,0,takeoff,SITE_JAI_009,26.9124121,75.7872755,5.0,202.4,2.57,0.186,3.04,1.0134,-1.222,202.3969,-0.19428,0.00874,0.01075,0.98085,-0.2138,0.0396,-9.7588,-0.6018,-1.2829,-0.0099,0.1344,3,11,0.68,1.02,0.2,24.707,17.75,92.4,38.7,20323.0,7593,7568,7672,7641,56.7,58.2,55.0,53.5,2.667,2.893,2.917,2.82,2.72,285.6,31.1,74.9,1012.71,-32.24,0.05,1.62,25.3,35.9,32.3,0,no_anomaly,0.0,0,0,0,0,26.9124121,75.7872755,5.0,0.0
2024-03-08T15:53:03.100Z,MISSION_0068,31,0,takeoff,SITE_JAI_009,26.9124097,75.7872707,5.0,201.82,2.491,0.091,3.43,-1.3419,-4.4269,201.8232,-0.1887,0.04014,-0.00418,0.98121,-0.0018,-0.0274,-9.7904,0.969,-0.8583,-0.098,0.1298,3,15,0.5,0.67,0.2,24.621,17.19,92.3,39.5,20302.0,7686,7684,7627,7834,57.9,54.5,56.7,55.2,2.88,2.908,2.717,2.712,2.58,281.2,31.5,74.7,1013.0,-30.04,0.59,1.72,25.0,41.0,35.7,0,no_anomaly,0.0,0,0,0,0,26.9124097,75.7872707,5.0,0.0
2024-03-08T15:53:03.200Z,MISSION_0068,32,0,takeoff,SITE_JAI_009,26.912407,75.7872674,5.0,199.57,2.683,0.023,3.71,0.149,-3.3915,199.5744,-0.16995,0.02894,0.00631,0.98501,-0.0865,-0.0358,-9.7411,-0.1899,-0.287,0.2105,0.1922,3,17,0.65,0.98,0.2,24.662,21.79,92.2,39.9,20281.0,7584,7477,7419,7572,56.7,56.1,51.9,56.1,2.626,2.701,2.605,2.758,2.55,284.4,31.3,73.6,1012.9,-35.49,0.39,1.57,24.9,39.4,36.3,0,no_anomaly,0.0,0,0,0,0,26.912407,75.7872674,5.0,0.0
2024-03-08T15:53:03.300Z,MISSION_0068,33,0,takeoff,SITE_JAI_009,26.9124126,75.7872691,5.0,198.63,2.381,0.133,3.71,1.3108,-3.9801,198.6296,-0.16214,0.03242,0.0169,0.98609,-0.2002,-0.0057,-9.8299,0.0331,0.5019,0.3171,0.165,3,14,0.77,0.78,0.31,24.559,15.7,92.1,40.0,20259.0,7614,7398,7821,7398,58.1,55.4,54.7,57.0,2.862,2.886,2.718,2.847,2.99,278.9,31.2,74.5,1012.64,-29.86,-0.85,1.8,26.0,36.8,35.6,0,no_anomaly,0.0,0,0,0,0,26.9124126,75.7872691,5.0,0.0
2024-03-08T15:53:03.400Z,MISSION_0068,34,0,takeoff,SITE_JAI_009,26.912411,75.787268,5.0,197.65,2.494,0.154,3.76,2.55,-3.4593,197.6511,-0.15398,0.02641,0.02661,0.98736,-0.0906,0.0567,-9.7606,0.2639,0.3026,-0.1026,0.2022,3,16,0.75,0.96,0.38,24.601,12.9,92.0,39.0,20238.0,7783,7962,7513,7636,54.4,56.1,56.4,54.9,2.707,2.499,2.786,2.792,2.81,286.8,30.8,73.8,1012.94,-33.28,1.18,1.6,25.7,43.5,34.2,0,no_anomaly,0.0,0,0,0,0,26.912411,75.787268,5.0,0.0
2024-03-08T15:53:03.500Z,MISSION_0068,35,0,takeoff,SITE_JAI_009,26.9124135,75.7872665,5.0,196.52,3.037,0.064,4.02,0.9297,-1.8385,196.5237,-0.1438,0.01471,0.01033,0.98944,-0.0426,0.0257,-9.7841,-0.1946,-0.0667,-0.4551,0.1932,3,11,0.69,0.88,0.2,24.492,19.18,91.9,39.0,20217.0,7550,7756,7478,7535,60.0,59.8,48.6,57.9,2.732,2.554,2.576,2.739,2.31,283.4,31.5,74.3,1012.68,-31.02,-0.65,1.57,24.5,44.6,34.9,0,no_anomaly,0.0,0,0,0,0,26.9124135,75.7872665,5.0,0.0
2024-03-08T15:53:03.600Z,MISSION_0068,36,0,takeoff,SITE_JAI_009,26.9124169,75.7872625,5.0,197.94,3.201,0.024,4.58,-0.8657,-0.2239,197.9358,-0.15586,0.00311,-0.00716,0.98775,-0.1624,0.0571,-9.8675,0.6333,-0.0814,0.3225,0.1927,3,10,0.82,0.62,0.45,24.558,16.3,91.8,39.6,20196.0,7635,7809,7468,7759,57.7,58.1,57.0,56.3,2.785,2.932,2.905,2.985,2.75,284.8,31.2,74.3,1012.7,-30.8,-0.35,1.44,27.5,45.3,35.3,0,no_anomaly,0.0,0,0,0,0,26.9124169,75.7872625,5.0,0.0
2024-03-08T15:53:03.700Z,MISSION_0068,37,0,takeoff,SITE_JAI_009,26.9124159,75.7872611,5.0,197.17,2.859,0.107,4.68,3.3792,-6.4536,197.1742,-0.15065,0.05124,0.03751,0.98655,-0.0698,0.056,-9.8692,0.3067,0.339,0.2044,0.1782,3,17,0.76,0.6,0.29,24.622,22.47,91.7,40.0,20175.0,7539,7839,7831,7626,56.3,56.1,58.3,58.1,2.873,2.768,2.763,2.518,2.18,281.0,30.9,73.9,1012.94,-32.49,0.63,1.47,28.5,37.7,35.7,0,no_anomaly,0.0,0,0,0,0,26.9124159,75.7872611,5.0,0.0
2024-03-08T15:53:03.800Z,MISSION_0068,38,0,takeoff,SITE_JAI_009,26.9124202,75.78726,5.0,196.1,2.62,0.188,4.99,1.1909,-2.9205,196.0993,-0.14024,0.02378,0.01386,0.98974,-0.0573,-0.0301,-9.7384,-0.33,-0.0992,-0.0053,0.2188,3,14,0.76,0.82,0.26,24.589,14.12,91.6,39.2,20154.0,7496,7741,7476,7543,55.4,54.8,55.1,53.6,2.848,2.807,3.008,3.014,2.4,283.5,31.3,74.5,1013.01,-29.2,-1.46,1.55,23.2,41.6,32.5,0,no_anomaly,0.0,0,0,0,0,26.9124202,75.78726,5.0,0.0
2024-03-08T15:53:03.900Z,MISSION_0068,39,0,takeoff,SITE_JAI_009,26.9124221,75.787265,5.0,197.26,2.904,0.064,4.61,-3.3599,-3.5103,197.2556,-0.14899,0.03466,-0.02438,0.98793,0.1097,-0.0205,-9.8736,-0.2927,0.7247,-0.5014,0.1591,3,19,0.71,0.84,0.2,24.58,14.53,91.5,39.2,20133.0,7764,7797,7621,7959,58.5,57.0,54.8,57.1,2.904,2.961,2.565,3.014,3.59,283.0,31.5,74.1,1012.78,-26.16,0.66,1.34,23.9,41.3,33.0,0,no_anomaly,0.0,0,0,0,0,26.9124221,75.787265,5.0,0.0
2024-03-08T15:53:04.000Z,MISSION_0068,40,0,takeoff,SITE_JAI_009,26.9124206,75.7872663,5.0,196.39,3.172,0.032,4.4,0.6348,-3.6428,196.3886,-0.14263,0.03067,0.01001,0.98925,-0.0928,-0.0338,-9.843,-0.0555,-0.9174,-0.1128,0.0793,3,18,0.74,1.09,0.36,24.584,20.37,91.4,39.2,20111.0,7663,7545,7699,7511,56.5,59.2,60.3,54.5,2.794,2.596,2.576,2.709,1.33,281.1,31.1,73.9,1012.9,-26.06,0.98,2.15,23.8,44.6,31.6,0,no_anomaly,0.0,0,0,0,0,26.9124206,75.7872663,5.0,0.0
2024-03-08T15:53:04.100Z,MISSION_0068,41,0,takeoff,SITE_JAI_009,26.9124208,75.7872709,5.0,197.32,3.008,0.008,3.98,0.0616,-3.9961,197.3217,-0.15051,0.03439,0.00578,0.98799,0.0203,-0.0162,-9.7952,0.0223,0.317,0.1928,0.0811,3,12,0.86,0.74,0.38,24.563,17.86,91.3,40.1,20090.0,7588,7709,7603,7586,55.8,54.8,54.7,59.8,2.845,2.956,2.606,2.766,2.52,292.7,31.6,74.6,1012.64,-27.33,-1.11,1.55,28.6,40.5,34.1,0,no_anomaly,0.0,0,0,0,0,26.9124208,75.7872709,5.0,0.0
2024-03-08T15:53:04.200Z,MISSION_0068,42,0,takeoff,SITE_JAI_009,26.9124235,75.7872715,5.0,197.42,2.594,0.115,4.12,0.0194,-3.0998,197.4196,-0.15138,0.02671,0.00426,0.98811,0.2347,0.083,-9.8367,-0.2257,0.26,0.18,0.1048,3,11,0.82,0.66,0.25,24.504,16.66,91.2,39.5,20069.0,7590,7547,7536,7454,56.6,56.1,57.4,54.7,3.053,2.657,2.935,3.012,3.16,286.9,31.1,74.7,1013.0,-30.33,1.09,1.89,25.8,39.6,31.3,0,no_anomaly,0.0,0,0,0,0,26.9124235,75.7872715,5.0,0.0
2024-03-08T15:53:04.300Z,MISSION_0068,43,0,takeoff,SITE_JAI_009,26.912423,75.7872696,5.0,198.0,3.071,0.119,4.24,0.4469,-4.7473,197.9973,-0.15644,0.0403,0.01033,0.98681,-0.0546,-0.0368,-9.7355,0.7489,-0.3919,0.292,0.1207,3,19,0.58,1.08,0.2,24.543,22.83,91.1,39.3,20048.0,7461,7835,7678,7719,58.4,53.6,55.6,54.3,2.686,2.905,2.674,2.603,2.78,289.9,30.8,73.9,1012.68,-27.14,0.29,1.1,29.7,45.1,37.0,0,no_anomaly,0.0,0,0,0,0,26.912423,75.7872696,5.0,0.0
2024-03-08T15:53:04.400Z,MISSION_0068,44,0,takeoff,SITE_JAI_009,26.9124266,75.7872729,5.0,198.95,2.747,0.117,4.23,-0.4512,-3.2222,198.9533,-0.16447,0.02838,0.00075,0.98597,-0.0031,-0.0452,-9.7082,0.299,0.3467,-0.5611,0.2157,3,16,0.7,1.31,0.22,24.563,18.55,91.0,40.3,20027.0,7509,7670,7696,7676,53.7,58.4,59.1,54.5,3.027,2.829,2.593,2.53,3.14,282.8,31.2,75.4,1012.58,-26.52,-0.08,1.23,25.2,45.3,34.4,0,no_anomaly,0.0,0,0,0,0,26.9124266,75.7872729,5.0,0.0
2024-03-08T15:53:04.500Z,MISSION_0068,45,0,takeoff,SITE_JAI_009,26.9124259,75.7872773,5.0,200.39,2.666,0.146,3.84,3.4166,-2.1181,200.3883,-0.17742,0.01291,0.03261,0.98351,0.0063,-0.0177,-9.781,-0.2395,-0.5642,0.0586,0.1339,3,16,0.81,0.79,0.41,24.497,24.89,90.9,39.1,20006.0,7569,7575,7644,7847,54.3,53.5,54.1,55.5,2.604,2.788,2.646,3.07,2.95,283.4,31.2,75.6,1012.91,-30.54,1.02,1.75,25.1,43.4,33.4,0,no_anomaly,0.0,0,0,0,0,26.9124259,75.7872773,5.0,0.0
2024-03-08T15:53:04.600Z,MISSION_0068,46,0,takeoff,SITE_JAI_009,26.9124256,75.7872765,5.0,200.87,2.345,0.04,3.87,-1.7379,-1.3234,200.8716,-0.18093,0.0141,-0.01282,0.98331,-0.175,0.023,-9.8419,-0.847,-0.3967,0.0261,0.1221,3,13,0.5,0.89,0.2,24.533,23.04,90.8,38.5,19984.0,7638,7470,7608,7610,57.0,53.7,53.3,54.7,2.966,2.687,2.841,2.782,2.52,286.8,31.0,74.7,1013.04,-29.84,0.87,1.47,21.5,37.6,32.1,0,no_anomaly,0.0,0,0,0,0,26.9124256,75.7872765,5.0,0.0
2024-03-08T15:53:04.700Z,MISSION_0068,47,0,takeoff,SITE_JAI_009,26.9124253,75.7872827,5.0,200.36,2.457,0.095,3.41,2.6852,-1.641,200.3565,-0.17697,0.00995,0.02559,0.98383,-0.0697,0.0767,-9.8454,0.2379,-0.1878,0.452,0.1699,3,15,0.68,0.78,0.27,24.573,20.88,90.7,38.4,19963.0,7729,7798,7581,7276,54.7,58.2,57.9,53.9,2.965,2.565,2.732,2.876,3.02,283.4,31.0,74.1,1012.68,-28.55,-1.0,1.62,29.9,45.5,32.7,0,no_anomaly,0.0,0,0,0,0,26.9124253,75.7872827,5.0,0.0
2024-03-08T15:53:04.800Z,MISSION_0068,48,0,takeoff,SITE_JAI_009,26.9124294,75.787286,5.0,200.48,2.439,0.086,3.62,-1.6869,0.3718,200.4841,-0.17783,-0.00058,-0.01506,0.98395,0.1851,-0.0158,-9.8269,-0.9062,-0.2733,0.3022,0.1562,3,11,0.76,0.97,0.34,24.634,20.23,90.6,39.7,19942.0,7521,7695,7692,7592,56.1,60.6,57.6,58.5,2.829,2.725,2.755,2.985,2.47,288.5,31.0,74.4,1012.99,-31.29,0.3,1.52,26.4,42.4,35.1,0,no_anomaly,0.0,0,0,0,0,26.9124294,75.787286,5.0,0.0
2024-03-08T15:53:04.900Z,MISSION_0068,49,0,takeoff,SITE_JAI_009,26.912429,75.7872862,5.0,202.19,2.388,0.17,3.58,-1.3559,-2.4412,202.19,-0.19213,0.02318,-0.00751,0.98107,-0.0402,-0.0174,-9.8777,-0.3338,-0.9696,-0.2026,0.1562,3,13,0.7,0.85,0.23,24.515,18.49,90.6,39.7,19921.0,7553,7377,7835,7623,57.0,56.2,54.9,58.6,2.986,2.76,2.832,2.896,3.03,279.7,31.3,74.3,1012.87,-26.37,-0.47,1.28,28.5,45.5,34.7,0,no_anomaly,0.0,0,0,0,0,26.912429,75.7872862,5.0,0.0
2024-03-08T15:53:05.000Z,MISSION_0068,50,0,takeoff,SITE_JAI_009,26.912429,75.7872876,5.0,199.99,2.601,0.144,3.52,-0.0627,-2.3563,199.9908,-0.17352,0.02034,0.00303,0.98462,-0.0044,-0.0092,-9.7908,-0.7509,0.776,-0.2584,0.1022,3,19,0.7,1.03,0.23,24.539,17.19,90.5,39.7,19900.0,7400,7671,7626,7664,55.0,57.6,53.9,55.1,2.451,2.849,2.509,2.94,2.3,280.7,31.1,74.8,1013.16,-32.23,-0.59,1.25,26.5,39.2,34.9,0,no_anomaly,0.0,0,0,0,0,26.912429,75.7872876,5.0,0.0
2024-03-08T15:53:05.100Z,MISSION_0068,51,0,takeoff,SITE_JAI_009,26.9124289,75.7872879,5.0,199.49,2.802,0.17,3.49,-0.2646,-1.7108,199.4938,-0.16924,0.0151,0.00025,0.98546,0.2045,0.0274,-9.706,-1.1222,0.4873,-0.2568,0.1221,3,14,0.67,0.6,0.2,24.551,13.58,90.4,38.5,19879.0,7473,7891,7453,7697,54.8,55.2,57.0,52.6,2.573,2.947,2.646,2.676,3.22,281.1,31.0,74.7,1012.71,-29.36,1.98,1.31,27.7,37.1,33.9,0,no_anomaly,0.0,0,0,0,0,26.9124289,75.7872879,5.0,0.0
2024-03-08T15:53:05.200Z,MISSION_0068,52,0,takeoff,SITE_JAI_009,26.9124247,75.7872898,5.0,198.75,2.381,0.146,2.97,-2.2877,-1.8414,198.7503,-0.16253,0.0191,-0.01708,0.98637,0.0605,0.0329,-9.8204,-0.1419,-0.0629,0.2541,0.1544,3,15,0.78,1.22,0.31,24.591,17.36,90.3,39.2,19858.0,7583,7423,7486,7778,57.6,55.4,60.4,54.4,2.904,2.671,2.827,2.895,1.81,282.7,31.0,74.8,1013.09,-31.9,-0.0,1.21,23.4,41.0,32.4,0,no_anomaly,0.0,0,0,0,0,26.9124247,75.7872898,5.0,0.0
2024-03-08T15:53:05.300Z,MISSION_0068,53,0,takeoff,SITE_JAI_009,26.912423,75.7872958,5.0,195.7,2.835,0.066,2.6,0.9478,-0.8975,195.6996,-0.13663,0.00663,0.00926,0.99056,0.0132,0.0546,-9.7861,-0.3539,0.1756,-0.2882,0.1484,3,15,0.78,0.77,0.2,24.515,13.9,90.2,38.7,19836.0,7738,7428,7577,7694,54.1,57.9,55.3,55.1,2.758,2.824,2.913,2.669,2.02,281.7,30.6,74.8,1013.15,-28.55,0.63,1.0,23.9,43.8,32.8,0,no_anomaly,0.0,0,0,0,0,26.912423,75.7872958,5.0,0.0
2024-03-08T15:53:05.400Z,MISSION_0068,54,0,takeoff,SITE_JAI_009,26.9124223,75.7872981,5.0,196.85,3.023,0.117,2.49,3.2069,-2.4123,196.8455,-0.14697,0.01672,0.03076,0.98852,-0.0324,0.0328,-9.8551,-0.5658,-0.5232,0.1466,0.0705,3,11,1.06,1.13,0.49,24.574,16.21,90.1,39.5,19815.0,7861,7490,7999,7625,60.3,57.5,57.1,57.2,2.846,2.878,2.81,2.912,1.8,287.0,30.8,74.8,1012.27,-33.72,1.23,1.23,25.5,39.5,33.0,0,no_anomaly,0.0,0,0,0,0,26.9124223,75.7872981,5.0,0.0
2024-03-08T15:53:05.500Z,MISSION_0068,55,0,takeoff,SITE_JAI_009,26.9124252,75.7872946,5.0,196.81,3.363,0.095,2.87,-1.0556,-4.3653,196.8065,-0.14568,0.03902,-0.00354,0.98856,0.0348,0.0112,-9.865,0.4365,0.1456,0.486,0.192,3,16,0.76,0.98,0.32,24.589,21.44,90.0,39.3,19794.0,7745,7590,7852,7521,56.4,53.9,57.6,56.1,2.745,2.849,2.802,2.816,2.1,285.2,31.2,74.4,1012.74,-32.3,-0.68,1.28,28.7,47.0,37.1,0,no_anomaly,0.0,0,0,0,0,26.9124252,75.7872946,5.0,0.0
2024-03-08T15:53:05.600Z,MISSION_0068,56,0,takeoff,SITE_JAI_009,26.9124252,75.7872922,5.0,195.3,2.957,0.086,2.94,2.6967,-3.3793,195.3047,-0.13376,0.02608,0.02724,0.9903,-0.0009,-0.0067,-9.832,1.2476,0.4038,0.063,0.146,3,17,0.74,1.03,0.2,24.46,20.74,89.9,38.8,19773.0,7533,7494,7792,7699,55.1,58.3,53.4,56.1,2.897,3.102,2.926,2.625,3.64,280.6,31.3,73.6,1012.47,-29.89,-2.91,1.78,26.7,44.3,34.8,0,no_anomaly,0.0,0,0,0,0,26.9124252,75.7872922,5.0,0.0
2024-03-08T15:53:05.700Z,MISSION_0068,57,0,takeoff,SITE_JAI_009,26.9124216,75.7872946,5.0,194.57,3.256,0.038,2.48,4.5838,-0.2507,194.5718,-0.12681,-0.0029,0.03994,0.99112,-0.059,0.0096,-9.7461,-0.5341,-0.6108,0.0014,0.1538,3,18,0.5,1.09,0.2,24.535,23.63,89.8,38.1,19752.0,7451,7423,7551,7485,56.9,54.9,56.5,58.1,2.931,2.728,2.9,2.867,2.96,280.7,31.0,74.9,1012.59,-33.22,-0.54,1.89,28.2,39.7,36.2,0,no_anomaly,0.0,0,0,0,0,26.9124216,75.7872946,5.0,0.0
2024-03-08T15:53:05.800Z,MISSION_0068,58,0,takeoff,SITE_JAI_009,26.9124176,75.7872944,5.0,195.28,3.223,0.171,2.06,-1.6264,-3.1645,195.2792,-0.13249,0.02925,-0.01039,0.9907,0.0188,0.0529,-9.8432,0.2742,-0.3304,-0.2053,0.2091,3,12,0.68,0.79,0.32,24.46,20.73,89.7,39.5,19731.0,7595,7719,7835,7530,57.1,53.3,55.4,55.0,2.618,2.839,2.87,2.699,2.95,282.2,30.7,74.1,1012.82,-28.47,0.52,1.25,25.4,43.0,34.5,0,no_anomaly,0.0,0,0,0,0,26.9124176,75.7872944,5.0,0.0
2024-03-08T15:53:05.900Z,MISSION_0068,59,0,takeoff,SITE_JAI_009,26.9124198,75.7872955,5.0,194.42,2.951,0.167,2.26,1.3591,-1.7695,194.4243,-0.1257,0.01383,0.0137,0.99188,0.0972,0.0468,-9.7925,-0.06,-0.2498,0.2195,0.0384,3,18,0.52,1.03,0.28,24.484,18.24,89.6,39.0,19710.0,7541,7525,7614,7767,55.6,56.6,54.2,52.8,2.731,3.004,2.685,2.63,2.2,280.8,31.2,74.0,1012.93,-25.14,0.86,1.0,29.8,39.5,32.4,0,no_anomaly,0.0,0,0,0,0,26.9124198,75.7872955,5.0,0.0
2024-03-08T15:53:06.000Z,MISSION_0068,60,0,takeoff,SITE_JAI_009,26.9124194,75.7872972,5.0,192.44,3.332,0.002,2.18,1.0071,-0.5067,192.4415,-0.10839,0.00344,0.00922,0.99406,0.0865,-0.0541,-9.7453,0.5106,0.5812,0.2993,0.0922,3,14,0.65,0.99,0.37,24.524,20.65,89.5,40.0,19688.0,7667,7603,7909,7495,59.1,57.4,58.4,55.5,2.968,2.728,2.716,2.868,2.51,282.9,31.1,75.0,1012.55,-30.39,-1.09,1.59,24.4,44.6,35.3,0,no_anomaly,0.0,0,0,0,0,26.9124194,75.7872972,5.0,0.0
2024-03-08T15:53:06.100Z,MISSION_0068,61,0,takeoff,SITE_JAI_009,26.9124188,75.7872967,5.0,192.29,3.331,0.157,2.12,0.3945,-2.3686,192.2891,-0.10708,0.02018,0.00563,0.99403,-0.0234,-0.0674,-9.8828,-0.0311,-0.4529,0.211,0.2618,3,17,0.75,0.95,0.42,24.465,19.45,89.4,39.0,19667.0,7557,7594,7807,7683,55.6,55.0,58.1,55.0,2.746,2.669,2.822,2.992,1.83,279.4,31.3,74.6,1013.2,-24.75,1.15,1.48,26.0,40.7,36.0,0,no_anomaly,0.0,0,0,0,0,26.9124188,75.7872967,5.0,0.0
2024-03-08T15:53:06.200Z,MISSION_0068,62,0,takeoff,SITE_JAI_009,26.9124174,75.7872966,5.0,191.75,2.971,0.056,1.98,-0.3589,-0.3488,191.7513,-0.10236,0.00335,-0.0028,0.99474,-0.0616,-0.045,-9.8149,0.2926,-0.097,-0.4673,0.2349,3,19,0.65,0.87,0.28,24.429,20.6,89.3,40.2,19646.0,7432,7417,7746,7581,56.6,60.1,57.6,53.2,2.922,2.624,2.867,2.859,2.09,287.2,31.3,75.0,1012.74,-26.89,0.98,1.45,29.1,45.3,34.4,0,no_anomaly,0.0,0,0,0,0,26.9124174,75.7872966,5.0,0.0
2024-03-08T15:53:06.300Z,MISSION_0068,63,0,takeoff,SITE_JAI_009,26.9124216,75.7872953,5.0,192.62,2.455,0.146,2.46,1.3198,-4.0155,192.6243,-0.11027,0.03355,0.01529,0.99322,0.1619,0.0535,-9.9236,0.0284,-0.565,-0.304,0.1517,3,12,0.78,0.95,0.31,24.463,20.43,89.2,38.6,19625.0,7500,7705,7798,7691,54.9,54.3,55.0,57.1,2.746,2.74,2.724,2.74,0.97,287.5,30.9,75.0,1012.72,-31.14,-1.11,1.78,22.7,39.0,33.6,0,no_anomaly,0.0,0,0,0,0,26.9124216,75.7872953,5.0,0.0
2024-03-08T15:53:06.400Z,MISSION_0068,64,0,takeoff,SITE_JAI_009,26.9124204,75.7872957,5.0,194.26,2.6,0.157,2.32,-1.0151,1.9959,194.2597,-0.12425,-0.01618,-0.01095,0.99206,-0.0138,-0.034,-9.7895,0.7255,0.4458,0.0979,0.195,3,15,0.76,0.9,0.34,24.604,18.88,89.1,40.0,19604.0,7597,7701,7748,7640,54.4,54.3,55.6,55.2,2.9,2.731,2.609,2.729,3.13,281.9,31.2,74.5,1012.97,-24.39,-0.0,1.0,27.5,38.9,32.4,0,no_anomaly,0.0,0,0,0,0,26.9124204,75.7872957,5.0,0.0
2024-03-08T15:53:06.500Z,MISSION_0068,65,0,transit,SITE_JAI_009,26.9124167,75.7872977,5.5,193.96,2.292,0.061,1.88,1.3134,-1.4438,193.9595,-0.12164,0.01111,0.01291,0.99243,-0.1584,-0.0433,-9.7312,-0.0168,-0.1757,0.4957,0.1025,3,13,0.56,0.6,0.26,24.5,22.61,89.0,39.5,19583.0,7307,7518,7547,7996,54.7,56.3,56.2,60.3,2.676,2.914,3.026,2.9,3.45,285.3,30.9,74.8,1012.95,-35.03,-1.11,1.09,25.7,42.1,33.2,0,no_anomaly,0.0,0,0,0,0,26.9124167,75.7872977,5.5,0.0
2024-03-08T15:53:06.600Z,MISSION_0068,66,0,transit,SITE_JAI_009,26.9124146,75.7872958,6.0,192.7,2.453,0.15,1.69,-0.4154,-2.2405,192.6955,-0.11047,0.01983,-0.00144,0.99368,0.0003,-0.0809,-9.795,-0.0912,-0.3865,-0.7724,0.1589,3,18,0.69,0.94,0.38,24.443,14.89,88.9,38.7,19562.0,7721,7711,7832,7696,56.4,55.7,56.1,54.4,2.803,2.74,2.683,2.746,1.88,279.0,31.3,74.6,1012.99,-27.74,-1.13,1.37,26.6,44.0,31.6,0,no_anomaly,0.0,0,0,0,0,26.9124146,75.7872958,6.0,0.0
2024-03-08T15:53:06.700Z,MISSION_0068,67,0,transit,SITE_JAI_009,26.9124144,75.7872916,6.5,190.53,2.381,0.088,1.86,-2.4284,1.6092,190.5338,-0.09206,-0.01203,-0.02239,0.99543,-0.125,-0.0124,-9.8031,0.4555,-0.3218,-0.0754,0.1395,3,12,0.59,0.81,0.2,24.441,19.23,88.8,39.4,19540.0,7598,7829,7722,7447,55.0,56.2,57.2,57.9,2.835,2.637,2.714,2.686,2.72,279.8,31.3,74.6,1012.72,-28.93,-0.35,2.17,25.7,45.6,34.0,0,no_anomaly,0.0,0,0,0,0,26.9124144,75.7872916,6.5,0.0
2024-03-08T15:53:06.800Z,MISSION_0068,68,0,transit,SITE_JAI_009,26.912414,75.7872901,7.0,189.82,2.534,0.157,1.91,0.2282,-3.8803,189.8162,-0.08558,0.03356,0.00488,0.99575,-0.069,0.048,-9.7599,0.5496,0.1255,-0.2862,0.118,3,16,0.79,1.03,0.38,24.448,21.08,88.7,38.7,19519.0,7439,7661,7564,7620,54.7,56.0,53.8,56.0,2.99,2.645,2.916,2.772,2.79,289.3,31.3,75.0,1013.05,-25.99,0.04,1.39,26.5,41.4,32.6,0,no_anomaly,0.0,0,0,0,0,26.912414,75.7872901,7.0,0.0
2024-03-08T15:53:06.900Z,MISSION_0068,69,0,transit,SITE_JAI_009,26.912413,75.7872968,7.5,189.3,2.042,0.129,1.48,-1.8481,-3.5177,189.3027,-0.08055,0.03189,-0.01358,0.99615,0.1583,-0.028,-9.7696,0.1654,0.2189,-0.0673,0.1611,3,15,0.52,0.92,0.2,24.427,22.22,88.6,38.9,19498.0,7595,7597,7789,7412,54.3,56.4,56.8,56.3,2.864,2.899,2.994,2.902,3.6,287.7,31.1,75.1,1013.1,-28.08,1.21,1.97,25.8,41.6,33.9,0,no_anomaly,0.0,0,0,0,0,26.912413,75.7872968,7.5,0.0
2024-03-08T15:53:07.000Z,MISSION_0068,70,0,transit,SITE_JAI_009,26.912408,75.7872945,8.0,190.8,1.998,0.061,1.08,4.8263,-2.4046,190.8014,-0.0949,0.01691,0.04388,0.99438,0.0828,-0.0156,-9.8525,-0.1846,-0.0446,0.1861,0.0395,3,11,0.75,0.96,0.38,24.571,21.95,88.5,39.5,19477.0,7827,7764,7692,7586,57.7,59.5,56.4,54.6,2.6,2.786,2.703,2.763,2.54,289.9,31.0,74.8,1013.03,-29.27,-0.63,1.97,26.8,41.7,36.4,0,no_anomaly,0.0,0,0,0,0,26.912408,75.7872945,8.0,0.0
2024-03-08T15:53:07.100Z,MISSION_0068,71,0,transit,SITE_JAI_009,26.9124082,75.7872954,8.5,190.99,2.264,0.102,1.04,-0.8397,-1.5072,190.9879,-0.09563,0.01379,-0.00603,0.9953,-0.2032,0.0024,-9.8296,0.2165,-0.1331,0.3673,0.1363,3,19,0.73,0.84,0.31,24.491,24.09,88.4,39.7,19456.0,7745,7649,7523,7714,54.1,56.4,58.9,56.8,2.804,2.694,2.735,2.946,2.43,283.6,31.7,74.5,1012.68,-27.72,0.94,1.19,26.3,37.7,31.7,0,no_anomaly,0.0,0,0,0,0,26.9124082,75.7872954,8.5,0.0
2024-03-08T15:53:07.200Z,MISSION_0068,72,0,transit,SITE_JAI_009,26.9124079,75.7872907,9.0,194.39,2.246,0.075,1.36,-3.1894,-1.3538,194.3862,-0.12483,0.0152,-0.02613,0.99172,0.0773,0.0505,-9.7553,-0.2962,-0.2833,-0.4574,0.1233,3,11,0.69,0.98,0.21,24.497,22.86,88.3,39.1,19435.0,7448,7359,7755,7885,59.7,57.2,53.7,56.8,2.875,2.816,2.51,2.93,2.74,282.0,31.1,73.8,1012.84,-27.41,-0.74,1.94,25.5,38.4,32.0,0,no_anomaly,0.0,0,0,0,0,26.9124079,75.7872907,9.0,0.0
2024-03-08T15:53:07.300Z,MISSION_0068,73,0,transit,SITE_JAI_009,26.9124052,75.78729,9.5,196.4,2.295,0.081,1.26,4.074,-1.17,196.4027,-0.14291,0.00503,0.03663,0.98904,-0.0315,0.0445,-9.9118,-0.3808,-0.3378,-0.0789,0.1364,3,13,0.89,0.86,0.44,24.466,16.68,88.2,39.3,19413.0,7887,7835,7564,7824,57.2,55.0,54.9,59.1,2.69,2.812,3.023,2.738,2.59,283.8,30.9,74.5,1013.09,-30.56,-1.37,1.13,25.3,39.1,33.1,0,no_anomaly,0.0,0,0,0,0,26.9124052,75.78729,9.5,0.0
2024-03-08T15:53:07.400Z,MISSION_0068,74,0,transit,SITE_JAI_009,26.912404,75.7872938,10.0,197.06,2.596,0.204,0.83,-2.2591,-2.5139,197.0597,-0.14783,0.02461,-0.01624,0.98857,0.0569,0.009,-9.8387,-0.4432,0.275,0.4313,0.1234,3,12,0.66,0.84,0.3,24.546,21.92,88.1,39.0,19392.0,7904,7375,7742,7643,59.7,57.0,56.0,53.3,2.777,2.874,2.628,2.633,2.43,289.6,31.0,74.7,1013.07,-30.82,-1.03,1.1,23.2,45.4,32.4,0,no_anomaly,0.0,0,0,0,0,26.912404,75.7872938,10.0,0.0
2024-03-08T15:53:07.500Z,MISSION_0068,75,0,transit,SITE_JAI_009,26.9124036,75.7872917,10.5,195.27,2.496,0.109,1.01,1.2101,-1.1377,195.2671,-0.13293,0.00844,0.01178,0.99102,0.0051,0.0118,-9.7812,-0.3348,-0.7082,0.1308,0.1305,3,11,0.71,0.94,0.28,24.452,13.41,88.1,39.8,19371.0,7465,7486,7652,7730,57.7,57.7,55.6,57.3,3.054,2.81,2.804,2.945,2.42,286.6,31.0,74.4,1013.16,-22.77,0.08,1.95,29.0,44.2,35.3,0,no_anomaly,0.0,0,0,0,0,26.9124036,75.7872917,10.5,0.0
2024-03-08T15:53:07.600Z,MISSION_0068,76,0,transit,SITE_JAI_009,26.9124101,75.787295,11.0,195.37,2.745,0.081,1.25,-3.961,-3.8774,195.3714,-0.13242,0.03813,-0.02971,0.99001,0.2022,0.0442,-9.7897,0.1684,-0.4351,0.026,0.1521,3,19,0.73,0.72,0.42,24.503,24.94,88.0,39.1,19350.0,7557,7575,7310,7430,56.9,57.7,54.2,56.6,2.797,2.795,2.523,2.888,2.41,287.4,31.1,75.2,1013.11,-31.49,-0.92,1.48,26.2,44.0,31.7,0,no_anomaly,0.0,0,0,0,0,26.9124101,75.787295,11.0,0.0
2024-03-08T15:53:07.700Z,MISSION_0068,77,0,transit,SITE_JAI_009,26.9124085,75.7872937,11.5,196.13,2.6,0.247,1.18,-2.165,-2.6551,196.131,-0.13981,0.02558,-0.01545,0.98973,0.2928,-0.0251,-9.8346,0.9563,0.3844,-0.6031,0.1699,3,13,0.7,0.64,0.28,24.46,22.8,87.9,39.5,19329.0,7626,7568,7562,7779,55.0,55.5,55.4,57.8,3.009,2.744,3.003,2.791,2.08,286.8,31.0,74.8,1012.66,-36.6,-0.32,1.53,29.1,38.7,35.7,0,no_anomaly,0.0,0,0,0,0,26.9124085,75.7872937,11.5,0.0
2024-03-08T15:53:07.800Z,MISSION_0068,78,0,transit,SITE_JAI_009,26.9124024,75.7872869,12.0,194.7,2.256,0.172,1.48,0.7334,-0.5755,194.7044,-0.128,0.00416,0.00699,0.99174,-0.2646,0.0232,-9.8042,0.4046,0.4955,0.3797,0.1559,3,19,0.68,1.0,0.25,24.496,17.15,87.8,39.7,19308.0,7762,7678,7684,7380,55.4,58.4,53.8,57.9,2.383,2.947,2.526,2.821,2.36,272.0,30.6,74.6,1012.85,-33.36,0.95,1.79,23.4,44.0,34.3,0,no_anomaly,0.0,0,0,0,0,26.9124024,75.7872869,12.0,0.0
2024-03-08T15:53:07.900Z,MISSION_0068,79,0,transit,SITE_JAI_009,26.9124043,75.7872826,12.5,196.56,2.252,0.075,1.99,2.5376,-1.4988,196.563,-0.14428,0.00975,0.02379,0.9892,0.092,0.1057,-9.8577,-0.129,0.3488,-0.1414,0.202,3,11,0.8,0.83,0.31,24.554,20.26,87.7,38.6,19287.0,7659,7765,7757,7775,58.7,56.1,51.4,56.7,2.888,2.83,2.76,2.756,3.18,283.9,31.0,74.3,1012.65,-36.48,-0.39,1.21,24.4,44.8,35.6,0,no_anomaly,0.0,0,0,0,0,26.9124043,75.7872826,12.5,0.0
2024-03-08T15:53:08.000Z,MISSION_0068,80,0,transit,SITE_JAI_009,26.9124046,75.7872842,13.0,195.55,2.429,0.21,1.83,-1.0589,-3.1083,195.5538,-0.13501,0.02812,-0.00548,0.99043,0.1738,0.0162,-9.7991,1.3039,0.1487,0.3282,0.1479,3,20,0.75,0.78,0.2,24.431,21.74,87.6,39.4,19265.0,7563,7727,8103,7639,52.7,54.5,56.1,54.0,2.711,2.861,2.691,2.924,4.4,284.4,31.1,74.4,1012.77,-31.66,-0.48,1.0,29.6,38.9,35.6,0,no_anomaly,0.0,0,0,0,0,26.9124046,75.7872842,13.0,0.0
2024-03-08T15:53:08.100Z,MISSION_0068,81,0,transit,SITE_JAI_009,26.9124068,75.7872916,13.2,195.88,2.505,0.011,1.2,-0.0969,-3.1533,195.8813,-0.13807,0.02737,0.00296,0.99004,-0.0047,-0.1124,-9.9179,-0.1767,0.6956,-0.0492,0.2311,3,12,0.72,0.75,0.3,24.493,18.51,87.5,38.8,19244.0,7442,7748,7683,7578,57.7,56.7,57.6,52.8,2.994,2.884,2.96,3.045,2.5,283.5,31.2,74.0,1012.73,-30.74,0.25,2.05,27.1,38.6,33.6,0,no_anomaly,0.0,0,0,0,0,26.9124068,75.7872916,13.2,0.0
2024-03-08T15:53:08.200Z,MISSION_0068,82,0,transit,SITE_JAI_009,26.9124111,75.7872927,13.2,196.14,2.127,0.158,1.48,-2.4563,-2.9851,196.137,-0.13972,0.02879,-0.01756,0.98962,0.1683,-0.0023,-9.7331,0.0059,0.205,-0.377,0.1037,3,18,0.79,0.81,0.34,24.468,20.5,87.4,40.3,19223.0,7588,7476,7599,7578,55.4,55.3,52.5,56.5,3.099,2.796,2.682,2.831,2.25,285.7,30.9,75.6,1012.88,-26.29,1.6,1.5,27.5,37.9,32.4,0,no_anomaly,0.0,0,0,0,0,26.9124111,75.7872927,13.2,0.0
2024-03-08T15:53:08.300Z,MISSION_0068,83,0,transit,SITE_JAI_009,26.9124149,75.7872922,13.2,193.44,1.986,0.03,1.87,-3.0612,-2.5358,193.4427,-0.11638,0.02509,-0.02393,0.9926,-0.1119,0.0212,-9.871,0.2266,0.4375,-0.5555,0.1894,3,16,0.77,0.86,0.36,24.499,22.24,87.3,38.3,19202.0,7661,7616,7763,7435,58.5,57.6,56.6,57.2,2.52,2.804,2.891,2.786,2.35,281.0,31.3,74.7,1012.79,-27.03,-0.15,1.71,27.8,44.2,32.0,0,no_anomaly,0.0,0,0,0,0,26.9124149,75.7872922,13.2,0.0
2024-03-08T15:53:08.400Z,MISSION_0068,84,0,transit,SITE_JAI_009,26.91241,75.7872938,13.2,195.24,2.475,0.074,1.3,1.5228,-4.0617,195.2404,-0.13298,0.03336,0.01786,0.9904,0.2197,0.0189,-9.7709,-0.5725,-0.0528,-0.2267,0.1263,3,11,0.88,0.9,0.38,24.502,21.01,87.2,39.4,19181.0,7638,7750,7524,7957,57.3,55.5,55.9,58.9,3.026,2.938,2.735,3.042,1.6,283.2,31.2,74.5,1012.63,-29.75,-0.46,1.77,25.7,43.5,33.6,0,no_anomaly,0.0,0,0,0,0,26.91241,75.7872938,13.2,0.0
2024-03-08T15:53:08.500Z,MISSION_0068,85,0,transit,SITE_JAI_009,26.912405,75.7872927,13.2,195.29,2.305,0.108,0.99,-0.1034,-0.1886,195.2865,-0.133,0.00175,-0.00068,0.99111,-0.0114,0.0246,-9.7734,0.4124,0.7925,0.27,0.1134,3,12,0.68,0.94,0.27,24.477,22.57,87.1,39.4,19160.0,7616,7610,7727,7581,57.4,59.6,57.9,56.6,3.002,2.866,2.569,3.13,1.93,285.8,31.2,74.9,1012.61,-28.27,-1.29,1.28,28.3,46.2,36.1,0,no_anomaly,0.0,0,0,0,0,26.912405,75.7872927,13.2,0.0
2024-03-08T15:53:08.600Z,MISSION_0068,86,0,transit,SITE_JAI_009,26.9124048,75.7872933,13.2,199.2,2.401,0.096,0.92,1.0801,-2.8516,199.1991,-0.16693,0.02296,0.01344,0.98561,0.0001,-0.0203,-9.8008,0.3656,0.795,0.4406,0.1494,3,11,0.56,0.92,0.2,24.438,16.02,87.0,39.8,19139.0,7445,7949,7676,7410,55.3,59.8,59.8,53.5,2.717,2.644,2.797,2.805,3.27,281.2,30.9,74.9,1012.77,-30.32,-0.15,2.18,26.5,40.8,35.7,0,no_anomaly,0.0,0,0,0,0,26.9124048,75.7872933,13.2,0.0
2024-03-08T15:53:08.700Z,MISSION_0068,87,0,transit,SITE_JAI_009,26.912407,75.7872934,13.2,199.78,2.078,0.081,1.06,2.6645,0.1706,199.7773,-0.17165,-0.00546,0.02265,0.98488,-0.0584,-0.0004,-9.8498,-0.4865,-0.2368,-0.0795,0.2403,3,14,0.61,0.8,0.28,24.36,18.54,86.9,38.9,19117.0,7776,7458,7493,7668,55.7,53.3,53.5,57.5,2.584,3.009,2.736,2.888,2.4,286.8,30.7,74.5,1012.91,-29.01,-1.98,1.01,26.5,45.6,32.5,0,no_anomaly,0.0,0,0,0,0,26.912407,75.7872934,13.2,0.0
2024-03-08T15:53:08.800Z,MISSION_0068,88,0,transit,SITE_JAI_009,26.9124031,75.7872942,13.2,200.25,2.218,0.081,0.73,1.2332,-3.4637,200.2508,-0.17603,0.02786,0.0159,0.98386,-0.1296,-0.0456,-9.7389,-0.6733,-0.3126,0.5116,0.1707,3,17,0.76,0.83,0.37,24.482,16.15,86.8,38.9,19096.0,7780,7660,7749,7594,59.3,52.0,58.0,57.9,2.511,2.574,3.001,2.682,2.28,284.2,30.9,74.2,1012.84,-27.74,-1.1,1.61,24.2,44.7,35.7,0,no_anomaly,0.0,0,0,0,0,26.9124031,75.7872942,13.2,0.0
2024-03-08T15:53:08.900Z,MISSION_0068,89,0,transit,SITE_JAI_009,26.9124028,75.7873001,13.2,202.45,1.823,0.191,0.31,1.3021,-2.5522,202.4476,-0.19483,0.01963,0.01548,0.98052,0.0478,0.0145,-9.8484,0.3792,0.1787,-0.0058,0.1314,3,16,0.73,1.02,0.28,24.409,18.99,86.7,39.6,19075.0,7644,7684,7520,7541,57.0,55.8,55.5,57.9,2.889,3.054,2.813,2.993,1.77,283.7,31.0,74.8,1013.06,-30.15,-0.35,1.69,24.1,37.7,29.7,0,no_anomaly,0.0,0,0,0,0,26.9124028,75.7873001,13.2,0.0
2024-03-08T15:53:09.000Z,MISSION_0068,90,0,transit,SITE_JAI_009,26.9124026,75.7873016,13.2,202.87,2.283,0.062,0.34,1.5026,-1.7562,202.871,-0.19842,0.01242,0.01589,0.97991,0.1403,-0.0339,-9.8923,-0.0968,-0.0459,-0.1884,0.1345,3,13,0.69,1.0,0.2,24.547,19.02,86.6,39.7,19054.0,7506,7769,7755,7709,58.2,60.2,58.2,54.2,2.565,2.706,2.685,2.804,2.73,277.2,31.4,73.7,1013.25,-28.22,-0.31,1.2,25.5,44.6,32.5,0,no_anomaly,0.0,0,0,0,0,26.9124026,75.7873016,13.2,0.0
2024-03-08T15:53:09.100Z,MISSION_0068,91,0,transit,SITE_JAI_009,26.9123975,75.7873007,13.2,202.5,2.251,0.046,0.29,-1.3369,-2.0324,202.5009,-0.19485,0.01967,-0.00798,0.9806,-0.0089,-0.0794,-9.774,0.5585,0.0664,0.1841,0.1282,3,13,0.66,0.96,0.22,24.41,19.24,86.5,39.8,19033.0,7694,7694,7718,7718,56.0,53.8,58.1,54.5,2.749,2.651,2.903,2.818,2.39,279.7,31.2,74.6,1012.46,-31.65,-0.03,2.15,27.7,35.9,35.5,0,no_anomaly,0.0,0,0,0,0,26.9123975,75.7873007,13.2,0.0
2024-03-08T15:53:09.200Z,MISSION_0068,92,0,transit,SITE_JAI_009,26.9124009,75.787302,13.2,203.32,2.804,0.054,0.24,0.6379,-1.0881,203.3174,-0.20212,0.00817,0.00737,0.9793,0.0353,0.0555,-9.7694,0.7034,-0.806,-0.1715,0.1541,3,13,0.72,0.96,0.36,24.556,23.99,86.4,39.8,19012.0,7918,7849,7335,7513,55.6,56.6,57.1,56.8,2.646,2.622,2.495,2.792,2.66,282.8,31.3,73.9,1013.06,-31.47,0.25,1.75,26.5,40.2,37.1,0,no_anomaly,0.0,0,0,0,0,26.9124009,75.787302,13.2,0.0
2024-03-08T15:53:09.300Z,MISSION_0068,93,0,transit,SITE_JAI_009,26.9124006,75.7872969,13.2,203.83,2.562,0.08,0.35,0.376,-3.6008,203.8273,-0.20644,0.03006,0.00969,0.97795,0.0373,0.0028,-9.743,0.0314,-0.0378,-0.0009,0.2614,3,16,0.8,1.08,0.2,24.388,23.93,86.3,38.6,18991.0,7828,7712,7704,7507,57.8,57.6,56.3,57.4,2.789,2.779,2.818,2.652,2.29,283.0,31.0,74.6,1012.67,-26.61,0.75,1.32,28.1,43.0,34.8,0,no_anomaly,0.0,0,0,0,0,26.9124006,75.7872969,13.2,0.0
2024-03-08T15:53:09.400Z,MISSION_0068,94,0,transit,SITE_JAI_009,26.9124021,75.7872967,13.2,205.89,3.041,0.163,0.44,1.0386,-0.8632,205.89,-0.22407,0.00531,0.01052,0.9745,-0.0554,0.0511,-9.7238,-0.1628,0.3946,-0.4048,0.1299,3,14,0.79,1.1,0.25,24.463,19.15,86.2,39.1,18969.0,7578,7561,7731,7562,57.4,54.6,55.3,53.8,3.016,2.665,2.687,2.632,2.13,276.1,31.2,75.2,1013.03,-31.12,-0.12,1.01,23.4,43.0,33.2,0,no_anomaly,0.0,0,0,0,0,26.9124021,75.7872967,13.2,0.0
2024-03-08T15:53:09.500Z,MISSION_0068,95,0,transit,SITE_JAI_009,26.9124072,75.7872947,13.2,207.95,3.462,0.177,0.99,4.6517,-0.9856,207.9489,-0.24162,-0.00146,0.04146,0.96948,0.0278,-0.0522,-9.6694,-1.2574,-0.1804,-0.1397,0.1471,3,10,0.75,1.06,0.32,24.39,23.3,86.1,40.4,18948.0,7753,7846,8011,7552,55.1,56.1,60.6,56.0,2.74,2.62,2.983,2.552,2.67,286.2,31.2,74.2,1012.91,-30.57,-1.22,1.38,28.1,42.0,32.4,0,no_anomaly,0.0,0,0,0,0,26.9124072,75.7872947,13.2,0.0
2024-03-08T15:53:09.600Z,MISSION_0068,96,0,transit,SITE_JAI_009,26.912407,75.7872983,13.2,204.64,3.479,0.123,0.81,0.6203,-4.2331,204.6389,-0.21341,0.03493,0.01316,0.97625,0.1633,0.0288,-9.8517,0.6859,0.1789,-0.0706,0.1206,3,13,0.86,0.96,0.2,24.531,19.63,86.0,39.8,18927.0,7771,7620,7498,7871,59.0,57.9,55.2,56.8,2.764,2.785,2.721,2.692,2.46,279.6,31.2,74.9,1013.23,-26.74,-0.74,1.3,23.7,44.9,34.4,0,no_anomaly,0.0,0,0,0,0,26.912407,75.7872983,13.2,0.0
2024-03-08T15:53:09.700Z,MISSION_0068,97,0,transit,SITE_JAI_009,26.9124104,75.7872961,13.2,207.8,3.55,0.089,1.24,1.2082,-3.827,207.8027,-0.24045,0.02988,0.01825,0.97003,-0.1025,-0.0635,-9.8645,-0.4522,-0.0895,-0.2872,0.1971,3,15,0.83,1.05,0.46,24.45,19.81,85.9,40.2,18906.0,7792,7730,7645,7456,57.7,56.6,55.1,59.3,2.737,3.007,2.538,2.79,3.64,290.2,31.4,73.9,1012.79,-28.85,0.39,2.03,28.3,45.5,34.8,0,no_anomaly,0.0,0,0,0,0,26.9124104,75.7872961,13.2,0.0
2024-03-08T15:53:09.800Z,MISSION_0068,98,0,transit,SITE_JAI_009,26.9124028,75.7872974,13.2,207.99,3.7,0.128,0.43,0.5559,-0.9871,207.9851,-0.24182,0.00719,0.00679,0.97027,-0.032,-0.0437,-9.8541,0.4979,-0.5352,0.0075,0.2523,3,12,0.63,0.91,0.3,24.481,21.49,85.8,40.2,18885.0,7877,7663,7603,7673,55.5,55.3,56.6,56.0,2.721,2.561,2.694,2.51,2.48,282.5,31.3,74.6,1013.42,-30.89,-0.71,1.0,24.7,41.8,35.1,0,no_anomaly,0.0,0,0,0,0,26.9124028,75.7872974,13.2,0.0
2024-03-08T15:53:09.900Z,MISSION_0068,99,0,transit,SITE_JAI_009,26.9123985,75.7873005,13.2,207.7,3.504,0.106,0.18,-1.2938,-2.4605,207.7004,-0.23908,0.02355,-0.00582,0.9707,0.1355,0.0772,-9.7925,-0.1591,0.135,-0.2186,0.1615,3,15,0.68,0.93,0.28,24.386,21.05,85.7,40.1,18864.0,7922,7490,7736,7629,56.5,56.7,57.5,58.6,2.748,2.91,2.646,2.611,2.46,285.4,30.9,75.4,1013.14,-27.99,-0.99,1.39,24.6,43.5,34.7,0,no_anomaly,0.0,0,0,0,0,26.9123985,75.7873005,13.2,0.0
2024-03-08T15:53:10.000Z,MISSION_0068,100,0,transit,SITE_JAI_009,26.9124001,75.7872978,13.2,208.43,3.671,0.114,0.24,2.2086,-1.9014,208.4329,-0.24582,0.01135,0.02275,0.96898,0.0318,0.0536,-9.7685,0.4359,-0.0614,-0.3621,0.1956,3,20,0.6,0.74,0.2,24.358,12.43,85.6,40.3,18842.0,8012,7440,7569,7752,60.6,54.2,59.4,52.5,2.955,2.784,2.608,2.687,2.33,286.5,31.2,73.9,1013.01,-23.34,-0.37,1.79,28.7,45.8,32.6,0,no_anomaly,0.0,0,0,0,0,26.9124001,75.7872978,13.2,0.0
2024-03-08T15:53:10.100Z,MISSION_0068,101,0,transit,SITE_JAI_009,26.9123975,75.7872959,13.2,206.67,3.619,0.185,0.53,-3.0892,-2.1373,206.6681,-0.23002,0.02436,-0.02192,0.97264,0.0295,-0.0023,-9.7931,0.7767,-0.5018,-0.0368,0.2245,3,17,0.69,0.71,0.28,24.388,16.94,85.6,39.8,18821.0,7462,7698,7800,7808,56.4,55.3,52.9,57.7,2.996,2.829,2.994,2.665,2.8,281.2,30.7,74.5,1012.65,-30.9,-1.1,1.03,25.1,46.6,32.5,0,no_anomaly,0.0,0,0,0,0,26.9123975,75.7872959,13.2,0.0
2024-03-08T15:53:10.200Z,MISSION_0068,102,0,transit,SITE_JAI_009,26.9124003,75.7872968,13.2,205.52,3.529,0.068,0.36,2.8559,-0.4821,205.521,-0.22091,-0.0014,0.02523,0.97497,0.0109,0.0767,-9.7851,-0.2614,-0.1549,0.269,0.122,3,17,0.83,0.87,0.33,24.368,19.98,85.5,38.3,18800.0,7700,7554,7673,7710,52.7,53.8,58.9,57.4,2.773,2.811,2.539,2.757,2.96,274.5,31.2,75.2,1012.89,-29.35,-0.74,1.0,27.5,38.1,33.4,0,no_anomaly,0.0,0,0,0,0,26.9124003,75.7872968,13.2,0.0
2024-03-08T15:53:10.300Z,MISSION_0068,103,0,transit,SITE_JAI_009,26.912402,75.7872911,13.2,204.69,3.525,0.034,1.01,-0.9434,0.6262,204.6882,-0.21382,-0.00358,-0.00921,0.97682,0.0088,0.0174,-9.886,0.0414,0.0323,0.2131,0.0707,3,13,0.71,0.95,0.34,24.436,17.05,85.4,38.4,18779.0,7459,7803,7661,7419,60.7,55.4,59.2,62.8,3.245,2.689,2.638,2.936,3.19,286.5,31.3,74.4,1013.16,-31.01,0.77,1.62,22.9,43.4,34.2,0,no_anomaly,0.0,0,0,0,0,26.912402,75.7872911,13.2,0.0
2024-03-08T15:53:10.400Z,MISSION_0068,104,0,transit,SITE_JAI_009,26.912403,75.7872922,13.2,202.81,3.865,0.175,0.94,2.0374,-2.0844,202.8107,-0.198,0.01431,0.02102,0.97987,0.1539,0.0225,-9.8101,-0.6739,-0.2917,-0.1142,0.1981,3,12,0.64,1.01,0.22,24.476,21.94,85.3,40.5,18758.0,7730,7782,7602,7431,55.5,53.1,55.9,53.8,2.461,2.473,2.629,2.718,2.61,283.9,31.7,74.5,1013.12,-32.77,-0.78,2.03,28.4,44.2,34.3,0,no_anomaly,0.0,0,0,0,0,26.912403,75.7872922,13.2,0.0
2024-03-08T15:53:10.500Z,MISSION_0068,105,0,transit,SITE_JAI_009,26.9124026,75.7872938,13.2,203.05,4.113,0.121,0.74,2.1738,-1.1662,203.0474,-0.19992,0.00618,0.02062,0.97958,-0.1683,0.0168,-9.7342,0.9477,0.1728,-0.192,0.1103,3,12,0.79,1.23,0.31,24.496,20.31,85.2,40.0,18737.0,7673,7504,7782,7618,58.5,60.1,58.4,57.1,2.892,3.143,2.907,2.804,2.28,289.6,31.1,75.3,1013.3,-28.16,-2.02,1.19,23.5,39.0,30.8,0,no_anomaly,0.0,0,0,0,0,26.9124026,75.7872938,13.2,0.0
2024-03-08T15:53:10.600Z,MISSION_0068,106,0,transit,SITE_JAI_009,26.912405,75.7872917,13.2,202.69,4.212,0.076,1.08,1.2148,1.1571,202.6915,-0.1966,-0.01198,0.00841,0.98037,-0.1046,-0.0346,-9.7846,-0.1563,0.4333,-0.3401,0.1595,3,17,0.64,0.88,0.2,24.446,21.33,85.1,39.0,18716.0,7352,7635,7450,7579,53.5,54.9,58.9,60.0,2.963,2.797,2.89,2.781,2.81,283.1,31.5,74.7,1013.22,-28.65,-1.67,2.22,28.2,45.1,31.6,0,no_anomaly,0.0,0,0,0,0,26.912405,75.7872917,13.2,0.0
2024-03-08T15:53:10.700Z,MISSION_0068,107,0,transit,SITE_JAI_009,26.9124013,75.7872902,13.2,203.39,3.935,0.112,1.1,0.1103,2.0503,203.3929,-0.20268,-0.01771,-0.00268,0.97908,0.0017,-0.0073,-9.7432,-0.0669,-0.9081,0.0209,0.1346,3,19,0.73,1.04,0.37,24.42,14.37,85.0,39.7,18694.0,7788,7884,7634,7834,55.8,59.0,55.0,56.5,2.779,2.759,2.651,2.87,2.77,276.9,31.1,75.4,1012.97,-32.52,-0.83,1.46,26.3,42.3,33.0,0,no_anomaly,0.0,0,0,0,0,26.9124013,75.7872902,13.2,0.0
2024-03-08T15:53:10.800Z,MISSION_0068,108,0,transit,SITE_JAI_009,26.9123997,75.7872921,13.2,205.71,4.106,0.121,0.88,-2.7039,-2.2822,205.7082,-0.2219,0.02466,-0.01857,0.97458,-0.1241,0.0815,-9.8048,-0.498,-0.4618,-0.1892,0.2317,3,18,0.74,0.78,0.29,24.333,16.17,84.9,39.2,18673.0,7641,7570,7769,7775,57.5,55.1,54.6,54.6,2.669,2.628,2.761,2.604,2.18,289.9,31.0,74.4,1012.78,-27.3,-2.18,1.35,29.1,46.3,35.3,0,no_anomaly,0.0,0,0,0,0,26.9123997,75.7872921,13.2,0.0
2024-03-08T15:53:10.900Z,MISSION_0068,109,0,transit,SITE_JAI_009,26.9124089,75.7872866,13.2,204.71,3.971,0.021,1.8,4.2063,-0.906,204.7088,-0.21409,-0.00013,0.03754,0.97609,0.1059,0.0227,-9.8163,-0.0191,-0.7738,0.0606,0.2027,3,12,0.54,0.83,0.27,24.435,19.52,84.8,40.3,18652.0,7620,7602,7425,7746,54.5,55.5,56.1,56.6,2.849,3.037,2.818,2.671,2.49,285.8,30.8,74.2,1012.93,-31.53,1.18,1.34,26.1,44.4,33.6,0,no_anomaly,0.0,0,0,0,0,26.9124089,75.7872866,13.2,0.0
2024-03-08T15:53:11.000Z,MISSION_0068,110,0,transit,SITE_JAI_009,26.9124149,75.7872921,13.2,202.38,3.821,0.107,1.88,-0.2826,-2.1571,202.3794,-0.19398,0.01894,0.00123,0.98082,0.1425,-0.0521,-9.802,-0.1471,0.6175,-0.4944,0.1364,3,13,0.66,0.6,0.29,24.392,20.22,84.7,39.9,18631.0,7682,7766,7729,7671,55.0,56.1,55.9,61.1,2.678,2.517,2.705,2.518,3.04,284.9,31.1,74.1,1012.98,-31.48,-1.49,1.41,29.1,45.2,35.2,0,no_anomaly,0.0,0,0,0,0,26.9124149,75.7872921,13.2,0.0
2024-03-08T15:53:11.100Z,MISSION_0068,111,0,transit,SITE_JAI_009,26.9124158,75.787291,13.2,204.29,4.27,0.14,2.02,1.1751,-1.3673,204.2858,-0.21044,0.00951,0.01253,0.97748,0.0668,-0.0641,-9.7875,-0.3115,0.3558,-0.0238,0.2425,3,11,0.62,0.68,0.24,24.384,21.94,84.6,39.0,18610.0,7879,7639,7651,7585,58.7,53.8,56.0,56.0,2.61,2.767,2.664,2.678,2.69,286.1,31.1,75.6,1012.9,-31.81,-1.35,1.56,25.6,35.9,33.7,0,no_anomaly,0.0,0,0,0,0,26.9124158,75.787291,13.2,0.0
2024-03-08T15:53:11.200Z,MISSION_0068,112,0,transit,SITE_JAI_009,26.9124126,75.7872917,13.2,205.2,3.824,0.127,1.68,0.4916,-7.4805,205.2024,-0.21797,0.06273,0.01841,0.97376,0.1964,-0.0213,-9.7338,-0.4512,0.5368,-0.0093,0.1807,3,13,0.65,1.02,0.2,24.471,19.62,84.5,39.2,18589.0,7757,7840,7615,7660,57.6,56.5,53.6,57.0,2.827,2.784,2.781,2.935,2.15,288.5,31.4,75.4,1012.72,-29.14,-0.51,1.28,28.9,38.9,32.8,0,no_anomaly,0.0,0,0,0,0,26.9124126,75.7872917,13.2,0.0
2024-03-08T15:53:11.300Z,MISSION_0068,113,0,transit,SITE_JAI_009,26.9124138,75.7872887,13.2,205.45,3.855,0.131,1.98,1.969,-0.9093,205.4533,-0.22039,0.00395,0.01851,0.97523,-0.2509,0.0553,-9.888,0.5524,-0.1289,-0.0812,0.1085,3,15,0.59,0.8,0.32,24.409,22.37,84.4,39.4,18568.0,7572,7337,7703,7631,56.2,55.2,53.3,57.1,2.946,2.86,2.968,2.779,2.58,279.0,31.5,74.5,1012.94,-28.11,0.63,1.87,30.2,42.3,36.9,0,no_anomaly,0.0,0,0,0,0,26.9124138,75.7872887,13.2,0.0
2024-03-08T15:53:11.400Z,MISSION_0068,114,0,transit,SITE_JAI_009,26.9124114,75.7872906,13.2,206.39,4.345,0.123,1.64,-1.4596,-3.4121,206.3922,-0.2278,0.03189,-0.0056,0.97317,-0.1076,0.0566,-9.8492,0.1959,0.2725,0.3768,0.0772,3,14,0.58,1.07,0.26,24.42,17.39,84.3,39.6,18546.0,7464,7721,7645,7774,56.7,57.3,53.0,53.1,2.81,2.953,2.619,2.719,1.72,284.6,31.1,74.3,1012.86,-31.02,0.26,1.52,27.3,38.2,33.3,0,no_anomaly,0.0,0,0,0,0,26.9124114,75.7872906,13.2,0.0
2024-03-08T15:53:11.500Z,MISSION_0068,115,0,transit,SITE_JAI_009,26.9124028,75.7872942,13.2,207.8,4.686,0.04,0.72,-1.2951,-0.9934,207.8028,-0.24013,0.01113,-0.00889,0.97064,-0.021,0.0428,-9.8058,-0.332,-0.0518,-0.1815,0.0667,3,16,0.52,0.64,0.23,24.363,17.19,84.2,40.6,18525.0,7798,7824,7690,7583,56.0,56.6,58.4,53.4,2.812,2.88,3.026,3.125,1.93,274.9,31.3,74.7,1012.72,-30.86,-1.82,1.08,25.0,41.0,36.7,0,no_anomaly,0.0,0,0,0,0,26.9124028,75.7872942,13.2,0.0
2024-03-08T15:53:11.600Z,MISSION_0068,116,0,transit,SITE_JAI_009,26.9124056,75.7872948,13.2,206.47,4.482,0.123,0.85,2.9334,-1.4501,206.4729,-0.22919,0.00645,0.02781,0.97296,0.0083,-0.0279,-9.8373,1.2673,-0.2743,-0.381,0.1829,3,19,0.7,0.94,0.21,24.37,20.83,84.1,39.5,18504.0,7645,7464,7770,7530,63.0,57.2,54.4,54.6,2.97,2.942,3.013,2.871,4.01,286.2,31.0,74.1,1012.56,-29.52,0.01,1.7,25.1,42.9,34.8,0,no_anomaly,0.0,0,0,0,0,26.9124056,75.7872948,13.2,0.0
2024-03-08T15:53:11.700Z,MISSION_0068,117,0,transit,SITE_JAI_009,26.9124082,75.7872932,13.2,205.33,4.296,0.083,1.19,2.3206,-1.9215,205.3312,-0.21952,0.01192,0.02343,0.97525,0.0463,0.01,-9.7704,-0.3093,0.2416,0.3564,0.2169,3,11,0.9,0.9,0.43,24.381,17.65,84.0,38.7,18483.0,7329,7471,7729,7793,58.0,56.8,57.1,58.1,2.66,2.786,2.944,3.025,2.4,288.7,31.1,75.1,1012.95,-29.45,1.65,1.2,28.5,36.1,32.4,0,no_anomaly,0.0,0,0,0,0,26.9124082,75.7872932,13.2,0.0
2024-03-08T15:53:11.800Z,MISSION_0068,118,0,transit,SITE_JAI_009,26.9124076,75.7872919,13.2,203.46,4.55,0.165,1.24,-1.8313,-2.3693,203.462,-0.20292,0.02349,-0.01144,0.97885,-0.018,-0.0171,-9.7808,-0.7465,0.2836,-0.4074,0.2069,3,18,0.6,0.84,0.32,24.349,23.81,83.9,40.3,18462.0,7512,7375,7600,7830,58.3,58.0,55.2,56.0,2.746,2.87,2.708,2.978,3.1,289.1,31.4,75.1,1013.06,-30.44,0.77,2.05,22.9,39.8,30.9,0,no_anomaly,0.0,0,0,0,0,26.9124076,75.7872919,13.2,0.0
2024-03-08T15:53:11.900Z,MISSION_0068,119,0,transit,SITE_JAI_009,26.9124066,75.7872932,13.2,201.43,4.645,0.076,1.06,-0.1131,-1.6236,201.4273,-0.18587,0.0141,0.00166,0.98247,0.0034,0.0498,-9.7819,-0.5416,0.026,0.151,0.1155,3,14,0.6,0.65,0.2,24.422,18.78,83.8,39.0,18441.0,7680,7648,7784,7656,59.6,56.1,55.1,58.0,2.859,2.59,2.719,2.638,2.93,284.1,31.3,74.9,1012.82,-29.14,-0.48,1.75,25.4,41.3,33.0,0,no_anomaly,0.0,0,0,0,0,26.9124066,75.7872932,13.2,0.0
2024-03-08T15:53:12.000Z,MISSION_0068,120,0,transit,SITE_JAI_009,26.9124044,75.7872948,13.2,201.56,4.721,0.198,0.76,2.3161,-2.6622,201.561,-0.18742,0.01904,0.02419,0.9818,-0.0733,-0.0277,-9.8388,-0.7271,-0.2542,0.1451,0.144,3,14,0.73,1.11,0.26,24.368,17.55,83.7,39.8,18420.0,7584,7623,7571,7615,57.9,57.4,55.9,54.4,2.743,2.927,2.819,2.763,2.78,286.1,31.3,74.0,1013.46,-31.17,-1.3,1.0,24.2,44.8,32.1,0,no_anomaly,0.0,0,0,0,0,26.9124044,75.7872948,13.2,0.0
2024-03-08T15:53:12.100Z,MISSION_0068,121,0,transit,SITE_JAI_009,26.9124016,75.7872888,13.2,202.5,5.091,0.005,1.26,2.2464,-1.925,202.5025,-0.19537,0.01265,0.0225,0.98039,-0.0284,0.0045,-9.7506,-0.4372,-0.5911,-0.2072,0.0985,3,10,0.64,1.05,0.31,24.416,18.15,83.6,38.8,18398.0,7698,7825,7985,7683,53.8,57.4,56.7,55.0,2.935,2.707,2.824,2.606,2.9,287.7,30.8,75.2,1012.89,-30.57,1.27,1.0,25.6,44.6,31.7,0,no_anomaly,0.0,0,0,0,0,26.9124016,75.7872888,13.2,0.0
2024-03-08T15:53:12.200Z,MISSION_0068,122,0,transit,SITE_JAI_009,26.9124017,75.7872889,13.2,203.68,5.512,0.072,1.25,1.9495,-1.6623,203.6799,-0.20537,0.01071,0.01962,0.97843,0.013,0.0033,-9.8247,0.4931,0.2443,0.3131,0.1249,3,10,0.88,0.86,0.33,24.334,21.22,83.5,39.9,18377.0,8030,7499,7548,7803,54.6,59.4,53.8,60.6,2.938,2.744,2.627,2.717,2.63,289.1,30.9,74.4,1012.82,-34.97,1.52,1.32,23.7,42.2,32.8,0,no_anomaly,0.0,0,0,0,0,26.9124017,75.7872889,13.2,0.0
2024-03-08T15:53:12.300Z,MISSION_0068,123,0,transit,SITE_JAI_009,26.9124018,75.7872882,13.2,202.22,5.73,0.138,1.32,6.7676,-3.0278,202.2229,-0.19384,0.01451,0.06298,0.9789,0.0994,-0.0462,-9.8478,0.3622,-0.3028,0.1442,0.019,3,15,0.79,0.86,0.4,24.258,22.68,83.4,39.2,18356.0,7494,7597,7664,7555,55.9,55.2,56.9,55.0,2.934,2.855,2.941,2.486,2.62,276.8,31.0,75.2,1013.01,-35.31,-1.79,1.88,22.9,42.4,34.7,0,no_anomaly,0.0,0,0,0,0,26.9124018,75.7872882,13.2,0.0
2024-03-08T15:53:12.400Z,MISSION_0068,124,0,transit,SITE_JAI_009,26.912397,75.7872891,13.2,202.49,5.207,0.168,1.26,-3.0667,-2.9603,202.4909,-0.1942,0.03054,-0.0212,0.98026,-0.0146,-0.0332,-9.7598,-0.1682,-0.0733,-0.0246,0.1757,3,20,0.66,0.91,0.2,24.374,19.39,83.3,38.6,18335.0,7627,7708,7542,7805,55.1,58.5,58.5,54.6,2.68,2.994,2.854,2.658,2.65,281.9,31.6,74.3,1012.59,-25.74,0.28,1.47,24.5,43.9,35.6,0,no_anomaly,0.0,0,0,0,0,26.912397,75.7872891,13.2,0.0
2024-03-08T15:53:12.500Z,MISSION_0068,125,0,transit,SITE_JAI_009,26.912394,75.7872891,13.2,202.94,5.305,0.042,1.38,-1.3747,-0.7016,202.9364,-0.19873,0.00839,-0.01054,0.97996,0.1025,0.0013,-9.7879,-0.4113,-0.5235,0.0958,0.1189,3,17,0.73,0.74,0.36,24.407,24.21,83.2,39.8,18314.0,7930,7621,7656,7606,58.9,53.2,55.4,55.7,2.84,2.719,2.963,2.931,2.23,283.8,30.9,74.4,1013.33,-34.32,1.13,2.06,28.3,41.9,35.7,0,no_anomaly,0.0,0,0,0,0,26.912394,75.7872891,13.2,0.0
2024-03-08T15:53:12.600Z,MISSION_0068,126,0,transit,SITE_JAI_009,26.9123934,75.7872847,13.2,202.73,5.312,0.096,1.86,-1.049,-2.8997,202.7276,-0.19674,0.02661,-0.00399,0.98009,-0.1456,0.0381,-9.8723,0.047,-0.0237,-0.2258,0.2193,3,15,0.79,0.91,0.24,24.347,17.8,83.1,38.5,18293.0,7526,7679,7640,7557,55.3,56.1,58.2,55.9,2.702,2.854,2.869,2.911,2.22,281.0,31.1,74.6,1012.74,-35.3,-0.66,1.76,28.2,40.2,36.4,0,no_anomaly,0.0,0,0,0,0,26.9123934,75.7872847,13.2,0.0
2024-03-08T15:53:12.700Z,MISSION_0068,127,0,transit,SITE_JAI_009,26.9123965,75.787284,13.2,202.71,5.406,0.167,1.83,1.0469,-2.2227,202.7107,-0.19702,0.01722,0.01277,0.98016,-0.1003,-0.1209,-9.7802,0.3282,0.2797,0.0529,0.2158,3,16,0.67,0.81,0.24,24.377,20.48,83.1,39.5,18272.0,7562,7866,7899,7600,59.4,56.3,55.0,57.6,2.822,2.685,2.668,2.78,3.03,286.8,31.1,74.7,1013.06,-29.17,0.27,1.48,30.4,46.6,32.8,0,no_anomaly,0.0,0,0,0,0,26.9123965,75.787284,13.2,0.0
2024-03-08T15:53:12.800Z,MISSION_0068,128,0,transit,SITE_JAI_009,26.9123985,75.7872867,13.2,202.02,5.803,0.072,1.49,-2.4606,-3.485,202.0244,-0.19024,0.03394,-0.01526,0.98103,0.1311,-0.0313,-9.7564,-0.3266,0.0771,0.4435,0.0943,3,20,0.63,1.36,0.32,24.262,19.14,83.0,39.7,18250.0,7913,7585,7741,7361,51.5,58.2,55.2,56.5,2.567,2.647,3.007,3.019,3.31,287.4,31.3,74.3,1013.0,-27.73,-0.72,1.7,24.1,44.9,35.0,0,no_anomaly,0.0,0,0,0,0,26.9123985,75.7872867,13.2,0.0
2024-03-08T15:53:12.900Z,MISSION_0068,129,1,transit,SITE_JAI_009,26.9123995,75.7872884,13.2,202.31,6.064,0.086,1.29,-1.352,-4.2734,202.3147,-0.19292,0.03886,-0.00435,0.98043,-0.2358,-0.0134,-9.836,0.4603,0.0168,0.0996,0.1234,3,11,0.65,1.06,0.25,24.292,20.07,82.9,39.5,18229.0,7811,7598,7883,7394,56.4,57.0,57.0,51.9,2.968,3.069,2.918,2.76,1.97,286.8,30.8,75.2,1013.12,-29.3,1.18,1.45,25.8,46.2,35.1,0,no_anomaly,0.0,0,0,0,0,26.9123995,75.7872884,13.2,0.0
