timestamp_utc,mission_id,frame_id,waypoint_id,inspection_phase,site_id,latitude_deg,longitude_deg,altitude_m,heading_deg,ground_speed_ms,vertical_speed_ms,distance_to_tower_m,roll_deg,pitch_deg,yaw_deg,quat_w,quat_x,quat_y,quat_z,accel_x_ms2,accel_y_ms2,accel_z_ms2,gyro_x_rads,gyro_y_rads,gyro_z_rads,vibration_level,gps_fix_type,gps_satellite_count,gps_hdop,gps_vdop,position_error_m,battery_voltage_v,battery_current_a,battery_remaining_pct,battery_temp_c,battery_capacity_mah,motor_fl_rpm,motor_fr_rpm,motor_rl_rpm,motor_rr_rpm,motor_fl_temp_c,motor_fr_temp_c,motor_rl_temp_c,motor_rr_temp_c,motor_fl_thrust_n,motor_fr_thrust_n,motor_rl_thrust_n,motor_rr_thrust_n,wind_speed_ms,wind_dir_deg,air_temp_c,humidity_pct,pressure_hpa,gimbal_pitch_deg,gimbal_roll_deg,zoom_factor,ir_temp_min_c,ir_temp_max_c,ir_temp_avg_c,anomaly_detected,anomaly_class,anomaly_confidence,anomaly_bbox_x,anomaly_bbox_y,anomaly_bbox_w,anomaly_bbox_h,anomaly_gps_lat,anomaly_gps_lon,anomaly_gps_alt_m,ir_temp_delta_c
2024-02-28T18:33:00.000Z,MISSION_0063,0,0,takeoff,SITE_CHE_004,13.082703,80.2706983,1.5,192.62,0.155,0.168,0.38,-1.2446,-3.5812,192.6207,-0.10952,0.03225,-0.00736,0.99343,0.2045,0.0321,-9.9048,0.2069,-0.574,-0.0277,0.0713,3,10,0.76,1.11,0.43,24.758,19.37,97.4,36.8,21426.0,8629,8666,8544,8485,52.5,49.6,50.4,57.1,2.883,2.812,2.865,2.923,2.83,95.8,28.4,33.6,1010.76,-29.21,0.74,1.56,23.5,35.7,30.4,0,no_anomaly,0.0,0,0,0,0,13.082703,80.2706983,1.5,0.0
2024-02-28T18:33:00.100Z,MISSION_0063,1,0,takeoff,SITE_CHE_004,13.0827013,80.2707003,3.0,190.68,0.805,0.088,0.15,-3.1801,-0.9082,190.6772,-0.09278,0.01047,-0.02689,0.99527,-0.0631,0.019,-9.7828,-0.1308,-0.5575,-0.0279,0.2141,3,16,0.64,1.1,0.39,24.768,16.95,97.3,37.4,21409.0,8394,8818,9005,8794,53.3,56.4,57.8,53.5,2.735,2.843,2.834,2.978,2.68,91.5,28.8,33.9,1010.68,-28.03,-0.78,1.36,21.2,38.3,30.3,0,no_anomaly,0.0,0,0,0,0,13.0827013,80.2707003,3.0,0.0
2024-02-28T18:33:00.200Z,MISSION_0063,2,0,takeoff,SITE_CHE_004,13.0827034,80.2706997,4.5,190.92,0.549,0.061,0.38,1.9761,-2.1615,190.9245,-0.09548,0.01713,0.01896,0.9951,0.0002,-0.0448,-9.7641,0.9529,0.053,-0.2145,0.1983,3,12,0.8,0.97,0.24,24.743,14.4,97.2,36.7,21393.0,8894,8792,8595,8596,52.5,54.7,52.2,54.2,2.727,2.707,2.873,2.858,3.23,90.1,28.4,33.6,1010.98,-29.1,2.02,1.51,26.4,43.8,32.1,0,no_anomaly,0.0,0,0,0,0,13.0827034,80.2706997,4.5,0.0
2024-02-28T18:33:00.300Z,MISSION_0063,3,0,takeoff,SITE_CHE_004,13.0827054,80.2706944,5.0,194.18,0.352,0.064,0.87,-0.608,-3.0331,194.1765,-0.12321,0.02692,-0.002,0.99201,-0.0675,-0.0001,-9.7677,0.7242,0.3262,0.0987,0.1813,3,14,0.79,0.81,0.39,24.702,20.04,97.2,36.6,21376.0,8702,8807,8667,8546,53.6,55.6,49.6,53.6,2.735,2.832,2.946,2.767,2.11,93.5,28.6,33.5,1010.75,-33.2,1.3,1.65,20.9,39.7,31.5,0,no_anomaly,0.0,0,0,0,0,13.0827054,80.2706944,5.0,0.0
2024-02-28T18:33:00.400Z,MISSION_0063,4,0,takeoff,SITE_CHE_004,13.0827045,80.2706953,5.0,193.95,0.561,0.145,0.73,2.0818,-4.9918,193.9457,-0.12205,0.04102,0.0233,0.9914,0.0496,0.0288,-9.842,-0.234,0.1027,-0.3962,0.1643,3,12,0.81,0.98,0.28,24.744,20.26,97.1,37.6,21359.0,8615,8577,8503,8737,55.6,52.6,53.0,53.7,2.465,2.976,2.791,2.526,2.45,93.4,28.8,33.2,1010.86,-34.18,0.06,1.04,26.0,41.0,33.1,0,no_anomaly,0.0,0,0,0,0,13.0827045,80.2706953,5.0,0.0
2024-02-28T18:33:00.500Z,MISSION_0063,5,0,takeoff,SITE_CHE_004,13.0827015,80.2707024,5.0,192.93,0.7,0.097,0.31,-2.7017,-2.9125,192.9318,-0.11195,0.0279,-0.02056,0.99311,0.0333,-0.0713,-9.7788,-0.3071,-0.0392,-0.092,0.1335,3,16,0.65,1.1,0.22,24.696,14.88,97.0,37.3,21342.0,8608,8709,8753,8697,52.3,54.4,56.4,56.1,2.538,2.566,2.929,2.737,2.79,92.1,28.8,34.1,1010.77,-28.68,0.13,1.93,25.3,42.8,30.8,0,no_anomaly,0.0,0,0,0,0,13.0827015,80.2707024,5.0,0.0
2024-02-28T18:33:00.600Z,MISSION_0063,6,0,takeoff,SITE_CHE_004,13.0827014,80.2707026,5.0,193.29,0.498,0.074,0.33,-3.2473,-1.3888,193.2926,-0.11534,0.01531,-0.02674,0.99285,0.0584,0.0252,-9.8501,0.3787,0.2108,-0.2556,0.1747,3,13,0.99,0.9,0.34,24.783,19.55,96.9,35.9,21325.0,8609,8534,8858,8765,58.3,51.3,55.6,52.8,2.826,2.801,2.805,2.55,3.35,97.9,28.4,32.6,1010.66,-29.1,-1.17,1.0,27.7,42.3,33.7,0,no_anomaly,0.0,0,0,0,0,13.0827014,80.2707026,5.0,0.0
2024-02-28T18:33:00.700Z,MISSION_0063,7,0,takeoff,SITE_CHE_004,13.0827053,80.2707045,5.0,194.2,0.266,0.181,0.77,-3.7248,-1.5203,194.2037,-0.12313,0.01718,-0.03061,0.99177,-0.0319,0.0489,-9.8227,0.3527,0.3831,0.2967,0.1893,3,11,0.65,0.84,0.27,24.726,20.93,96.9,37.5,21309.0,8464,8831,8999,8710,57.7,51.3,51.2,55.6,2.581,2.932,2.935,2.72,2.27,80.9,28.8,33.3,1011.29,-30.85,1.41,1.64,22.0,39.8,28.7,0,no_anomaly,0.0,0,0,0,0,13.0827053,80.2707045,5.0,0.0
2024-02-28T18:33:00.800Z,MISSION_0063,8,0,takeoff,SITE_CHE_004,13.0827082,80.2707047,5.0,195.59,0.247,0.146,1.05,-3.6056,-0.2681,195.5857,-0.13545,0.00658,-0.03085,0.99028,-0.0808,-0.0355,-9.7729,0.329,0.2632,-0.2074,0.1373,3,10,0.67,1.03,0.22,24.874,16.74,96.8,37.0,21292.0,8867,8479,8772,8507,55.9,55.5,54.5,52.4,3.019,2.632,2.795,2.814,2.3,86.2,28.9,33.5,1010.97,-31.47,2.34,1.37,25.2,36.7,28.0,0,no_anomaly,0.0,0,0,0,0,13.0827082,80.2707047,5.0,0.0
2024-02-28T18:33:00.900Z,MISSION_0063,9,0,takeoff,SITE_CHE_004,13.0827062,80.2707106,5.0,195.13,0.144,0.074,1.36,-1.0683,0.0625,195.135,-0.13169,0.00069,-0.00931,0.99125,-0.0757,0.0415,-9.7962,-0.6406,0.1533,-0.2003,0.1104,3,20,0.79,0.78,0.24,24.698,19.44,96.7,37.2,21275.0,8524,8638,8790,8691,54.6,51.7,53.6,55.4,2.965,2.83,2.946,2.891,2.18,92.6,28.6,32.6,1010.94,-30.22,-1.74,1.57,20.2,36.7,29.5,0,no_anomaly,0.0,0,0,0,0,13.0827062,80.2707106,5.0,0.0
2024-02-28T18:33:01.000Z,MISSION_0063,10,0,takeoff,SITE_CHE_004,13.082707,80.2707078,5.0,194.9,0.155,0.039,1.17,-2.6043,-2.1054,194.8963,-0.12916,0.02116,-0.02015,0.99119,-0.0538,-0.0315,-9.8239,0.5833,0.1008,0.3086,0.1573,3,12,0.69,0.99,0.29,24.753,21.64,96.6,37.1,21258.0,8614,8521,8737,8889,53.6,53.3,54.4,53.9,2.629,2.899,2.671,2.815,1.59,95.3,28.5,34.4,1010.61,-33.02,-0.1,1.67,23.7,38.6,32.3,0,no_anomaly,0.0,0,0,0,0,13.082707,80.2707078,5.0,0.0
2024-02-28T18:33:01.100Z,MISSION_0063,11,0,takeoff,SITE_CHE_004,13.0827054,80.2707078,5.0,198.49,0.163,0.139,1.06,3.0176,0.752,198.4893,-0.16042,-0.0107,0.02493,0.98668,0.0319,0.0627,-9.8371,-0.6432,0.4142,0.3154,0.203,3,12,0.65,0.98,0.28,24.765,18.82,96.6,36.9,21241.0,8666,8633,8847,8968,54.9,55.8,54.4,48.7,2.895,2.775,2.691,2.852,2.8,89.4,28.6,33.4,1011.18,-33.47,0.17,2.23,22.0,38.3,27.6,0,no_anomaly,0.0,0,0,0,0,13.0827054,80.2707078,5.0,0.0
2024-02-28T18:33:01.200Z,MISSION_0063,12,0,takeoff,SITE_CHE_004,13.0827034,80.2707118,5.0,197.25,0.162,-0.01,1.36,4.6556,-4.4439,197.2538,-0.15132,0.03221,0.04594,0.98689,-0.1549,-0.0667,-9.7691,-0.1771,0.3661,0.8517,0.1573,3,15,0.73,0.84,0.37,24.7,21.06,96.5,36.1,21225.0,8795,8429,8578,8579,47.8,52.7,52.5,53.6,2.871,2.752,3.026,2.827,2.92,86.9,29.1,33.1,1010.62,-33.75,0.58,1.71,23.0,37.8,31.6,0,no_anomaly,0.0,0,0,0,0,13.0827034,80.2707118,5.0,0.0
2024-02-28T18:33:01.300Z,MISSION_0063,13,0,takeoff,SITE_CHE_004,13.0827061,80.2707166,5.0,196.19,0.0,0.063,1.97,-0.9773,-5.2665,196.1857,-0.14024,0.04668,-0.00197,0.98901,-0.0113,-0.0373,-9.8377,-0.2506,0.6653,0.2257,0.1924,3,10,0.56,0.98,0.26,24.68,15.45,96.4,36.6,21208.0,8511,8560,8444,8592,52.5,52.1,53.1,54.9,2.578,2.426,2.685,2.925,1.77,92.7,28.7,33.3,1010.86,-28.51,0.43,1.97,23.5,34.6,31.2,0,no_anomaly,0.0,0,0,0,0,13.0827061,80.2707166,5.0,0.0
2024-02-28T18:33:01.400Z,MISSION_0063,14,0,takeoff,SITE_CHE_004,13.0827071,80.2707111,5.0,197.2,0.193,0.175,1.47,3.3907,-1.4952,197.198,-0.14982,0.00847,0.0312,0.98818,0.0021,-0.0209,-9.879,-0.2218,0.0678,-0.1712,0.0637,3,14,0.69,0.87,0.44,24.73,16.06,96.3,36.0,21191.0,8379,8784,8452,8627,52.7,51.8,52.2,55.9,2.691,3.014,2.879,3.028,2.1,93.9,28.6,33.8,1011.04,-25.96,-0.06,1.82,20.7,38.4,29.7,0,no_anomaly,0.0,0,0,0,0,13.0827071,80.2707111,5.0,0.0
2024-02-28T18:33:01.500Z,MISSION_0063,15,0,takeoff,SITE_CHE_004,13.0827057,80.2707076,5.0,198.26,0.107,0.126,1.06,-1.9872,-0.0861,198.2638,-0.15867,0.00349,-0.017,0.98718,0.1091,0.0566,-9.7833,-0.9581,-0.2776,-0.0668,0.1241,3,16,0.7,0.84,0.22,24.66,15.66,96.2,36.8,21174.0,8621,8512,8556,8438,54.8,50.1,51.8,52.9,2.466,3.181,2.829,2.744,2.83,82.8,28.7,33.5,1011.01,-31.47,0.3,1.27,24.8,41.7,30.0,0,no_anomaly,0.0,0,0,0,0,13.0827057,80.2707076,5.0,0.0
2024-02-28T18:33:01.600Z,MISSION_0063,16,0,takeoff,SITE_CHE_004,13.0827024,80.2707099,5.0,198.9,0.554,0.009,1.13,-1.6829,-3.9127,198.897,-0.16355,0.03608,-0.00887,0.98583,0.2151,0.037,-9.8751,-0.42,0.2599,0.2119,0.2208,3,10,0.81,1.26,0.34,24.696,16.66,96.2,36.6,21158.0,8555,8650,8498,8510,50.6,56.2,53.6,55.2,3.04,2.932,2.842,2.935,2.66,90.9,28.5,32.5,1010.44,-31.58,0.65,1.36,25.8,38.5,32.5,0,no_anomaly,0.0,0,0,0,0,13.0827024,80.2707099,5.0,0.0
2024-02-28T18:33:01.700Z,MISSION_0063,17,0,takeoff,SITE_CHE_004,13.0826995,80.2707077,5.0,197.95,0.708,0.136,0.85,-0.5075,-2.1559,197.9475,-0.15587,0.01927,-0.00144,0.98759,0.0174,0.0232,-9.8371,0.0812,-0.137,-0.2606,0.152,3,15,0.74,1.08,0.27,24.674,21.58,96.1,36.6,21141.0,8643,8800,8529,8728,57.1,53.8,53.5,53.5,2.684,2.787,2.817,2.588,3.28,89.2,28.8,33.9,1010.86,-30.12,-1.22,1.88,21.9,36.0,30.4,0,no_anomaly,0.0,0,0,0,0,13.0826995,80.2707077,5.0,0.0
2024-02-28T18:33:01.800Z,MISSION_0063,18,0,takeoff,SITE_CHE_004,13.0826932,80.2707114,5.0,198.33,0.674,0.077,1.48,1.2757,-3.6296,198.3342,-0.15957,0.02949,0.01603,0.98662,-0.1222,-0.0074,-9.6948,-0.5505,0.3632,0.5957,0.206,3,16,0.74,0.8,0.26,24.716,19.1,96.0,37.3,21124.0,8701,8771,8667,8958,54.0,52.2,52.2,54.3,2.669,2.725,2.811,2.951,2.83,87.7,29.2,34.4,1010.78,-28.77,0.27,2.09,21.9,39.6,30.1,0,no_anomaly,0.0,0,0,0,0,13.0826932,80.2707114,5.0,0.0
2024-02-28T18:33:01.900Z,MISSION_0063,19,0,takeoff,SITE_CHE_004,13.082692,80.2707145,5.0,194.7,0.469,0.1,1.84,1.616,-2.1069,194.6998,-0.12815,0.01643,0.01634,0.99148,-0.0883,-0.0702,-9.7762,-0.0571,0.6946,0.2644,0.139,3,10,0.72,0.91,0.24,24.801,17.47,95.9,37.5,21107.0,8656,8856,8834,8864,50.2,53.7,53.6,55.4,3.034,2.792,2.71,2.919,2.18,79.9,28.3,33.4,1010.69,-33.05,0.12,1.28,24.4,36.8,30.2,0,no_anomaly,0.0,0,0,0,0,13.082692,80.2707145,5.0,0.0
2024-02-28T18:33:02.000Z,MISSION_0063,20,0,takeoff,SITE_CHE_004,13.0826907,80.2707125,5.0,194.59,0.14,0.113,1.73,-1.7362,-1.7342,194.5942,-0.12676,0.01693,-0.0131,0.9917,0.1334,-0.0206,-9.8497,0.1123,0.5484,0.0158,0.1258,3,13,0.72,0.78,0.26,24.643,14.27,95.9,37.2,21090.0,8491,8860,8583,8564,55.6,54.6,51.9,52.4,2.668,2.767,2.804,2.855,2.76,89.4,29.1,33.8,1010.71,-27.28,0.56,1.53,22.0,43.6,33.8,0,no_anomaly,0.0,0,0,0,0,13.0826907,80.2707125,5.0,0.0
2024-02-28T18:33:02.100Z,MISSION_0063,21,0,takeoff,SITE_CHE_004,13.0826953,80.2707083,5.0,198.25,0.426,0.096,1.07,1.4594,0.7641,198.2541,-0.15852,-0.0086,0.01152,0.98725,-0.0571,0.032,-9.8284,0.5704,-0.1975,0.5757,0.1055,3,17,0.61,0.98,0.34,24.728,18.35,95.8,36.9,21074.0,8869,8417,8659,8531,54.3,53.4,53.3,53.2,2.833,2.737,2.831,2.488,2.93,93.3,29.0,34.0,1010.97,-30.35,1.51,1.31,22.9,37.8,29.5,0,no_anomaly,0.0,0,0,0,0,13.0826953,80.2707083,5.0,0.0
2024-02-28T18:33:02.200Z,MISSION_0063,22,0,takeoff,SITE_CHE_004,13.0826931,80.2707066,5.0,198.73,0.055,0.113,1.06,-0.6817,-2.9377,198.7314,-0.16253,0.02626,-0.0017,0.98635,-0.1388,0.0004,-9.7356,0.1513,0.0564,0.3817,0.0618,3,17,0.75,0.79,0.33,24.717,18.69,95.7,38.4,21057.0,8464,8600,8882,8811,53.6,55.7,53.9,52.5,2.711,2.472,2.808,2.75,2.02,93.2,28.5,33.5,1010.99,-29.89,-0.18,1.44,24.4,41.3,29.7,0,no_anomaly,0.0,0,0,0,0,13.0826931,80.2707066,5.0,0.0
2024-02-28T18:33:02.300Z,MISSION_0063,23,0,takeoff,SITE_CHE_004,13.0826998,80.2707057,5.0,200.98,0.0,0.177,0.63,0.3731,-2.8313,200.981,-0.1821,0.0237,0.0077,0.98297,-0.1,-0.0127,-9.7636,-0.1326,-0.847,0.0215,0.1106,3,11,0.72,0.6,0.35,24.645,19.67,95.6,36.7,21040.0,8505,9035,8551,8778,54.6,53.8,52.2,50.3,2.835,2.711,3.084,2.899,2.78,93.0,28.6,34.3,1010.81,-27.57,-1.07,1.6,24.3,45.7,35.0,0,no_anomaly,0.0,0,0,0,0,13.0826998,80.2707057,5.0,0.0
2024-02-28T18:33:02.400Z,MISSION_0063,24,0,takeoff,SITE_CHE_004,13.0827043,80.2707001,5.0,198.34,0.363,0.106,0.48,-1.3244,-2.4931,198.3355,-0.15903,0.02332,-0.00794,0.98697,-0.0556,0.0131,-9.7374,-0.4061,0.8183,0.055,0.0969,3,20,0.68,0.93,0.33,24.753,12.71,95.6,36.4,21023.0,8627,8865,8846,8330,56.3,53.0,55.8,50.6,2.607,2.97,2.742,2.697,2.75,101.6,28.7,33.5,1010.83,-28.93,0.1,1.32,24.4,40.9,30.9,0,no_anomaly,0.0,0,0,0,0,13.0827043,80.2707001,5.0,0.0
2024-02-28T18:33:02.500Z,MISSION_0063,25,0,takeoff,SITE_CHE_004,13.0827037,80.2707022,5.0,196.53,0.536,-0.008,0.48,-1.177,-0.9126,196.5254,-0.14362,0.00936,-0.00902,0.98955,-0.0843,-0.0118,-9.7666,0.2025,-0.9612,-0.6912,0.0978,3,14,0.78,0.82,0.32,24.69,17.93,95.5,36.8,21006.0,8681,8649,8580,8607,55.4,52.8,55.2,55.4,2.852,2.615,2.59,2.444,2.43,92.9,28.7,33.2,1010.91,-31.24,1.03,1.21,21.1,41.4,29.1,0,no_anomaly,0.0,0,0,0,0,13.0827037,80.2707022,5.0,0.0
2024-02-28T18:33:02.600Z,MISSION_0063,26,0,takeoff,SITE_CHE_004,13.0827022,80.2707029,5.0,197.3,0.0,0.048,0.41,0.0581,-1.8421,197.3033,-0.15042,0.01582,0.00292,0.98849,0.0269,0.0157,-9.7961,0.2571,0.013,0.0681,0.1513,3,11,0.79,0.83,0.4,24.663,14.42,95.4,37.5,20990.0,8343,8692,8370,8683,57.3,54.0,57.5,54.6,2.656,2.754,2.958,2.782,2.26,94.5,28.6,34.3,1011.02,-34.07,0.26,2.24,25.6,35.8,28.6,0,no_anomaly,0.0,0,0,0,0,13.0827022,80.2707029,5.0,0.0
2024-02-28T18:33:02.700Z,MISSION_0063,27,0,takeoff,SITE_CHE_004,13.0827001,80.2706991,5.0,197.66,0.0,0.203,0.1,-0.1281,-1.7567,197.6612,-0.15348,0.01532,0.00125,0.98803,-0.0139,0.0153,-9.7878,-0.3869,-1.206,-0.692,0.1959,3,14,0.78,0.93,0.32,24.65,17.93,95.3,37.4,20973.0,8581,8617,8717,8638,54.1,55.5,51.1,53.0,2.885,2.899,2.939,2.838,3.16,93.0,28.5,34.3,1010.83,-33.55,-0.33,1.77,22.2,34.9,34.5,0,no_anomaly,0.0,0,0,0,0,13.0827001,80.2706991,5.0,0.0
2024-02-28T18:33:02.800Z,MISSION_0063,28,0,takeoff,SITE_CHE_004,13.0827011,80.2706973,5.0,199.97,0.0,0.076,0.33,-3.3203,-1.1773,199.9738,-0.17305,0.01514,-0.02675,0.98443,0.2093,-0.0477,-9.8155,-1.0406,-0.068,0.1521,0.144,3,19,0.69,0.96,0.23,24.607,17.38,95.3,36.4,20956.0,8494,8532,8711,8630,54.4,50.7,56.9,53.3,2.684,2.574,2.983,2.638,2.81,86.2,28.6,33.8,1010.7,-28.5,0.7,1.95,29.3,44.2,36.1,0,no_anomaly,0.0,0,0,0,0,13.0827011,80.2706973,5.0,0.0
2024-02-28T18:33:02.900Z,MISSION_0063,29,0,takeoff,SITE_CHE_004,13.0827008,80.2706955,5.0,201.39,0.0,0.102,0.51,-1.603,-2.6979,201.3872,-0.18516,0.02572,-0.00937,0.98233,-0.083,-0.0633,-9.7923,-0.329,0.081,-0.3129,0.174,3,20,0.86,0.6,0.51,24.671,21.27,95.2,36.7,20939.0,8607,8678,8744,8854,52.3,54.0,51.3,51.2,2.844,2.829,2.957,2.89,2.08,94.5,28.8,34.4,1010.76,-30.92,-0.19,1.75,23.3,35.3,31.8,0,no_anomaly,0.0,0,0,0,0,13.0827008,80.2706955,5.0,0.0
2024-02-28T18:33:03.000Z,MISSION_0063,30,0,takeoff,SITE_CHE_004,13.0826979,80.2706954,5.0,202.55,0.0,0.096,0.57,4.428,-3.3988,202.5513,-0.19642,0.02151,0.04366,0.97931,0.0968,-0.0727,-9.7967,-0.4727,0.3307,-0.6761,0.1195,3,13,0.58,0.76,0.21,24.68,18.63,95.1,36.0,20923.0,8753,8240,8539,8797,51.9,54.0,52.1,51.4,2.839,3.103,2.788,2.954,2.45,90.2,28.7,33.7,1010.91,-28.07,1.59,1.15,24.1,35.9,30.4,0,no_anomaly,0.0,0,0,0,0,13.0826979,80.2706954,5.0,0.0
2024-02-28T18:33:03.100Z,MISSION_0063,31,0,takeoff,SITE_CHE_004,13.0826985,80.2706952,5.0,201.84,0.0,0.051,0.56,-1.4008,-2.9872,201.8405,-0.18905,0.02791,-0.00706,0.98155,0.0734,-0.0197,-9.839,0.0417,-0.5815,0.1285,0.208,3,10,0.58,0.85,0.22,24.662,15.66,95.0,36.9,20906.0,8730,8659,8599,8723,55.9,52.9,54.2,53.8,2.761,2.771,2.58,2.555,2.25,95.6,28.8,33.7,1010.91,-30.82,0.44,1.72,21.0,35.2,29.7,0,no_anomaly,0.0,0,0,0,0,13.0826985,80.2706952,5.0,0.0
2024-02-28T18:33:03.200Z,MISSION_0063,32,0,takeoff,SITE_CHE_004,13.082702,80.2706965,5.0,202.96,0.0,0.149,0.45,-1.1881,-1.7049,202.9597,-0.19884,0.01664,-0.0072,0.97986,0.0118,0.0028,-9.8104,-0.633,-0.6111,-0.1855,0.1179,3,16,0.77,0.74,0.31,24.688,16.03,94.9,36.4,20889.0,8272,8635,8526,8643,55.8,53.7,51.5,52.8,2.818,2.775,2.928,2.78,2.97,105.6,28.8,32.5,1010.55,-30.21,-0.26,1.65,26.5,42.0,34.1,0,no_anomaly,0.0,0,0,0,0,13.082702,80.2706965,5.0,0.0
2024-02-28T18:33:03.300Z,MISSION_0063,33,0,takeoff,SITE_CHE_004,13.0827039,80.2706972,5.0,202.8,0.012,0.185,0.54,1.0219,-0.0494,202.7972,-0.19763,-0.00134,0.00883,0.98024,-0.0207,-0.0785,-9.8305,-0.224,-0.5042,-0.189,0.1281,3,16,0.71,0.66,0.26,24.662,18.73,94.9,36.8,20872.0,8920,8612,8644,8613,55.3,54.3,54.1,52.9,2.927,2.603,2.918,2.905,2.52,83.7,28.5,32.8,1010.98,-38.63,0.18,1.45,23.2,34.5,29.0,0,no_anomaly,0.0,0,0,0,0,13.0827039,80.2706972,5.0,0.0
2024-02-28T18:33:03.400Z,MISSION_0063,34,0,takeoff,SITE_CHE_004,13.0827064,80.270699,5.0,202.56,0.0,0.145,0.73,0.2451,0.2253,202.5612,-0.19561,-0.00235,0.00171,0.98068,0.1451,0.0062,-9.704,-0.1001,1.0053,0.0182,0.2872,3,17,0.9,0.8,0.32,24.519,15.76,94.8,37.5,20855.0,8892,8571,8640,8796,53.3,52.5,51.3,54.0,2.995,2.867,2.549,2.685,2.23,91.5,29.1,33.9,1010.48,-35.66,0.7,1.66,22.4,38.3,33.2,0,no_anomaly,0.0,0,0,0,0,13.0827064,80.270699,5.0,0.0
2024-02-28T18:33:03.500Z,MISSION_0063,35,0,takeoff,SITE_CHE_004,13.0827086,80.2707008,5.0,203.9,0.231,0.008,0.96,0.4713,-2.4139,203.8997,-0.20709,0.01976,0.00838,0.97809,0.0421,-0.0443,-9.8672,-0.0578,0.7983,0.2622,0.0835,3,13,0.74,0.85,0.28,24.67,24.49,94.7,36.6,20839.0,8794,8733,8360,8539,54.1,52.8,55.3,53.2,2.726,2.63,2.796,2.574,1.82,84.9,28.7,32.9,1011.05,-31.66,0.19,1.9,21.9,39.6,30.7,0,no_anomaly,0.0,0,0,0,0,13.0827086,80.2707008,5.0,0.0
2024-02-28T18:33:03.600Z,MISSION_0063,36,0,takeoff,SITE_CHE_004,13.0827076,80.2707016,5.0,202.35,0.382,0.128,0.87,-0.6058,-4.079,202.3543,-0.19353,0.03594,0.00172,0.98043,0.0182,-0.1115,-9.768,0.1483,1.81,-0.3287,0.0952,3,12,0.67,0.9,0.31,24.696,23.01,94.6,36.7,20822.0,8643,8801,8628,9022,54.0,53.5,56.7,54.2,2.953,2.826,2.8,2.797,2.54,88.3,28.9,33.6,1011.46,-28.97,0.57,1.66,19.7,38.2,31.7,0,no_anomaly,0.0,0,0,0,0,13.0827076,80.2707016,5.0,0.0
2024-02-28T18:33:03.700Z,MISSION_0063,37,0,takeoff,SITE_CHE_004,13.082704,80.270698,5.0,202.68,0.053,0.165,0.5,1.1245,-1.0635,202.6831,-0.19673,0.00717,0.01145,0.98037,0.0903,0.0116,-9.848,0.076,-0.2119,0.0071,0.1074,3,15,0.53,0.94,0.26,24.634,18.94,94.6,37.2,20805.0,8880,8717,8496,8891,53.7,53.2,53.7,52.8,3.017,2.689,2.729,2.789,2.22,85.1,28.5,33.1,1010.81,-27.63,-0.61,1.19,20.6,40.4,32.8,0,no_anomaly,0.0,0,0,0,0,13.082704,80.270698,5.0,0.0
2024-02-28T18:33:03.800Z,MISSION_0063,38,0,takeoff,SITE_CHE_004,13.0827072,80.2706978,5.0,202.95,0.142,-0.035,0.84,3.7645,-0.9317,202.9532,-0.19912,0.00143,0.0338,0.97939,0.0009,-0.0082,-9.7708,-0.1306,-0.3021,0.1999,0.1941,3,18,0.69,0.71,0.43,24.681,15.74,94.5,36.1,20788.0,8776,8688,8742,8643,54.7,53.2,52.5,55.9,2.815,2.639,2.689,2.7,3.51,97.0,28.7,32.5,1010.49,-24.22,-0.12,1.49,23.7,37.1,32.5,0,no_anomaly,0.0,0,0,0,0,13.0827072,80.2706978,5.0,0.0
2024-02-28T18:33:03.900Z,MISSION_0063,39,0,takeoff,SITE_CHE_004,13.0827087,80.2707012,5.0,202.08,0.045,0.141,0.98,-1.0344,0.3082,202.081,-0.19152,-0.00091,-0.00937,0.98144,-0.1027,-0.0694,-9.7736,-0.0378,1.1834,-0.4793,0.0979,3,17,0.7,0.97,0.35,24.692,16.44,94.4,37.0,20771.0,8699,8635,8659,8965,54.1,53.4,54.7,49.9,2.8,2.704,2.865,2.843,3.45,76.5,29.0,34.0,1011.3,-23.7,-1.98,1.63,25.7,43.7,30.8,0,no_anomaly,0.0,0,0,0,0,13.0827087,80.2707012,5.0,0.0
2024-02-28T18:33:04.000Z,MISSION_0063,40,0,takeoff,SITE_CHE_004,13.0827079,80.270701,5.0,200.37,0.064,0.074,0.88,-0.1569,-1.0349,200.3677,-0.17679,0.00913,0.00025,0.98421,0.0536,0.014,-9.8861,0.8353,-0.0515,-0.2648,0.1304,3,15,0.6,0.9,0.32,24.613,21.58,94.3,36.6,20755.0,8353,8621,8483,8864,52.2,55.6,55.2,55.4,2.611,2.806,2.589,2.65,1.6,88.8,28.9,33.7,1010.82,-36.3,0.01,1.32,21.9,39.3,32.4,0,no_anomaly,0.0,0,0,0,0,13.0827079,80.270701,5.0,0.0
2024-02-28T18:33:04.100Z,MISSION_0063,41,0,takeoff,SITE_CHE_004,13.082709,80.2706972,5.0,198.14,0.144,0.083,1.05,-3.8228,-1.1546,198.1382,-0.1572,0.0152,-0.03135,0.98695,-0.0945,-0.0469,-9.8423,0.0733,0.3966,-0.0233,0.1447,3,16,0.62,0.86,0.35,24.563,16.32,94.3,37.5,20738.0,8677,8734,8676,8650,52.5,54.6,52.3,49.7,2.766,2.479,2.794,2.889,2.46,90.3,28.9,33.9,1010.75,-32.05,-0.71,1.37,21.2,36.7,28.6,0,no_anomaly,0.0,0,0,0,0,13.082709,80.2706972,5.0,0.0
2024-02-28T18:33:04.200Z,MISSION_0063,42,0,takeoff,SITE_CHE_004,13.082708,80.2706958,5.0,197.03,0.245,0.125,1.0,1.0011,-1.0385,197.0306,-0.14814,0.00767,0.00998,0.98889,-0.1138,-0.0357,-9.7729,0.1206,0.7323,-0.3251,0.09,3,13,0.68,1.01,0.31,24.663,22.33,94.2,36.6,20721.0,8493,8577,8600,8436,57.5,55.6,51.8,49.4,2.981,2.802,2.901,2.641,2.12,91.1,28.9,33.2,1010.54,-31.29,-0.41,1.58,23.1,42.7,32.8,0,no_anomaly,0.0,0,0,0,0,13.082708,80.2706958,5.0,0.0
2024-02-28T18:33:04.300Z,MISSION_0063,43,0,takeoff,SITE_CHE_004,13.0827102,80.2706888,5.0,196.81,0.331,0.065,1.69,1.9113,-4.3084,196.8062,-0.14663,0.03474,0.02198,0.98834,-0.0727,0.0038,-9.8122,-0.0124,-0.6001,0.0276,0.1233,3,10,0.8,0.85,0.39,24.636,14.73,94.1,37.2,20704.0,8515,8566,8951,8669,50.5,54.1,54.1,56.3,2.916,2.895,2.761,2.881,2.42,94.0,28.2,33.7,1010.96,-32.23,-0.49,1.0,24.7,33.8,32.8,0,no_anomaly,0.0,0,0,0,0,13.0827102,80.2706888,5.0,0.0
2024-02-28T18:33:04.400Z,MISSION_0063,44,0,takeoff,SITE_CHE_004,13.0827136,80.2706923,5.0,198.93,0.469,0.078,1.74,0.7364,0.9183,198.9265,-0.16436,-0.00896,0.00502,0.98635,0.0912,-0.0517,-9.8543,0.4015,0.1024,0.0015,0.1244,3,17,0.56,0.88,0.24,24.636,18.26,94.0,37.4,20688.0,8565,8427,8877,8789,52.6,51.9,54.1,53.2,2.93,2.494,2.705,2.748,1.26,97.8,28.8,34.3,1010.2,-30.45,-0.29,1.23,25.6,43.2,33.7,0,no_anomaly,0.0,0,0,0,0,13.0827136,80.2706923,5.0,0.0
2024-02-28T18:33:04.500Z,MISSION_0063,45,0,takeoff,SITE_CHE_004,13.0827142,80.270692,5.0,197.88,0.501,0.071,1.81,0.2399,-1.9331,197.8827,-0.15544,0.01634,0.00469,0.9877,-0.0149,-0.0293,-9.8651,-0.1008,-0.199,0.2225,0.1214,3,20,0.63,0.86,0.29,24.682,21.4,94.0,36.9,20671.0,8810,8474,8542,8743,51.2,55.0,52.5,53.7,3.031,2.85,2.977,2.791,2.66,103.8,28.9,34.3,1010.92,-31.1,0.46,1.07,22.2,34.8,31.9,0,no_anomaly,0.0,0,0,0,0,13.0827142,80.270692,5.0,0.0
2024-02-28T18:33:04.600Z,MISSION_0063,46,0,takeoff,SITE_CHE_004,13.0827184,80.2706873,5.0,197.76,0.606,0.191,2.49,0.4254,-1.6281,197.7556,-0.15436,0.01346,0.00586,0.98791,-0.0152,-0.0087,-9.8795,-0.0067,0.2959,-0.2699,0.2112,3,12,0.75,0.83,0.29,24.619,19.11,93.9,36.3,20654.0,8930,8475,8785,8411,52.6,52.8,54.5,56.6,2.759,2.816,2.89,2.513,3.27,90.8,28.7,33.8,1010.97,-30.19,-1.28,1.67,24.1,34.3,33.2,0,no_anomaly,0.0,0,0,0,0,13.0827184,80.2706873,5.0,0.0
2024-02-28T18:33:04.700Z,MISSION_0063,47,0,takeoff,SITE_CHE_004,13.0827211,80.2706891,5.0,196.56,0.875,0.085,2.64,0.1647,0.2579,196.5617,-0.14402,-0.00243,0.0011,0.98957,0.0479,0.0188,-9.76,-0.0465,-0.5308,0.1171,0.1242,3,18,0.84,1.0,0.2,24.739,17.97,93.8,37.6,20637.0,8607,8577,8578,8562,56.8,56.6,53.5,54.4,2.669,2.519,2.6,2.754,3.13,102.4,28.8,34.6,1010.98,-28.14,-0.33,1.52,24.2,40.2,30.7,0,no_anomaly,0.0,0,0,0,0,13.0827211,80.2706891,5.0,0.0
2024-02-28T18:33:04.800Z,MISSION_0063,48,0,takeoff,SITE_CHE_004,13.0827227,80.2706897,5.0,197.79,0.894,0.156,2.78,-0.7713,-2.9021,197.7866,-0.15437,0.02606,-0.00273,0.98767,-0.0169,0.0469,-9.791,0.175,0.8862,-0.2077,0.1519,3,12,0.64,0.91,0.25,24.671,12.18,93.7,37.3,20620.0,8606,8774,8662,8481,56.3,54.3,54.4,54.6,2.966,2.834,2.948,2.731,2.89,100.1,29.0,33.9,1011.18,-30.46,0.38,1.28,26.5,40.7,33.9,0,no_anomaly,0.0,0,0,0,0,13.0827227,80.2706897,5.0,0.0
2024-02-28T18:33:04.900Z,MISSION_0063,49,0,takeoff,SITE_CHE_004,13.082726,80.2706944,5.0,197.38,0.986,0.178,2.96,-0.3396,-2.7169,197.376,-0.15094,0.02388,0.00065,0.98825,-0.1294,-0.0153,-9.8664,-0.4291,-0.5388,0.1936,0.143,3,15,0.7,0.81,0.32,24.592,20.94,93.7,37.6,20604.0,8804,8639,8728,8358,52.9,54.3,56.6,52.0,2.565,2.876,2.765,2.961,2.27,94.8,28.9,33.6,1010.84,-25.34,0.53,1.07,23.7,42.8,30.6,0,no_anomaly,0.0,0,0,0,0,13.082726,80.2706944,5.0,0.0
2024-02-28T18:33:05.000Z,MISSION_0063,50,0,takeoff,SITE_CHE_004,13.0827317,80.2706959,5.0,198.36,1.04,0.149,3.56,0.7428,-2.0204,198.3555,-0.15958,0.01637,0.00921,0.98701,-0.0514,-0.0848,-9.7964,-0.185,-0.1025,-0.1615,0.1574,3,18,0.58,1.02,0.24,24.658,25.28,93.6,37.2,20587.0,8759,8664,8646,8729,55.2,55.6,55.8,51.7,2.831,2.778,2.757,2.744,3.33,88.8,29.0,33.1,1011.08,-31.6,0.25,1.3,25.5,37.8,29.0,0,no_anomaly,0.0,0,0,0,0,13.0827317,80.2706959,5.0,0.0
2024-02-28T18:33:05.100Z,MISSION_0063,51,0,takeoff,SITE_CHE_004,13.0827352,80.2706944,5.0,196.56,0.814,0.12,3.96,-0.4268,-3.632,196.5619,-0.14384,0.0319,0.00088,0.98909,-0.0718,-0.0045,-9.7875,-1.727,0.669,-0.1579,0.0644,3,17,0.84,0.75,0.53,24.608,21.48,93.5,37.7,20570.0,8468,8772,8773,9103,57.1,55.7,52.4,50.5,2.893,2.832,2.864,2.95,3.3,90.6,28.8,34.5,1011.13,-30.35,0.49,1.1,23.9,40.2,30.0,0,no_anomaly,0.0,0,0,0,0,13.0827352,80.2706944,5.0,0.0
2024-02-28T18:33:05.200Z,MISSION_0063,52,0,takeoff,SITE_CHE_004,13.0827372,80.2706941,5.0,194.74,0.134,0.087,4.2,0.0895,-0.8472,194.7432,-0.12831,0.00723,0.00172,0.99171,-0.1216,-0.0517,-9.854,-0.3631,0.0128,-0.4971,0.1164,3,18,0.84,0.74,0.2,24.627,19.59,93.4,37.1,20553.0,8746,8700,8687,8830,53.8,52.7,57.1,52.6,3.04,2.626,2.513,3.037,2.23,95.9,28.6,33.1,1011.15,-32.86,-1.06,1.57,21.6,37.3,30.5,0,no_anomaly,0.0,0,0,0,0,13.0827372,80.2706941,5.0,0.0
2024-02-28T18:33:05.300Z,MISSION_0063,53,0,takeoff,SITE_CHE_004,13.0827378,80.2706971,5.0,193.31,0.276,0.069,4.23,1.2573,-0.5615,193.3148,-0.11598,0.00359,0.01147,0.99318,-0.0402,0.0643,-9.6897,-0.0359,-0.1914,-0.4421,0.1425,3,15,0.81,0.93,0.27,24.594,19.16,93.3,36.4,20536.0,8252,8689,8637,8364,53.8,50.8,53.7,54.5,2.756,2.698,2.764,2.826,1.7,89.2,28.9,33.0,1010.82,-32.77,0.61,1.67,21.7,39.3,29.6,0,no_anomaly,0.0,0,0,0,0,13.0827378,80.2706971,5.0,0.0
2024-02-28T18:33:05.400Z,MISSION_0063,54,0,takeoff,SITE_CHE_004,13.0827339,80.2706962,5.0,195.68,0.408,0.125,3.8,-1.5839,-0.2286,195.6815,-0.13638,0.00386,-0.01342,0.99056,-0.0546,0.0595,-9.8346,-0.5868,0.2432,0.1466,0.1783,3,16,0.75,1.3,0.3,24.607,19.14,93.3,36.8,20520.0,8759,8585,8657,8560,54.8,53.5,51.1,52.6,2.953,2.841,2.784,2.872,2.67,97.0,28.6,33.2,1010.98,-26.48,-0.33,2.13,25.6,43.5,32.8,0,no_anomaly,0.0,0,0,0,0,13.0827339,80.2706962,5.0,0.0
2024-02-28T18:33:05.500Z,MISSION_0063,55,0,takeoff,SITE_CHE_004,13.0827309,80.270696,5.0,194.05,0.517,0.042,3.47,-2.7193,0.6573,194.0511,-0.12241,-0.00279,-0.02425,0.99218,-0.1279,-0.0383,-9.8424,0.1125,0.1026,0.4848,0.2232,3,12,0.67,0.78,0.24,24.633,17.84,93.2,36.7,20503.0,8605,8439,8506,8662,50.8,53.9,53.8,53.4,2.803,2.951,2.897,2.599,2.73,93.1,28.6,32.4,1010.52,-31.26,-1.36,1.24,23.8,42.6,29.2,0,no_anomaly,0.0,0,0,0,0,13.0827309,80.270696,5.0,0.0
2024-02-28T18:33:05.600Z,MISSION_0063,56,0,takeoff,SITE_CHE_004,13.0827296,80.2706986,5.0,195.18,1.054,-0.0,3.3,-2.7356,-0.8871,195.1801,-0.13186,0.01082,-0.02264,0.99095,0.169,0.0356,-9.8819,0.5413,-1.1198,0.1767,0.1011,3,10,0.62,0.99,0.2,24.557,15.07,93.1,37.3,20486.0,8903,8637,8528,8849,53.7,56.2,58.8,54.6,2.949,2.705,2.778,3.178,3.22,93.6,28.8,33.0,1010.95,-31.38,0.04,1.71,22.5,40.7,29.5,0,no_anomaly,0.0,0,0,0,0,13.0827296,80.2706986,5.0,0.0
2024-02-28T18:33:05.700Z,MISSION_0063,57,0,takeoff,SITE_CHE_004,13.0827294,80.2707003,5.0,193.69,0.615,0.14,3.27,0.6868,-1.2185,193.6862,-0.11921,0.00984,0.00722,0.99279,0.0283,-0.0883,-9.8752,0.0069,0.2035,-0.2385,0.128,3,18,0.64,0.93,0.2,24.594,19.9,93.0,36.5,20469.0,8353,8755,8639,8637,50.4,54.8,54.9,52.9,2.856,2.767,2.678,2.69,2.17,94.9,28.9,33.7,1011.07,-27.07,1.47,1.4,20.5,42.1,29.6,0,no_anomaly,0.0,0,0,0,0,13.0827294,80.2707003,5.0,0.0
2024-02-28T18:33:05.800Z,MISSION_0063,58,0,takeoff,SITE_CHE_004,13.0827309,80.2706995,5.0,191.74,0.182,0.102,3.44,-2.0497,-3.1059,191.7378,-0.10172,0.02878,-0.01502,0.99428,0.1353,-0.0595,-9.896,-0.0076,0.6109,-0.0065,0.2107,3,11,0.78,0.83,0.3,24.632,18.5,93.0,36.8,20453.0,8374,8790,8779,8602,54.4,55.3,54.1,53.1,2.792,2.55,2.851,3.018,2.93,91.8,29.0,33.1,1010.93,-33.39,-1.64,2.25,23.4,39.1,33.9,0,no_anomaly,0.0,0,0,0,0,13.0827309,80.2706995,5.0,0.0
2024-02-28T18:33:05.900Z,MISSION_0063,59,0,takeoff,SITE_CHE_004,13.0827245,80.2706977,5.0,191.61,0.109,0.113,2.74,3.7031,-5.662,191.61,-0.10255,0.04585,0.0371,0.99298,0.0118,0.0218,-9.7812,0.1562,-0.3811,0.0226,0.0697,3,17,0.74,0.92,0.22,24.63,20.29,92.9,37.0,20436.0,8327,8749,8772,8965,55.8,55.2,53.9,52.0,2.626,2.858,2.787,2.746,2.55,92.6,28.8,32.7,1011.15,-29.22,-0.04,1.15,25.3,37.9,30.3,0,no_anomaly,0.0,0,0,0,0,13.0827245,80.2706977,5.0,0.0
2024-02-28T18:33:06.000Z,MISSION_0063,60,0,takeoff,SITE_CHE_004,13.082721,80.270693,5.0,191.9,0.349,0.085,2.47,-4.9614,-4.3323,191.896,-0.10183,0.04204,-0.03911,0.99314,0.0719,0.011,-9.8043,-0.1929,0.0991,-0.0004,0.1889,3,13,0.65,1.02,0.2,24.613,21.61,92.8,37.4,20419.0,8450,8562,8868,8747,50.9,54.5,55.1,54.9,2.911,2.715,2.931,2.581,2.36,90.8,28.6,33.0,1011.01,-27.21,-0.15,1.7,25.0,37.6,27.4,0,no_anomaly,0.0,0,0,0,0,13.082721,80.270693,5.0,0.0
2024-02-28T18:33:06.100Z,MISSION_0063,61,0,takeoff,SITE_CHE_004,13.0827141,80.2706973,5.0,192.68,0.637,0.123,1.6,-3.3074,-3.1505,192.6804,-0.10956,0.0305,-0.02564,0.99318,0.1036,-0.1076,-9.7899,0.9629,-0.3887,0.4091,0.1347,3,19,0.71,0.76,0.22,24.635,20.61,92.7,37.1,20402.0,8539,8747,8792,8567,56.1,53.9,50.3,55.6,2.841,2.742,2.934,2.909,1.97,85.9,28.6,33.2,1010.92,-32.92,0.57,1.6,20.6,41.5,27.6,0,no_anomaly,0.0,0,0,0,0,13.0827141,80.2706973,5.0,0.0
2024-02-28T18:33:06.200Z,MISSION_0063,62,0,takeoff,SITE_CHE_004,13.0827134,80.2706987,5.0,192.52,0.681,0.052,1.5,-6.7781,-1.5415,192.5227,-0.10807,0.0198,-0.05729,0.99229,0.0161,0.0042,-9.8619,-0.1396,-0.74,-0.5286,0.1734,3,10,0.77,0.63,0.29,24.561,21.46,92.7,35.8,20385.0,8588,8645,8706,8809,51.2,52.3,57.1,53.3,2.935,2.801,2.693,2.683,1.35,91.4,28.9,33.2,1010.68,-29.21,-0.34,1.71,21.8,41.2,32.5,0,no_anomaly,0.0,0,0,0,0,13.0827134,80.2706987,5.0,0.0
2024-02-28T18:33:06.300Z,MISSION_0063,63,0,takeoff,SITE_CHE_004,13.0827128,80.2706969,5.0,194.87,0.833,0.05,1.47,-3.4334,0.6843,194.8676,-0.1295,-0.00204,-0.03048,0.99111,-0.0644,-0.0218,-9.7941,0.3265,-0.4864,-0.3845,0.2076,3,16,0.88,1.05,0.39,24.605,18.01,92.6,36.6,20369.0,8515,8764,8518,8824,50.8,55.6,52.7,55.1,2.694,2.854,2.813,2.946,2.58,96.7,28.7,33.7,1010.7,-32.24,1.16,1.47,24.3,42.3,31.8,0,no_anomaly,0.0,0,0,0,0,13.0827128,80.2706969,5.0,0.0
2024-02-28T18:33:06.400Z,MISSION_0063,64,0,takeoff,SITE_CHE_004,13.0827159,80.2706986,5.0,197.41,0.979,0.089,1.78,-1.196,-0.9527,197.4076,-0.15123,0.0098,-0.00906,0.98841,-0.0426,0.0904,-9.7549,0.6478,0.2706,0.021,0.101,3,20,0.67,0.72,0.2,24.611,18.62,92.5,36.3,20352.0,8725,8785,8613,8700,54.9,54.4,53.9,50.5,2.611,2.458,2.744,2.736,2.82,90.5,28.9,33.5,1010.75,-27.12,0.07,1.5,20.5,36.6,32.3,0,no_anomaly,0.0,0,0,0,0,13.0827159,80.2706986,5.0,0.0
2024-02-28T18:33:06.500Z,MISSION_0063,65,0,takeoff,SITE_CHE_004,13.0827136,80.2706987,5.0,195.76,0.609,0.075,1.53,-1.4942,-5.4431,195.7616,-0.13633,0.04882,-0.00639,0.98944,-0.1014,-0.0044,-9.8288,-0.6869,0.2744,-0.607,0.1266,3,20,0.68,0.9,0.25,24.59,16.8,92.4,36.7,20335.0,8640,8832,8461,8692,57.7,54.1,54.8,55.5,2.984,3.096,2.999,3.091,2.56,85.7,28.4,33.5,1010.49,-26.96,-0.84,1.73,21.1,36.4,29.8,0,no_anomaly,0.0,0,0,0,0,13.0827136,80.2706987,5.0,0.0
2024-02-28T18:33:06.600Z,MISSION_0063,66,0,takeoff,SITE_CHE_004,13.0827093,80.2707008,5.0,195.42,0.876,0.206,1.04,-0.8412,-3.0271,195.4172,-0.13389,0.02716,-0.00373,0.99062,0.1273,-0.0058,-9.7663,0.2777,-0.0007,0.2848,0.0738,3,17,0.63,0.6,0.22,24.654,21.01,92.4,36.9,20318.0,8678,8604,8742,8596,54.4,56.8,52.8,57.9,2.859,2.864,2.939,2.643,2.41,86.9,28.4,33.7,1010.93,-27.17,-1.29,1.66,25.2,37.6,30.1,0,no_anomaly,0.0,0,0,0,0,13.0827093,80.2707008,5.0,0.0
2024-02-28T18:33:06.700Z,MISSION_0063,67,0,takeoff,SITE_CHE_004,13.0827054,80.2706923,5.0,198.15,1.087,0.08,1.04,-1.1331,-2.4739,198.147,-0.15745,0.02288,-0.00636,0.98724,0.0339,0.0118,-9.8676,0.3114,-0.4091,0.0504,0.1316,3,20,0.64,0.7,0.23,24.663,17.43,92.3,36.8,20301.0,8537,8637,8665,8591,54.6,52.4,53.9,54.3,2.786,2.776,3.104,2.706,2.41,87.4,28.8,34.3,1010.73,-35.08,-0.53,1.79,22.2,36.1,30.7,0,no_anomaly,0.0,0,0,0,0,13.0827054,80.2706923,5.0,0.0
2024-02-28T18:33:06.800Z,MISSION_0063,68,0,takeoff,SITE_CHE_004,13.0827063,80.2706911,5.0,196.63,1.018,0.118,1.21,-0.343,-3.1208,196.634,-0.14451,0.02738,0.00098,0.98912,0.0109,-0.0302,-9.7922,-0.4837,-0.2051,-0.5317,0.092,3,20,0.63,0.97,0.33,24.567,17.36,92.2,36.9,20285.0,9016,8470,8639,8630,55.3,54.6,48.5,56.1,2.891,2.972,2.99,2.818,2.44,90.3,28.7,33.9,1010.98,-30.46,-0.37,1.8,22.9,42.2,32.6,0,no_anomaly,0.0,0,0,0,0,13.0827063,80.2706911,5.0,0.0
2024-02-28T18:33:06.900Z,MISSION_0063,69,0,takeoff,SITE_CHE_004,13.0827058,80.2706916,5.0,196.52,1.033,0.107,1.14,-2.5914,-2.0045,196.5248,-0.14326,0.02055,-0.01986,0.98927,0.1907,-0.0282,-9.7691,0.3397,-0.2843,0.0758,0.1645,3,19,0.6,1.15,0.32,24.611,22.4,92.1,37.6,20268.0,8502,8894,8690,8779,54.3,53.2,54.1,51.1,2.905,2.915,2.835,2.843,1.45,102.4,28.9,34.3,1010.95,-30.33,0.69,1.78,24.1,37.1,33.3,0,no_anomaly,0.0,0,0,0,0,13.0827058,80.2706916,5.0,0.0
2024-02-28T18:33:07.000Z,MISSION_0063,70,0,takeoff,SITE_CHE_004,13.0827028,80.2706938,5.0,195.38,0.93,0.122,0.76,1.5823,-0.141,195.3827,-0.13384,-0.00063,0.01385,0.99091,-0.099,0.0688,-9.7114,0.3009,0.245,0.0279,0.1438,3,17,0.7,0.8,0.2,24.596,21.56,92.1,37.6,20251.0,8531,8620,8767,8603,51.2,55.1,55.9,57.9,2.98,2.683,2.595,2.551,1.68,95.1,28.9,33.2,1011.15,-27.82,1.18,1.26,22.1,42.9,31.3,0,no_anomaly,0.0,0,0,0,0,13.0827028,80.2706938,5.0,0.0
2024-02-28T18:33:07.100Z,MISSION_0063,71,0,takeoff,SITE_CHE_004,13.0826997,80.2706907,5.0,192.93,0.912,-0.043,1.04,4.2466,0.4151,192.9314,-0.1124,-0.00777,0.03641,0.99297,-0.0034,-0.0011,-9.7513,0.0175,0.1271,-0.2684,0.1219,3,15,0.74,0.63,0.24,24.656,18.29,92.0,37.2,20234.0,8606,8852,8543,8624,55.4,57.3,55.4,54.7,2.658,2.84,2.75,2.903,2.33,94.1,28.9,33.7,1010.74,-29.58,-0.92,1.65,22.7,34.9,31.7,0,no_anomaly,0.0,0,0,0,0,13.0826997,80.2706907,5.0,0.0
2024-02-28T18:33:07.200Z,MISSION_0063,72,0,takeoff,SITE_CHE_004,13.0826953,80.2706881,5.0,194.82,0.804,0.036,1.43,2.5008,-2.5699,194.8187,-0.12938,0.01942,0.02453,0.9911,-0.1199,-0.0468,-9.8469,-0.1806,-0.5752,-0.1418,0.1625,3,14,0.84,1.04,0.5,24.527,17.13,91.9,37.4,20217.0,8842,8539,8575,8710,52.8,53.5,53.7,56.5,2.819,2.777,2.739,3.158,3.1,92.2,28.7,33.6,1011.06,-31.56,-2.06,1.43,24.9,41.7,29.6,0,no_anomaly,0.0,0,0,0,0,13.0826953,80.2706881,5.0,0.0
2024-02-28T18:33:07.300Z,MISSION_0063,73,0,takeoff,SITE_CHE_004,13.0826953,80.2706836,5.0,194.81,0.633,0.082,1.9,-3.1507,-1.7037,194.8075,-0.12839,0.01828,-0.02534,0.99123,-0.0181,0.0446,-9.8575,0.1558,0.7517,0.2805,0.1242,3,19,0.59,0.9,0.23,24.519,13.06,91.8,37.0,20201.0,8723,8600,8993,8794,51.7,54.0,49.3,56.1,2.661,2.911,2.801,2.795,2.43,82.3,28.5,34.0,1010.73,-29.72,0.11,1.55,25.0,42.0,32.8,0,no_anomaly,0.0,0,0,0,0,13.0826953,80.2706836,5.0,0.0
2024-02-28T18:33:07.400Z,MISSION_0063,74,0,transit,SITE_CHE_004,13.0826927,80.2706861,5.5,194.0,0.484,0.079,1.75,-2.9582,-2.224,194.0007,-0.12132,0.0224,-0.02325,0.99209,0.0031,0.0868,-9.8331,0.9318,-0.7264,-0.1045,0.1185,3,12,0.66,0.91,0.2,24.604,20.64,91.7,36.6,20184.0,8474,8484,8727,8673,55.9,54.2,56.2,54.9,2.527,2.663,2.922,2.802,2.24,101.9,28.6,33.5,1011.1,-31.98,-0.47,1.63,24.9,34.7,27.6,0,no_anomaly,0.0,0,0,0,0,13.0826927,80.2706861,5.5,0.0
2024-02-28T18:33:07.500Z,MISSION_0063,75,0,transit,SITE_CHE_004,13.082691,80.2706871,6.0,193.48,0.646,0.178,1.75,0.4697,-0.9739,193.4793,-0.11739,0.00796,0.00507,0.99304,0.1481,0.0093,-9.8337,-0.6558,0.2779,0.8091,0.1546,3,16,0.78,0.86,0.36,24.618,17.91,91.7,37.0,20167.0,8537,8648,8627,8576,52.4,57.4,55.4,51.4,2.885,2.731,2.993,2.825,2.08,89.4,28.5,33.1,1011.18,-29.78,0.84,1.88,21.4,37.0,30.0,0,no_anomaly,0.0,0,0,0,0,13.082691,80.2706871,6.0,0.0
2024-02-28T18:33:07.600Z,MISSION_0063,76,0,transit,SITE_CHE_004,13.0826884,80.2706848,6.5,192.18,0.382,-0.005,2.13,0.2663,-1.549,192.1831,-0.10614,0.01319,0.00375,0.99426,0.0418,0.0202,-9.7965,-0.087,-0.4812,0.0459,0.1699,3,14,0.82,1.11,0.42,24.49,20.13,91.6,37.5,20150.0,8824,8698,8806,8683,55.8,54.7,53.5,53.2,2.753,2.682,2.61,2.769,2.23,90.1,28.5,33.7,1010.61,-28.77,-1.37,1.59,24.1,36.5,30.1,0,no_anomaly,0.0,0,0,0,0,13.0826884,80.2706848,6.5,0.0
2024-02-28T18:33:07.700Z,MISSION_0063,77,0,transit,SITE_CHE_004,13.0826873,80.2706885,7.0,192.9,1.196,0.08,1.91,-0.3931,-1.554,192.8994,-0.11227,0.01386,-0.00188,0.99358,0.0357,0.0133,-9.8754,0.3134,-1.0859,-0.4283,0.1562,3,13,0.59,1.0,0.22,24.556,14.74,91.5,37.3,20134.0,8588,8576,8832,8692,55.9,53.9,50.9,55.2,3.101,3.002,2.633,2.861,2.56,101.1,28.8,33.6,1010.92,-29.42,-0.86,1.61,24.3,42.5,33.5,0,no_anomaly,0.0,0,0,0,0,13.0826873,80.2706885,7.0,0.0
2024-02-28T18:33:07.800Z,MISSION_0063,78,0,transit,SITE_CHE_004,13.0826913,80.270687,7.5,191.26,1.129,0.043,1.74,-4.9534,-2.8843,191.2564,-0.09687,0.02926,-0.04053,0.99404,-0.085,0.0218,-9.8219,-0.3399,0.2912,-0.4411,0.1426,3,18,0.63,0.94,0.36,24.565,15.76,91.4,36.5,20117.0,8651,8465,8656,8736,53.5,54.5,54.3,53.3,2.748,2.604,3.037,2.939,3.54,88.2,29.0,33.5,1011.01,-28.04,-0.17,1.63,23.4,37.9,29.2,0,no_anomaly,0.0,0,0,0,0,13.0826913,80.270687,7.5,0.0
2024-02-28T18:33:07.900Z,MISSION_0063,79,0,transit,SITE_CHE_004,13.0826909,80.2706864,8.0,191.08,1.202,0.069,1.82,2.9781,-1.7236,191.0785,-0.09687,0.01246,0.02731,0.99484,0.1391,-0.0274,-9.828,-0.2718,0.7434,0.2356,0.1203,3,17,0.74,0.79,0.25,24.536,19.98,91.4,36.9,20100.0,8906,8656,8577,8502,53.8,56.0,52.3,57.8,3.005,2.885,2.889,2.565,1.42,94.3,28.9,33.0,1010.62,-28.92,-0.16,1.74,26.8,43.1,33.2,0,no_anomaly,0.0,0,0,0,0,13.0826909,80.2706864,8.0,0.0
2024-02-28T18:33:08.000Z,MISSION_0063,80,0,transit,SITE_CHE_004,13.0826966,80.2706878,8.5,192.39,1.2,0.072,1.41,-0.7639,-0.1426,192.3866,-0.10787,0.00196,-0.00649,0.99414,-0.026,0.0169,-9.7255,0.0382,0.4975,-0.0368,0.0604,3,14,0.8,1.08,0.38,24.568,16.87,91.3,36.9,20083.0,8768,8731,8597,8566,52.7,50.9,52.8,50.1,2.907,2.983,2.812,2.889,2.54,92.1,28.6,33.9,1010.7,-33.92,0.32,1.34,25.5,41.5,32.5,0,no_anomaly,0.0,0,0,0,0,13.0826966,80.2706878,8.5,0.0
2024-02-28T18:33:08.100Z,MISSION_0063,81,0,transit,SITE_CHE_004,13.0826981,80.2706898,9.0,194.43,1.646,0.126,1.15,2.9379,-0.1917,194.4343,-0.12563,-0.00156,0.02564,0.99174,-0.0691,0.0634,-9.7787,-0.9893,-0.4636,-0.0325,0.2033,3,17,0.87,0.75,0.35,24.49,21.18,91.2,37.1,20066.0,8675,8625,8477,8921,52.6,51.3,52.5,53.8,2.717,2.796,2.817,2.848,2.52,92.1,28.6,33.5,1010.98,-27.47,-0.16,1.58,21.6,34.8,29.3,0,no_anomaly,0.0,0,0,0,0,13.0826981,80.2706898,9.0,0.0
2024-02-28T18:33:08.200Z,MISSION_0063,82,0,transit,SITE_CHE_004,13.082699,80.2706913,9.5,192.97,1.5,0.023,0.97,-0.2977,-0.6599,192.9652,-0.11288,0.00601,-0.00193,0.99359,-0.0334,-0.0097,-9.7503,-0.0729,-0.1026,0.0049,0.0633,3,16,0.67,1.08,0.31,24.535,19.7,91.1,36.6,20050.0,8687,8452,8798,8565,54.5,53.0,55.5,54.8,2.831,2.717,2.768,2.882,2.8,93.8,28.5,33.5,1010.94,-26.97,0.9,1.83,23.4,40.8,28.3,0,no_anomaly,0.0,0,0,0,0,13.082699,80.2706913,9.5,0.0
2024-02-28T18:33:08.300Z,MISSION_0063,83,0,transit,SITE_CHE_004,13.0826986,80.2706921,10.0,193.49,1.326,0.104,0.89,1.005,-2.5007,193.4881,-0.11759,0.02064,0.01127,0.99278,0.0479,-0.0142,-9.7553,-0.1595,1.1056,0.3185,0.1371,3,19,0.63,0.89,0.2,24.52,14.65,91.1,36.8,20033.0,8536,8868,8588,9042,51.8,55.5,56.1,55.8,3.115,2.749,2.956,2.909,3.23,95.2,28.8,33.4,1011.08,-29.57,1.25,1.26,22.2,42.6,28.0,0,no_anomaly,0.0,0,0,0,0,13.0826986,80.2706921,10.0,0.0
2024-02-28T18:33:08.400Z,MISSION_0063,84,0,transit,SITE_CHE_004,13.0826928,80.2706973,10.5,193.29,1.532,0.053,0.85,-2.8805,-4.0922,193.2914,-0.11473,0.03836,-0.02082,0.99244,-0.0821,-0.0253,-9.7912,-0.5461,0.231,-0.1325,0.2071,3,18,0.64,0.88,0.2,24.584,18.01,91.0,36.7,20016.0,8909,8887,8561,8704,51.5,56.8,58.0,54.3,2.894,2.969,2.68,2.928,2.81,86.8,28.3,32.5,1010.59,-26.91,-1.5,1.88,20.5,38.6,28.4,0,no_anomaly,0.0,0,0,0,0,13.0826928,80.2706973,10.5,0.0
2024-02-28T18:33:08.500Z,MISSION_0063,85,0,transit,SITE_CHE_004,13.0826929,80.2706952,11.0,193.94,0.757,0.054,0.95,-2.3842,-0.0119,193.942,-0.12134,0.00263,-0.02064,0.99239,-0.1905,0.0737,-9.6912,0.5511,-0.0069,-0.5439,0.1546,3,20,0.82,1.09,0.49,24.623,17.55,90.9,37.3,19999.0,8674,8562,8997,8585,50.1,53.7,52.4,53.4,2.727,2.681,3.025,2.848,2.01,100.3,28.5,33.8,1010.86,-31.03,-1.2,1.51,21.8,43.0,32.4,0,no_anomaly,0.0,0,0,0,0,13.0826929,80.2706952,11.0,0.0
2024-02-28T18:33:08.600Z,MISSION_0063,86,0,transit,SITE_CHE_004,13.0826876,80.2706929,11.5,192.29,0.647,0.061,1.59,-0.0499,-3.0462,192.2892,-0.10699,0.02647,0.00241,0.9939,-0.0223,-0.0401,-9.8195,0.1487,-0.0494,0.0254,0.1685,3,11,0.58,0.87,0.28,24.586,13.9,90.8,37.2,19982.0,8734,8714,8788,8616,53.0,55.9,51.7,53.0,2.545,2.832,3.152,2.748,2.29,90.2,29.1,33.7,1010.95,-29.59,0.23,1.66,24.2,37.7,29.0,0,no_anomaly,0.0,0,0,0,0,13.0826876,80.2706929,11.5,0.0
2024-02-28T18:33:08.700Z,MISSION_0063,87,0,transit,SITE_CHE_004,13.082689,80.2706919,12.0,191.05,0.717,0.009,1.52,-1.7146,-2.9838,191.0523,-0.09587,0.02735,-0.01238,0.99494,0.0836,0.0206,-9.911,-1.0422,0.0799,-0.1466,0.3223,3,20,0.8,0.65,0.24,24.554,12.49,90.8,36.4,19966.0,8684,8659,8692,8623,56.7,57.9,54.6,55.9,2.469,2.678,2.755,2.671,2.84,87.3,28.8,33.1,1010.93,-23.72,-0.36,1.43,22.0,37.9,30.3,0,no_anomaly,0.0,0,0,0,0,13.082689,80.2706919,12.0,0.0
2024-02-28T18:33:08.800Z,MISSION_0063,88,0,transit,SITE_CHE_004,13.0826887,80.2706877,12.5,189.97,0.561,0.129,1.86,-1.9771,-0.974,189.9741,-0.08677,0.00997,-0.01645,0.99604,-0.019,0.015,-9.8131,-0.0206,-0.016,-0.2723,0.1332,3,20,0.7,1.06,0.24,24.575,23.67,90.7,37.4,19949.0,8939,8804,8903,8614,56.7,55.1,51.2,51.7,2.719,2.73,3.003,2.939,1.75,97.4,28.5,33.5,1010.46,-30.49,-1.24,1.18,23.4,34.6,32.2,0,no_anomaly,0.0,0,0,0,0,13.0826887,80.2706877,12.5,0.0
2024-02-28T18:33:08.900Z,MISSION_0063,89,0,transit,SITE_CHE_004,13.0826919,80.2706845,13.0,192.25,0.434,0.102,1.95,1.4277,-0.8555,192.2533,-0.10681,0.00609,0.01318,0.99417,0.0786,-0.064,-9.7821,0.6269,0.3517,0.1185,0.0252,3,20,0.8,0.65,0.28,24.453,21.85,90.6,36.5,19932.0,8759,8718,8563,8808,53.5,57.6,56.6,55.0,2.66,2.769,2.782,2.75,2.36,88.0,28.7,33.7,1010.93,-23.2,-0.84,1.54,22.2,36.6,29.0,0,no_anomaly,0.0,0,0,0,0,13.0826919,80.2706845,13.0,0.0
2024-02-28T18:33:09.000Z,MISSION_0063,90,0,transit,SITE_CHE_004,13.0826933,80.2706857,13.5,191.24,0.184,0.117,1.76,-1.6508,-3.0567,191.2382,-0.09749,0.02795,-0.01172,0.99478,-0.0096,-0.0285,-9.7341,0.3839,0.9939,0.3137,0.1966,3,17,0.78,0.95,0.24,24.496,17.24,90.5,37.1,19915.0,8843,8896,8831,8719,52.6,54.4,54.5,55.0,2.934,2.704,2.664,2.791,2.47,90.5,28.9,33.8,1010.88,-25.2,1.09,1.46,26.7,35.1,32.4,0,no_anomaly,0.0,0,0,0,0,13.0826933,80.2706857,13.5,0.0
2024-02-28T18:33:09.100Z,MISSION_0063,91,0,transit,SITE_CHE_004,13.0826897,80.2706854,14.0,190.53,0.191,0.086,2.0,0.4,-0.1562,190.5272,-0.09174,0.00104,0.0036,0.99578,0.0783,-0.0001,-9.8588,0.0004,-0.9455,0.3705,0.2509,3,14,0.81,0.97,0.29,24.54,10.69,90.4,37.4,19899.0,8781,8538,8729,8764,56.5,53.5,55.0,54.2,2.81,2.718,2.895,2.843,2.97,95.6,28.7,34.2,1010.95,-31.46,-1.05,1.58,26.7,40.0,33.1,0,no_anomaly,0.0,0,0,0,0,13.0826897,80.2706854,14.0,0.0
2024-02-28T18:33:09.200Z,MISSION_0063,92,0,transit,SITE_CHE_004,13.0826875,80.2706869,14.5,192.58,0.557,0.044,2.02,1.9031,-1.6425,192.5807,-0.10978,0.01243,0.01808,0.99371,-0.0032,0.0119,-9.7638,-0.3397,0.8499,0.1354,0.1412,3,16,0.63,0.63,0.2,24.494,17.36,90.4,36.8,19882.0,8821,8760,8730,8491,54.0,54.1,54.8,52.6,2.81,2.718,2.878,2.757,1.7,88.5,28.8,33.9,1010.9,-26.87,0.47,1.53,22.2,37.9,32.6,0,no_anomaly,0.0,0,0,0,0,13.0826875,80.2706869,14.5,0.0
2024-02-28T18:33:09.300Z,MISSION_0063,93,0,transit,SITE_CHE_004,13.0826819,80.2706839,15.0,194.59,0.154,0.082,2.69,-2.759,-3.0384,194.591,-0.12627,0.02935,-0.02051,0.99135,-0.0069,0.1249,-9.8456,0.1194,-0.9971,0.2931,0.1081,3,16,0.66,0.93,0.3,24.555,19.83,90.3,37.5,19865.0,8751,8889,8685,8660,51.7,54.3,55.4,51.8,2.834,2.935,2.684,2.788,2.72,89.1,28.6,33.7,1010.86,-29.29,0.62,1.78,21.6,35.2,32.5,0,no_anomaly,0.0,0,0,0,0,13.0826819,80.2706839,15.0,0.0
2024-02-28T18:33:09.400Z,MISSION_0063,94,0,transit,SITE_CHE_004,13.0826794,80.2706798,15.2,195.71,0.413,0.079,3.22,-0.1877,-2.4788,195.7129,-0.13662,0.02165,0.00133,0.99039,-0.1279,0.0049,-9.731,-0.0952,0.4435,0.0532,0.1771,3,20,0.51,0.79,0.21,24.566,17.46,90.2,37.0,19848.0,8806,8894,8820,8417,51.4,54.0,51.7,53.1,2.602,2.785,2.711,2.744,2.38,86.0,29.2,34.5,1010.84,-27.56,0.67,1.9,21.0,37.9,28.6,0,no_anomaly,0.0,0,0,0,0,13.0826794,80.2706798,15.2,0.0
2024-02-28T18:33:09.500Z,MISSION_0063,95,0,transit,SITE_CHE_004,13.0826761,80.2706738,15.2,196.87,0.441,0.092,3.95,-1.5481,-1.6132,196.875,-0.14651,0.01591,-0.0113,0.98902,0.0761,0.0515,-9.8371,0.8813,0.1432,0.0388,0.1321,3,17,0.63,1.09,0.22,24.532,18.81,90.1,37.8,19831.0,8457,8988,8677,8851,55.3,51.8,55.2,55.9,2.918,2.729,2.952,2.902,2.53,86.4,29.0,33.9,1010.62,-31.53,-1.43,1.46,26.9,36.9,30.8,0,no_anomaly,0.0,0,0,0,0,13.0826761,80.2706738,15.2,0.0
2024-02-28T18:33:09.600Z,MISSION_0063,96,0,transit,SITE_CHE_004,13.0826754,80.2706731,15.2,194.95,0.5,0.159,4.05,2.4462,-2.3392,194.948,-0.13045,0.01746,0.02381,0.99101,-0.0348,0.0505,-9.7632,-0.2061,0.151,-0.6661,0.2037,3,11,0.77,0.81,0.36,24.581,16.84,90.1,37.2,19815.0,8741,8787,8620,8931,54.4,51.4,54.9,55.8,2.759,2.714,2.687,2.904,2.66,87.3,28.8,33.6,1010.56,-28.99,0.7,2.05,21.7,37.5,32.2,0,no_anomaly,0.0,0,0,0,0,13.0826754,80.2706731,15.2,0.0
2024-02-28T18:33:09.700Z,MISSION_0063,97,0,transit,SITE_CHE_004,13.0826748,80.2706741,15.2,193.83,0.495,0.173,4.03,4.419,-0.0829,193.826,-0.1203,-0.00392,0.03836,0.99199,-0.1163,0.0291,-9.8098,1.5289,0.3991,0.3185,0.1278,3,14,0.66,1.04,0.31,24.592,17.64,90.0,36.5,19798.0,8605,8685,8569,8430,50.9,54.0,52.9,52.8,2.61,2.595,2.951,3.027,2.43,93.1,28.7,33.4,1010.58,-29.95,0.47,1.65,23.3,40.0,30.0,0,no_anomaly,0.0,0,0,0,0,13.0826748,80.2706741,15.2,0.0
2024-02-28T18:33:09.800Z,MISSION_0063,98,0,transit,SITE_CHE_004,13.0826727,80.2706685,15.2,194.03,0.297,0.043,4.64,-4.5391,-0.6903,194.025,-0.12175,0.01081,-0.03857,0.99175,-0.0503,0.0299,-9.8861,0.0119,0.4027,0.6896,0.1245,3,11,0.66,0.67,0.2,24.478,22.84,89.9,37.6,19781.0,8838,8888,8627,9047,54.2,53.8,50.8,53.1,2.634,2.737,2.942,2.705,2.32,93.0,28.9,33.5,1010.85,-32.54,0.31,1.26,20.6,34.8,31.9,0,no_anomaly,0.0,0,0,0,0,13.0826727,80.2706685,15.2,0.0
2024-02-28T18:33:09.900Z,MISSION_0063,99,0,transit,SITE_CHE_004,13.082677,80.2706695,15.2,195.41,0.265,0.121,4.25,-6.8541,-1.7167,195.4113,-0.13294,0.02283,-0.05723,0.98921,0.0748,0.0818,-9.8379,0.2181,-0.6912,-0.4128,0.2217,3,15,0.6,1.0,0.3,24.568,20.53,89.8,36.7,19764.0,8615,8840,8580,8605,52.0,55.6,53.0,55.9,2.507,2.896,2.85,2.78,2.95,91.0,28.8,32.9,1010.93,-28.63,1.45,1.84,21.6,40.7,31.1,0,no_anomaly,0.0,0,0,0,0,13.082677,80.2706695,15.2,0.0
2024-02-28T18:33:10.000Z,MISSION_0063,100,0,transit,SITE_CHE_004,13.0826768,80.270669,15.2,196.18,0.456,0.131,4.31,-2.4107,-1.9393,196.1834,-0.14035,0.01971,-0.01844,0.98973,-0.0885,0.0015,-9.8091,-0.1969,0.0422,0.1719,0.2231,3,17,0.67,0.86,0.2,24.463,19.93,89.8,36.4,19747.0,8544,8614,8659,8778,57.6,52.8,55.3,52.6,2.761,2.979,2.741,3.055,1.11,101.5,28.7,33.2,1011.16,-25.48,1.2,1.73,23.4,35.6,31.3,0,no_anomaly,0.0,0,0,0,0,13.0826768,80.270669,15.2,0.0
2024-02-28T18:33:10.100Z,MISSION_0063,101,0,transit,SITE_CHE_004,13.0826734,80.2706667,15.2,196.54,0.331,0.084,4.74,-0.599,-0.4926,196.5446,-0.14385,0.00501,-0.00455,0.98958,0.115,0.0091,-9.8222,0.2697,-0.2317,0.0974,0.1858,3,15,0.79,0.76,0.3,24.514,23.44,89.7,37.8,19731.0,8751,8476,8754,8696,54.5,52.1,54.8,55.4,2.65,3.156,2.766,2.949,3.24,89.6,28.5,34.0,1010.89,-32.55,0.43,1.35,23.2,44.4,32.4,0,no_anomaly,0.0,0,0,0,0,13.0826734,80.2706667,15.2,0.0
2024-02-28T18:33:10.200Z,MISSION_0063,102,0,transit,SITE_CHE_004,13.0826764,80.2706675,15.2,196.31,0.0,0.174,4.47,1.6622,-1.8427,196.31,-0.14205,0.01386,0.01664,0.98962,0.0587,-0.0597,-9.8127,0.2125,0.037,0.0142,0.1272,3,13,0.82,0.71,0.27,24.548,15.38,89.6,36.6,19714.0,9008,8360,8756,8584,55.9,53.4,60.3,53.5,2.661,2.769,2.904,2.791,1.75,88.0,28.8,34.1,1011.08,-27.2,1.01,1.61,25.0,33.9,30.4,0,no_anomaly,0.0,0,0,0,0,13.0826764,80.2706675,15.2,0.0
2024-02-28T18:33:10.300Z,MISSION_0063,103,0,transit,SITE_CHE_004,13.0826782,80.2706697,15.2,196.15,0.113,0.166,4.16,-1.3431,-0.0552,196.1477,-0.14043,0.00212,-0.01154,0.99002,0.0155,-0.04,-9.7767,0.5797,0.4576,-0.325,0.0953,3,13,0.64,0.86,0.24,24.486,17.94,89.5,37.3,19697.0,8771,8933,8446,8799,53.9,54.6,52.0,54.1,2.616,2.878,2.793,2.756,2.43,87.6,29.3,33.4,1010.99,-30.28,-0.32,1.37,24.3,43.7,31.6,0,no_anomaly,0.0,0,0,0,0,13.0826782,80.2706697,15.2,0.0
2024-02-28T18:33:10.400Z,MISSION_0063,104,0,transit,SITE_CHE_004,13.082677,80.2706696,15.2,197.34,0.359,0.108,4.24,-1.7752,-2.2018,197.3384,-0.15039,0.02133,-0.01242,0.98832,-0.0526,0.0451,-9.8071,0.1101,-0.6309,0.0032,0.1546,3,17,0.65,0.89,0.24,24.536,19.47,89.5,37.6,19680.0,8760,8547,8646,8582,53.8,53.5,56.2,51.7,3.047,2.857,2.963,2.92,3.12,89.9,28.5,33.8,1011.0,-34.68,0.83,1.26,25.8,39.2,30.9,0,no_anomaly,0.0,0,0,0,0,13.082677,80.2706696,15.2,0.0
2024-02-28T18:33:10.500Z,MISSION_0063,105,0,transit,SITE_CHE_004,13.0826827,80.270667,15.2,197.24,0.839,0.194,4.15,-2.2225,-2.8747,197.2378,-0.1493,0.0277,-0.01541,0.98828,0.0397,0.0862,-9.7786,0.0624,-0.2847,0.3745,0.1778,3,19,0.65,0.88,0.2,24.504,18.63,89.4,37.0,19664.0,8814,8451,8781,8572,50.6,53.6,51.7,54.1,2.881,2.811,2.825,2.778,3.03,95.0,28.9,33.4,1010.87,-32.18,-1.14,1.66,26.0,41.2,32.4,0,no_anomaly,0.0,0,0,0,0,13.0826827,80.270667,15.2,0.0
2024-02-28T18:33:10.600Z,MISSION_0063,106,0,transit,SITE_CHE_004,13.0826838,80.2706665,15.2,195.08,0.988,0.2,4.14,0.8407,-2.3622,195.0778,-0.13132,0.01947,0.00998,0.9911,-0.1805,-0.1139,-9.843,0.7806,0.7011,0.4528,0.0961,3,14,0.54,0.78,0.2,24.516,23.06,89.3,36.6,19647.0,9057,8782,8800,8724,55.3,54.1,56.4,52.1,2.921,2.868,2.828,2.747,2.38,89.6,28.7,33.6,1010.73,-29.89,-0.26,2.08,27.2,44.1,31.9,0,no_anomaly,0.0,0,0,0,0,13.0826838,80.2706665,15.2,0.0
2024-02-28T18:33:10.700Z,MISSION_0063,107,0,transit,SITE_CHE_004,13.0826817,80.2706661,15.2,193.83,1.195,0.161,4.29,3.9332,-2.0645,193.8288,-0.12091,0.01374,0.03623,0.99191,-0.0053,-0.0207,-9.8168,-0.0758,-0.3965,0.5745,0.2069,3,17,0.77,0.93,0.4,24.488,22.59,89.2,36.8,19630.0,8317,8849,8615,8799,54.1,52.6,52.9,52.0,2.964,3.09,2.708,2.933,2.39,86.4,28.9,33.4,1011.0,-30.38,-1.79,1.07,21.5,40.8,28.8,0,no_anomaly,0.0,0,0,0,0,13.0826817,80.2706661,15.2,0.0
2024-02-28T18:33:10.800Z,MISSION_0063,108,0,transit,SITE_CHE_004,13.0826839,80.2706631,15.2,195.66,1.342,0.121,4.48,0.8433,-1.5558,195.6584,-0.1363,0.01245,0.00914,0.99055,-0.0678,0.0255,-9.864,-0.313,-0.159,0.3187,0.2299,3,13,0.92,0.7,0.5,24.49,25.53,89.2,37.2,19613.0,8704,8522,8622,8883,54.8,53.4,52.1,53.5,2.862,2.783,2.801,3.032,3.33,101.9,28.9,34.8,1011.13,-30.49,-0.17,1.6,25.2,38.9,30.7,0,no_anomaly,0.0,0,0,0,0,13.0826839,80.2706631,15.2,0.0
2024-02-28T18:33:10.900Z,MISSION_0063,109,0,transit,SITE_CHE_004,13.0826849,80.2706657,15.2,198.81,1.661,0.1,4.17,-3.6442,-3.9215,198.8103,-0.16216,0.03893,-0.02576,0.98566,-0.051,-0.0484,-9.8405,0.629,0.541,-0.0431,0.1516,3,13,0.71,0.81,0.23,24.54,23.05,89.1,37.0,19596.0,8946,8474,8802,8551,53.1,54.7,52.4,54.3,3.119,2.67,2.942,2.745,2.41,96.4,29.2,33.7,1011.08,-32.6,-1.28,1.3,25.4,34.6,28.7,0,no_anomaly,0.0,0,0,0,0,13.0826849,80.2706657,15.2,0.0
2024-02-28T18:33:11.000Z,MISSION_0063,110,0,transit,SITE_CHE_004,13.0826857,80.2706668,15.2,201.41,1.555,0.114,4.02,-1.0334,0.3705,201.409,-0.18576,-0.0015,-0.00946,0.98255,0.0048,-0.0114,-9.9395,0.2685,0.3516,-0.1704,0.1675,3,11,0.75,0.84,0.21,24.548,18.19,89.0,37.2,19580.0,8646,8789,8833,8788,54.6,54.6,57.9,55.7,2.76,2.708,2.625,2.414,2.03,94.9,28.7,33.3,1010.99,-23.84,-1.16,1.85,25.8,39.1,30.9,0,no_anomaly,0.0,0,0,0,0,13.0826857,80.2706668,15.2,0.0
2024-02-28T18:33:11.100Z,MISSION_0063,111,0,transit,SITE_CHE_004,13.0826836,80.2706723,15.2,201.71,1.257,0.042,3.59,1.6358,-0.3882,201.7103,-0.18835,0.00064,0.01466,0.98199,0.0672,-0.0844,-9.844,-0.3663,0.2134,-0.024,0.1565,3,17,0.86,0.82,0.46,24.498,19.57,88.9,37.6,19563.0,8889,8800,8685,8653,51.8,50.9,55.3,56.1,2.679,2.733,2.602,3.217,2.59,92.3,29.1,32.8,1011.09,-28.55,0.26,1.83,23.8,34.9,32.9,0,no_anomaly,0.0,0,0,0,0,13.0826836,80.2706723,15.2,0.0
2024-02-28T18:33:11.200Z,MISSION_0063,112,0,transit,SITE_CHE_004,13.0826786,80.2706668,15.2,200.8,1.109,0.142,4.4,0.2678,-5.2235,200.8,-0.18044,0.0444,0.01052,0.98253,-0.0637,0.0302,-9.8062,0.0972,-0.1928,0.0842,0.1232,3,12,0.52,0.89,0.2,24.499,11.66,88.8,36.9,19546.0,8714,8917,8848,8699,56.8,51.8,54.3,54.1,2.82,2.96,3.045,2.835,3.82,93.6,28.9,33.4,1010.93,-27.71,-1.47,1.73,26.2,43.4,28.8,0,no_anomaly,0.0,0,0,0,0,13.0826786,80.2706668,15.2,0.0
2024-02-28T18:33:11.300Z,MISSION_0063,113,0,transit,SITE_CHE_004,13.0826833,80.2706664,15.2,201.26,1.267,0.104,4.18,2.0739,-2.8131,201.2575,-0.1848,0.02078,0.02231,0.9823,-0.0129,-0.0231,-9.8769,-0.4245,-0.5221,-0.6181,0.1239,3,12,0.84,0.82,0.32,24.519,17.06,88.8,36.6,19529.0,8821,8810,8496,8935,52.7,56.2,54.2,55.7,3.111,2.786,2.862,2.516,2.36,86.8,28.9,33.6,1010.53,-29.74,-0.16,1.0,24.2,43.1,30.2,0,no_anomaly,0.0,0,0,0,0,13.0826833,80.2706664,15.2,0.0
2024-02-28T18:33:11.400Z,MISSION_0063,114,0,transit,SITE_CHE_004,13.0826844,80.2706637,15.2,199.25,1.512,0.043,4.4,0.4991,-2.5249,199.2518,-0.16727,0.02099,0.00798,0.98566,0.0649,-0.0135,-9.7753,0.0991,0.9833,0.2162,0.2503,3,12,0.56,0.91,0.2,24.482,24.91,88.7,36.4,19512.0,8785,8715,8383,8753,53.5,55.7,51.6,52.7,3.073,2.874,2.819,2.783,2.46,85.2,29.1,33.8,1010.85,-32.75,0.34,1.69,20.5,43.0,29.1,0,no_anomaly,0.0,0,0,0,0,13.0826844,80.2706637,15.2,0.0
2024-02-28T18:33:11.500Z,MISSION_0063,115,0,transit,SITE_CHE_004,13.0826839,80.2706667,15.2,198.16,1.111,0.081,4.12,3.8283,-1.2942,198.1552,-0.15805,0.00588,0.03476,0.9868,-0.0062,-0.0114,-9.7723,0.1257,-0.4793,-0.0308,0.1275,3,13,0.59,0.85,0.2,24.54,23.58,88.6,36.6,19496.0,8903,9051,8874,8739,54.4,52.8,51.1,54.3,2.792,2.587,2.531,3.016,1.89,99.0,28.9,32.6,1010.58,-29.16,-1.81,1.41,23.7,38.8,29.3,0,no_anomaly,0.0,0,0,0,0,13.0826839,80.2706667,15.2,0.0
2024-02-28T18:33:11.600Z,MISSION_0063,116,0,transit,SITE_CHE_004,13.0826842,80.2706722,15.2,197.9,0.959,0.069,3.55,1.531,-2.6552,197.9036,-0.15585,0.02081,0.0168,0.98742,0.1475,-0.0603,-9.8019,0.0973,-0.0617,-0.1041,0.1848,3,12,0.81,1.07,0.24,24.485,18.58,88.5,37.6,19479.0,8644,8434,8520,8709,52.0,57.3,53.7,50.5,2.677,2.887,2.803,2.746,2.96,86.2,28.9,34.5,1010.45,-35.91,-1.3,1.64,24.9,35.5,29.0,0,no_anomaly,0.0,0,0,0,0,13.0826842,80.2706722,15.2,0.0
2024-02-28T18:33:11.700Z,MISSION_0063,117,0,transit,SITE_CHE_004,13.0826857,80.2706742,15.2,199.04,0.422,0.01,3.28,2.1491,-0.2477,199.0402,-0.1654,-0.00097,0.01885,0.98605,0.0215,0.0344,-9.7631,0.7779,-0.2398,0.6134,0.1494,3,12,0.61,1.18,0.29,24.512,19.87,88.5,36.4,19462.0,8594,8864,8973,8761,52.4,53.5,48.7,52.9,2.794,2.565,3.028,2.916,2.8,97.6,28.7,33.8,1011.17,-34.89,-0.74,1.36,22.0,42.3,29.1,0,no_anomaly,0.0,0,0,0,0,13.0826857,80.2706742,15.2,0.0
2024-02-28T18:33:11.800Z,MISSION_0063,118,0,transit,SITE_CHE_004,13.0826871,80.270675,15.2,201.05,0.77,0.125,3.13,1.6842,-4.3669,201.0492,-0.18306,0.03477,0.0214,0.98225,-0.0534,-0.0288,-9.7721,0.5326,0.6192,-0.356,0.152,3,15,0.81,0.85,0.38,24.56,14.43,88.4,36.4,19445.0,8800,8502,8559,8686,52.2,55.6,50.8,55.4,2.633,3.156,2.872,2.599,3.26,93.7,28.8,33.7,1010.71,-36.4,1.17,1.49,25.5,39.1,33.1,0,no_anomaly,0.0,0,0,0,0,13.0826871,80.270675,15.2,0.0
2024-02-28T18:33:11.900Z,MISSION_0063,119,0,transit,SITE_CHE_004,13.0826943,80.2706742,15.2,200.4,0.793,0.127,2.94,-1.3137,-1.5715,200.4013,-0.17691,0.01553,-0.00885,0.98406,-0.1229,-0.0818,-9.8107,-0.0191,0.9512,0.1805,0.1446,3,10,0.79,0.82,0.3,24.535,21.25,88.3,37.1,19429.0,8705,8846,8751,8836,50.9,53.0,53.1,53.8,2.989,2.865,2.855,2.367,1.38,91.8,28.7,33.4,1010.96,-28.5,0.6,2.14,25.8,37.2,32.5,0,no_anomaly,0.0,0,0,0,0,13.0826943,80.2706742,15.2,0.0
2024-02-28T18:33:12.000Z,MISSION_0063,120,0,transit,SITE_CHE_004,13.0826915,80.2706715,15.2,201.84,1.027,0.11,3.31,-1.9506,-1.8642,201.8404,-0.18912,0.0192,-0.01363,0.98167,-0.0442,-0.0758,-9.8144,-0.1942,-0.0759,0.0152,0.1175,3,10,0.66,0.6,0.23,24.487,21.99,88.2,36.4,19412.0,8467,8833,8733,8793,53.8,54.6,54.7,53.0,2.811,2.988,2.856,2.86,3.11,89.4,28.9,33.6,1010.98,-31.06,0.11,1.54,26.8,40.6,34.3,0,no_anomaly,0.0,0,0,0,0,13.0826915,80.2706715,15.2,0.0
2024-02-28T18:33:12.100Z,MISSION_0063,121,0,transit,SITE_CHE_004,13.0826942,80.2706722,15.2,201.9,1.114,0.122,3.16,-3.2261,-1.7907,201.8957,-0.18939,0.02068,-0.02467,0.98138,0.0279,0.0552,-9.8241,-0.1502,-0.0305,-0.5491,0.1641,3,11,0.66,0.8,0.29,24.461,19.48,88.2,37.4,19395.0,8587,8702,8742,8701,51.2,54.7,56.8,54.2,2.724,2.907,2.912,2.922,2.86,99.8,28.5,33.6,1010.67,-33.82,0.98,1.54,23.3,39.6,31.2,0,no_anomaly,0.0,0,0,0,0,13.0826942,80.2706722,15.2,0.0
2024-02-28T18:33:12.200Z,MISSION_0063,122,0,transit,SITE_CHE_004,13.0826935,80.2706742,15.2,202.77,0.98,0.103,2.96,-0.5005,-3.1148,202.7738,-0.19724,0.0275,0.00109,0.97997,-0.0316,0.0651,-9.7984,0.8946,0.2438,-0.0632,0.1954,3,20,0.78,0.86,0.25,24.542,17.77,88.1,36.7,19378.0,8743,8602,8578,8607,54.2,51.3,50.0,56.8,2.738,2.707,2.979,2.657,3.06,96.2,28.9,32.7,1010.69,-27.73,-0.48,1.57,20.7,36.2,27.8,0,no_anomaly,0.0,0,0,0,0,13.0826935,80.2706742,15.2,0.0
2024-02-28T18:33:12.300Z,MISSION_0063,123,0,transit,SITE_CHE_004,13.0826944,80.270671,15.2,203.75,0.846,0.075,3.29,-6.449,-3.4034,203.7466,-0.2037,0.04058,-0.04892,0.97697,-0.0947,0.0453,-9.8289,-0.7159,0.0152,0.4737,0.2217,3,20,0.85,1.24,0.21,24.526,21.39,88.0,37.2,19361.0,8566,8614,8642,8865,51.8,52.0,55.8,54.4,2.46,2.62,2.618,2.977,2.76,97.3,29.0,33.0,1010.79,-26.76,-0.82,2.13,22.1,41.8,32.9,0,no_anomaly,0.0,0,0,0,0,13.0826944,80.270671,15.2,0.0
2024-02-28T18:33:12.400Z,MISSION_0063,124,0,transit,SITE_CHE_004,13.0826958,80.2706707,15.2,202.09,0.838,0.18,3.29,3.0102,-2.76,202.0905,-0.19208,0.0186,0.03038,0.98073,-0.0963,-0.096,-9.8857,0.1699,0.4901,-0.2078,0.1857,3,20,0.71,0.8,0.22,24.507,15.03,87.9,37.4,19345.0,8843,8666,8750,8759,51.9,52.8,56.9,52.7,2.906,2.991,3.076,2.739,1.5,93.8,29.0,33.3,1010.98,-27.97,0.87,2.1,24.9,37.6,31.7,0,no_anomaly,0.0,0,0,0,0,13.0826958,80.2706707,15.2,0.0
2024-02-28T18:33:12.500Z,MISSION_0063,125,0,transit,SITE_CHE_004,13.0826961,80.2706744,15.2,201.64,0.828,0.148,2.88,-0.6778,-1.875,201.6376,-0.18758,0.01718,-0.00274,0.9821,-0.0872,0.043,-9.845,-0.2715,-0.5802,0.1006,0.2212,3,13,0.86,1.0,0.39,24.518,16.91,87.9,36.7,19328.0,8675,8677,8831,8709,51.0,52.2,53.3,51.6,2.802,3.063,2.732,2.545,1.73,80.7,28.9,33.4,1010.75,-28.06,0.17,1.31,27.0,36.8,29.8,0,no_anomaly,0.0,0,0,0,0,13.0826961,80.2706744,15.2,0.0
2024-02-28T18:33:12.600Z,MISSION_0063,126,0,transit,SITE_CHE_004,13.0826999,80.2706704,15.2,200.49,0.621,0.104,3.29,1.1973,0.477,200.4853,-0.17776,-0.00595,0.00954,0.98401,0.0528,-0.0218,-9.7836,-0.1149,-0.1848,-0.0126,0.2119,3,20,0.75,1.02,0.2,24.535,22.09,87.8,38.1,19311.0,8673,8718,8871,8678,56.0,53.7,54.2,53.4,2.974,2.757,2.755,3.126,2.31,88.7,29.1,34.5,1011.14,-25.27,-1.74,1.66,22.5,36.2,31.6,0,no_anomaly,0.0,0,0,0,0,13.0826999,80.2706704,15.2,0.0
2024-02-28T18:33:12.700Z,MISSION_0063,127,0,transit,SITE_CHE_004,13.0827005,80.2706699,15.2,198.31,0.588,0.036,3.35,-0.2544,-0.1315,198.3131,-0.15913,0.00149,-0.00201,0.98725,0.026,0.0067,-9.7677,-0.8202,-0.4527,0.2045,0.1427,3,20,0.71,0.95,0.31,24.482,18.38,87.7,38.4,19294.0,8540,8544,8706,8821,53.6,55.1,53.3,51.6,2.678,2.738,2.567,2.722,2.47,90.7,28.7,33.3,1010.94,-32.1,-0.13,1.14,21.0,33.4,29.4,0,no_anomaly,0.0,0,0,0,0,13.0827005,80.2706699,15.2,0.0
2024-02-28T18:33:12.800Z,MISSION_0063,128,0,transit,SITE_CHE_004,13.0827051,80.2706688,15.2,199.11,0.69,0.072,3.52,2.5894,-3.8862,199.1103,-0.16661,0.02968,0.0279,0.98518,-0.005,-0.0585,-9.8555,0.0802,-0.5877,0.1423,0.1612,3,14,0.65,1.13,0.2,24.445,10.13,87.6,37.0,19277.0,8607,8884,8305,8646,49.9,53.0,55.3,53.4,2.853,2.717,3.013,2.747,2.3,97.2,28.6,33.2,1010.96,-30.89,-1.11,1.83,23.7,39.7,31.9,0,no_anomaly,0.0,0,0,0,0,13.0827051,80.2706688,15.2,0.0
2024-02-28T18:33:12.900Z,MISSION_0063,129,0,transit,SITE_CHE_004,13.0827032,80.2706657,15.2,200.14,0.463,0.03,3.84,-1.0081,-0.117,200.141,-0.17484,0.00254,-0.00848,0.98456,0.004,0.0238,-9.7459,0.2348,-0.2949,-0.032,0.0717,3,17,0.74,0.96,0.27,24.543,18.93,87.5,37.2,19261.0,8729,8344,8667,8841,54.5,54.0,57.2,54.8,2.757,2.636,2.843,2.794,2.14,86.0,29.0,33.4,1010.95,-30.3,0.39,1.4,26.0,40.5,32.6,0,no_anomaly,0.0,0,0,0,0,13.0827032,80.2706657,15.2,0.0
