timestamp_utc,mission_id,frame_id,waypoint_id,inspection_phase,site_id,latitude_deg,longitude_deg,altitude_m,heading_deg,ground_speed_ms,vertical_speed_ms,distance_to_tower_m,roll_deg,pitch_deg,yaw_deg,quat_w,quat_x,quat_y,quat_z,accel_x_ms2,accel_y_ms2,accel_z_ms2,gyro_x_rads,gyro_y_rads,gyro_z_rads,vibration_level,gps_fix_type,gps_satellite_count,gps_hdop,gps_vdop,position_error_m,battery_voltage_v,battery_current_a,battery_remaining_pct,battery_temp_c,battery_capacity_mah,motor_fl_rpm,motor_fr_rpm,motor_rl_rpm,motor_rr_rpm,motor_fl_temp_c,motor_fr_temp_c,motor_rl_temp_c,motor_rr_temp_c,motor_fl_thrust_n,motor_fr_thrust_n,motor_rl_thrust_n,motor_rr_thrust_n,wind_speed_ms,wind_dir_deg,air_temp_c,humidity_pct,pressure_hpa,gimbal_pitch_deg,gimbal_roll_deg,zoom_factor,ir_temp_min_c,ir_temp_max_c,ir_temp_avg_c,anomaly_detected,anomaly_class,anomaly_confidence,anomaly_bbox_x,anomaly_bbox_y,anomaly_bbox_w,anomaly_bbox_h,anomaly_gps_lat,anomaly_gps_lon,anomaly_gps_alt_m,ir_temp_delta_c
2024-10-20T10:51:00.000Z,MISSION_0004,0,0,takeoff,SITE_HYD_005,17.384998,78.4867032,1.5,335.47,0.044,0.036,0.42,-3.1986,-2.275,335.4664,-0.97648,0.03148,0.01346,0.21288,-0.0601,-0.0875,-9.7803,-0.477,0.1339,0.5613,0.1278,3,16,0.76,0.79,0.2,24.847,18.55,98.7,44.3,21711.0,8658,8764,8798,8860,62.8,62.1,60.2,59.5,2.742,2.773,2.729,2.766,4.36,57.8,36.1,84.3,1006.19,-32.62,0.36,1.27,31.6,50.2,40.9,0,no_anomaly,0.0,0,0,0,0,17.384998,78.4867032,1.5,0.0
2024-10-20T10:51:00.100Z,MISSION_0004,1,0,takeoff,SITE_HYD_005,17.3849963,78.4867023,3.0,338.26,0.0,0.072,0.49,4.892,-1.5437,338.2626,-0.98119,-0.03937,0.02126,0.18781,-0.146,0.0107,-9.7958,0.5642,-0.1506,0.3223,0.2234,3,13,0.59,0.73,0.2,24.81,14.1,98.6,44.7,21693.0,9082,9201,8970,8991,61.0,58.1,58.8,60.0,2.887,2.732,2.718,3.061,3.42,54.6,36.4,84.2,1006.41,-27.09,1.0,1.81,30.9,45.8,35.5,0,no_anomaly,0.0,0,0,0,0,17.3849963,78.4867023,3.0,0.0
2024-10-20T10:51:00.200Z,MISSION_0004,2,0,takeoff,SITE_HYD_005,17.3850008,78.4867002,4.5,337.29,0.0,0.054,0.1,0.8714,-3.7191,337.2875,-0.97993,-0.00106,0.03331,0.19656,-0.1502,-0.0229,-9.7756,0.2196,-0.172,0.1633,0.1167,3,14,0.71,0.9,0.38,24.781,12.0,98.5,43.5,21675.0,8942,8593,8875,8804,61.0,59.8,62.9,60.3,2.869,2.866,2.617,2.843,3.5,62.5,36.2,84.6,1006.09,-33.27,-0.31,1.62,32.5,50.5,41.0,0,no_anomaly,0.0,0,0,0,0,17.3850008,78.4867002,4.5,0.0
2024-10-20T10:51:00.300Z,MISSION_0004,3,0,takeoff,SITE_HYD_005,17.3849958,78.486702,5.0,335.52,0.029,0.14,0.52,-0.4299,-2.7843,335.5158,-0.97695,0.00882,0.02295,0.21207,0.1965,-0.0516,-9.851,0.3263,0.1575,0.0405,0.1897,3,18,0.64,0.74,0.36,24.703,12.05,98.4,43.7,21658.0,9008,8584,8760,9023,58.6,61.5,61.1,61.2,2.893,2.611,2.937,2.62,3.55,58.7,35.9,84.1,1005.92,-28.73,-1.57,1.99,28.3,46.9,36.0,0,no_anomaly,0.0,0,0,0,0,17.3849958,78.486702,5.0,0.0
2024-10-20T10:51:00.400Z,MISSION_0004,4,0,takeoff,SITE_HYD_005,17.3849983,78.4866989,5.0,333.77,0.192,0.1,0.22,-8.2554,-2.3354,333.7736,-0.97086,0.0747,0.00347,0.22767,0.2241,-0.0503,-9.8545,0.4648,-0.5953,0.4272,0.2304,3,14,0.75,0.75,0.29,24.744,18.36,98.4,44.3,21640.0,8807,8806,8995,9235,58.7,62.6,62.2,62.0,2.836,2.718,2.822,2.756,4.06,62.8,36.0,84.9,1006.22,-37.23,0.18,1.57,31.3,46.1,42.1,0,no_anomaly,0.0,0,0,0,0,17.3849983,78.4866989,5.0,0.0
2024-10-20T10:51:00.500Z,MISSION_0004,5,0,takeoff,SITE_HYD_005,17.3849937,78.4867008,5.0,335.73,0.085,0.067,0.7,-1.9755,-0.1897,335.732,-0.97751,0.0172,-0.00201,0.2102,0.0645,-0.0137,-9.7974,-0.4942,0.1649,-0.5925,0.1327,3,14,0.68,0.92,0.24,24.804,18.58,98.3,43.9,21622.0,8855,8983,8945,8840,64.0,59.2,64.1,58.2,2.614,2.631,2.979,2.712,3.64,53.6,35.8,84.3,1006.73,-31.55,-0.24,1.68,32.8,42.0,39.3,0,no_anomaly,0.0,0,0,0,0,17.3849937,78.4867008,5.0,0.0
2024-10-20T10:51:00.600Z,MISSION_0004,6,0,takeoff,SITE_HYD_005,17.3849947,78.4866975,5.0,333.41,0.0,0.086,0.66,-0.8115,-0.1867,333.4091,-0.97317,0.00727,-4e-05,0.22998,-0.3337,0.0141,-9.8585,0.3471,0.116,0.6375,0.1823,3,10,0.86,0.77,0.32,24.655,18.47,98.2,44.0,21604.0,8948,8861,9099,8850,62.2,64.4,64.6,61.9,2.821,2.862,3.044,2.815,3.86,56.3,36.0,84.0,1006.85,-32.33,0.57,1.23,29.2,50.7,41.4,0,no_anomaly,0.0,0,0,0,0,17.3849947,78.4866975,5.0,0.0
2024-10-20T10:51:00.700Z,MISSION_0004,7,0,takeoff,SITE_HYD_005,17.3849963,78.4866933,5.0,337.15,0.045,0.102,0.85,-1.8962,-2.3012,337.1503,-0.97979,0.02019,0.0164,0.19834,0.2022,-0.0355,-9.8308,0.2811,-0.115,0.4119,0.1374,3,20,0.63,0.84,0.24,24.768,17.43,98.1,43.8,21587.0,8962,8769,9013,8598,61.6,61.0,61.9,62.1,2.805,3.112,2.897,3.076,3.93,57.5,35.8,84.8,1006.5,-36.21,0.37,1.69,30.1,41.6,38.6,0,no_anomaly,0.0,0,0,0,0,17.3849963,78.4866933,5.0,0.0
2024-10-20T10:51:00.800Z,MISSION_0004,8,0,takeoff,SITE_HYD_005,17.3849908,78.4866889,5.0,334.07,0.155,0.208,1.6,1.0035,-0.6945,334.0693,-0.97446,-0.00717,0.00787,0.2243,-0.1378,-0.0227,-9.8485,-0.4599,-0.471,-0.3864,0.195,3,20,0.85,1.03,0.31,24.744,19.26,98.0,44.2,21569.0,8751,8954,8964,8745,61.4,60.7,62.1,59.8,3.089,2.591,3.072,2.675,4.06,55.1,36.3,84.3,1006.57,-32.26,-0.9,1.34,28.6,48.2,35.3,0,no_anomaly,0.0,0,0,0,0,17.3849908,78.4866889,5.0,0.0
2024-10-20T10:51:00.900Z,MISSION_0004,9,0,takeoff,SITE_HYD_005,17.3849976,78.4866921,5.0,336.35,0.532,0.119,0.92,3.8305,-0.5201,336.3453,-0.97824,-0.03178,0.01129,0.2047,-0.1299,0.0768,-9.8072,0.1603,-1.0327,-0.2307,0.238,3,10,0.8,1.02,0.2,24.759,18.12,98.0,44.5,21551.0,8866,8772,8793,8505,60.6,60.8,58.3,60.1,3.197,2.677,2.952,2.805,3.89,65.0,35.8,85.2,1006.52,-37.04,0.58,1.19,31.1,48.9,40.3,0,no_anomaly,0.0,0,0,0,0,17.3849976,78.4866921,5.0,0.0
2024-10-20T10:51:01.000Z,MISSION_0004,10,0,takeoff,SITE_HYD_005,17.384998,78.4866989,5.0,335.16,0.469,0.092,0.26,2.8111,-0.6543,335.1596,-0.97632,-0.02273,0.01085,0.21487,0.0632,-0.0431,-9.7921,1.4729,0.5877,0.2178,0.3452,3,12,0.81,0.99,0.3,24.722,14.66,97.9,44.1,21533.0,8802,8863,8924,8804,63.0,60.8,60.2,62.6,2.816,2.636,2.576,2.74,4.59,63.1,35.8,84.0,1006.21,-28.17,-0.2,1.61,29.7,43.2,39.0,0,no_anomaly,0.0,0,0,0,0,17.384998,78.4866989,5.0,0.0
2024-10-20T10:51:01.100Z,MISSION_0004,11,0,takeoff,SITE_HYD_005,17.3850055,78.4866998,5.0,334.79,0.065,0.124,0.61,2.1353,-1.3009,334.7945,-0.97572,-0.01571,0.01514,0.21793,0.0173,0.0229,-9.867,-0.0008,0.0548,0.2315,0.2251,3,11,0.5,0.87,0.24,24.827,14.9,97.8,44.1,21515.0,8986,8978,8701,8721,56.9,60.2,59.5,56.8,2.866,2.76,2.887,2.855,4.2,58.9,35.8,85.4,1006.28,-30.03,-0.18,1.79,34.5,48.2,37.1,0,no_anomaly,0.0,0,0,0,0,17.3850055,78.4866998,5.0,0.0
2024-10-20T10:51:01.200Z,MISSION_0004,12,0,takeoff,SITE_HYD_005,17.3850046,78.4867049,5.0,334.94,0.0,0.131,0.74,1.9141,-3.5184,334.9386,-0.97569,-0.00964,0.03359,0.21633,-0.213,-0.0366,-9.722,-0.4379,-0.1782,0.0516,0.2043,3,11,0.74,0.76,0.41,24.735,21.53,97.7,43.6,21498.0,8955,8976,8770,8995,58.3,59.1,62.5,58.2,2.907,2.639,2.914,2.535,3.63,63.1,36.5,84.1,1006.56,-24.36,-0.79,1.0,27.8,42.7,39.2,0,no_anomaly,0.0,0,0,0,0,17.3850046,78.4867049,5.0,0.0
2024-10-20T10:51:01.300Z,MISSION_0004,13,0,takeoff,SITE_HYD_005,17.3850049,78.4867062,5.0,334.59,0.0,0.115,0.88,3.4029,-2.6764,334.5926,-0.97498,-0.02382,0.0293,0.21908,-0.0977,0.0097,-9.8165,1.0255,0.0505,0.0021,0.2267,3,20,0.7,1.0,0.3,24.788,21.2,97.6,43.7,21480.0,8723,8713,8944,9106,57.6,64.8,62.9,58.7,2.746,2.662,2.985,2.912,3.62,60.4,35.9,84.2,1006.36,-27.61,-0.26,1.25,30.3,41.2,40.2,0,no_anomaly,0.0,0,0,0,0,17.3850049,78.4867062,5.0,0.0
2024-10-20T10:51:01.400Z,MISSION_0004,14,0,takeoff,SITE_HYD_005,17.3850049,78.48671,5.0,335.44,0.146,0.051,1.24,-2.9248,-2.7377,335.4365,-0.97639,0.03001,0.01791,0.21318,0.034,-0.0035,-9.7671,0.3289,-1.0299,0.0729,0.1999,3,15,0.5,0.95,0.34,24.711,16.65,97.6,44.3,21462.0,9042,9024,8765,8936,60.4,60.0,62.8,66.0,2.768,2.71,2.636,2.969,4.87,53.0,36.0,83.7,1006.61,-31.0,-2.2,1.69,28.1,42.1,40.4,0,no_anomaly,0.0,0,0,0,0,17.3850049,78.48671,5.0,0.0
2024-10-20T10:51:01.500Z,MISSION_0004,15,0,takeoff,SITE_HYD_005,17.3850073,78.4867141,5.0,334.65,0.26,0.065,1.76,1.1694,-1.2467,334.6466,-0.97554,-0.00757,0.01285,0.21932,-0.0601,0.0296,-9.7665,0.1207,0.1218,0.5392,0.2148,3,15,0.62,0.85,0.35,24.868,16.42,97.5,44.4,21444.0,8946,8958,8765,8974,59.5,57.6,62.8,64.8,2.74,2.802,2.664,2.828,3.72,56.3,36.0,84.6,1006.57,-31.78,-1.99,1.0,29.0,48.5,36.1,0,no_anomaly,0.0,0,0,0,0,17.3850073,78.4867141,5.0,0.0
2024-10-20T10:51:01.600Z,MISSION_0004,16,0,takeoff,SITE_HYD_005,17.3850029,78.4867171,5.0,334.16,0.455,0.119,1.93,1.7026,-1.652,334.1627,-0.97453,-0.01126,0.01737,0.22331,0.0506,0.0348,-9.6839,1.4087,-0.1671,0.4271,0.1787,3,20,0.76,0.8,0.39,24.762,21.92,97.4,43.8,21427.0,8480,9190,8786,8872,64.9,59.1,62.3,65.3,2.847,3.118,2.814,2.959,3.73,56.7,36.5,84.3,1006.22,-29.35,-2.25,1.21,29.9,41.6,40.0,0,no_anomaly,0.0,0,0,0,0,17.3850029,78.4867171,5.0,0.0
2024-10-20T10:51:01.700Z,MISSION_0004,17,0,takeoff,SITE_HYD_005,17.3850038,78.4867151,5.0,331.7,0.251,0.034,1.74,-2.909,-0.8547,331.6993,-0.96927,0.02644,0.00103,0.24457,-0.0904,0.0379,-9.8441,0.1642,0.2846,-0.2041,0.1258,3,18,0.78,0.77,0.2,24.688,16.1,97.3,44.7,21409.0,8597,9106,8767,8925,62.8,60.7,59.2,64.7,2.758,2.739,3.102,2.732,2.74,68.5,36.2,83.9,1006.48,-33.27,1.96,1.56,33.2,43.7,36.9,0,no_anomaly,0.0,0,0,0,0,17.3850038,78.4867151,5.0,0.0
2024-10-20T10:51:01.800Z,MISSION_0004,18,0,takeoff,SITE_HYD_005,17.3850041,78.4867191,5.0,330.4,0.0,0.116,2.18,-1.6217,-1.4796,330.4021,-0.9666,0.01698,0.00887,0.25556,0.1829,-0.0239,-9.8204,0.0734,-0.4377,-0.3926,0.1718,3,10,0.78,0.85,0.38,24.648,17.72,97.2,43.1,21391.0,8937,8744,9005,8418,63.2,58.2,60.0,59.2,2.909,2.834,2.925,2.859,3.54,55.6,36.4,84.4,1006.32,-28.28,0.53,1.29,31.5,42.1,37.7,0,no_anomaly,0.0,0,0,0,0,17.3850041,78.4867191,5.0,0.0
2024-10-20T10:51:01.900Z,MISSION_0004,19,0,takeoff,SITE_HYD_005,17.3850033,78.4867148,5.0,332.17,0.0,0.106,1.69,-2.292,-4.5284,332.166,-0.9695,0.0289,0.03353,0.24105,0.0951,0.041,-9.8017,0.309,-0.0686,-0.3606,0.2393,3,12,0.79,0.77,0.39,24.782,18.29,97.2,43.9,21373.0,8951,8900,8795,9071,62.8,61.7,60.6,63.7,2.704,2.879,2.713,3.022,3.55,59.0,36.0,84.7,1006.15,-30.63,-0.87,2.06,30.9,50.2,41.5,0,no_anomaly,0.0,0,0,0,0,17.3850033,78.4867148,5.0,0.0
2024-10-20T10:51:02.000Z,MISSION_0004,20,0,takeoff,SITE_HYD_005,17.3849994,78.4867124,5.0,333.36,0.257,0.127,1.39,0.2784,-2.31,333.3586,-0.97291,0.00228,0.02017,0.23031,-0.005,0.0335,-9.9133,0.2056,0.382,0.2286,0.1917,3,14,0.76,1.14,0.25,24.722,17.55,97.1,44.8,21355.0,8838,8755,8782,8657,60.7,60.9,58.5,59.9,2.745,2.928,2.673,2.627,3.63,64.2,35.9,84.0,1005.96,-30.6,0.46,1.28,32.8,44.9,38.1,0,no_anomaly,0.0,0,0,0,0,17.3849994,78.4867124,5.0,0.0
2024-10-20T10:51:02.100Z,MISSION_0004,21,0,takeoff,SITE_HYD_005,17.3850009,78.4867101,5.0,332.98,0.203,0.143,1.13,1.2726,-2.861,332.9784,-0.97203,-0.00496,0.02687,0.23327,-0.021,0.0609,-9.731,0.2776,0.6169,0.1022,0.1656,3,19,0.77,0.82,0.23,24.679,14.94,97.0,44.3,21338.0,8899,8534,8848,9016,64.2,63.1,58.3,61.6,2.778,2.999,2.604,2.858,4.43,51.0,35.9,84.3,1006.32,-31.07,-1.1,1.7,29.4,42.2,41.0,0,no_anomaly,0.0,0,0,0,0,17.3850009,78.4867101,5.0,0.0
2024-10-20T10:51:02.200Z,MISSION_0004,22,0,takeoff,SITE_HYD_005,17.3850019,78.486711,5.0,331.1,0.251,0.046,1.24,-4.8976,-1.1782,331.1029,-0.96733,0.04394,-0.00071,0.24969,-0.2001,0.0316,-9.8468,0.2698,0.4696,-0.2933,0.2378,3,11,0.6,0.92,0.2,24.635,18.9,96.9,44.6,21320.0,8824,9000,8727,8972,55.2,63.6,60.0,58.8,2.714,3.083,2.868,2.769,5.1,63.9,35.9,84.4,1006.35,-28.99,1.11,1.87,32.8,41.4,39.1,0,no_anomaly,0.0,0,0,0,0,17.3850019,78.486711,5.0,0.0
2024-10-20T10:51:02.300Z,MISSION_0004,23,0,takeoff,SITE_HYD_005,17.385,78.4867082,5.0,332.96,0.074,0.064,0.91,-2.9779,-2.5257,332.9623,-0.97159,0.03041,0.01535,0.23419,-0.1125,-0.0399,-9.8106,0.2825,1.4945,0.5301,0.1112,3,12,0.68,0.97,0.3,24.687,20.57,96.8,43.7,21302.0,8798,8835,8790,9104,62.1,62.2,60.0,66.4,2.606,2.931,3.093,2.863,3.89,58.9,35.9,85.2,1006.47,-28.08,-0.04,2.0,31.6,46.8,35.6,0,no_anomaly,0.0,0,0,0,0,17.385,78.4867082,5.0,0.0
2024-10-20T10:51:02.400Z,MISSION_0004,24,0,takeoff,SITE_HYD_005,17.3850043,78.4867072,5.0,330.84,0.391,0.111,0.93,2.3753,-3.0281,330.8369,-0.96738,-0.0134,0.03078,0.25109,-0.1232,-0.0342,-9.8212,0.0593,0.2441,-0.1211,0.279,3,12,0.9,0.94,0.39,24.685,21.77,96.7,44.3,21284.0,8678,8797,8897,9053,56.4,61.9,61.1,60.1,2.736,2.952,2.799,2.433,3.76,63.3,35.7,85.0,1006.12,-32.01,-1.75,1.86,28.9,42.8,37.5,0,no_anomaly,0.0,0,0,0,0,17.3850043,78.4867072,5.0,0.0
2024-10-20T10:51:02.500Z,MISSION_0004,25,0,takeoff,SITE_HYD_005,17.3850083,78.4867053,5.0,331.43,0.646,0.087,1.09,-3.3087,-1.1313,331.433,-0.96857,0.03041,0.00244,0.24688,0.0852,-0.0916,-9.8335,-0.7149,-1.0579,-0.0693,0.1604,3,11,0.63,0.77,0.2,24.713,20.14,96.7,44.4,21267.0,8637,8999,9042,9243,59.7,62.4,64.3,62.4,3.257,2.761,2.731,2.525,3.76,60.7,36.2,83.7,1006.23,-29.11,0.54,1.45,29.2,50.8,38.0,0,no_anomaly,0.0,0,0,0,0,17.3850083,78.4867053,5.0,0.0
2024-10-20T10:51:02.600Z,MISSION_0004,26,0,takeoff,SITE_HYD_005,17.3850092,78.4867075,5.0,331.22,0.542,0.098,1.32,-0.5892,-3.306,331.2203,-0.96817,0.01215,0.02666,0.24856,-0.0291,0.0528,-9.8154,-0.1395,-0.0918,0.5436,0.2192,3,20,0.79,0.98,0.36,24.755,23.51,96.6,44.3,21249.0,8919,9095,8910,9042,60.5,58.4,58.6,64.6,3.226,2.808,2.72,2.853,3.46,70.5,36.4,84.4,1006.3,-32.3,-1.31,1.54,30.9,50.8,37.7,0,no_anomaly,0.0,0,0,0,0,17.3850092,78.4867075,5.0,0.0
2024-10-20T10:51:02.700Z,MISSION_0004,27,0,takeoff,SITE_HYD_005,17.3850172,78.4867087,5.0,330.24,0.226,0.103,2.15,-2.9834,-6.436,330.2358,-0.96423,0.03953,0.04756,0.25775,0.1582,-0.0065,-9.7724,0.1059,-1.2027,-0.0711,0.168,3,12,0.84,1.04,0.32,24.707,15.85,96.5,43.7,21231.0,8774,8856,8903,8845,61.8,60.3,62.5,65.1,2.988,2.645,2.714,2.989,2.97,59.0,35.9,85.3,1006.37,-29.86,-0.27,1.43,32.6,45.2,37.9,0,no_anomaly,0.0,0,0,0,0,17.3850172,78.4867087,5.0,0.0
2024-10-20T10:51:02.800Z,MISSION_0004,28,0,takeoff,SITE_HYD_005,17.3850183,78.4867078,5.0,330.29,0.0,0.12,2.22,-3.2936,-0.9806,330.2918,-0.96608,0.02997,0.0009,0.25648,-0.1147,-0.0146,-9.7209,0.643,-0.3848,0.1288,0.1044,3,14,0.83,0.91,0.43,24.721,16.75,96.4,44.0,21213.0,8828,8953,8772,8888,61.4,58.0,58.9,57.8,2.756,2.786,2.91,2.669,3.12,57.8,36.1,84.4,1006.1,-28.84,1.71,1.53,32.2,43.2,36.2,0,no_anomaly,0.0,0,0,0,0,17.3850183,78.4867078,5.0,0.0
2024-10-20T10:51:02.900Z,MISSION_0004,29,0,takeoff,SITE_HYD_005,17.3850195,78.4867064,5.0,329.58,0.27,0.101,2.29,1.5315,-3.7059,329.5752,-0.96448,-0.00441,0.0347,0.26182,0.189,0.0524,-9.8521,-1.0937,0.1779,0.0802,0.1292,3,13,0.88,0.88,0.35,24.722,21.81,96.3,44.3,21196.0,8899,8670,8884,9088,59.8,61.4,55.0,64.0,2.784,2.776,2.878,2.845,4.0,54.7,36.0,84.5,1006.61,-26.02,1.16,1.6,34.0,44.6,42.6,0,no_anomaly,0.0,0,0,0,0,17.3850195,78.4867064,5.0,0.0
2024-10-20T10:51:03.000Z,MISSION_0004,30,0,takeoff,SITE_HYD_005,17.3850183,78.4867049,5.0,327.99,0.267,0.143,2.11,0.5544,-3.5485,327.9898,-0.96081,0.00389,0.03109,0.27544,-0.2501,-0.0184,-9.797,0.8538,0.3927,0.7179,0.1517,3,14,0.75,0.88,0.49,24.733,11.09,96.3,43.9,21178.0,8661,9083,8765,8950,60.9,60.4,59.2,60.2,2.808,2.751,2.877,2.54,3.06,64.3,35.6,83.5,1006.47,-33.09,-1.56,1.59,29.7,43.6,38.4,0,no_anomaly,0.0,0,0,0,0,17.3850183,78.4867049,5.0,0.0
2024-10-20T10:51:03.100Z,MISSION_0004,31,0,takeoff,SITE_HYD_005,17.3850199,78.4867073,5.0,328.91,0.285,0.144,2.36,-1.5883,-4.8104,328.9058,-0.96231,0.02459,0.03672,0.26833,0.2437,-0.0487,-9.7514,-0.3047,-0.1198,-0.246,0.179,3,19,0.75,0.64,0.34,24.783,19.69,96.2,44.6,21160.0,8860,8808,8923,8723,60.6,57.8,58.9,63.5,2.428,2.912,3.102,2.837,3.31,63.6,36.1,84.7,1006.42,-34.32,-0.8,1.1,30.6,47.5,37.4,0,no_anomaly,0.0,0,0,0,0,17.3850199,78.4867073,5.0,0.0
2024-10-20T10:51:03.200Z,MISSION_0004,32,0,takeoff,SITE_HYD_005,17.3850153,78.4867064,5.0,327.48,0.142,0.173,1.84,-0.2275,-2.4577,327.4765,-0.95976,0.00791,0.02003,0.28,0.0261,0.0064,-9.8601,0.053,0.8688,-0.1638,0.1026,3,20,0.68,1.02,0.32,24.717,22.82,96.1,44.9,21142.0,9056,8846,9308,8786,63.0,59.9,62.7,62.3,2.751,2.488,3.126,3.041,4.53,53.2,36.2,84.4,1006.44,-27.02,-0.15,1.37,29.2,42.0,40.0,0,no_anomaly,0.0,0,0,0,0,17.3850153,78.4867064,5.0,0.0
2024-10-20T10:51:03.300Z,MISSION_0004,33,0,takeoff,SITE_HYD_005,17.3850159,78.4867094,5.0,324.36,0.021,0.131,2.05,-3.6701,-1.6281,324.3567,-0.95129,0.03483,0.00372,0.3063,-0.1973,-0.0616,-9.7941,-0.1468,0.178,-0.3605,0.1638,3,19,0.69,0.69,0.23,24.705,16.91,96.0,43.8,21124.0,8921,8810,8929,8969,62.4,61.4,60.8,61.1,2.998,2.696,3.004,2.724,4.03,61.5,36.2,84.9,1006.17,-27.96,-2.81,1.67,31.6,46.3,37.0,0,no_anomaly,0.0,0,0,0,0,17.3850159,78.4867094,5.0,0.0
2024-10-20T10:51:03.400Z,MISSION_0004,34,0,takeoff,SITE_HYD_005,17.3850104,78.4867046,5.0,323.6,0.0,0.125,1.26,1.3499,-0.1589,323.6005,-0.94991,-0.01076,0.005,0.31229,0.0908,-0.0298,-9.815,0.296,0.6795,0.3199,0.2292,3,16,0.74,1.07,0.36,24.617,18.95,95.9,43.8,21107.0,8758,8910,8886,8852,58.6,60.8,58.8,61.8,2.795,2.894,2.651,2.977,3.89,77.4,35.8,84.3,1006.56,-32.57,1.64,1.27,33.1,50.2,41.1,0,no_anomaly,0.0,0,0,0,0,17.3850104,78.4867046,5.0,0.0
2024-10-20T10:51:03.500Z,MISSION_0004,35,0,takeoff,SITE_HYD_005,17.3850098,78.4867075,5.0,324.45,0.329,0.113,1.37,1.3678,-3.4025,324.4477,-0.95188,-0.0023,0.03191,0.30481,0.0089,0.0094,-9.8096,-0.369,-0.1196,0.1767,0.178,3,13,0.5,1.09,0.2,24.611,18.17,95.9,43.9,21089.0,8753,8913,9095,8956,58.4,60.6,60.3,62.2,2.512,2.888,2.661,2.715,4.25,62.2,36.3,84.4,1006.63,-28.37,0.97,1.42,31.1,49.8,37.9,0,no_anomaly,0.0,0,0,0,0,17.3850098,78.4867075,5.0,0.0
2024-10-20T10:51:03.600Z,MISSION_0004,36,0,takeoff,SITE_HYD_005,17.3850088,78.4867069,5.0,322.74,0.046,0.023,1.25,0.564,-3.9181,322.7375,-0.94708,0.00626,0.03396,0.31913,-0.0073,-0.002,-9.7808,0.4802,0.249,0.6499,0.1816,3,14,0.87,0.6,0.38,24.671,19.06,95.8,44.4,21071.0,9012,8996,8913,8710,62.4,58.7,59.4,62.1,2.828,2.653,2.604,2.818,3.68,57.8,35.7,84.8,1006.6,-28.04,-0.03,1.81,34.1,49.4,38.0,0,no_anomaly,0.0,0,0,0,0,17.3850088,78.4867069,5.0,0.0
2024-10-20T10:51:03.700Z,MISSION_0004,37,0,takeoff,SITE_HYD_005,17.3850106,78.4867044,5.0,324.9,0.206,0.11,1.28,2.7106,-0.9547,324.8952,-0.9532,-0.02004,0.01507,0.30129,-0.0518,0.0031,-9.82,0.9955,0.1806,0.1694,0.1773,3,17,0.57,0.76,0.22,24.598,16.3,95.7,44.3,21053.0,8854,8944,8997,8709,61.4,60.4,59.5,59.9,2.875,2.579,2.675,2.742,4.07,57.8,35.6,84.8,1006.16,-32.38,-0.4,1.92,34.5,52.2,40.6,0,no_anomaly,0.0,0,0,0,0,17.3850106,78.4867044,5.0,0.0
2024-10-20T10:51:03.800Z,MISSION_0004,38,0,takeoff,SITE_HYD_005,17.3850119,78.4867002,5.0,323.19,0.187,0.189,1.32,1.0456,-5.7283,323.1931,-0.94778,0.00713,0.05029,0.31487,-0.1189,0.0434,-9.8502,-0.5517,-0.2069,0.4827,0.2183,3,20,0.74,0.88,0.35,24.723,16.19,95.6,43.8,21036.0,8850,9027,9018,8833,59.7,62.8,60.6,63.3,2.805,2.885,2.704,3.023,3.23,63.9,36.3,84.8,1006.51,-32.79,1.36,1.12,34.8,44.3,40.9,0,no_anomaly,0.0,0,0,0,0,17.3850119,78.4867002,5.0,0.0
2024-10-20T10:51:03.900Z,MISSION_0004,39,0,takeoff,SITE_HYD_005,17.38501,78.4866987,5.0,323.91,0.592,0.121,1.13,1.9243,-4.5386,323.9085,-0.95014,-0.00369,0.04284,0.30886,0.0946,-0.0252,-9.7742,-0.2941,0.4662,0.2152,0.1717,3,15,0.59,1.09,0.25,24.678,18.88,95.5,43.6,21018.0,8989,8843,8890,8921,57.8,57.2,57.8,59.6,2.764,2.551,2.595,2.815,3.2,57.1,36.3,84.7,1006.47,-26.53,0.32,1.01,30.8,47.8,40.7,0,no_anomaly,0.0,0,0,0,0,17.38501,78.4866987,5.0,0.0
2024-10-20T10:51:04.000Z,MISSION_0004,40,0,takeoff,SITE_HYD_005,17.3850102,78.4867001,5.0,325.28,0.551,0.105,1.14,-1.9532,-2.2146,325.2842,-0.95404,0.02203,0.01336,0.29856,-0.0522,-0.0064,-9.9088,0.523,0.1114,0.336,0.1263,3,15,0.75,0.87,0.31,24.712,20.74,95.5,44.0,21000.0,8810,8935,8420,9004,61.8,61.6,61.6,57.8,2.764,2.837,2.831,3.12,3.55,62.7,36.2,85.1,1006.36,-34.4,-1.05,1.93,29.5,47.0,40.1,0,no_anomaly,0.0,0,0,0,0,17.3850102,78.4867001,5.0,0.0
2024-10-20T10:51:04.100Z,MISSION_0004,41,0,takeoff,SITE_HYD_005,17.3850083,78.4866979,5.0,325.55,0.791,0.147,0.95,-1.6967,-3.1395,325.5506,-0.95457,0.02225,0.02178,0.29636,0.0933,0.0518,-9.7342,0.0659,0.2164,0.121,0.069,3,10,0.82,1.02,0.36,24.694,18.81,95.4,45.3,20982.0,8615,8818,8892,9066,61.9,59.8,59.5,61.6,2.747,3.114,2.835,2.695,4.72,55.8,36.2,84.0,1006.62,-29.75,-0.63,1.29,33.5,46.2,38.1,0,no_anomaly,0.0,0,0,0,0,17.3850083,78.4866979,5.0,0.0
2024-10-20T10:51:04.200Z,MISSION_0004,42,0,takeoff,SITE_HYD_005,17.3850097,78.4866907,5.0,326.71,1.139,0.121,1.5,0.3761,-1.138,326.709,-0.95805,-0.0003,0.01045,0.2864,0.2383,-0.128,-9.7805,-0.4567,0.5732,-0.0918,0.195,3,11,0.54,1.02,0.2,24.661,22.26,95.3,44.6,20964.0,8844,8667,8860,8809,60.1,59.7,60.4,60.7,3.089,2.633,2.972,2.985,2.65,56.4,35.8,84.4,1006.19,-30.33,0.14,1.05,32.8,44.5,36.7,0,no_anomaly,0.0,0,0,0,0,17.3850097,78.4866907,5.0,0.0
2024-10-20T10:51:04.300Z,MISSION_0004,43,0,takeoff,SITE_HYD_005,17.3850091,78.4866883,5.0,326.12,1.02,0.06,1.65,4.4087,1.152,326.122,-0.95575,-0.03972,0.0016,0.29149,0.2613,-0.1158,-9.7785,-0.1408,-0.5322,0.4366,0.1688,3,18,0.79,1.05,0.37,24.659,17.54,95.2,44.3,20947.0,9105,9042,8850,8874,64.8,58.7,57.4,59.5,3.117,2.621,2.661,2.846,3.88,66.3,36.2,84.5,1006.44,-26.22,-0.42,1.62,33.2,41.5,40.4,0,no_anomaly,0.0,0,0,0,0,17.3850091,78.4866883,5.0,0.0
2024-10-20T10:51:04.400Z,MISSION_0004,44,0,takeoff,SITE_HYD_005,17.3850072,78.486692,5.0,324.54,0.773,0.16,1.2,5.3393,-2.6281,324.5448,-0.95156,-0.03738,0.036,0.30306,0.0095,-0.009,-9.8678,-0.6667,-0.2399,-0.107,0.1336,3,17,0.74,1.04,0.32,24.653,21.44,95.1,44.5,20929.0,9117,8791,8763,9007,61.2,61.6,65.8,59.2,2.861,2.827,2.984,2.488,3.57,63.4,36.4,84.5,1006.36,-29.87,0.14,1.29,31.1,48.6,40.4,0,no_anomaly,0.0,0,0,0,0,17.3850072,78.486692,5.0,0.0
2024-10-20T10:51:04.500Z,MISSION_0004,45,0,takeoff,SITE_HYD_005,17.3850081,78.4866896,5.0,324.1,0.511,0.088,1.47,1.07,-3.0378,324.1017,-0.95103,-0.00071,0.02809,0.30782,0.0105,0.0044,-9.819,0.7824,0.4352,0.178,0.2208,3,17,0.65,0.79,0.3,24.627,16.31,95.1,44.2,20911.0,8451,8774,9012,8905,62.4,62.6,59.4,57.1,2.813,2.761,2.704,2.712,4.33,56.3,36.6,85.7,1006.77,-28.54,0.72,1.82,27.8,42.3,36.7,0,no_anomaly,0.0,0,0,0,0,17.3850081,78.4866896,5.0,0.0
2024-10-20T10:51:04.600Z,MISSION_0004,46,0,takeoff,SITE_HYD_005,17.3850102,78.4866905,5.0,322.95,0.007,0.128,1.55,2.4645,-2.6333,322.9544,-0.94788,-0.01309,0.02861,0.31706,-0.1806,0.0239,-9.6625,0.2346,-0.22,0.1996,0.1419,3,15,0.66,0.97,0.2,24.683,17.53,95.0,44.2,20893.0,8802,9117,8728,8825,61.9,64.2,58.7,62.1,2.762,3.134,2.899,2.766,3.14,60.5,36.1,84.4,1006.28,-30.34,-2.45,1.47,32.7,46.6,37.8,0,no_anomaly,0.0,0,0,0,0,17.3850102,78.4866905,5.0,0.0
2024-10-20T10:51:04.700Z,MISSION_0004,47,0,takeoff,SITE_HYD_005,17.3850081,78.4866917,5.0,322.27,0.065,0.206,1.29,1.8883,-4.4413,322.2651,-0.94564,-0.00305,0.04199,0.32249,-0.1831,-0.037,-9.8317,-0.4292,-0.4011,-0.2534,0.139,3,13,0.76,0.82,0.37,24.724,19.65,94.9,43.5,20876.0,8768,8988,9131,8610,62.9,59.4,57.8,62.6,2.595,2.59,3.17,2.547,3.19,60.1,35.8,84.2,1006.34,-32.16,0.3,1.64,28.5,49.1,37.6,0,no_anomaly,0.0,0,0,0,0,17.3850081,78.4866917,5.0,0.0
2024-10-20T10:51:04.800Z,MISSION_0004,48,0,takeoff,SITE_HYD_005,17.3850082,78.4866939,5.0,323.37,0.045,0.132,1.14,2.842,-4.1219,323.3703,-0.94872,-0.01223,0.04192,0.31309,0.0246,0.0455,-9.8103,-0.1458,-0.0538,0.0607,0.1859,3,16,0.78,1.01,0.29,24.676,16.87,94.8,43.4,20858.0,9086,9123,8919,8835,60.1,64.1,59.7,59.6,2.469,2.894,3.029,2.875,3.52,51.2,36.3,84.7,1006.64,-28.58,0.32,1.31,31.4,43.7,38.8,0,no_anomaly,0.0,0,0,0,0,17.3850082,78.4866939,5.0,0.0
2024-10-20T10:51:04.900Z,MISSION_0004,49,0,takeoff,SITE_HYD_005,17.385009,78.4866959,5.0,322.81,0.0,0.042,1.1,1.3424,-1.344,322.8108,-0.94771,-0.00736,0.01485,0.3187,-0.0652,0.0489,-9.8219,-0.9729,0.0715,-0.4089,0.0181,3,19,0.68,1.0,0.24,24.669,16.97,94.7,44.1,20840.0,8636,8529,8908,8799,58.4,60.6,58.5,61.0,2.394,2.982,2.947,2.656,4.0,57.3,36.3,84.2,1006.21,-23.23,-1.52,1.84,34.8,47.1,41.6,0,no_anomaly,0.0,0,0,0,0,17.385009,78.4866959,5.0,0.0
2024-10-20T10:51:05.000Z,MISSION_0004,50,0,takeoff,SITE_HYD_005,17.3850098,78.4866952,5.0,322.98,0.0,0.052,1.21,0.0019,-0.4701,322.9844,-0.94827,0.00129,0.0039,0.31743,-0.1312,0.0168,-9.8427,-0.3376,1.2084,0.4607,0.145,3,19,0.64,0.78,0.31,24.593,19.16,94.6,45.4,20822.0,8914,9042,9023,8816,58.4,63.2,63.2,65.1,2.801,2.648,2.817,2.691,4.21,64.3,36.0,83.8,1006.27,-28.03,-0.66,1.45,26.7,48.9,35.5,0,no_anomaly,0.0,0,0,0,0,17.3850098,78.4866952,5.0,0.0
2024-10-20T10:51:05.100Z,MISSION_0004,51,0,takeoff,SITE_HYD_005,17.3850103,78.4866918,5.0,321.44,0.06,0.069,1.47,-0.3869,-1.3965,321.4449,-0.94384,0.00721,0.01039,0.33016,0.1163,0.0304,-9.765,0.2634,-1.5519,-0.2595,0.1039,3,19,0.69,0.84,0.34,24.573,13.9,94.6,44.0,20804.0,8961,8828,8981,8858,61.2,61.6,56.8,62.2,2.754,2.887,3.062,2.994,3.73,63.7,36.1,84.4,1006.86,-32.32,-1.36,1.2,30.3,43.2,38.5,0,no_anomaly,0.0,0,0,0,0,17.3850103,78.4866918,5.0,0.0
2024-10-20T10:51:05.200Z,MISSION_0004,52,0,takeoff,SITE_HYD_005,17.3850058,78.4866912,5.0,322.27,0.146,0.07,1.17,-0.8505,-2.8582,322.275,-0.94592,0.01508,0.0212,0.32336,0.1228,-0.0579,-9.8011,-0.4077,-0.364,-0.1543,0.1671,3,10,0.66,0.91,0.31,24.681,18.31,94.5,44.3,20787.0,8907,8889,8923,8654,58.5,61.4,62.0,57.5,2.854,2.677,2.867,2.627,4.77,62.2,36.0,85.1,1006.6,-26.86,-0.26,1.73,28.8,44.7,40.5,0,no_anomaly,0.0,0,0,0,0,17.3850058,78.4866912,5.0,0.0
2024-10-20T10:51:05.300Z,MISSION_0004,53,0,takeoff,SITE_HYD_005,17.3850015,78.4866943,5.0,321.82,0.072,0.116,0.66,-0.9093,-0.704,321.8204,-0.94494,0.00951,0.00321,0.32708,0.1525,0.0382,-9.8144,0.0377,-0.1587,-0.3773,0.1865,3,15,0.82,1.05,0.3,24.645,18.25,94.4,44.2,20769.0,8810,8949,8766,8939,63.9,60.0,61.5,61.7,2.906,2.698,2.561,3.096,4.14,56.3,36.1,84.5,1006.73,-35.08,-0.53,1.61,30.4,41.8,35.1,0,no_anomaly,0.0,0,0,0,0,17.3850015,78.4866943,5.0,0.0
2024-10-20T10:51:05.400Z,MISSION_0004,54,0,takeoff,SITE_HYD_005,17.3850054,78.4866915,5.0,320.1,0.0,0.047,1.13,-1.6441,-0.6783,320.0979,-0.93984,0.01551,0.00067,0.34126,-0.0367,-0.0164,-9.7403,0.1091,0.2608,-0.4192,0.1732,3,12,0.65,0.71,0.24,24.616,19.91,94.3,44.3,20751.0,8877,8661,9012,8630,60.0,60.6,62.2,60.6,2.662,2.933,2.542,2.904,4.03,59.4,35.8,84.9,1006.5,-29.87,-0.42,1.2,31.7,41.6,36.4,0,no_anomaly,0.0,0,0,0,0,17.3850054,78.4866915,5.0,0.0
2024-10-20T10:51:05.500Z,MISSION_0004,55,0,takeoff,SITE_HYD_005,17.3850047,78.4866843,5.0,319.17,0.177,0.138,1.82,-0.0287,-3.4411,319.1655,-0.93675,0.01071,0.02805,0.3487,-0.0517,0.0386,-9.713,0.5458,-0.1585,-0.3116,0.1441,3,12,0.82,0.88,0.2,24.552,15.0,94.2,42.8,20733.0,9017,9226,9024,9038,63.1,58.7,60.9,61.3,3.06,2.697,2.903,2.687,3.19,54.9,35.9,84.9,1006.54,-34.97,-0.12,1.73,35.2,45.7,39.1,0,no_anomaly,0.0,0,0,0,0,17.3850047,78.4866843,5.0,0.0
2024-10-20T10:51:05.600Z,MISSION_0004,56,0,takeoff,SITE_HYD_005,17.3850042,78.4866812,5.0,316.57,0.0,0.118,2.15,0.2388,0.0875,316.565,-0.92902,-0.00222,6e-05,0.37003,-0.1013,0.0066,-9.7839,-0.3461,-0.6253,-0.0057,0.1223,3,13,0.55,1.13,0.2,24.672,18.82,94.2,43.7,20716.0,8924,8934,8908,8890,62.3,62.1,62.4,58.8,2.539,2.717,2.784,2.918,4.77,56.7,36.2,85.1,1006.25,-26.49,0.07,1.31,33.6,47.0,40.4,0,no_anomaly,0.0,0,0,0,0,17.3850042,78.4866812,5.0,0.0
2024-10-20T10:51:05.700Z,MISSION_0004,57,0,takeoff,SITE_HYD_005,17.3850053,78.486676,5.0,314.26,0.0,0.104,2.74,-2.0962,-0.142,314.2644,-0.92124,0.01734,-0.00597,0.38856,0.1029,0.0228,-9.8164,-0.513,-1.4966,-0.2467,0.1931,3,10,0.58,1.11,0.24,24.68,22.22,94.1,43.8,20698.0,8844,8979,8655,8941,63.6,62.4,61.8,58.3,2.784,2.602,2.788,2.804,3.4,67.0,35.8,84.1,1006.3,-34.16,2.42,1.72,32.1,45.4,39.3,0,no_anomaly,0.0,0,0,0,0,17.3850053,78.486676,5.0,0.0
2024-10-20T10:51:05.800Z,MISSION_0004,58,0,takeoff,SITE_HYD_005,17.3850047,78.4866737,5.0,316.68,0.0,0.092,2.97,-0.843,-3.5282,316.6841,-0.92885,0.01819,0.0259,0.36909,-0.027,-0.0989,-9.8366,0.5156,0.0413,-0.4588,0.1882,3,20,0.75,0.94,0.32,24.72,21.5,94.0,43.9,20680.0,8798,8763,8908,8981,58.3,61.7,59.7,59.0,2.815,3.077,2.799,2.946,3.87,59.8,36.2,84.5,1006.24,-28.55,-0.6,1.05,30.4,41.9,37.1,0,no_anomaly,0.0,0,0,0,0,17.3850047,78.4866737,5.0,0.0
2024-10-20T10:51:05.900Z,MISSION_0004,59,0,takeoff,SITE_HYD_005,17.3850045,78.4866721,5.0,314.75,0.0,0.116,3.15,-0.9836,-0.8759,314.755,-0.92297,0.01086,0.00375,0.38469,-0.0138,-0.0735,-9.7567,-0.3952,-1.1852,-0.0446,0.2286,3,16,0.71,0.73,0.21,24.695,15.95,93.9,43.6,20662.0,8705,8826,9076,8981,61.4,66.0,62.2,66.6,2.73,2.795,2.681,2.811,3.67,75.9,36.2,84.4,1006.03,-30.81,1.09,1.48,29.7,48.8,40.5,0,no_anomaly,0.0,0,0,0,0,17.3850045,78.4866721,5.0,0.0
2024-10-20T10:51:06.000Z,MISSION_0004,60,0,takeoff,SITE_HYD_005,17.3850072,78.4866664,5.0,316.91,0.154,0.099,3.83,0.6767,-1.9666,316.9057,-0.93,0.00081,0.01813,0.36711,0.1628,0.0661,-9.8871,-1.1796,0.2887,-0.0028,0.1448,3,11,0.71,0.75,0.32,24.598,17.57,93.8,44.5,20645.0,8792,8817,8866,8925,63.9,60.3,62.7,62.3,2.84,2.929,3.031,2.811,4.13,57.7,36.1,84.3,1006.34,-31.07,-1.03,1.41,32.0,44.6,41.0,0,no_anomaly,0.0,0,0,0,0,17.3850072,78.4866664,5.0,0.0
2024-10-20T10:51:06.100Z,MISSION_0004,61,0,takeoff,SITE_HYD_005,17.3850068,78.486671,5.0,316.84,0.0,0.159,3.31,4.8734,-2.0824,316.8449,-0.92921,-0.03285,0.03252,0.36665,-0.0208,-0.0454,-9.8484,0.7937,-0.4526,-0.2287,0.2056,3,16,0.54,1.05,0.25,24.631,19.17,93.8,45.1,20627.0,9007,9019,8967,8857,61.0,61.6,62.5,60.4,2.878,2.764,2.836,2.812,3.98,62.3,35.9,83.8,1006.59,-30.01,-0.82,1.91,29.0,49.6,39.7,0,no_anomaly,0.0,0,0,0,0,17.3850068,78.486671,5.0,0.0
2024-10-20T10:51:06.200Z,MISSION_0004,62,0,takeoff,SITE_HYD_005,17.385012,78.4866728,5.0,314.73,0.341,0.067,3.31,-2.462,-3.6539,314.728,-0.92202,0.03209,0.02115,0.38522,0.0194,-0.0248,-9.7694,0.2571,-0.1701,0.191,0.2873,3,16,0.67,0.95,0.31,24.664,24.46,93.7,44.9,20609.0,8740,8744,8869,8974,63.3,63.3,61.2,62.4,3.039,2.88,2.858,2.948,3.91,64.0,36.0,83.3,1006.28,-24.35,-1.15,1.45,29.9,45.9,37.2,0,no_anomaly,0.0,0,0,0,0,17.385012,78.4866728,5.0,0.0
2024-10-20T10:51:06.300Z,MISSION_0004,63,0,takeoff,SITE_HYD_005,17.3850153,78.4866691,5.0,312.15,0.171,0.161,3.84,-2.023,-0.7246,312.1522,-0.91388,0.0187,-0.00138,0.40555,0.2199,0.1114,-9.8468,0.3018,-0.0107,0.1258,0.2044,3,20,0.69,0.76,0.22,24.644,19.21,93.6,44.0,20591.0,8853,9062,8889,8957,64.2,61.5,60.3,60.3,2.895,2.575,3.026,2.975,3.12,58.0,35.6,85.2,1006.29,-31.53,0.54,1.27,27.3,44.6,34.8,0,no_anomaly,0.0,0,0,0,0,17.3850153,78.4866691,5.0,0.0
2024-10-20T10:51:06.400Z,MISSION_0004,64,0,takeoff,SITE_HYD_005,17.3850152,78.4866683,5.0,311.48,0.192,0.123,3.92,-0.7034,-3.2682,311.4845,-0.91125,0.01731,0.02348,0.41083,0.0769,-0.0115,-9.7113,-0.4422,0.247,-0.1595,0.1444,3,19,0.7,1.0,0.34,24.623,22.82,93.5,44.7,20573.0,8930,8990,8736,9058,58.6,62.1,61.1,58.4,2.617,2.795,2.785,2.687,3.59,53.2,36.1,84.6,1006.22,-34.33,-0.32,1.0,32.8,43.2,37.7,0,no_anomaly,0.0,0,0,0,0,17.3850152,78.4866683,5.0,0.0
2024-10-20T10:51:06.500Z,MISSION_0004,65,0,takeoff,SITE_HYD_005,17.3850092,78.4866699,5.0,311.04,0.0,0.104,3.51,-0.989,-3.2105,311.044,-0.90963,0.01946,0.02192,0.41439,0.0969,-0.0491,-9.8538,-0.0333,0.0026,-0.0818,0.0737,3,18,0.54,0.92,0.2,24.654,10.97,93.4,44.0,20556.0,8699,8662,8649,8837,59.7,59.9,58.8,62.9,2.792,2.738,2.89,2.799,3.38,61.9,36.3,84.3,1005.9,-25.15,-0.32,1.63,30.3,48.3,41.0,0,no_anomaly,0.0,0,0,0,0,17.3850092,78.4866699,5.0,0.0
2024-10-20T10:51:06.600Z,MISSION_0004,66,0,takeoff,SITE_HYD_005,17.3850051,78.4866715,5.0,313.61,0.0,0.172,3.23,4.0526,-3.674,313.6062,-0.91856,-0.01986,0.04337,0.3924,-0.0549,-0.0034,-9.7885,0.2586,-0.0543,0.7348,0.19,3,11,0.63,1.17,0.27,24.691,13.09,93.4,44.4,20538.0,8839,8806,8913,9056,60.9,64.1,58.8,61.9,2.879,2.444,2.872,2.762,3.99,66.5,35.5,85.0,1006.5,-29.31,-0.27,1.05,30.1,42.4,37.0,0,no_anomaly,0.0,0,0,0,0,17.3850051,78.4866715,5.0,0.0
2024-10-20T10:51:06.700Z,MISSION_0004,67,0,transit,SITE_HYD_005,17.3850049,78.4866733,5.5,315.32,0.0,0.105,3.03,0.2375,-1.989,315.3187,-0.92481,0.00468,0.01684,0.38002,0.1941,0.0003,-9.8027,0.4695,0.2538,0.0656,0.1095,3,13,0.66,0.95,0.27,24.618,20.08,93.3,45.4,20520.0,8900,8987,8859,8720,60.6,61.6,61.1,61.4,2.541,2.73,2.558,2.846,3.78,59.6,36.1,83.6,1006.07,-34.54,-0.16,1.94,31.7,41.5,37.5,0,no_anomaly,0.0,0,0,0,0,17.3850049,78.4866733,5.5,0.0
2024-10-20T10:51:06.800Z,MISSION_0004,68,0,transit,SITE_HYD_005,17.3850006,78.4866744,6.0,317.16,0.524,0.039,2.85,-0.3653,-0.3586,317.1617,-0.93092,0.00411,0.00175,0.36519,-0.0503,-0.0604,-9.8533,-0.2164,-0.0186,-0.0219,0.2065,3,12,0.68,1.04,0.23,24.603,23.2,93.2,43.3,20502.0,9257,8967,9348,9096,60.8,58.7,64.3,57.9,2.871,2.659,2.945,2.559,4.17,63.0,36.1,85.4,1006.48,-29.31,0.39,1.56,30.8,43.2,37.3,0,no_anomaly,0.0,0,0,0,0,17.3850006,78.4866744,6.0,0.0
2024-10-20T10:51:06.900Z,MISSION_0004,69,0,transit,SITE_HYD_005,17.3849985,78.4866766,6.5,316.73,0.267,0.099,2.61,3.217,-0.9261,316.7307,-0.92924,-0.02311,0.01786,0.36832,-0.0027,0.0747,-9.7851,0.1122,-0.8924,0.3875,0.0981,3,17,0.72,0.95,0.25,24.566,18.53,93.1,44.6,20485.0,8793,8808,8723,8649,60.9,59.8,62.6,62.6,2.89,2.693,2.943,2.656,4.2,63.0,35.9,84.1,1006.33,-27.94,-1.4,1.87,34.1,50.9,38.4,0,no_anomaly,0.0,0,0,0,0,17.3849985,78.4866766,6.5,0.0
2024-10-20T10:51:07.000Z,MISSION_0004,70,0,transit,SITE_HYD_005,17.3849979,78.4866816,7.0,316.63,0.176,0.067,2.06,-0.6151,-1.4244,316.6291,-0.92912,0.00958,0.00957,0.36954,0.0289,-0.0522,-9.7176,-0.1188,-0.6586,-0.1943,0.1736,3,12,0.87,0.86,0.27,24.602,17.7,93.0,44.2,20467.0,8633,8746,9019,8956,61.9,60.0,58.2,61.4,2.862,3.074,2.675,2.897,4.07,51.3,36.2,85.3,1006.44,-29.06,-0.87,1.67,32.4,47.0,37.4,0,no_anomaly,0.0,0,0,0,0,17.3849979,78.4866816,7.0,0.0
2024-10-20T10:51:07.100Z,MISSION_0004,71,0,transit,SITE_HYD_005,17.3849969,78.4866822,7.5,315.78,0.0,0.128,2.01,2.6412,-2.258,315.7791,-0.92621,-0.01393,0.02692,0.3758,0.0785,-0.0242,-9.7647,0.2847,0.866,0.0638,0.1746,3,11,0.66,0.94,0.26,24.638,15.42,92.9,44.5,20449.0,8897,8946,8621,8844,64.0,60.1,60.7,60.3,2.615,2.683,2.719,2.891,3.67,64.8,36.0,85.1,1006.39,-29.49,-0.75,1.0,33.8,50.2,41.2,0,no_anomaly,0.0,0,0,0,0,17.3849969,78.4866822,7.5,0.0
2024-10-20T10:51:07.200Z,MISSION_0004,72,0,transit,SITE_HYD_005,17.3849965,78.4866884,8.0,316.61,0.435,0.124,1.35,3.7792,-2.5929,316.607,-0.92869,-0.02227,0.0332,0.3687,-0.0836,0.0484,-9.7666,0.1209,0.2417,-0.0885,0.1477,3,16,0.63,1.11,0.41,24.599,19.58,92.9,44.4,20431.0,8979,8811,8898,8769,61.1,61.9,64.8,60.2,2.873,3.097,2.801,2.48,3.0,61.8,36.2,84.1,1006.47,-30.93,-0.52,2.14,29.6,41.5,38.0,0,no_anomaly,0.0,0,0,0,0,17.3849965,78.4866884,8.0,0.0
2024-10-20T10:51:07.300Z,MISSION_0004,73,0,transit,SITE_HYD_005,17.3849941,78.4866884,8.5,316.02,0.061,0.158,1.45,-0.6969,-2.3419,316.0213,-0.927,0.01329,0.01667,0.37446,-0.0825,-0.0016,-9.8805,-1.3679,-1.3083,-0.0441,0.2004,3,19,0.72,1.07,0.32,24.594,16.25,92.8,45.0,20413.0,9242,8944,9005,8720,58.0,64.0,58.1,62.8,3.087,3.044,2.77,2.739,3.89,55.0,36.4,83.3,1006.39,-30.31,1.06,2.18,32.2,49.1,37.3,0,no_anomaly,0.0,0,0,0,0,17.3849941,78.4866884,8.5,0.0
2024-10-20T10:51:07.400Z,MISSION_0004,74,0,transit,SITE_HYD_005,17.3849895,78.4866852,9.0,315.77,0.514,0.055,2.02,-0.8208,-2.8551,315.7673,-0.92604,0.01601,0.02038,0.37653,-0.0149,-0.0024,-9.887,0.6073,-0.0886,-0.2492,0.2203,3,20,0.6,1.01,0.24,24.535,19.98,92.7,43.6,20396.0,8883,8687,9024,8776,61.2,63.0,58.7,59.4,2.615,2.634,2.975,2.811,3.58,54.9,35.8,83.8,1006.27,-31.4,-0.39,1.24,28.7,45.5,40.3,0,no_anomaly,0.0,0,0,0,0,17.3849895,78.4866852,9.0,0.0
2024-10-20T10:51:07.500Z,MISSION_0004,75,0,transit,SITE_HYD_005,17.3849936,78.4866895,9.5,313.53,0.229,0.065,1.37,-5.9142,-2.2935,313.5273,-0.91707,0.05528,-0.00198,0.39487,-0.0894,0.013,-9.8563,0.4532,0.1936,-0.0629,0.1324,3,14,0.92,0.9,0.34,24.619,12.23,92.6,44.0,20378.0,9010,9034,8985,8583,60.9,59.5,62.2,61.5,2.919,2.744,2.812,3.016,4.56,65.5,36.1,84.1,1006.4,-35.3,-0.46,1.9,31.5,48.5,36.6,0,no_anomaly,0.0,0,0,0,0,17.3849936,78.4866895,9.5,0.0
2024-10-20T10:51:07.600Z,MISSION_0004,76,0,transit,SITE_HYD_005,17.3849941,78.4866878,10.0,313.83,0.091,0.146,1.51,-1.3223,-1.547,313.8324,-0.91973,0.01591,0.00789,0.39216,0.0753,0.0022,-9.864,-0.4738,0.6465,-0.0682,0.1418,3,17,0.9,1.1,0.46,24.607,17.35,92.5,44.2,20360.0,8864,8978,9040,8520,59.4,60.0,57.9,61.7,2.622,2.978,2.778,2.815,4.18,62.1,36.2,85.4,1006.47,-29.67,-0.37,1.44,30.4,48.2,39.0,0,no_anomaly,0.0,0,0,0,0,17.3849941,78.4866878,10.0,0.0
2024-10-20T10:51:07.700Z,MISSION_0004,77,0,transit,SITE_HYD_005,17.3849946,78.4866886,10.5,312.79,0.452,0.152,1.41,-0.4218,-5.1148,312.7928,-0.91535,0.02124,0.03941,0.40016,-0.1728,-0.0086,-9.8856,-0.4922,0.3941,0.2551,0.2071,3,18,0.78,1.0,0.37,24.623,19.97,92.5,45.1,20342.0,8878,9256,8860,8842,61.9,60.4,56.9,59.5,2.711,2.74,2.534,2.692,3.47,56.8,36.1,85.0,1006.45,-31.11,0.83,1.77,28.5,42.5,37.2,0,no_anomaly,0.0,0,0,0,0,17.3849946,78.4866886,10.5,0.0
2024-10-20T10:51:07.800Z,MISSION_0004,78,0,transit,SITE_HYD_005,17.3849926,78.4866867,11.0,313.63,0.68,0.12,1.7,-2.6553,1.0694,313.6327,-0.91905,0.01763,-0.0177,0.39336,0.1139,-0.0205,-9.8611,-0.7602,0.6942,0.2435,0.1776,3,16,0.74,0.6,0.2,24.626,19.12,92.4,44.4,20325.0,9146,9024,8842,8842,62.4,62.4,65.0,59.8,2.656,2.824,2.807,2.972,3.86,62.8,36.0,83.9,1006.43,-35.2,1.26,1.5,29.2,43.2,37.8,0,no_anomaly,0.0,0,0,0,0,17.3849926,78.4866867,11.0,0.0
2024-10-20T10:51:07.900Z,MISSION_0004,79,0,transit,SITE_HYD_005,17.3849895,78.4866883,11.5,313.06,0.651,0.04,1.75,1.089,-4.0091,313.0593,-0.9168,0.00522,0.03587,0.39771,0.0089,0.0716,-9.7885,0.3278,0.2542,-0.4619,0.1962,3,12,0.7,0.83,0.41,24.464,28.32,92.3,44.8,20307.0,9050,8696,8867,8586,59.8,60.5,61.9,60.4,2.768,2.808,2.641,2.74,3.34,57.6,35.8,84.4,1006.3,-30.99,0.27,1.43,33.6,50.2,39.2,0,no_anomaly,0.0,0,0,0,0,17.3849895,78.4866883,11.5,0.0
2024-10-20T10:51:08.000Z,MISSION_0004,80,0,transit,SITE_HYD_005,17.3849906,78.4866833,12.0,314.09,0.425,0.111,2.13,-1.1023,-1.6596,314.086,-0.9206,0.01451,0.00958,0.39011,-0.0873,-0.0744,-9.8257,-0.6522,-0.7602,0.1942,0.1772,3,14,0.73,0.98,0.31,24.564,17.62,92.2,44.0,20289.0,8971,8725,8791,8929,60.7,59.1,55.5,60.5,2.791,2.886,2.741,2.938,4.19,59.4,36.0,85.3,1006.51,-28.05,0.83,1.35,32.4,48.7,39.2,0,no_anomaly,0.0,0,0,0,0,17.3849906,78.4866833,12.0,0.0
2024-10-20T10:51:08.100Z,MISSION_0004,81,0,transit,SITE_HYD_005,17.3849915,78.4866817,12.5,316.64,0.287,0.129,2.25,1.0551,-0.3904,316.6424,-0.92924,-0.0073,0.00657,0.36936,0.0567,-0.035,-9.7993,-0.1037,-0.2891,0.3956,0.1929,3,17,0.78,0.83,0.28,24.592,19.25,92.1,45.1,20271.0,8918,8754,9018,8850,60.9,64.5,60.1,60.2,2.693,2.656,2.708,2.836,2.62,56.5,36.2,84.4,1006.72,-30.91,0.98,2.09,30.5,44.8,35.3,0,no_anomaly,0.0,0,0,0,0,17.3849915,78.4866817,12.5,0.0
2024-10-20T10:51:08.200Z,MISSION_0004,82,0,transit,SITE_HYD_005,17.3849912,78.4866837,13.0,318.35,0.23,0.08,2.07,-2.8807,-4.4247,318.3464,-0.93332,0.0372,0.02714,0.35607,0.0562,0.0012,-9.8295,0.0419,0.528,0.2297,0.1586,3,17,0.69,1.06,0.23,24.585,20.57,92.1,44.8,20253.0,8911,9228,8948,8731,63.5,60.2,62.6,61.7,3.207,2.74,2.796,2.79,3.67,54.5,36.2,84.2,1006.08,-33.84,-0.33,1.51,30.9,41.2,38.7,0,no_anomaly,0.0,0,0,0,0,17.3849912,78.4866837,13.0,0.0
2024-10-20T10:51:08.300Z,MISSION_0004,83,0,transit,SITE_HYD_005,17.384993,78.4866869,13.5,319.18,0.105,0.04,1.65,-0.4099,-2.5784,319.1785,-0.93695,0.0112,0.01984,0.34873,0.0552,0.0594,-9.7901,-0.0167,0.0303,0.1211,0.2667,3,15,0.78,0.75,0.24,24.681,20.2,92.0,43.8,20236.0,8800,8924,9099,8792,62.0,64.0,59.8,60.6,3.167,2.784,2.784,2.813,3.73,64.4,36.3,85.5,1006.41,-29.26,-0.51,1.33,32.9,44.8,37.9,0,no_anomaly,0.0,0,0,0,0,17.384993,78.4866869,13.5,0.0
2024-10-20T10:51:08.400Z,MISSION_0004,84,0,transit,SITE_HYD_005,17.3849886,78.4866865,14.0,318.49,0.136,0.06,1.96,-0.0702,-0.1124,318.4867,-0.93509,0.00092,0.0007,0.3544,-0.0614,-0.0027,-9.8558,0.1705,0.4353,0.4152,0.1951,3,10,0.73,0.78,0.2,24.562,17.35,91.9,44.3,20218.0,8691,8890,8610,8738,63.4,63.9,61.0,61.7,2.859,2.859,2.666,2.824,3.92,61.6,36.2,84.9,1006.54,-32.29,-1.14,1.44,29.5,41.5,36.5,0,no_anomaly,0.0,0,0,0,0,17.3849886,78.4866865,14.0,0.0
2024-10-20T10:51:08.500Z,MISSION_0004,85,0,transit,SITE_HYD_005,17.3849867,78.4866853,14.5,317.78,0.196,0.123,2.21,-2.2951,-1.925,317.7774,-0.93244,0.02473,0.00846,0.36037,-0.0141,0.0296,-9.8662,-0.4793,0.1512,0.0379,0.1182,3,10,0.51,0.98,0.21,24.575,19.64,91.8,44.0,20200.0,8996,9095,8992,8732,63.1,59.0,60.6,62.1,2.911,2.793,3.107,2.62,4.81,51.6,36.0,83.5,1006.67,-30.13,-1.54,1.6,29.9,42.5,34.7,0,no_anomaly,0.0,0,0,0,0,17.3849867,78.4866853,14.5,0.0
2024-10-20T10:51:08.600Z,MISSION_0004,86,0,transit,SITE_HYD_005,17.3849887,78.4866868,15.0,320.52,0.061,0.061,1.93,3.1844,-3.5277,320.5184,-0.94071,-0.01575,0.03834,0.33667,0.001,-0.0815,-9.7168,-0.1183,-0.3778,0.5737,0.2079,3,11,0.62,0.82,0.26,24.708,15.6,91.7,44.7,20182.0,8891,9080,8891,8913,58.0,61.0,66.5,59.0,2.767,2.804,2.952,2.806,4.42,56.3,36.3,83.8,1006.06,-30.02,-0.06,1.33,32.0,41.5,39.8,0,no_anomaly,0.0,0,0,0,0,17.3849887,78.4866868,15.0,0.0
2024-10-20T10:51:08.700Z,MISSION_0004,87,0,transit,SITE_HYD_005,17.3849857,78.486687,15.5,321.18,0.0,0.11,2.15,1.4415,-6.1055,321.1803,-0.94198,0.00585,0.0544,0.33119,-0.0488,-0.0271,-9.793,0.5145,1.3394,-0.0341,0.0,3,13,0.71,0.86,0.31,24.606,16.23,91.7,43.7,20165.0,9034,9116,9031,9018,61.5,63.1,58.9,62.0,2.677,2.584,2.974,2.69,3.99,64.5,36.5,85.2,1006.23,-29.71,-0.86,1.95,31.4,44.8,35.1,0,no_anomaly,0.0,0,0,0,0,17.3849857,78.486687,15.5,0.0
2024-10-20T10:51:08.800Z,MISSION_0004,88,0,transit,SITE_HYD_005,17.3849895,78.4866842,16.0,320.03,0.172,0.103,2.11,-2.728,-3.1488,320.0305,-0.93894,0.03175,0.01768,0.34216,-0.0333,0.011,-9.8179,-0.1616,-0.4761,-0.5813,0.119,3,12,0.82,0.93,0.35,24.629,17.26,91.6,44.7,20147.0,9057,8826,9058,8988,59.6,64.9,63.0,59.3,2.791,2.703,3.025,2.689,4.08,56.0,35.7,84.7,1006.39,-24.93,0.63,1.68,30.6,45.7,37.8,0,no_anomaly,0.0,0,0,0,0,17.3849895,78.4866842,16.0,0.0
2024-10-20T10:51:08.900Z,MISSION_0004,89,0,transit,SITE_HYD_005,17.3849856,78.4866848,16.5,318.25,0.693,0.032,2.33,0.1827,-1.9948,318.2524,-0.93423,0.00471,0.01683,0.35623,0.0741,-0.0225,-9.818,-0.193,-0.3979,-0.2166,0.1744,3,17,0.67,0.95,0.2,24.533,18.63,91.5,44.7,20129.0,8904,8903,8944,8958,64.5,62.3,60.0,61.8,2.826,2.564,2.446,2.908,3.31,66.3,36.0,83.7,1006.55,-28.92,-0.08,1.47,29.6,43.2,39.9,0,no_anomaly,0.0,0,0,0,0,17.3849856,78.4866848,16.5,0.0
2024-10-20T10:51:09.000Z,MISSION_0004,90,0,transit,SITE_HYD_005,17.384987,78.4866842,17.0,318.72,1.004,0.143,2.28,-5.7514,-2.3096,318.7221,-0.9341,0.05403,0.00116,0.35291,-0.0309,0.0003,-9.8395,0.3142,0.4602,-0.0499,0.2264,3,18,0.74,0.86,0.31,24.56,20.07,91.4,44.9,20111.0,9074,8990,9133,8925,62.8,59.4,62.4,62.4,2.757,2.874,2.795,3.062,3.91,47.0,36.3,84.8,1006.01,-33.67,-0.0,1.05,30.5,41.3,37.6,0,no_anomaly,0.0,0,0,0,0,17.384987,78.4866842,17.0,0.0
2024-10-20T10:51:09.100Z,MISSION_0004,91,0,transit,SITE_HYD_005,17.3849896,78.4866849,17.5,322.26,0.846,-0.024,2.04,1.9586,-2.8835,322.2614,-0.94596,-0.00803,0.02933,0.32285,-0.0837,0.0371,-9.8852,-0.5224,0.0917,-0.1509,0.188,3,10,0.72,0.86,0.2,24.583,20.95,91.3,44.6,20093.0,8676,8855,9076,9153,61.3,57.9,59.7,59.7,2.818,2.799,2.725,2.506,3.24,62.2,36.4,84.6,1006.25,-31.02,-0.3,1.12,34.5,52.1,40.5,0,no_anomaly,0.0,0,0,0,0,17.3849896,78.4866849,17.5,0.0
2024-10-20T10:51:09.200Z,MISSION_0004,92,0,transit,SITE_HYD_005,17.3849885,78.4866843,18.0,323.12,0.799,0.069,2.17,3.5706,-3.8497,323.1245,-0.948,-0.01892,0.0417,0.31495,0.0911,0.0435,-9.8617,0.1109,0.0102,0.1438,0.1851,3,11,0.69,0.87,0.27,24.535,16.36,91.3,44.3,20076.0,9056,8823,9042,8649,59.8,62.2,64.1,62.4,2.712,2.98,2.844,2.77,3.67,62.5,36.4,84.7,1006.15,-28.69,-1.19,1.39,31.6,50.7,36.3,0,no_anomaly,0.0,0,0,0,0,17.3849885,78.4866843,18.0,0.0
2024-10-20T10:51:09.300Z,MISSION_0004,93,0,transit,SITE_HYD_005,17.3849927,78.4866865,18.5,321.98,0.508,0.156,1.71,-0.5023,-4.1816,321.9768,-0.94476,0.01603,0.03307,0.32569,0.1426,-0.0272,-9.7765,-0.063,-0.2454,0.0957,0.1827,3,20,0.67,0.88,0.32,24.528,23.92,91.2,44.5,20058.0,8955,9012,8919,8814,62.2,61.3,62.7,61.4,2.698,2.755,2.916,2.753,4.34,57.5,35.6,84.1,1006.74,-30.24,1.42,1.6,31.0,46.7,37.6,0,no_anomaly,0.0,0,0,0,0,17.3849927,78.4866865,18.5,0.0
2024-10-20T10:51:09.400Z,MISSION_0004,94,0,transit,SITE_HYD_005,17.3849906,78.4866878,19.0,323.56,0.939,0.072,1.71,-1.0744,-0.8504,323.5617,-0.94978,0.01123,0.00412,0.3127,0.1139,-0.0573,-9.7598,0.496,0.0567,0.247,0.2359,3,14,0.64,1.09,0.39,24.689,18.24,91.1,45.0,20040.0,8950,8783,8951,9015,60.8,59.4,62.4,65.9,2.761,2.843,2.803,2.918,3.8,62.1,35.7,84.3,1006.25,-26.65,1.18,2.05,29.5,48.3,36.2,0,no_anomaly,0.0,0,0,0,0,17.3849906,78.4866878,19.0,0.0
2024-10-20T10:51:09.500Z,MISSION_0004,95,0,transit,SITE_HYD_005,17.3849912,78.4866873,19.5,320.37,0.473,0.184,1.72,-2.0222,-2.3787,320.3719,-0.94032,0.02363,0.01354,0.33919,0.2887,0.0009,-9.8066,-0.2174,-0.3609,0.1911,0.235,3,16,0.9,0.99,0.32,24.582,20.85,91.0,44.8,20022.0,8990,9007,9028,8851,57.2,61.4,62.9,58.4,2.7,2.456,2.704,2.583,2.49,55.8,36.0,85.1,1006.7,-31.5,-0.42,1.35,28.2,48.9,38.8,0,no_anomaly,0.0,0,0,0,0,17.3849912,78.4866873,19.5,0.0
2024-10-20T10:51:09.600Z,MISSION_0004,96,0,transit,SITE_HYD_005,17.38499,78.4866834,20.0,320.94,0.952,0.105,2.15,-6.7965,-2.3974,320.9381,-0.94018,0.06283,-0.00013,0.33482,0.0173,0.086,-9.9008,0.1924,0.3607,-0.257,0.1883,3,14,0.73,1.08,0.39,24.581,19.06,90.9,43.7,20005.0,8972,8970,8832,9090,62.0,61.9,62.4,59.5,2.58,2.887,2.578,3.108,3.73,59.5,36.0,85.0,1006.14,-27.29,0.33,2.02,31.4,47.5,41.1,0,no_anomaly,0.0,0,0,0,0,17.38499,78.4866834,20.0,0.0
2024-10-20T10:51:09.700Z,MISSION_0004,97,0,transit,SITE_HYD_005,17.3849898,78.4866832,20.5,320.37,1.721,0.157,2.19,4.4268,-0.6886,320.3717,-0.94016,-0.0343,0.01874,0.33849,0.3369,0.0607,-9.7964,-0.1867,-0.5269,-0.2132,0.1799,3,10,0.58,0.67,0.3,24.491,18.71,90.8,44.8,19987.0,8953,8831,9092,8811,63.4,60.6,62.5,61.8,2.994,2.724,2.89,2.683,3.23,62.1,36.0,83.9,1006.48,-27.69,0.61,1.64,31.9,45.8,39.9,0,no_anomaly,0.0,0,0,0,0,17.3849898,78.4866832,20.5,0.0
2024-10-20T10:51:09.800Z,MISSION_0004,98,0,transit,SITE_HYD_005,17.3849881,78.4866806,21.0,321.33,2.02,0.064,2.54,0.4069,-4.5192,321.3296,-0.9429,0.00971,0.03838,0.3307,0.2733,0.0516,-9.9216,-0.8375,0.1097,0.1582,0.1413,3,16,0.71,1.01,0.33,24.511,25.19,90.8,45.2,19969.0,9101,8827,9141,8831,62.7,62.0,63.0,60.5,3.001,2.849,2.688,2.906,3.99,64.9,35.8,84.4,1006.24,-31.72,-0.26,1.56,31.9,47.4,36.4,0,no_anomaly,0.0,0,0,0,0,17.3849881,78.4866806,21.0,0.0
2024-10-20T10:51:09.900Z,MISSION_0004,99,0,transit,SITE_HYD_005,17.3849861,78.4866788,21.5,319.21,1.853,0.094,2.82,0.4523,-2.9721,319.2052,-0.93701,0.00534,0.02568,0.34831,-0.1832,0.0464,-9.8242,-0.0743,-0.4542,-0.2669,0.1817,3,18,0.5,0.62,0.22,24.574,16.19,90.7,44.2,19951.0,8876,8771,8928,8919,63.4,58.8,66.5,59.0,2.875,2.807,3.181,2.917,4.12,66.8,36.3,83.7,1006.38,-30.46,-0.52,1.66,29.7,46.8,40.3,0,no_anomaly,0.0,0,0,0,0,17.3849861,78.4866788,21.5,0.0
2024-10-20T10:51:10.000Z,MISSION_0004,100,0,transit,SITE_HYD_005,17.3849856,78.4866779,22.0,319.97,1.398,0.088,2.94,-2.2492,-2.6973,319.9715,-0.93901,0.02649,0.01539,0.34253,-0.1675,0.0582,-9.8425,0.9972,-0.2424,-0.2407,0.216,3,20,0.61,0.6,0.28,24.642,13.79,90.6,44.6,19934.0,9137,8992,9165,8946,59.6,59.5,62.3,60.9,2.743,2.922,2.988,2.759,3.24,66.3,36.5,84.3,1006.45,-24.37,-1.22,1.33,34.3,43.1,39.1,0,no_anomaly,0.0,0,0,0,0,17.3849856,78.4866779,22.0,0.0
2024-10-20T10:51:10.100Z,MISSION_0004,101,0,transit,SITE_HYD_005,17.3849817,78.4866716,22.5,319.6,1.466,0.173,3.76,1.7165,0.1992,319.5972,-0.93837,-0.01466,0.00354,0.34531,-0.0427,0.017,-9.8129,-0.4291,0.1006,0.5474,0.2213,3,16,0.75,0.8,0.26,24.564,20.43,90.5,44.3,19916.0,8974,8807,8928,9007,61.7,63.9,59.6,60.8,3.074,2.618,2.77,3.045,4.65,60.4,36.0,84.6,1006.37,-32.66,-0.25,1.52,30.1,43.8,38.4,0,no_anomaly,0.0,0,0,0,0,17.3849817,78.4866716,22.5,0.0
2024-10-20T10:51:10.200Z,MISSION_0004,102,0,transit,SITE_HYD_005,17.3849822,78.4866724,23.0,318.8,1.769,0.132,3.66,1.5674,-1.1186,318.8041,-0.93599,-0.00937,0.01395,0.35163,-0.0981,0.0825,-9.7984,-0.1826,-0.4464,-0.1853,0.1679,3,20,0.5,1.15,0.23,24.613,18.53,90.4,45.0,19898.0,9084,9029,8932,9054,62.6,62.8,61.0,60.4,2.818,2.849,2.941,2.647,3.19,59.5,36.0,84.7,1006.3,-30.64,-0.19,2.12,33.8,44.9,37.8,0,no_anomaly,0.0,0,0,0,0,17.3849822,78.4866724,23.0,0.0
2024-10-20T10:51:10.300Z,MISSION_0004,103,0,transit,SITE_HYD_005,17.3849829,78.4866724,23.5,317.79,1.218,0.019,3.62,-4.2736,-1.0172,317.7924,-0.93212,0.03798,-0.00515,0.3601,0.0188,0.0494,-9.7799,0.9968,0.1014,-0.0336,0.1244,3,15,0.72,0.97,0.27,24.57,18.98,90.4,45.1,19880.0,8984,8983,9045,9243,61.4,60.3,61.9,60.8,2.61,2.91,2.558,2.657,3.55,65.2,36.0,84.7,1006.13,-28.51,1.48,1.65,32.6,47.0,39.5,0,no_anomaly,0.0,0,0,0,0,17.3849829,78.4866724,23.5,0.0
2024-10-20T10:51:10.400Z,MISSION_0004,104,0,transit,SITE_HYD_005,17.3849844,78.4866729,24.0,317.6,1.172,0.137,3.48,-1.364,-3.9693,317.6042,-0.93156,0.02361,0.02798,0.36173,-0.3675,0.0566,-9.7983,0.2715,0.2096,0.1091,0.2932,3,19,0.74,1.06,0.24,24.569,24.83,90.3,44.6,19862.0,8934,8980,8711,8851,62.4,62.6,62.2,59.9,2.835,3.013,2.558,2.762,3.59,62.0,36.2,84.8,1006.17,-33.16,-0.88,1.67,28.7,46.5,38.8,0,no_anomaly,0.0,0,0,0,0,17.3849844,78.4866729,24.0,0.0
2024-10-20T10:51:10.500Z,MISSION_0004,105,0,transit,SITE_HYD_005,17.3849885,78.4866739,24.0,319.07,0.755,0.064,3.17,-0.3803,-1.9304,319.0712,-0.93673,0.009,0.01462,0.34963,0.0596,0.0629,-9.8266,-0.7055,-0.991,-0.0918,0.2103,3,15,0.75,0.9,0.35,24.636,23.82,90.2,45.1,19845.0,9092,8887,9280,9165,61.7,59.2,62.8,63.2,2.809,2.579,2.733,2.865,4.4,60.7,35.7,84.2,1006.68,-32.21,-2.18,2.09,30.9,45.9,38.9,0,no_anomaly,0.0,0,0,0,0,17.3849885,78.4866739,24.0,0.0
2024-10-20T10:51:10.600Z,MISSION_0004,106,0,transit,SITE_HYD_005,17.3849848,78.4866766,24.0,317.69,0.769,0.058,3.1,2.4063,-3.9334,317.6899,-0.93211,-0.00719,0.03957,0.35993,0.1107,0.0159,-9.7942,-0.0219,0.3115,-0.0471,0.0996,3,15,0.69,1.19,0.26,24.537,14.8,90.1,45.7,19827.0,8716,8967,8903,8913,59.5,61.3,59.7,59.2,2.413,2.634,2.841,3.012,3.35,63.6,36.0,84.4,1006.14,-30.58,-0.55,1.39,31.1,43.6,37.3,0,no_anomaly,0.0,0,0,0,0,17.3849848,78.4866766,24.0,0.0
2024-10-20T10:51:10.700Z,MISSION_0004,107,0,transit,SITE_HYD_005,17.3849852,78.4866746,24.0,318.31,1.057,0.1,3.27,0.5777,-5.5579,318.3109,-0.93353,0.01255,0.0471,0.35518,-0.0688,-0.0301,-9.8125,-0.2678,-0.0761,-0.0076,0.2164,3,17,0.65,0.6,0.3,24.543,16.23,90.0,43.9,19809.0,8997,8914,9262,9114,61.7,63.3,61.6,60.2,2.642,2.96,2.699,2.965,4.13,61.8,35.9,84.6,1006.6,-28.61,-0.42,1.49,28.7,45.8,38.5,0,no_anomaly,0.0,0,0,0,0,17.3849852,78.4866746,24.0,0.0
2024-10-20T10:51:10.800Z,MISSION_0004,108,0,transit,SITE_HYD_005,17.3849856,78.4866792,24.0,320.06,1.511,0.141,2.82,-0.9749,-3.7247,320.0639,-0.93926,0.01909,0.02764,0.34156,0.1373,0.0525,-9.7963,-0.6815,0.1067,-0.1004,0.2215,3,12,0.78,0.84,0.25,24.494,17.22,90.0,44.5,19791.0,8950,8726,9191,8772,59.4,60.6,60.0,60.7,2.807,2.783,2.62,2.725,3.54,54.3,36.3,84.2,1006.78,-34.48,-0.59,1.38,32.8,46.4,39.0,0,no_anomaly,0.0,0,0,0,0,17.3849856,78.4866792,24.0,0.0
2024-10-20T10:51:10.900Z,MISSION_0004,109,0,transit,SITE_HYD_005,17.3849869,78.4866807,24.0,320.68,1.784,0.038,2.6,0.7115,-1.6293,320.6835,-0.94163,-0.00106,0.01548,0.33629,0.1238,-0.0032,-9.9188,0.1404,-1.0315,-0.1039,0.1934,3,19,0.73,0.81,0.2,24.479,12.2,89.9,43.7,19774.0,8854,8956,9064,8919,61.9,61.0,65.5,58.5,3.112,2.679,2.889,2.689,3.46,61.1,35.9,85.5,1006.19,-33.26,-0.14,1.56,26.1,45.2,36.7,0,no_anomaly,0.0,0,0,0,0,17.3849869,78.4866807,24.0,0.0
2024-10-20T10:51:11.000Z,MISSION_0004,110,0,transit,SITE_HYD_005,17.3849875,78.4866837,24.0,319.86,1.569,0.054,2.28,0.6704,-3.3,319.8568,-0.93892,0.00439,0.02905,0.34289,0.0862,0.0465,-9.8009,0.5184,0.4353,-0.2681,0.0664,3,15,0.5,0.99,0.2,24.523,21.93,89.8,44.2,19756.0,8929,8927,8863,8908,63.8,59.4,62.0,62.9,2.976,3.042,2.768,2.886,3.94,67.3,36.0,84.2,1006.13,-30.09,1.48,1.75,33.2,48.2,38.3,0,no_anomaly,0.0,0,0,0,0,17.3849875,78.4866837,24.0,0.0
2024-10-20T10:51:11.100Z,MISSION_0004,111,0,transit,SITE_HYD_005,17.3849877,78.4866834,24.0,317.67,1.106,0.031,2.3,1.2151,-1.4455,317.6732,-0.93248,-0.00533,0.01559,0.36086,-0.0658,-0.0441,-9.7705,-0.4409,0.3672,0.4389,0.2213,3,14,0.57,0.78,0.2,24.537,19.04,89.7,43.9,19738.0,9129,9073,8961,8912,62.0,60.8,61.4,61.7,2.676,3.122,2.709,2.711,3.24,59.4,36.1,84.6,1006.63,-25.53,-0.99,1.54,33.4,45.3,40.5,0,no_anomaly,0.0,0,0,0,0,17.3849877,78.4866834,24.0,0.0
2024-10-20T10:51:11.200Z,MISSION_0004,112,0,transit,SITE_HYD_005,17.3849881,78.4866846,24.0,315.27,1.326,0.111,2.17,4.3049,-0.4554,315.2666,-0.92416,-0.03322,0.01796,0.38012,-0.0354,-0.0067,-9.8102,0.9955,0.7568,-0.2289,0.1323,3,10,0.82,0.87,0.36,24.548,23.07,89.6,43.9,19720.0,9046,9202,9323,9066,59.8,61.1,60.7,63.6,2.885,2.919,2.819,2.852,3.74,60.0,36.1,84.1,1006.32,-34.7,0.1,1.75,33.8,47.6,39.9,0,no_anomaly,0.0,0,0,0,0,17.3849881,78.4866846,24.0,0.0
2024-10-20T10:51:11.300Z,MISSION_0004,113,0,transit,SITE_HYD_005,17.3849915,78.4866864,24.0,315.25,1.623,0.082,1.78,4.0154,-0.9993,315.2453,-0.92421,-0.02908,0.0214,0.38017,0.08,-0.0357,-9.7723,0.0057,-0.0481,0.2849,0.1647,3,19,0.61,1.07,0.26,24.493,18.94,89.6,44.6,19702.0,8855,8949,8978,8683,64.8,64.6,61.6,61.8,2.842,2.664,2.881,2.681,2.85,60.2,36.0,84.0,1006.23,-30.48,1.66,1.3,31.3,50.8,36.0,0,no_anomaly,0.0,0,0,0,0,17.3849915,78.4866864,24.0,0.0
2024-10-20T10:51:11.400Z,MISSION_0004,114,0,transit,SITE_HYD_005,17.3849923,78.4866839,24.0,318.67,1.578,0.053,1.99,6.3579,-2.8885,318.6684,-0.93441,-0.04299,0.04311,0.35095,-0.2228,0.0254,-9.8413,-0.4278,-0.8333,-0.094,0.2407,3,14,0.72,0.88,0.27,24.599,18.16,89.5,44.0,19685.0,8945,9001,8904,8650,60.7,62.6,60.3,60.3,2.93,2.913,2.752,2.729,3.02,61.5,36.2,84.4,1006.26,-31.06,1.83,1.69,31.9,47.2,38.4,0,no_anomaly,0.0,0,0,0,0,17.3849923,78.4866839,24.0,0.0
2024-10-20T10:51:11.500Z,MISSION_0004,115,0,transit,SITE_HYD_005,17.3849911,78.4866779,24.0,320.48,1.071,0.093,2.65,0.2561,-1.0433,320.4778,-0.94108,0.00098,0.00932,0.33807,0.1573,0.0828,-9.7774,0.1696,0.7793,-0.1225,0.1445,3,18,0.71,0.78,0.23,24.547,18.36,89.4,44.1,19667.0,8994,9040,8902,9065,61.1,62.8,61.8,57.6,2.891,2.894,2.628,2.738,3.56,57.0,36.3,83.7,1006.45,-34.16,0.73,1.65,34.2,48.1,41.2,0,no_anomaly,0.0,0,0,0,0,17.3849911,78.4866779,24.0,0.0
2024-10-20T10:51:11.600Z,MISSION_0004,116,0,transit,SITE_HYD_005,17.384994,78.4866751,24.0,319.83,0.668,0.087,2.85,2.0216,-3.3176,319.834,-0.93883,-0.00662,0.03324,0.3427,0.0003,-0.0225,-9.857,-0.1561,0.1585,0.0295,0.1102,3,11,0.74,0.95,0.38,24.467,21.48,89.3,44.0,19649.0,8766,9070,9074,9113,59.7,59.8,60.2,61.0,2.927,2.645,2.856,2.842,3.56,64.4,36.0,84.3,1006.16,-26.4,1.11,1.45,32.2,43.7,37.1,0,no_anomaly,0.0,0,0,0,0,17.384994,78.4866751,24.0,0.0
2024-10-20T10:51:11.700Z,MISSION_0004,117,0,transit,SITE_HYD_005,17.3849905,78.4866723,24.0,320.49,0.922,0.093,3.26,-4.1709,-3.12,320.4872,-0.93983,0.04343,0.01331,0.33861,-0.1952,-0.0078,-9.8056,-0.039,0.7484,-0.367,0.1039,3,14,0.62,0.84,0.33,24.548,18.03,89.2,45.0,19631.0,8959,8911,9005,8799,59.5,64.5,62.3,62.7,2.74,2.774,3.014,2.665,3.91,65.8,36.0,84.5,1006.3,-32.96,-0.8,1.28,33.0,42.7,40.0,0,no_anomaly,0.0,0,0,0,0,17.3849905,78.4866723,24.0,0.0
2024-10-20T10:51:11.800Z,MISSION_0004,118,0,transit,SITE_HYD_005,17.3849896,78.4866756,24.0,320.71,1.084,0.07,2.95,0.4581,-2.9904,320.707,-0.94149,0.00501,0.02592,0.336,-0.0037,-0.0365,-9.8085,0.5104,-0.6145,-0.1877,0.2153,3,16,0.67,0.75,0.2,24.498,18.79,89.2,44.8,19614.0,9140,8932,9047,9027,61.3,64.3,55.0,57.5,2.751,2.862,3.077,2.795,4.0,60.4,35.9,84.1,1006.32,-27.36,-0.71,1.48,29.6,43.4,36.0,0,no_anomaly,0.0,0,0,0,0,17.3849896,78.4866756,24.0,0.0
2024-10-20T10:51:11.900Z,MISSION_0004,119,0,transit,SITE_HYD_005,17.3849904,78.4866816,24.0,322.25,1.227,0.101,2.32,-5.0754,-3.4586,322.2539,-0.94445,0.05163,0.01421,0.32427,0.0088,0.0609,-9.8212,0.2405,-0.6503,-0.2654,0.1626,3,19,0.5,0.99,0.25,24.552,13.72,89.1,44.4,19596.0,8853,8885,8578,9086,63.7,56.4,59.0,62.0,2.78,2.795,2.717,2.889,3.15,64.1,36.0,84.2,1006.68,-30.02,-0.11,2.02,32.5,48.9,39.3,0,no_anomaly,0.0,0,0,0,0,17.3849904,78.4866816,24.0,0.0
2024-10-20T10:51:12.000Z,MISSION_0004,120,0,transit,SITE_HYD_005,17.3849944,78.486681,24.0,325.45,1.069,-0.036,2.2,1.366,-1.4214,325.4516,-0.9548,-0.0077,0.01538,0.29676,-0.0851,0.0199,-9.8479,0.6347,0.1321,-0.0469,0.1652,3,20,0.74,0.6,0.35,24.499,15.63,89.0,44.1,19578.0,9031,8878,8924,9241,59.6,58.1,60.5,59.6,2.974,2.677,2.618,2.946,3.54,67.7,36.1,84.7,1006.6,-31.62,-1.85,1.14,26.2,48.1,37.3,0,no_anomaly,0.0,0,0,0,0,17.3849944,78.486681,24.0,0.0
2024-10-20T10:51:12.100Z,MISSION_0004,121,0,transit,SITE_HYD_005,17.384995,78.4866838,24.0,324.66,1.219,0.072,1.88,-5.0582,-2.6831,324.6554,-0.95131,0.04913,0.00889,0.30418,0.148,-0.0281,-9.8211,0.6184,0.1769,-0.455,0.2278,3,15,0.82,0.75,0.44,24.523,18.84,88.9,43.7,19560.0,9117,9074,9100,9072,61.7,60.2,63.6,57.4,3.0,2.829,2.621,2.686,3.57,67.9,36.1,83.9,1006.31,-30.63,0.64,1.94,31.6,46.9,37.7,0,no_anomaly,0.0,0,0,0,0,17.384995,78.4866838,24.0,0.0
2024-10-20T10:51:12.200Z,MISSION_0004,122,0,transit,SITE_HYD_005,17.3849913,78.4866807,24.0,325.37,0.978,0.013,2.36,-0.0003,-3.8403,325.3737,-0.95416,0.00997,0.03199,0.29743,0.1536,0.0059,-9.745,-0.0847,-0.4427,-0.1887,0.1638,3,16,0.73,0.84,0.31,24.476,17.35,88.8,45.2,19542.0,8904,8822,9096,8575,64.6,61.0,61.5,59.7,2.898,2.694,2.842,2.93,4.3,63.0,36.0,84.2,1006.32,-30.88,2.4,1.31,31.3,45.9,40.4,0,no_anomaly,0.0,0,0,0,0,17.3849913,78.4866807,24.0,0.0
2024-10-20T10:51:12.300Z,MISSION_0004,123,0,transit,SITE_HYD_005,17.3849897,78.4866812,24.0,327.3,0.416,0.092,2.39,5.0679,-1.3092,327.2954,-0.95869,-0.03921,0.0234,0.28076,0.0315,-0.0409,-9.778,-0.1464,0.5024,0.3454,0.1583,3,17,0.61,0.78,0.23,24.549,17.88,88.7,43.6,19525.0,8745,8976,9071,8884,58.6,63.2,57.1,63.6,2.985,2.977,2.888,2.893,4.23,63.4,35.9,85.0,1006.81,-33.48,0.04,1.26,33.9,50.6,38.8,0,no_anomaly,0.0,0,0,0,0,17.3849897,78.4866812,24.0,0.0
2024-10-20T10:51:12.400Z,MISSION_0004,124,0,transit,SITE_HYD_005,17.3849872,78.4866783,24.0,325.43,0.0,0.1,2.8,1.1442,-1.5391,325.4315,-0.95475,-0.00554,0.01579,0.29694,-0.1089,0.0175,-9.8674,0.3579,0.6115,0.1534,0.1905,3,10,0.68,1.0,0.41,24.514,16.12,88.7,44.2,19507.0,8973,9106,9173,9013,62.0,60.7,61.9,61.2,2.817,2.69,2.722,2.932,3.1,61.8,36.3,84.8,1006.85,-28.04,-0.62,1.17,29.6,43.2,37.1,0,no_anomaly,0.0,0,0,0,0,17.3849872,78.4866783,24.0,0.0
2024-10-20T10:51:12.500Z,MISSION_0004,125,0,transit,SITE_HYD_005,17.3849895,78.4866757,24.0,323.92,0.037,0.147,2.95,-3.3764,-3.9334,323.9203,-0.94956,0.03862,0.0235,0.31032,-0.0899,0.0031,-9.8419,0.0975,-0.1838,-0.5167,0.2372,3,12,0.81,1.15,0.38,24.504,17.21,88.6,45.0,19489.0,8971,9061,8890,9043,62.8,62.3,61.0,60.7,2.931,2.859,2.792,2.941,3.29,53.4,36.2,84.5,1006.31,-24.97,-1.68,1.85,31.0,43.0,40.0,0,no_anomaly,0.0,0,0,0,0,17.3849895,78.4866757,24.0,0.0
2024-10-20T10:51:12.600Z,MISSION_0004,126,0,transit,SITE_HYD_005,17.3849926,78.4866746,24.0,321.53,0.0,0.111,2.95,-1.2772,-1.0249,321.5325,-0.94405,0.01347,0.00477,0.32948,0.0426,-0.0889,-9.9181,0.1897,-0.676,0.1376,0.1359,3,16,0.57,1.22,0.21,24.547,11.2,88.5,44.6,19471.0,8806,9104,8878,8805,58.9,62.6,58.2,59.7,2.953,2.878,2.983,2.766,4.55,58.2,35.8,84.5,1006.26,-27.56,-0.62,1.17,28.0,45.0,39.0,0,no_anomaly,0.0,0,0,0,0,17.3849926,78.4866746,24.0,0.0
2024-10-20T10:51:12.700Z,MISSION_0004,127,0,transit,SITE_HYD_005,17.3849944,78.4866739,24.0,322.41,0.145,0.026,2.97,0.4398,-2.2297,322.4124,-0.94652,0.00264,0.01966,0.32203,0.1432,-0.0035,-9.8616,-0.6343,0.3087,0.1006,0.24,3,19,0.85,0.97,0.28,24.527,21.26,88.4,43.8,19454.0,8928,8559,9063,9215,62.9,58.0,59.2,61.6,2.896,3.017,2.853,2.592,3.64,58.5,36.1,85.2,1006.4,-29.39,0.69,1.05,33.1,47.6,39.0,0,no_anomaly,0.0,0,0,0,0,17.3849944,78.4866739,24.0,0.0
2024-10-20T10:51:12.800Z,MISSION_0004,128,0,transit,SITE_HYD_005,17.3849899,78.4866765,24.0,320.93,0.547,-0.007,2.84,-1.8986,-3.8639,320.9254,-0.94157,0.02688,0.02623,0.33471,0.2186,-0.0011,-9.8271,0.0842,-0.6666,0.0682,0.1982,3,11,0.5,1.06,0.2,24.492,16.91,88.3,45.1,19436.0,9009,8990,8981,9026,63.0,62.9,61.5,62.7,2.848,2.474,2.538,2.945,3.84,59.5,36.1,84.0,1006.13,-32.26,0.77,1.4,28.2,46.1,38.6,0,no_anomaly,0.0,0,0,0,0,17.3849899,78.4866765,24.0,0.0
2024-10-20T10:51:12.900Z,MISSION_0004,129,0,transit,SITE_HYD_005,17.3849896,78.4866777,24.0,322.74,0.55,0.112,2.74,1.8946,-4.1919,322.7424,-0.94704,-0.00398,0.03993,0.31861,0.1582,-0.1055,-9.7906,-0.3394,-0.1328,-0.1394,0.1543,3,15,0.67,1.15,0.34,24.525,17.34,88.3,44.6,19418.0,8879,9034,8967,9055,60.4,63.3,61.5,61.0,2.914,3.042,2.803,2.772,3.99,58.2,35.8,83.8,1006.58,-33.3,-0.67,1.89,29.9,42.3,38.7,0,no_anomaly,0.0,0,0,0,0,17.3849896,78.4866777,24.0,0.0
