timestamp_utc,mission_id,frame_id,waypoint_id,inspection_phase,site_id,latitude_deg,longitude_deg,altitude_m,heading_deg,ground_speed_ms,vertical_speed_ms,distance_to_tower_m,roll_deg,pitch_deg,yaw_deg,quat_w,quat_x,quat_y,quat_z,accel_x_ms2,accel_y_ms2,accel_z_ms2,gyro_x_rads,gyro_y_rads,gyro_z_rads,vibration_level,gps_fix_type,gps_satellite_count,gps_hdop,gps_vdop,position_error_m,battery_voltage_v,battery_current_a,battery_remaining_pct,battery_temp_c,battery_capacity_mah,motor_fl_rpm,motor_fr_rpm,motor_rl_rpm,motor_rr_rpm,motor_fl_temp_c,motor_fr_temp_c,motor_rl_temp_c,motor_rr_temp_c,motor_fl_thrust_n,motor_fr_thrust_n,motor_rl_thrust_n,motor_rr_thrust_n,wind_speed_ms,wind_dir_deg,air_temp_c,humidity_pct,pressure_hpa,gimbal_pitch_deg,gimbal_roll_deg,zoom_factor,ir_temp_min_c,ir_temp_max_c,ir_temp_avg_c,anomaly_detected,anomaly_class,anomaly_confidence,anomaly_bbox_x,anomaly_bbox_y,anomaly_bbox_w,anomaly_bbox_h,anomaly_gps_lat,anomaly_gps_lon,anomaly_gps_alt_m,ir_temp_delta_c
2024-04-02T09:32:00.000Z,MISSION_0044,0,0,takeoff,SITE_HYD_005,17.3850016,78.4867031,1.5,254.93,0.179,0.15,0.39,-2.8958,0.4535,254.9282,-0.60814,0.01223,-0.02246,0.79341,0.0734,-0.079,-9.8313,0.1351,-0.0663,0.3809,0.2218,3,13,0.69,1.12,0.35,24.784,20.9,97.6,30.6,21463.0,8288,8337,8084,8415,49.0,50.1,48.5,50.0,2.902,2.991,2.858,2.699,7.98,334.2,23.3,72.8,1015.08,-25.68,0.19,1.92,17.7,29.4,24.1,0,no_anomaly,0.0,0,0,0,0,17.3850016,78.4867031,1.5,0.0
2024-04-02T09:32:00.100Z,MISSION_0044,1,0,takeoff,SITE_HYD_005,17.3850024,78.486705,3.0,257.46,0.032,0.102,0.62,-3.2216,-3.3546,257.4614,-0.6245,0.0404,-0.00361,0.77997,-0.0074,-0.055,-9.8645,-0.2678,-0.2272,-0.0318,0.1949,3,16,0.75,0.85,0.28,24.696,16.98,97.5,31.3,21446.0,8432,8525,8285,8299,50.9,48.0,42.3,50.0,2.635,2.967,2.712,2.631,6.63,346.3,23.2,71.1,1015.04,-31.31,0.34,1.54,16.3,31.2,23.7,0,no_anomaly,0.0,0,0,0,0,17.3850024,78.486705,3.0,0.0
2024-04-02T09:32:00.200Z,MISSION_0044,2,0,takeoff,SITE_HYD_005,17.3850065,78.4867067,4.5,255.32,0.542,0.023,1.04,2.5505,-0.9998,255.3195,-0.61095,-0.00669,0.02295,0.79131,-0.1299,0.0215,-9.8401,-0.5337,0.9345,-0.1107,0.3342,3,17,0.65,0.82,0.2,24.794,15.69,97.4,31.4,21430.0,8286,8350,8277,8277,47.7,45.9,48.4,49.1,2.752,2.789,2.642,2.911,6.54,349.8,23.1,71.6,1015.16,-30.14,-0.1,1.81,20.8,30.3,27.2,0,no_anomaly,0.0,0,0,0,0,17.3850065,78.4867067,4.5,0.0
2024-04-02T09:32:00.300Z,MISSION_0044,3,0,takeoff,SITE_HYD_005,17.384999,78.4867079,5.0,255.69,0.733,0.028,0.89,2.3758,-0.4524,255.6906,-0.61346,-0.0096,0.01879,0.78944,0.1078,-0.1137,-9.7276,-0.349,0.374,-0.0925,0.2463,3,20,0.78,0.87,0.36,24.628,17.61,97.3,31.6,21413.0,8105,8400,8337,7993,48.3,46.8,44.2,46.6,3.155,2.786,2.527,2.876,6.96,342.5,23.2,72.1,1015.27,-30.87,1.83,1.24,16.7,28.7,27.9,0,no_anomaly,0.0,0,0,0,0,17.384999,78.4867079,5.0,0.0
2024-04-02T09:32:00.400Z,MISSION_0044,4,0,takeoff,SITE_HYD_005,17.3849982,78.4867083,5.0,253.8,0.487,0.114,0.95,-0.0063,-3.9112,253.8032,-0.60009,0.02732,0.02045,0.7992,0.3328,-0.0218,-9.7983,-0.7022,0.061,-0.2291,0.2442,3,17,0.52,0.72,0.2,24.705,15.48,97.3,30.9,21397.0,8164,8396,8419,8600,45.7,46.4,50.2,49.8,2.71,2.558,2.981,2.864,6.89,345.1,23.1,71.8,1015.0,-34.28,-1.81,1.82,18.8,33.5,27.9,0,no_anomaly,0.0,0,0,0,0,17.3849982,78.4867083,5.0,0.0
2024-04-02T09:32:00.500Z,MISSION_0044,5,0,takeoff,SITE_HYD_005,17.3849986,78.4867093,5.0,255.72,0.256,0.137,1.04,-1.0826,-2.6331,255.7241,-0.6134,0.02394,0.00664,0.78938,-0.0813,-0.0381,-9.7425,0.7128,-0.1287,0.6121,0.3065,3,11,0.77,0.91,0.25,24.797,13.75,97.2,31.6,21380.0,8397,8155,8547,8310,47.9,50.6,47.6,48.3,2.767,3.08,2.888,2.871,7.69,339.5,23.3,71.1,1014.77,-32.33,-0.2,1.03,17.5,38.3,24.4,0,no_anomaly,0.0,0,0,0,0,17.3849986,78.4867093,5.0,0.0
2024-04-02T09:32:00.600Z,MISSION_0044,6,0,takeoff,SITE_HYD_005,17.3849993,78.4867103,5.0,254.4,0.235,0.089,1.15,-1.0684,-1.06,254.4008,-0.60448,0.013,-0.00183,0.79651,-0.2466,0.0402,-9.7957,-0.4798,0.6407,0.2777,0.2659,3,14,0.68,1.19,0.22,24.614,17.29,97.1,31.2,21364.0,8197,8262,8310,8512,47.6,47.7,50.0,49.4,2.895,2.939,2.722,2.969,6.33,343.0,23.3,72.5,1015.03,-30.2,-1.11,1.91,16.4,29.0,26.5,0,no_anomaly,0.0,0,0,0,0,17.3849993,78.4867103,5.0,0.0
2024-04-02T09:32:00.700Z,MISSION_0044,7,0,takeoff,SITE_HYD_005,17.3849973,78.486709,5.0,252.75,0.377,0.167,1.04,2.1873,-3.7968,252.7495,-0.59314,0.01535,0.035,0.80419,0.2151,-0.0431,-9.8104,0.6902,0.2515,-0.6706,0.2578,3,12,0.5,0.93,0.2,24.796,20.74,97.0,31.4,21347.0,8263,8120,8235,8331,46.3,48.9,50.4,48.1,2.848,2.65,2.801,2.578,7.26,342.9,23.1,71.5,1014.53,-33.46,0.67,1.27,15.9,36.9,27.0,0,no_anomaly,0.0,0,0,0,0,17.3849973,78.486709,5.0,0.0
2024-04-02T09:32:00.800Z,MISSION_0044,8,0,takeoff,SITE_HYD_005,17.3849956,78.4867109,5.0,254.36,0.795,0.045,1.31,4.0314,-2.7091,254.3598,-0.60444,-0.00243,0.04229,0.79552,-0.2547,-0.024,-9.7679,0.0365,0.1887,0.5306,0.2497,3,15,0.81,1.2,0.35,24.715,20.24,97.0,31.1,21331.0,8200,8270,8595,8329,47.3,46.8,48.5,44.9,2.659,2.637,3.184,2.689,7.23,339.9,22.9,71.6,1014.78,-28.35,0.89,1.41,14.9,37.0,27.2,0,no_anomaly,0.0,0,0,0,0,17.3849956,78.4867109,5.0,0.0
2024-04-02T09:32:00.900Z,MISSION_0044,9,0,takeoff,SITE_HYD_005,17.3849998,78.4867166,5.0,255.74,1.099,0.023,1.85,-3.9278,-0.0094,255.7423,-0.61353,0.0211,-0.027,0.78893,0.0459,0.0059,-9.8768,0.4342,0.2011,-0.3224,0.1408,3,18,0.86,1.02,0.2,24.715,24.75,96.9,31.3,21314.0,8597,8481,8214,8269,53.3,48.4,50.4,46.9,2.669,2.766,2.888,2.917,6.44,348.1,23.0,72.0,1014.78,-34.18,-0.33,1.93,20.4,36.6,27.9,0,no_anomaly,0.0,0,0,0,0,17.3849998,78.4867166,5.0,0.0
2024-04-02T09:32:01.000Z,MISSION_0044,10,0,takeoff,SITE_HYD_005,17.384998,78.4867198,5.0,257.46,0.994,0.093,2.22,5.6514,-2.7973,257.4554,-0.62561,-0.01181,0.0537,0.77819,-0.1162,-0.0802,-9.7951,0.7483,-0.0395,-0.3642,0.3043,3,14,0.74,0.68,0.31,24.735,20.63,96.8,30.5,21298.0,8567,8732,7819,8310,49.5,49.2,47.7,47.4,2.593,2.763,2.739,2.763,7.38,340.7,22.7,72.0,1014.8,-31.05,-0.07,1.47,17.5,32.2,24.0,0,no_anomaly,0.0,0,0,0,0,17.384998,78.4867198,5.0,0.0
2024-04-02T09:32:01.100Z,MISSION_0044,11,0,takeoff,SITE_HYD_005,17.384995,78.4867217,5.0,259.02,1.06,0.154,2.48,-7.8946,-2.2951,259.0172,-0.63349,0.0592,-0.04039,0.77042,-0.3228,-0.1237,-9.7923,0.5325,0.0795,0.0413,0.1954,3,20,0.73,0.82,0.26,24.656,15.92,96.7,31.1,21281.0,8385,8059,8139,8239,44.9,50.6,45.6,49.8,3.016,2.763,2.841,2.711,6.92,351.9,23.0,71.8,1014.69,-27.85,-1.15,1.05,20.5,30.5,24.2,0,no_anomaly,0.0,0,0,0,0,17.384995,78.4867217,5.0,0.0
2024-04-02T09:32:01.200Z,MISSION_0044,12,0,takeoff,SITE_HYD_005,17.3849951,78.4867188,5.0,258.92,1.116,0.101,2.16,-1.8664,-1.2806,258.9181,-0.63526,0.01898,-0.00547,0.77204,-0.1083,-0.0205,-9.755,0.2694,0.125,-0.2507,0.1897,3,12,0.67,0.71,0.23,24.642,19.04,96.7,31.2,21265.0,8530,8240,8668,7976,46.3,48.1,46.9,49.0,2.754,2.733,2.704,2.72,7.23,340.5,22.7,71.8,1015.31,-32.22,-0.3,1.24,15.5,34.6,24.7,0,no_anomaly,0.0,0,0,0,0,17.3849951,78.4867188,5.0,0.0
2024-04-02T09:32:01.300Z,MISSION_0044,13,0,takeoff,SITE_HYD_005,17.3850003,78.4867126,5.0,259.98,1.282,0.096,1.4,-4.0889,-0.2312,259.9789,-0.64218,0.02447,-0.02604,0.76572,-0.1348,0.0245,-9.7993,-0.5347,-0.4774,0.0123,0.316,3,11,0.61,0.98,0.24,24.757,19.69,96.6,32.6,21248.0,8396,8064,8484,8339,51.1,44.5,48.7,50.8,2.634,2.891,2.424,2.86,7.39,346.3,23.0,71.8,1014.77,-30.46,-0.93,1.01,18.6,30.5,21.9,0,no_anomaly,0.0,0,0,0,0,17.3850003,78.4867126,5.0,0.0
2024-04-02T09:32:01.400Z,MISSION_0044,14,0,takeoff,SITE_HYD_005,17.3850036,78.4867146,5.0,258.57,1.186,0.105,1.67,-6.0678,-4.0677,258.5742,-0.63047,0.06092,-0.0185,0.7736,0.3295,-0.025,-9.8647,0.394,-0.4355,-0.1142,0.2275,3,19,0.69,0.75,0.37,24.626,25.66,96.5,30.4,21232.0,8292,8410,8302,8135,45.9,51.5,48.4,42.7,3.034,2.655,2.849,3.071,6.58,342.3,23.2,71.7,1014.81,-31.11,-0.44,2.01,16.6,32.2,26.2,0,no_anomaly,0.0,0,0,0,0,17.3850036,78.4867146,5.0,0.0
2024-04-02T09:32:01.500Z,MISSION_0044,15,0,takeoff,SITE_HYD_005,17.3850034,78.4867173,5.0,257.16,0.904,0.08,1.97,-5.5392,-3.1963,257.1559,-0.62155,0.0519,-0.02039,0.78138,-0.0366,0.0058,-9.7111,0.7536,-0.4062,0.6172,0.3161,3,20,0.78,1.14,0.24,24.752,17.61,96.4,31.2,21215.0,8520,8227,8362,8477,49.9,45.4,49.4,47.1,2.632,2.929,2.833,2.504,7.69,338.8,23.3,71.9,1014.88,-30.84,0.15,1.79,14.1,32.6,22.2,0,no_anomaly,0.0,0,0,0,0,17.3850034,78.4867173,5.0,0.0
2024-04-02T09:32:01.600Z,MISSION_0044,16,0,takeoff,SITE_HYD_005,17.3850052,78.4867179,5.0,258.72,1.152,0.115,2.08,-6.307,-2.7249,258.7199,-0.63204,0.05323,-0.02747,0.77262,0.0115,0.0754,-9.7215,0.1585,-0.4906,0.5301,0.2119,3,17,0.6,1.1,0.2,24.693,14.97,96.4,30.3,21199.0,8399,8317,8281,8441,46.7,47.3,48.9,48.5,2.749,2.658,2.828,2.671,6.94,343.2,23.2,71.5,1014.79,-37.31,2.21,1.69,18.2,37.9,25.7,0,no_anomaly,0.0,0,0,0,0,17.3850052,78.4867179,5.0,0.0
2024-04-02T09:32:01.700Z,MISSION_0044,17,0,takeoff,SITE_HYD_005,17.3850075,78.4867159,5.0,259.37,0.993,0.007,1.96,8.2584,-2.3379,259.3747,-0.63794,-0.03032,0.06839,0.76645,-0.128,0.0002,-9.8281,-0.0023,0.2984,-0.507,0.2018,3,16,0.91,0.79,0.34,24.647,15.79,96.3,31.6,21182.0,8129,8306,8193,8209,51.7,46.6,49.7,49.3,2.672,2.63,2.929,2.883,6.56,337.1,23.4,72.4,1014.61,-27.63,-1.11,1.55,20.2,36.6,27.7,0,no_anomaly,0.0,0,0,0,0,17.3850075,78.4867159,5.0,0.0
2024-04-02T09:32:01.800Z,MISSION_0044,18,0,takeoff,SITE_HYD_005,17.3850036,78.4867179,5.0,261.27,1.233,0.048,2.03,3.0304,-0.7965,261.2712,-0.65114,-0.01195,0.02459,0.75846,0.0481,0.0003,-9.8285,-0.4973,0.12,-0.1805,0.227,3,11,0.64,1.06,0.32,24.702,21.97,96.2,30.8,21166.0,7929,8426,8302,8114,49.7,49.5,49.0,46.1,3.003,2.865,2.814,2.466,6.18,332.7,22.9,71.4,1015.06,-29.81,0.42,1.57,16.6,29.7,25.1,0,no_anomaly,0.0,0,0,0,0,17.3850036,78.4867179,5.0,0.0
2024-04-02T09:32:01.900Z,MISSION_0044,19,0,takeoff,SITE_HYD_005,17.384999,78.4867212,5.0,262.27,1.034,0.131,2.36,-0.261,-3.4069,262.2682,-0.65748,0.02389,0.01784,0.75288,0.0496,-0.0697,-9.8264,0.1171,-0.6746,0.1622,0.2088,3,14,0.71,0.97,0.27,24.838,17.93,96.1,32.0,21149.0,8079,8326,8112,8312,49.3,44.4,48.2,49.3,2.886,2.61,2.636,2.829,6.93,336.0,22.9,70.8,1015.05,-34.85,-0.81,1.32,19.2,34.6,25.2,0,no_anomaly,0.0,0,0,0,0,17.384999,78.4867212,5.0,0.0
2024-04-02T09:32:02.000Z,MISSION_0044,20,0,takeoff,SITE_HYD_005,17.3849953,78.4867265,5.0,262.42,0.878,0.139,3.0,0.8114,-4.0079,262.4154,-0.65856,0.02165,0.02836,0.75168,0.0081,0.0554,-9.7998,-0.141,-0.9039,-0.0373,0.2783,3,17,0.6,0.66,0.2,24.735,19.11,96.1,30.6,21133.0,8434,8264,8172,8382,51.9,50.8,48.2,47.4,2.931,2.746,2.796,2.753,7.31,336.3,23.0,72.8,1015.36,-32.53,-0.97,1.4,18.8,27.4,26.4,0,no_anomaly,0.0,0,0,0,0,17.3849953,78.4867265,5.0,0.0
2024-04-02T09:32:02.100Z,MISSION_0044,21,0,takeoff,SITE_HYD_005,17.3849906,78.4867288,5.0,261.78,0.468,0.157,3.38,-2.2383,-2.3283,261.7764,-0.65403,0.02814,-0.00147,0.75595,0.0413,0.0118,-9.7713,-0.7029,-0.0351,0.3477,0.1861,3,17,0.64,1.03,0.23,24.736,15.72,96.0,31.2,21116.0,8415,8080,7943,8180,50.9,48.4,47.5,49.0,2.709,2.622,2.835,2.969,6.47,348.1,23.1,71.0,1015.16,-34.55,0.61,1.17,14.8,31.1,22.8,0,no_anomaly,0.0,0,0,0,0,17.3849906,78.4867288,5.0,0.0
2024-04-02T09:32:02.200Z,MISSION_0044,22,0,takeoff,SITE_HYD_005,17.3849941,78.486726,5.0,258.89,0.433,0.135,2.97,1.3445,-1.5221,258.8885,-0.63535,0.0028,0.0175,0.77202,-0.3038,-0.0581,-9.8077,0.3213,0.1925,0.1996,0.273,3,16,0.71,1.08,0.29,24.731,19.37,95.9,30.0,21100.0,8308,8452,8307,8530,47.9,51.5,44.7,46.6,2.74,2.546,2.951,3.026,6.3,348.4,23.1,72.1,1014.67,-29.26,0.24,1.84,16.1,31.6,23.3,0,no_anomaly,0.0,0,0,0,0,17.3849941,78.486726,5.0,0.0
2024-04-02T09:32:02.300Z,MISSION_0044,23,0,takeoff,SITE_HYD_005,17.3849917,78.4867246,5.0,257.07,0.215,0.011,2.89,-0.4612,-1.1493,257.0722,-0.62294,0.01035,0.0031,0.7822,0.159,0.0318,-9.7723,-0.0945,-0.47,0.1463,0.3077,3,13,0.72,1.16,0.3,24.667,19.51,95.8,32.1,21083.0,8534,8103,8673,8159,43.0,49.3,47.9,46.1,2.593,2.712,2.859,3.101,6.86,337.2,22.9,71.8,1015.17,-32.72,2.09,1.72,15.0,34.7,23.0,0,no_anomaly,0.0,0,0,0,0,17.3849917,78.4867246,5.0,0.0
2024-04-02T09:32:02.400Z,MISSION_0044,24,0,takeoff,SITE_HYD_005,17.3849931,78.4867252,5.0,255.02,0.0,0.075,2.91,2.8126,-2.0548,255.0218,-0.60898,-0.00072,0.03038,0.7926,0.0514,0.0023,-9.748,0.5555,-0.0339,-0.1501,0.1716,3,16,0.57,1.07,0.2,24.657,15.94,95.8,30.6,21067.0,8062,8614,8339,8495,48.2,46.1,50.4,45.5,2.745,2.812,3.092,2.447,7.24,339.9,22.8,71.4,1014.71,-27.41,-1.76,1.17,16.6,33.3,25.3,0,no_anomaly,0.0,0,0,0,0,17.3849931,78.4867252,5.0,0.0
2024-04-02T09:32:02.500Z,MISSION_0044,25,0,takeoff,SITE_HYD_005,17.3849978,78.4867189,5.0,252.8,0.0,0.044,2.12,1.1651,-3.6588,252.8,-0.59335,0.01966,0.02712,0.80425,0.3567,0.0213,-9.7514,-0.4783,-0.0967,0.0475,0.1731,3,15,0.69,0.85,0.26,24.689,14.75,95.7,31.6,21050.0,8451,8481,8161,8279,48.1,48.6,46.5,47.8,2.623,2.646,2.956,2.814,7.09,336.5,23.3,71.0,1014.87,-27.85,-0.84,1.89,18.1,29.1,25.5,0,no_anomaly,0.0,0,0,0,0,17.3849978,78.4867189,5.0,0.0
2024-04-02T09:32:02.600Z,MISSION_0044,26,0,takeoff,SITE_HYD_005,17.3849986,78.4867218,5.0,255.76,0.046,0.131,2.44,-1.8548,-2.043,255.7619,-0.61362,0.02401,-0.00183,0.78924,0.1514,-0.0588,-9.8259,0.6224,-0.2362,0.3164,0.1703,3,20,0.74,1.05,0.3,24.762,19.15,95.6,31.7,21034.0,8286,8489,7878,8008,44.8,46.6,45.9,45.7,2.802,2.714,3.008,2.746,6.6,336.4,23.0,73.1,1014.64,-31.05,-0.47,1.78,18.6,36.1,25.7,0,no_anomaly,0.0,0,0,0,0,17.3849986,78.4867218,5.0,0.0
2024-04-02T09:32:02.700Z,MISSION_0044,27,0,takeoff,SITE_HYD_005,17.3849968,78.4867198,5.0,256.11,0.0,0.099,2.23,-5.0195,-1.3086,256.1133,-0.61541,0.03597,-0.02744,0.7869,-0.0958,0.0526,-9.7575,0.3542,-0.4992,0.3604,0.1392,3,11,0.64,0.9,0.27,24.653,17.49,95.5,31.5,21017.0,7886,8663,8354,8193,45.1,46.8,47.9,46.8,2.921,2.734,2.726,2.782,6.78,337.3,22.8,70.3,1014.7,-30.28,1.27,1.35,19.2,28.9,27.0,0,no_anomaly,0.0,0,0,0,0,17.3849968,78.4867198,5.0,0.0
2024-04-02T09:32:02.800Z,MISSION_0044,28,0,takeoff,SITE_HYD_005,17.3849966,78.4867201,5.0,257.69,0.0,0.131,2.27,3.2836,-3.2259,257.6944,-0.62737,0.00395,0.03995,0.77769,0.3327,-0.0324,-9.7644,-0.2158,-0.651,0.005,0.2663,3,19,0.82,0.9,0.45,24.716,23.18,95.5,30.5,21001.0,8445,8271,8322,8140,45.7,47.7,47.9,50.0,2.865,2.883,2.838,2.962,6.19,333.8,23.3,71.0,1014.73,-30.01,-0.62,1.95,14.0,36.1,24.3,0,no_anomaly,0.0,0,0,0,0,17.3849966,78.4867201,5.0,0.0
2024-04-02T09:32:02.900Z,MISSION_0044,29,0,takeoff,SITE_HYD_005,17.3849986,78.486723,5.0,259.19,0.0,0.059,2.56,-2.3426,-2.8419,259.1942,-0.63667,0.03213,6e-05,0.77047,0.4496,0.0156,-9.7603,-0.1684,0.6534,-0.1278,0.1234,3,17,0.81,0.87,0.2,24.65,14.17,95.4,32.2,20984.0,8509,8475,8466,8369,46.2,50.9,49.2,46.1,2.88,2.852,2.891,2.639,7.16,335.7,23.3,73.0,1014.93,-28.38,-0.12,1.21,16.8,31.8,27.8,0,no_anomaly,0.0,0,0,0,0,17.3849986,78.486723,5.0,0.0
2024-04-02T09:32:03.000Z,MISSION_0044,30,0,takeoff,SITE_HYD_005,17.3849944,78.4867238,5.0,260.36,0.0,0.136,2.72,0.1423,0.0001,260.363,-0.64521,-0.0008,0.00095,0.764,0.0139,0.0126,-9.8102,0.7583,-0.4351,0.3111,0.269,3,13,0.72,0.91,0.36,24.736,14.69,95.3,31.5,20968.0,8402,8186,8413,8599,47.3,48.4,48.4,51.3,2.742,2.409,2.678,2.888,6.26,344.1,23.0,72.0,1014.97,-33.52,-0.45,1.44,19.5,29.2,23.3,0,no_anomaly,0.0,0,0,0,0,17.3849944,78.4867238,5.0,0.0
2024-04-02T09:32:03.100Z,MISSION_0044,31,0,takeoff,SITE_HYD_005,17.384993,78.4867228,5.0,260.24,0.0,0.146,2.66,3.8523,-2.8181,260.2441,-0.64449,-0.00286,0.04153,0.76348,-0.1294,0.0779,-9.8016,-0.0928,0.4662,-0.159,0.304,3,10,0.73,1.14,0.35,24.675,14.74,95.2,30.8,20951.0,8222,8223,8143,8327,48.1,49.0,47.9,49.1,2.866,2.654,2.99,2.884,7.47,337.0,23.1,71.4,1014.96,-21.19,-0.09,1.59,15.6,32.6,24.8,0,no_anomaly,0.0,0,0,0,0,17.384993,78.4867228,5.0,0.0
2024-04-02T09:32:03.200Z,MISSION_0044,32,0,takeoff,SITE_HYD_005,17.3849959,78.4867236,5.0,259.2,0.0,0.156,2.66,2.3826,-4.2889,259.2022,-0.63745,0.01558,0.03986,0.7693,-0.0045,-0.0482,-9.7478,-0.5026,-0.0788,-0.1765,0.2071,3,17,0.77,0.86,0.36,24.675,15.57,95.2,30.5,20935.0,8230,8330,8242,8378,44.1,47.0,46.0,46.9,2.92,2.877,2.674,3.007,6.67,330.8,23.1,71.3,1015.07,-31.76,-1.39,1.43,19.5,31.6,25.1,0,no_anomaly,0.0,0,0,0,0,17.3849959,78.4867236,5.0,0.0
2024-04-02T09:32:03.300Z,MISSION_0044,33,0,takeoff,SITE_HYD_005,17.3849933,78.4867217,5.0,261.2,0.092,-0.012,2.53,4.1742,-0.6868,261.1965,-0.65047,-0.01915,0.03155,0.75863,0.1932,0.0716,-9.8239,-0.1149,0.0638,0.0292,0.2472,3,20,0.56,0.99,0.23,24.73,19.66,95.1,31.3,20918.0,8127,8412,8443,8205,47.0,48.4,50.6,47.4,2.964,2.972,2.988,2.717,6.7,330.9,23.1,71.6,1015.38,-23.18,-2.41,1.74,16.9,33.5,23.6,0,no_anomaly,0.0,0,0,0,0,17.3849933,78.4867217,5.0,0.0
2024-04-02T09:32:03.400Z,MISSION_0044,34,0,takeoff,SITE_HYD_005,17.3849911,78.4867203,5.0,262.04,0.104,0.173,2.46,-2.8284,-1.6479,262.0432,-0.65581,0.02704,-0.00918,0.75439,-0.195,0.0,-9.851,-0.2144,0.2521,-0.0441,0.2007,3,10,0.7,0.79,0.29,24.644,16.73,95.0,31.4,20902.0,8384,8489,8192,8261,48.9,49.7,46.6,48.1,2.806,2.898,2.974,3.037,6.51,348.0,23.2,71.8,1014.85,-30.0,-0.77,1.55,17.4,37.8,25.0,0,no_anomaly,0.0,0,0,0,0,17.3849911,78.4867203,5.0,0.0
2024-04-02T09:32:03.500Z,MISSION_0044,35,0,takeoff,SITE_HYD_005,17.3849893,78.4867265,5.0,262.5,0.469,0.08,3.18,0.0671,-2.1791,262.4981,-0.65922,0.01391,0.01298,0.75171,0.0773,-0.03,-9.785,0.2678,-0.3399,-0.0398,0.2738,3,19,0.64,0.98,0.21,24.641,19.31,94.9,30.9,20885.0,8411,8460,8315,8156,45.8,48.7,47.1,46.2,2.718,2.797,2.954,2.966,7.5,352.5,22.8,70.7,1015.15,-31.46,-0.97,1.81,17.8,36.1,26.4,0,no_anomaly,0.0,0,0,0,0,17.3849893,78.4867265,5.0,0.0
2024-04-02T09:32:03.600Z,MISSION_0044,36,0,takeoff,SITE_HYD_005,17.3849904,78.4867278,5.0,262.73,0.187,0.089,3.27,-1.7754,-2.1505,262.7296,-0.66044,0.02432,0.00077,0.75049,0.1411,0.0029,-9.8957,-0.7714,-0.0814,-0.4311,0.1891,3,10,0.5,0.67,0.22,24.616,19.86,94.9,30.6,20869.0,8196,8279,8468,8395,47.2,47.9,44.5,45.8,2.744,2.578,3.039,2.908,5.96,337.9,22.7,71.4,1015.41,-24.94,0.15,1.31,19.6,33.7,24.5,0,no_anomaly,0.0,0,0,0,0,17.3849904,78.4867278,5.0,0.0
2024-04-02T09:32:03.700Z,MISSION_0044,37,0,takeoff,SITE_HYD_005,17.3849848,78.4867349,5.0,262.84,0.366,0.122,4.23,2.1735,-0.7576,262.8356,-0.66151,-0.00759,0.01859,0.74967,0.1083,-0.1077,-9.7028,-0.6187,-0.4183,-0.215,0.1488,3,20,0.51,0.88,0.2,24.716,17.1,94.8,31.3,20852.0,8142,8214,8334,8482,46.0,45.0,49.6,46.9,2.881,2.711,2.695,2.74,7.17,342.6,23.2,71.7,1014.77,-38.21,0.54,1.4,21.4,36.3,27.5,0,no_anomaly,0.0,0,0,0,0,17.3849848,78.4867349,5.0,0.0
2024-04-02T09:32:03.800Z,MISSION_0044,38,0,takeoff,SITE_HYD_005,17.3849889,78.4867364,5.0,261.99,0.174,0.06,4.23,0.9671,-0.0848,261.9933,-0.656,-0.00498,0.00686,0.75472,0.377,-0.018,-9.812,-0.2421,-0.1896,0.1566,0.1485,3,10,0.75,0.83,0.2,24.713,16.22,94.7,31.8,20836.0,8308,8238,8295,8366,46.3,51.0,49.3,47.6,2.946,2.946,3.144,2.638,6.56,350.0,22.9,72.5,1014.79,-29.96,1.09,1.54,17.6,32.0,26.9,0,no_anomaly,0.0,0,0,0,0,17.3849889,78.4867364,5.0,0.0
2024-04-02T09:32:03.900Z,MISSION_0044,39,0,takeoff,SITE_HYD_005,17.3849838,78.4867366,5.0,260.43,0.123,0.105,4.45,2.4582,-0.9393,260.4308,-0.64563,-0.00759,0.02167,0.76331,0.0016,0.0313,-9.8167,-0.0431,-0.4732,0.2983,0.1873,3,15,0.91,0.6,0.22,24.638,19.48,94.6,31.7,20819.0,8233,8373,8431,8267,45.5,49.6,47.4,49.8,2.769,2.867,2.791,2.816,6.45,338.4,22.9,71.7,1014.81,-33.21,-1.17,1.68,19.7,29.1,26.7,0,no_anomaly,0.0,0,0,0,0,17.3849838,78.4867366,5.0,0.0
2024-04-02T09:32:04.000Z,MISSION_0044,40,0,takeoff,SITE_HYD_005,17.3849855,78.4867415,5.0,260.4,0.018,0.068,4.89,3.3241,-1.8661,260.3973,-0.64544,-0.00629,0.03266,0.76308,-0.2845,-0.0504,-9.8144,0.2645,-0.0881,0.1656,0.2062,3,13,0.53,1.19,0.24,24.663,16.36,94.6,30.6,20803.0,8279,8230,8330,8137,49.7,45.9,46.7,45.8,2.885,2.926,2.568,2.79,5.77,346.6,23.4,72.3,1014.9,-30.29,-1.14,1.58,20.7,32.3,26.4,0,no_anomaly,0.0,0,0,0,0,17.3849855,78.4867415,5.0,0.0
2024-04-02T09:32:04.100Z,MISSION_0044,41,0,takeoff,SITE_HYD_005,17.3849873,78.4867431,5.0,259.63,0.234,0.09,5.01,2.1314,-2.6058,259.628,-0.64035,0.00556,0.02884,0.76753,-0.1931,-0.019,-9.8534,-0.7039,0.155,-0.6605,0.19,3,15,0.83,1.14,0.34,24.626,10.7,94.5,30.8,20786.0,7946,8254,8268,8499,48.0,48.8,45.5,46.0,2.853,2.775,2.907,2.786,6.78,344.4,23.0,72.3,1014.88,-26.25,-0.1,1.31,17.7,35.4,23.5,0,no_anomaly,0.0,0,0,0,0,17.3849873,78.4867431,5.0,0.0
2024-04-02T09:32:04.200Z,MISSION_0044,42,0,takeoff,SITE_HYD_005,17.3849844,78.4867467,5.0,259.88,0.579,-0.003,5.48,2.6066,-4.2382,259.8758,-0.642,0.01375,0.04116,0.76548,0.402,0.0695,-9.8081,-0.8977,0.0796,0.4189,0.1041,3,19,0.75,1.05,0.41,24.746,14.85,94.4,31.0,20770.0,8097,8153,8234,8127,47.3,49.3,50.0,51.4,2.587,2.629,2.923,2.808,7.68,347.3,23.4,72.4,1015.01,-27.25,-0.83,1.29,17.7,29.7,24.9,0,no_anomaly,0.0,0,0,0,0,17.3849844,78.4867467,5.0,0.0
2024-04-02T09:32:04.300Z,MISSION_0044,43,0,takeoff,SITE_HYD_005,17.384982,78.4867441,5.0,262.19,0.351,0.092,5.3,-3.1256,-0.9848,262.1855,-0.65683,0.0244,-0.01491,0.75349,-0.313,0.0467,-9.8262,-0.2672,0.0804,0.1925,0.2399,3,11,0.7,0.65,0.21,24.691,19.82,94.3,31.5,20753.0,8387,8189,8205,8224,48.7,51.7,45.6,48.9,2.634,2.809,3.004,2.912,7.13,335.6,22.9,71.5,1014.72,-32.34,0.71,1.58,16.4,33.1,28.7,0,no_anomaly,0.0,0,0,0,0,17.384982,78.4867441,5.0,0.0
2024-04-02T09:32:04.400Z,MISSION_0044,44,0,takeoff,SITE_HYD_005,17.3849856,78.4867416,5.0,260.47,0.003,0.125,4.91,-2.032,-4.5324,260.4749,-0.64481,0.04163,0.01201,0.76311,0.2993,0.063,-9.719,0.5346,-0.9092,-0.0191,0.2569,3,16,0.61,0.95,0.2,24.645,17.21,94.3,31.5,20737.0,8208,8370,8360,7984,45.2,50.1,49.1,47.7,2.902,2.871,2.751,2.874,7.03,338.2,23.0,71.2,1014.68,-25.93,-1.07,1.43,19.1,28.7,23.6,0,no_anomaly,0.0,0,0,0,0,17.3849856,78.4867416,5.0,0.0
2024-04-02T09:32:04.500Z,MISSION_0044,45,0,takeoff,SITE_HYD_005,17.3849847,78.4867408,5.0,260.24,0.326,0.039,4.85,-4.3418,-1.974,260.2356,-0.6433,0.03757,-0.01787,0.76448,-0.0726,-0.0281,-9.7794,0.9923,-0.1489,-0.2426,0.2266,3,11,0.81,1.07,0.36,24.622,12.66,94.2,31.6,20720.0,8198,8145,8342,8414,48.8,48.7,49.0,51.8,2.972,2.963,2.923,3.219,6.75,335.8,22.8,72.0,1015.07,-28.73,2.39,2.03,18.8,35.6,24.6,0,no_anomaly,0.0,0,0,0,0,17.3849847,78.4867408,5.0,0.0
2024-04-02T09:32:04.600Z,MISSION_0044,46,0,takeoff,SITE_HYD_005,17.3849868,78.4867383,5.0,260.63,0.0,0.113,4.51,2.7918,-2.9041,260.6303,-0.64706,0.00356,0.03496,0.76163,-0.4897,-0.0042,-9.8484,0.5148,-0.3308,-0.2162,0.2108,3,18,0.71,0.84,0.28,24.591,14.85,94.1,31.9,20704.0,8402,8233,8444,8216,49.0,48.8,48.0,45.8,2.563,3.052,2.62,2.895,7.37,344.6,23.1,71.4,1014.91,-26.44,0.0,1.51,18.1,26.4,24.7,0,no_anomaly,0.0,0,0,0,0,17.3849868,78.4867383,5.0,0.0
2024-04-02T09:32:04.700Z,MISSION_0044,47,0,transit,SITE_HYD_005,17.3849879,78.4867374,5.5,260.03,0.0,0.063,4.38,-3.7976,-0.4194,260.0255,-0.64251,0.02411,-0.02303,0.76555,0.1773,-0.0544,-9.7773,-0.3371,1.5076,0.5583,0.2286,3,14,0.72,1.0,0.2,24.585,20.73,94.0,32.1,20687.0,8345,8570,8174,8160,45.5,47.3,46.9,50.9,2.794,2.583,2.874,2.665,7.46,341.4,22.9,71.7,1015.07,-27.46,0.89,1.62,16.9,34.4,28.3,0,no_anomaly,0.0,0,0,0,0,17.3849879,78.4867374,5.5,0.0
2024-04-02T09:32:04.800Z,MISSION_0044,48,0,transit,SITE_HYD_005,17.3849855,78.4867357,6.0,260.64,0.073,0.075,4.29,3.8939,-0.6635,260.6421,-0.64684,-0.01757,0.02965,0.76185,-0.019,0.0867,-9.8247,0.7395,-1.4393,0.4685,0.2011,3,19,0.77,0.79,0.41,24.724,19.04,94.0,31.5,20671.0,8356,8127,8000,8407,45.5,50.3,50.5,45.5,2.573,2.572,2.798,2.684,6.52,344.6,23.1,72.8,1015.13,-30.86,-0.71,1.82,19.3,33.4,27.9,0,no_anomaly,0.0,0,0,0,0,17.3849855,78.4867357,6.0,0.0
2024-04-02T09:32:04.900Z,MISSION_0044,49,0,transit,SITE_HYD_005,17.3849831,78.4867379,6.5,261.41,0.0,0.151,4.62,-0.0646,-1.5137,261.4138,-0.65213,0.01038,0.00819,0.75799,0.0245,0.0245,-9.8534,0.2983,-0.3198,-0.0694,0.2899,3,19,0.79,0.71,0.36,24.648,17.86,93.9,31.5,20654.0,8474,8326,8266,8384,50.3,51.4,49.2,48.0,2.671,2.599,2.837,2.641,6.7,350.5,23.2,71.7,1014.96,-28.37,-1.02,1.45,16.9,38.1,25.7,0,no_anomaly,0.0,0,0,0,0,17.3849831,78.4867379,6.5,0.0
2024-04-02T09:32:05.000Z,MISSION_0044,50,0,transit,SITE_HYD_005,17.384983,78.4867412,7.0,259.06,0.022,0.014,4.96,-5.9671,-2.5526,259.0564,-0.63454,0.05028,-0.02598,0.77081,0.3991,0.0226,-9.7673,0.5079,0.3615,0.3681,0.1526,3,17,0.79,0.91,0.29,24.637,19.06,93.8,30.6,20638.0,8361,8399,7914,8623,47.2,46.2,47.1,46.5,2.917,2.96,2.78,2.721,7.92,332.2,23.3,71.9,1015.27,-32.27,-0.32,1.81,16.4,34.5,24.0,0,no_anomaly,0.0,0,0,0,0,17.384983,78.4867412,7.0,0.0
2024-04-02T09:32:05.100Z,MISSION_0044,51,0,transit,SITE_HYD_005,17.3849829,78.4867445,7.5,257.13,0.049,0.057,5.31,-4.2695,-3.7954,257.1289,-0.62166,0.04908,-0.00848,0.7817,0.0689,-0.0434,-9.7322,0.307,0.5308,-0.3085,0.2437,3,11,0.74,0.9,0.35,24.646,18.46,93.7,31.6,20621.0,8352,8280,8148,8385,50.7,49.5,48.9,51.7,2.687,2.754,3.009,2.916,7.07,332.1,22.8,71.8,1014.69,-34.99,0.13,1.0,18.4,34.5,25.2,0,no_anomaly,0.0,0,0,0,0,17.3849829,78.4867445,7.5,0.0
2024-04-02T09:32:05.200Z,MISSION_0044,52,0,transit,SITE_HYD_005,17.384982,78.4867444,8.0,258.1,0.407,0.072,5.33,-4.2675,-0.3171,258.0986,-0.62947,0.0256,-0.02717,0.77613,-0.2674,0.0492,-9.81,-0.0326,0.0528,0.1465,0.3267,3,10,0.63,0.81,0.35,24.62,18.07,93.7,30.7,20605.0,8073,8369,8389,8322,49.0,44.0,49.8,49.9,3.139,2.703,2.77,2.422,7.25,352.7,22.9,72.0,1014.93,-32.09,-0.58,1.44,21.1,34.7,27.9,0,no_anomaly,0.0,0,0,0,0,17.384982,78.4867444,8.0,0.0
2024-04-02T09:32:05.300Z,MISSION_0044,53,0,transit,SITE_HYD_005,17.3849841,78.4867461,8.5,259.51,0.556,0.019,5.43,6.4327,-0.0026,259.5148,-0.63853,-0.03587,0.04315,0.76755,0.0277,-0.0389,-9.8482,-0.0998,-0.5313,-0.2069,0.2098,3,18,0.65,0.88,0.29,24.624,17.14,93.6,30.8,20588.0,8403,8346,8244,8508,52.8,44.2,49.3,47.9,3.007,3.097,2.734,2.774,6.85,332.6,23.0,71.3,1014.89,-24.9,0.47,1.64,18.5,32.9,25.3,0,no_anomaly,0.0,0,0,0,0,17.3849841,78.4867461,8.5,0.0
2024-04-02T09:32:05.400Z,MISSION_0044,54,0,transit,SITE_HYD_005,17.3849848,78.4867421,9.0,260.87,0.437,0.159,4.98,4.7973,-1.7386,260.8739,-0.64845,-0.01561,0.04168,0.75995,0.0991,-0.0352,-9.8856,0.5241,0.0662,-0.1341,0.3124,3,14,0.52,0.89,0.22,24.58,17.07,93.5,31.0,20572.0,8167,8433,8346,8363,46.7,49.1,48.0,47.4,2.692,2.614,2.586,2.747,7.32,349.5,23.2,72.3,1014.63,-32.2,0.71,1.22,18.2,33.6,23.3,0,no_anomaly,0.0,0,0,0,0,17.3849848,78.4867421,9.0,0.0
2024-04-02T09:32:05.500Z,MISSION_0044,55,0,transit,SITE_HYD_005,17.3849899,78.4867456,9.5,261.45,0.141,0.172,5.19,-1.2154,-1.4205,261.4487,-0.65223,0.01631,5e-05,0.75784,0.0862,-0.0256,-9.7853,-0.7011,0.3417,0.5227,0.2299,3,13,0.74,0.64,0.34,24.62,19.86,93.4,31.9,20555.0,8259,8157,8576,8180,48.5,47.4,46.6,46.9,2.707,2.994,2.788,2.494,7.01,338.7,23.1,72.1,1014.85,-31.52,-0.53,1.9,18.9,31.7,24.9,0,no_anomaly,0.0,0,0,0,0,17.3849899,78.4867456,9.5,0.0
2024-04-02T09:32:05.600Z,MISSION_0044,56,0,transit,SITE_HYD_005,17.384993,78.4867501,10.0,262.86,0.195,0.04,5.64,8.4185,-3.6772,262.8578,-0.66133,-0.02455,0.07618,0.74581,-0.159,-0.0232,-9.7457,0.2515,0.3128,0.2292,0.3855,3,14,0.59,1.01,0.27,24.7,20.27,93.4,31.4,20539.0,8352,8268,8672,8284,46.0,47.6,48.7,50.1,2.712,2.76,2.798,2.711,7.12,347.5,23.1,71.8,1014.59,-22.41,-0.77,1.98,20.3,32.6,26.7,0,no_anomaly,0.0,0,0,0,0,17.384993,78.4867501,10.0,0.0
2024-04-02T09:32:05.700Z,MISSION_0044,57,0,transit,SITE_HYD_005,17.3849923,78.48675,10.5,262.99,0.486,0.092,5.64,3.3213,-0.5809,262.9876,-0.66236,-0.0154,0.02506,0.74861,-0.0956,-0.0601,-9.8307,0.2687,-0.2676,0.1179,0.2159,3,20,0.81,0.78,0.24,24.724,19.26,93.3,31.0,20522.0,8559,8364,8374,8276,52.8,45.2,52.1,43.9,3.03,2.757,2.634,2.592,6.4,338.2,23.0,71.6,1014.85,-31.08,0.77,1.89,16.5,34.4,24.1,0,no_anomaly,0.0,0,0,0,0,17.3849923,78.48675,10.5,0.0
2024-04-02T09:32:05.800Z,MISSION_0044,58,0,transit,SITE_HYD_005,17.3849921,78.4867449,11.0,262.76,1.2,0.097,5.08,2.4588,-2.7468,262.7649,-0.66113,0.0038,0.03193,0.74959,-0.1098,-0.0626,-9.8417,-0.0723,0.0677,-0.0808,0.2464,3,17,0.76,0.97,0.28,24.599,17.98,93.2,31.3,20506.0,8299,8350,8483,8489,49.1,46.3,48.4,48.6,2.94,2.703,2.849,2.909,6.31,330.2,22.9,70.9,1014.85,-30.51,-1.51,1.78,18.6,29.7,24.4,0,no_anomaly,0.0,0,0,0,0,17.3849921,78.4867449,11.0,0.0
2024-04-02T09:32:05.900Z,MISSION_0044,59,0,transit,SITE_HYD_005,17.3849896,78.4867434,11.5,262.7,1.167,0.099,4.97,0.4888,-2.9528,262.6962,-0.66049,0.01652,0.02022,0.75038,0.2169,0.0088,-9.8029,0.3034,0.5818,-0.0214,0.2433,3,12,0.5,1.07,0.2,24.626,13.51,93.1,31.2,20489.0,8456,8167,8505,8352,49.5,47.6,44.8,47.8,2.985,2.709,2.792,2.812,7.01,343.8,23.3,71.5,1014.93,-28.41,0.52,2.0,16.8,38.2,26.1,0,no_anomaly,0.0,0,0,0,0,17.3849896,78.4867434,11.5,0.0
2024-04-02T09:32:06.000Z,MISSION_0044,60,0,transit,SITE_HYD_005,17.3849902,78.4867438,12.0,264.67,1.392,0.115,5.0,0.3362,-1.137,264.6651,-0.67342,0.00536,0.00885,0.73919,-0.0685,-0.0268,-9.8753,-0.2792,-0.6247,0.4743,0.2241,3,20,0.79,1.08,0.21,24.562,20.04,93.1,31.3,20473.0,8342,8507,8461,8106,50.4,50.2,48.1,48.9,2.774,2.764,2.937,2.758,6.97,338.4,22.8,71.6,1015.02,-34.28,2.29,1.06,18.2,34.1,24.1,0,no_anomaly,0.0,0,0,0,0,17.3849902,78.4867438,12.0,0.0
2024-04-02T09:32:06.100Z,MISSION_0044,61,0,transit,SITE_HYD_005,17.3849869,78.4867437,12.5,264.9,1.156,0.187,5.08,1.3103,-1.2667,264.9048,-0.67499,0.00044,0.0159,0.73766,-0.1651,0.0144,-9.7522,-0.3411,-0.229,-0.3182,0.3243,3,15,0.89,1.09,0.31,24.683,19.13,93.0,32.2,20456.0,8374,8501,8105,8257,48.1,53.0,49.1,45.9,2.667,2.462,2.927,2.745,7.29,346.2,23.5,71.5,1015.17,-28.04,0.51,1.2,18.1,37.0,26.1,0,no_anomaly,0.0,0,0,0,0,17.3849869,78.4867437,12.5,0.0
2024-04-02T09:32:06.200Z,MISSION_0044,62,0,transit,SITE_HYD_005,17.3849881,78.4867456,13.0,266.75,0.991,0.108,5.24,4.1518,-1.9246,266.7473,-0.68665,-0.01267,0.03785,0.72589,0.2132,-0.006,-9.7678,0.5346,-0.0685,-0.3293,0.2272,3,18,0.65,1.34,0.28,24.574,24.0,92.9,31.2,20440.0,8349,8373,8650,8427,50.3,45.2,46.7,50.7,2.78,2.808,2.81,2.794,6.66,337.1,23.3,71.9,1014.92,-31.06,-0.84,1.06,19.2,35.7,27.1,0,no_anomaly,0.0,0,0,0,0,17.3849881,78.4867456,13.0,0.0
2024-04-02T09:32:06.300Z,MISSION_0044,63,0,transit,SITE_HYD_005,17.3849894,78.4867446,13.5,266.3,1.16,-0.008,5.1,1.7958,-0.9978,266.2992,-0.6839,-0.00437,0.01739,0.72936,0.1847,-0.0239,-9.8537,-0.4784,-0.2642,-0.3225,0.2406,3,10,0.67,0.93,0.3,24.633,16.7,92.8,30.7,20423.0,8238,8601,8329,8352,46.0,47.1,48.1,49.0,2.33,2.75,2.783,2.62,6.58,347.4,22.8,72.4,1015.04,-31.75,-1.68,1.65,17.3,31.8,23.9,0,no_anomaly,0.0,0,0,0,0,17.3849894,78.4867446,13.5,0.0
2024-04-02T09:32:06.400Z,MISSION_0044,64,0,transit,SITE_HYD_005,17.3849923,78.486741,14.0,266.84,1.216,0.12,4.65,2.9047,0.0346,266.8366,-0.68709,-0.01764,0.0182,0.72613,-0.1509,0.0177,-9.7897,-0.9178,0.2605,0.5478,0.2185,3,18,0.9,0.9,0.36,24.578,19.23,92.8,30.9,20407.0,8346,8381,8136,8333,52.0,48.0,48.8,43.8,2.91,2.644,2.98,2.826,7.41,344.8,23.1,71.6,1014.85,-27.07,-0.17,1.58,20.2,31.7,23.6,0,no_anomaly,0.0,0,0,0,0,17.3849923,78.486741,14.0,0.0
2024-04-02T09:32:06.500Z,MISSION_0044,65,0,transit,SITE_HYD_005,17.3849879,78.4867392,14.5,265.8,0.922,0.152,4.57,-3.4256,-2.8213,265.8016,-0.67968,0.03837,-0.00514,0.73248,-0.0337,0.0708,-9.8711,-0.3132,-0.2884,0.4419,0.2152,3,18,0.67,0.76,0.26,24.576,20.37,92.7,30.5,20390.0,8187,8069,8651,8305,47.5,45.1,48.0,48.8,2.806,2.866,2.528,2.908,5.79,337.2,23.2,70.4,1015.03,-30.12,-0.22,1.83,15.5,37.2,23.9,0,no_anomaly,0.0,0,0,0,0,17.3849879,78.4867392,14.5,0.0
2024-04-02T09:32:06.600Z,MISSION_0044,66,0,transit,SITE_HYD_005,17.3849844,78.4867451,15.0,265.96,0.789,0.154,5.31,1.1956,0.655,265.9642,-0.68168,-0.01129,0.00374,0.73156,0.2738,-0.0283,-9.78,1.1451,-0.4154,0.4521,0.2365,3,14,0.7,0.82,0.34,24.583,17.22,92.6,31.3,20374.0,8561,8272,8447,8523,48.6,45.2,48.9,49.0,2.655,2.679,2.909,2.994,6.97,345.3,23.3,72.2,1014.96,-30.63,0.35,1.0,15.9,35.5,23.0,0,no_anomaly,0.0,0,0,0,0,17.3849844,78.4867451,15.0,0.0
2024-04-02T09:32:06.700Z,MISSION_0044,67,0,transit,SITE_HYD_005,17.3849854,78.486743,15.5,266.16,0.684,0.048,5.05,-6.8145,-2.0595,266.1621,-0.68093,0.05369,-0.03115,0.72971,-0.1678,-0.0288,-9.8366,-0.3626,0.9047,-0.328,0.2809,3,15,0.8,0.95,0.24,24.593,17.91,92.5,32.0,20357.0,8235,8161,8264,8453,50.0,51.9,51.4,50.6,2.912,2.935,2.903,2.894,6.7,344.2,23.3,70.2,1014.64,-34.53,-0.81,1.82,21.4,38.7,28.8,0,no_anomaly,0.0,0,0,0,0,17.3849854,78.486743,15.5,0.0
2024-04-02T09:32:06.800Z,MISSION_0044,68,0,transit,SITE_HYD_005,17.3849841,78.4867455,16.0,266.85,0.869,0.085,5.36,5.1304,-2.4742,266.8471,-0.68724,-0.01509,0.04732,0.72473,0.2408,-0.0203,-9.8704,0.0318,-0.6406,-0.051,0.1603,3,20,0.88,1.01,0.4,24.642,18.88,92.5,31.0,20341.0,8506,8631,8447,8040,49.1,49.6,50.3,48.0,2.852,3.182,2.776,2.893,6.58,339.2,23.1,71.4,1014.9,-34.48,0.79,1.66,16.8,32.7,24.4,0,no_anomaly,0.0,0,0,0,0,17.3849841,78.4867455,16.0,0.0
2024-04-02T09:32:06.900Z,MISSION_0044,69,0,transit,SITE_HYD_005,17.384984,78.4867441,16.5,264.94,1.249,0.073,5.23,0.5815,-2.5199,264.9433,-0.67514,0.01279,0.01859,0.73735,0.1482,-0.061,-9.7724,-0.1529,-0.1983,0.2484,0.2156,3,19,0.67,0.81,0.35,24.562,18.15,92.4,31.7,20324.0,8111,8358,8490,8387,49.0,51.3,51.4,45.5,3.093,2.649,2.63,2.902,7.0,349.1,23.1,71.9,1014.78,-29.21,2.27,1.8,19.8,38.0,26.9,0,no_anomaly,0.0,0,0,0,0,17.384984,78.4867441,16.5,0.0
2024-04-02T09:32:07.000Z,MISSION_0044,70,0,transit,SITE_HYD_005,17.3849853,78.4867422,17.0,265.76,1.905,0.111,4.98,5.8797,0.7751,265.7557,-0.67927,-0.03985,0.03299,0.73206,-0.0842,0.0265,-9.884,0.1268,0.3439,-0.2462,0.1931,3,16,0.95,0.84,0.27,24.532,20.5,92.3,31.3,20308.0,8357,8473,8385,8440,49.7,48.4,45.5,45.5,2.933,2.711,3.131,2.811,6.37,335.6,23.0,71.2,1014.96,-30.62,-1.3,1.56,15.9,29.8,26.7,0,no_anomaly,0.0,0,0,0,0,17.3849853,78.4867422,17.0,0.0
2024-04-02T09:32:07.100Z,MISSION_0044,71,0,transit,SITE_HYD_005,17.3849866,78.4867371,17.5,266.99,1.969,0.172,4.39,1.1268,-2.178,266.9853,-0.68824,0.00702,0.02021,0.72517,-0.0125,-0.0279,-9.8191,0.8827,-0.4025,-0.1691,0.1874,3,12,0.69,0.83,0.36,24.605,27.38,92.2,31.6,20291.0,8459,8420,8324,8418,50.3,46.4,47.7,48.0,2.917,2.833,3.142,2.628,5.81,336.3,23.3,71.7,1015.2,-21.15,2.27,1.34,17.5,36.8,22.7,0,no_anomaly,0.0,0,0,0,0,17.3849866,78.4867371,17.5,0.0
2024-04-02T09:32:07.200Z,MISSION_0044,72,0,transit,SITE_HYD_005,17.3849852,78.4867388,18.0,266.6,2.029,0.052,4.63,-3.1804,-2.2412,266.6047,-0.68506,0.03326,-0.00678,0.7277,-0.1396,0.0786,-9.7973,0.8747,-0.969,0.1019,0.2586,3,19,0.76,0.94,0.3,24.62,18.08,92.2,31.2,20275.0,8387,8430,8489,8618,50.4,48.6,47.7,46.7,2.91,2.725,3.291,2.788,7.19,342.0,23.1,72.0,1015.19,-31.63,0.19,1.52,15.9,28.8,24.9,0,no_anomaly,0.0,0,0,0,0,17.3849852,78.4867388,18.0,0.0
2024-04-02T09:32:07.300Z,MISSION_0044,73,0,transit,SITE_HYD_005,17.3849913,78.4867362,18.5,267.65,1.716,0.113,4.14,-2.7485,-2.3465,267.6518,-0.69177,0.03137,-0.00312,0.72143,-0.1217,0.0381,-9.832,0.2771,-0.5122,-0.6626,0.1751,3,18,0.86,0.91,0.32,24.627,17.64,92.1,30.4,20258.0,8219,8519,8422,8358,48.4,51.2,46.6,51.3,2.814,2.697,3.053,2.572,6.36,337.1,22.8,71.6,1014.72,-33.84,0.89,1.0,17.9,29.1,27.6,0,no_anomaly,0.0,0,0,0,0,17.3849913,78.4867362,18.5,0.0
2024-04-02T09:32:07.400Z,MISSION_0044,74,0,transit,SITE_HYD_005,17.3849951,78.4867341,19.0,268.34,2.175,0.158,3.84,2.6587,-3.9844,268.3427,-0.69678,0.00877,0.04085,0.71607,-0.006,-0.036,-9.8605,0.1132,0.5078,0.0149,0.1995,3,14,0.69,0.89,0.31,24.619,24.42,92.0,30.8,20242.0,8177,8402,8394,8333,47.4,49.2,46.3,51.3,2.936,2.748,2.732,2.51,6.56,335.1,23.0,71.3,1014.72,-29.3,0.4,1.38,16.6,37.4,28.3,0,no_anomaly,0.0,0,0,0,0,17.3849951,78.4867341,19.0,0.0
2024-04-02T09:32:07.500Z,MISSION_0044,75,0,transit,SITE_HYD_005,17.38499,78.4867321,19.5,270.73,2.181,0.08,3.74,3.0373,-2.8137,270.7315,-0.7116,-0.00161,0.03608,0.70166,-0.0725,0.0296,-9.88,0.0745,-0.1787,0.1833,0.265,3,14,0.71,0.83,0.25,24.601,16.19,91.9,31.4,20225.0,8395,8059,8506,8471,44.6,53.5,47.9,48.9,2.629,2.725,2.602,2.678,6.61,341.4,23.3,71.4,1014.64,-26.62,-0.56,1.4,19.7,30.1,26.6,0,no_anomaly,0.0,0,0,0,0,17.38499,78.4867321,19.5,0.0
2024-04-02T09:32:07.600Z,MISSION_0044,76,0,transit,SITE_HYD_005,17.3849947,78.4867325,20.0,269.54,1.866,0.104,3.67,-0.4676,-2.9257,269.5442,-0.70398,0.021,0.01508,0.70975,0.0976,0.041,-9.7633,0.0069,-0.1632,-0.3409,0.2593,3,20,0.79,1.02,0.34,24.603,18.99,91.9,31.2,20209.0,8571,8558,8296,8237,51.2,49.6,49.5,50.6,2.792,2.775,2.589,2.986,8.05,337.2,23.1,71.5,1014.7,-26.1,0.32,1.38,19.2,34.9,25.6,0,no_anomaly,0.0,0,0,0,0,17.3849947,78.4867325,20.0,0.0
2024-04-02T09:32:07.700Z,MISSION_0044,77,0,transit,SITE_HYD_005,17.3849953,78.4867344,20.5,268.41,1.904,0.036,3.86,-5.2874,-0.3319,268.4115,-0.6964,0.03423,-0.03105,0.71617,0.0059,0.063,-9.7577,0.0496,0.4656,0.0772,0.2849,3,13,0.51,0.86,0.2,24.678,18.15,91.8,31.7,20192.0,8329,8371,8395,8351,52.3,47.8,45.7,51.2,2.504,2.987,2.799,2.741,7.28,337.1,23.1,71.2,1014.56,-25.33,-2.29,1.05,18.7,27.4,23.6,0,no_anomaly,0.0,0,0,0,0,17.3849953,78.4867344,20.5,0.0
2024-04-02T09:32:07.800Z,MISSION_0044,78,0,transit,SITE_HYD_005,17.3849956,78.4867405,21.0,268.09,1.885,0.102,4.53,-5.9213,-4.7779,268.0882,-0.69213,0.0658,-0.00815,0.71872,0.3378,-0.0226,-9.7815,0.6041,-0.3199,0.1259,0.1735,3,20,0.83,0.7,0.24,24.649,14.23,91.7,30.6,20176.0,8374,8341,8550,8129,47.8,49.6,43.9,49.7,2.652,2.848,2.974,2.859,7.31,340.4,23.1,71.3,1014.81,-27.74,-0.14,1.76,17.8,31.5,26.0,0,no_anomaly,0.0,0,0,0,0,17.3849956,78.4867405,21.0,0.0
2024-04-02T09:32:07.900Z,MISSION_0044,79,0,transit,SITE_HYD_005,17.3849968,78.4867436,21.5,266.75,1.67,0.115,4.87,-2.7621,-2.7305,266.7499,-0.68596,0.03386,-0.00116,0.72685,0.1212,-0.023,-9.9165,-0.6976,-0.3518,-0.0858,0.2532,3,17,0.61,0.93,0.2,24.56,19.02,91.6,31.2,20159.0,8369,8499,8290,8324,45.8,47.4,48.2,43.8,2.716,2.819,2.998,2.779,6.42,338.0,22.9,72.0,1014.83,-33.4,0.84,1.48,19.8,36.2,26.0,0,no_anomaly,0.0,0,0,0,0,17.3849968,78.4867436,21.5,0.0
2024-04-02T09:32:08.000Z,MISSION_0044,80,0,transit,SITE_HYD_005,17.3849951,78.4867449,22.0,265.15,1.882,0.067,5.03,0.5115,-3.2607,265.1519,-0.67638,0.01793,0.02253,0.73599,0.1349,0.0209,-9.7982,0.3555,-0.1679,-0.1241,0.2902,3,18,0.66,0.92,0.2,24.641,21.96,91.6,31.3,20143.0,8253,8301,8258,8327,48.9,47.1,46.3,45.7,2.679,2.756,2.729,2.568,7.15,334.7,23.4,71.9,1015.42,-29.55,-0.86,1.58,16.5,29.0,26.5,0,no_anomaly,0.0,0,0,0,0,17.3849951,78.4867449,22.0,0.0
2024-04-02T09:32:08.100Z,MISSION_0044,81,0,transit,SITE_HYD_005,17.3849976,78.4867459,22.5,267.39,2.263,0.12,5.11,-4.829,-1.1376,267.3913,-0.68988,0.03627,-0.02361,0.72263,0.0035,-0.0755,-9.7608,0.2177,0.3164,-0.2217,0.1835,3,14,0.67,0.6,0.21,24.624,18.67,91.5,31.4,20126.0,8476,8293,8449,8510,50.6,49.1,46.3,48.0,2.667,2.687,2.722,2.877,6.9,345.3,23.1,72.1,1015.08,-29.45,1.1,1.58,18.7,28.9,26.8,0,no_anomaly,0.0,0,0,0,0,17.3849976,78.4867459,22.5,0.0
2024-04-02T09:32:08.200Z,MISSION_0044,82,0,transit,SITE_HYD_005,17.3849959,78.4867487,23.0,268.84,2.683,0.119,5.44,-1.4792,-1.5261,268.8419,-0.69968,0.01854,0.0001,0.71421,0.0022,-0.0135,-9.7618,-0.119,-0.1828,-0.291,0.1971,3,13,0.69,0.78,0.2,24.539,17.82,91.4,31.6,20110.0,8302,8569,8380,8537,51.7,48.1,49.8,49.3,2.971,2.83,2.65,2.749,6.63,344.4,23.2,71.4,1014.78,-29.93,-0.47,1.88,19.6,35.9,24.1,0,no_anomaly,0.0,0,0,0,0,17.3849959,78.4867487,23.0,0.0
2024-04-02T09:32:08.300Z,MISSION_0044,83,0,transit,SITE_HYD_005,17.3849919,78.4867538,23.5,270.6,2.919,0.082,6.06,-3.4805,-1.8914,270.5971,-0.71,0.03319,-0.00963,0.70335,-0.0317,0.0504,-9.7929,-0.176,0.4436,0.163,0.3708,3,11,0.79,0.84,0.2,24.584,18.97,91.3,31.1,20093.0,8399,8284,8482,8490,49.4,47.4,49.1,51.1,3.112,2.918,2.627,2.804,5.67,351.4,23.2,71.2,1014.89,-27.07,-0.3,1.79,14.3,31.8,24.4,0,no_anomaly,0.0,0,0,0,0,17.3849919,78.4867538,23.5,0.0
2024-04-02T09:32:08.400Z,MISSION_0044,84,0,transit,SITE_HYD_005,17.3849909,78.4867591,24.0,270.37,2.937,0.067,6.66,6.3446,-2.6308,270.3744,-0.70903,-0.02309,0.05525,0.70263,0.2711,0.0427,-9.7859,-0.2002,-0.146,0.1147,0.2478,3,13,0.64,0.86,0.25,24.58,25.06,91.3,30.7,20077.0,8578,8297,8792,8446,49.6,50.0,50.3,49.4,2.889,2.795,2.54,2.997,6.76,346.6,22.9,72.0,1014.87,-31.26,-0.91,1.6,18.5,29.3,21.3,0,no_anomaly,0.0,0,0,0,0,17.3849909,78.4867591,24.0,0.0
2024-04-02T09:32:08.500Z,MISSION_0044,85,0,transit,SITE_HYD_005,17.3849874,78.4867578,24.0,270.49,2.881,0.091,6.59,2.4639,-3.1232,270.4931,-0.71013,0.00392,0.03448,0.70322,-0.1075,0.0676,-9.7393,-0.0339,0.5047,-0.1701,0.2062,3,13,0.58,0.93,0.2,24.672,18.05,91.2,31.7,20060.0,8620,8371,8529,8509,48.3,46.9,47.5,49.2,2.982,2.946,2.578,3.051,6.59,340.8,22.9,71.3,1014.44,-27.42,-0.81,1.64,17.9,31.3,26.7,0,no_anomaly,0.0,0,0,0,0,17.3849874,78.4867578,24.0,0.0
2024-04-02T09:32:08.600Z,MISSION_0044,86,0,transit,SITE_HYD_005,17.3849918,78.4867593,24.0,269.99,2.97,0.039,6.66,-4.6055,-0.8888,269.9904,-0.70623,0.03389,-0.02293,0.70679,0.0185,0.0428,-9.7647,0.8368,-0.0778,-0.1943,0.2534,3,17,0.62,1.21,0.46,24.448,16.47,91.1,31.1,20044.0,8169,8576,8391,8012,50.1,46.1,51.1,49.2,2.64,3.039,2.724,2.807,7.5,346.4,23.0,71.8,1014.81,-27.85,-1.18,1.52,22.0,35.7,26.7,0,no_anomaly,0.0,0,0,0,0,17.3849918,78.4867593,24.0,0.0
2024-04-02T09:32:08.700Z,MISSION_0044,87,0,transit,SITE_HYD_005,17.384995,78.4867627,24.0,268.7,3.052,0.169,7.0,-0.1098,-1.5314,268.6967,-0.69895,0.01023,0.00866,0.71505,-0.1243,-0.0528,-9.7162,-0.8345,0.3876,0.1734,0.2803,3,15,0.57,0.77,0.2,24.561,26.94,91.0,31.2,20027.0,8348,8652,8473,8509,47.1,48.6,49.4,50.6,2.892,2.971,2.786,3.05,7.25,338.6,23.0,71.8,1014.67,-33.58,-0.13,1.66,20.5,36.1,25.2,0,no_anomaly,0.0,0,0,0,0,17.384995,78.4867627,24.0,0.0
2024-04-02T09:32:08.800Z,MISSION_0044,88,0,transit,SITE_HYD_005,17.3850023,78.4867596,24.0,268.95,3.207,0.097,6.64,-3.8568,-2.8372,268.9469,-0.69937,0.04122,-0.00667,0.71354,0.0314,0.0321,-9.8057,0.4769,-0.3667,0.6108,0.1993,3,16,0.7,0.87,0.29,24.568,15.15,91.0,31.5,20011.0,8560,8484,8616,8319,47.5,46.0,49.0,47.6,2.898,2.99,2.836,2.63,7.04,346.3,23.1,72.0,1015.12,-31.64,-1.04,1.36,18.4,34.9,21.9,0,no_anomaly,0.0,0,0,0,0,17.3850023,78.4867596,24.0,0.0
2024-04-02T09:32:08.900Z,MISSION_0044,89,0,transit,SITE_HYD_005,17.3850056,78.486769,24.0,268.88,3.198,0.17,7.71,-3.9481,-1.1524,268.8806,-0.69947,0.03129,-0.01756,0.71376,0.0528,-0.0453,-9.8243,0.2906,0.538,0.1662,0.2475,3,20,0.73,0.79,0.36,24.639,24.95,90.9,31.3,19994.0,8310,8352,8466,8298,47.7,47.7,49.8,50.2,2.849,2.715,2.747,2.706,6.75,343.3,23.1,72.4,1015.0,-29.58,-1.03,1.61,16.9,30.9,26.4,0,no_anomaly,0.0,0,0,0,0,17.3850056,78.486769,24.0,0.0
2024-04-02T09:32:09.000Z,MISSION_0044,90,0,transit,SITE_HYD_005,17.3850032,78.4867707,24.0,266.88,3.384,-0.014,7.88,4.5048,-1.5931,266.8757,-0.68737,-0.01693,0.03809,0.72511,0.0113,0.0211,-9.8045,0.265,0.0026,0.2877,0.2565,3,11,0.67,1.01,0.2,24.496,20.97,90.8,31.9,19977.0,8159,8366,8435,8408,48.6,48.5,45.1,48.7,2.787,2.954,2.86,2.854,6.96,337.1,23.3,72.2,1014.87,-26.87,-0.05,1.46,17.0,31.7,26.7,0,no_anomaly,0.0,0,0,0,0,17.3850032,78.4867707,24.0,0.0
2024-04-02T09:32:09.100Z,MISSION_0044,91,0,transit,SITE_HYD_005,17.3849996,78.4867688,24.0,268.3,3.703,0.057,7.65,-0.1221,0.0575,268.3016,-0.69655,0.00038,-0.00111,0.71751,0.0939,-0.0058,-9.7896,0.7557,0.264,0.2116,0.1601,3,18,0.73,0.87,0.36,24.555,20.78,90.7,30.4,19961.0,8467,8610,8688,8564,46.6,45.0,49.9,49.1,2.961,3.041,2.833,2.89,6.38,337.9,22.7,71.6,1014.81,-28.27,1.73,1.56,15.5,33.8,27.4,0,no_anomaly,0.0,0,0,0,0,17.3849996,78.4867688,24.0,0.0
2024-04-02T09:32:09.200Z,MISSION_0044,92,0,transit,SITE_HYD_005,17.3850022,78.4867644,24.0,269.08,3.777,0.072,7.18,-0.2156,-1.7466,269.0772,-0.70129,0.01218,0.00935,0.71271,-0.2439,-0.0209,-9.8007,-0.0301,-0.5218,0.0792,0.2257,3,16,0.75,0.88,0.31,24.582,23.04,90.7,30.9,19944.0,8524,8398,8387,8461,49.3,48.7,44.9,49.2,2.852,2.848,2.539,2.839,7.36,343.5,22.8,71.3,1014.66,-28.44,2.08,1.51,18.1,28.1,24.1,0,no_anomaly,0.0,0,0,0,0,17.3850022,78.4867644,24.0,0.0
2024-04-02T09:32:09.300Z,MISSION_0044,93,0,transit,SITE_HYD_005,17.3849975,78.4867584,24.0,269.67,3.83,0.072,6.51,-0.3007,-2.0905,269.6743,-0.70494,0.01479,0.011,0.70903,-0.2324,0.0342,-9.9052,0.0367,0.3244,-0.1033,0.2943,3,16,0.54,0.9,0.2,24.572,21.11,90.6,31.1,19928.0,8353,7946,8659,8675,51.6,48.6,46.0,49.5,2.521,2.69,2.841,2.881,6.59,345.4,22.9,71.1,1015.17,-34.12,1.01,1.41,22.6,36.2,25.9,0,no_anomaly,0.0,0,0,0,0,17.3849975,78.4867584,24.0,0.0
2024-04-02T09:32:09.400Z,MISSION_0044,94,1,transit,SITE_HYD_005,17.3849949,78.4867581,24.0,269.01,4.193,0.026,6.49,-2.854,-4.1128,269.0086,-0.69966,0.04303,0.0074,0.71314,-0.153,-0.0898,-9.8871,-0.4969,-0.2539,-0.2997,0.1966,3,17,0.73,0.92,0.32,24.582,21.38,90.5,31.5,19911.0,8388,8597,8455,8477,51.1,50.0,46.6,45.2,2.692,2.705,2.582,2.712,7.23,345.1,23.2,72.0,1015.31,-35.21,-0.37,1.66,20.1,31.3,28.0,0,no_anomaly,0.0,0,0,0,0,17.3849949,78.4867581,24.0,0.0
2024-04-02T09:32:09.500Z,MISSION_0044,95,1,transit,SITE_HYD_005,17.3849976,78.4867568,24.0,269.85,4.095,0.143,6.33,1.2207,-1.0302,269.8515,-0.70619,-0.00116,0.01389,0.70789,-0.0801,-0.058,-9.7893,1.4114,0.1746,0.4933,0.2155,3,16,0.83,1.11,0.38,24.575,18.42,90.4,32.1,19895.0,8167,8570,8372,8501,48.5,47.8,48.6,47.5,2.885,2.891,2.775,2.715,6.85,338.7,23.1,71.5,1015.0,-29.35,-1.56,1.74,17.0,31.4,24.7,0,no_anomaly,0.0,0,0,0,0,17.3849976,78.4867568,24.0,0.0
2024-04-02T09:32:09.600Z,MISSION_0044,96,1,transit,SITE_HYD_005,17.3849937,78.4867585,24.0,267.51,4.118,0.077,6.55,-3.4693,-4.2223,267.5063,-0.68996,0.04752,0.00361,0.72228,0.1312,-0.0375,-9.8399,0.1583,0.2352,0.1908,0.2335,3,19,0.64,0.83,0.29,24.604,23.43,90.4,31.2,19878.0,8436,8449,8597,8585,47.9,49.5,47.8,47.9,2.96,2.727,2.768,2.655,6.03,341.7,23.0,71.3,1014.58,-29.27,-1.53,1.0,19.3,31.6,24.7,0,no_anomaly,0.0,0,0,0,0,17.3849937,78.4867585,24.0,0.0
2024-04-02T09:32:09.700Z,MISSION_0044,97,1,transit,SITE_HYD_005,17.3849907,78.4867584,24.0,266.92,4.58,0.175,6.58,4.9409,-0.1618,266.9222,-0.68727,-0.02863,0.03226,0.72512,-0.3838,0.0048,-9.8209,0.2787,0.0816,-0.5562,0.173,3,11,0.7,0.89,0.25,24.479,17.95,90.3,31.0,19862.0,8415,8534,8290,8363,50.9,49.4,47.5,47.8,2.827,2.763,3.069,2.644,6.74,343.0,23.2,71.5,1014.87,-29.61,0.15,1.41,16.8,34.5,26.1,0,no_anomaly,0.0,0,0,0,0,17.3849907,78.4867584,24.0,0.0
2024-04-02T09:32:09.800Z,MISSION_0044,98,1,transit,SITE_HYD_005,17.3849906,78.4867572,24.0,264.8,4.338,0.064,6.46,-1.2364,-3.2611,264.8029,-0.67378,0.02828,0.01122,0.7383,0.1285,0.0566,-9.8118,0.4388,-0.6541,0.3047,0.1799,3,19,0.78,0.88,0.39,24.452,14.47,90.2,30.9,19845.0,8254,8543,8279,8406,47.0,49.8,46.3,45.1,2.904,2.711,2.747,2.674,6.49,337.8,23.0,71.0,1014.86,-27.33,-0.29,1.78,17.2,33.2,25.7,0,no_anomaly,0.0,0,0,0,0,17.3849906,78.4867572,24.0,0.0
2024-04-02T09:32:09.900Z,MISSION_0044,99,1,transit,SITE_HYD_005,17.3849888,78.4867582,24.0,267.77,4.325,0.097,6.6,-0.457,-3.0524,267.7729,-0.6929,0.02196,0.01559,0.72053,0.2417,-0.0186,-9.7509,0.6465,0.4425,0.121,0.2883,3,18,0.83,0.8,0.3,24.733,19.57,90.1,31.0,19829.0,8564,8411,8560,8216,48.3,44.2,52.7,47.2,2.631,2.715,3.251,2.953,7.47,352.5,23.3,71.9,1015.14,-29.52,-0.05,1.96,16.1,35.1,25.5,0,no_anomaly,0.0,0,0,0,0,17.3849888,78.4867582,24.0,0.0
2024-04-02T09:32:10.000Z,MISSION_0044,100,1,transit,SITE_HYD_005,17.384991,78.4867548,24.0,266.54,4.424,0.055,6.18,2.6889,-3.9298,266.5378,-0.68542,0.00889,0.04057,0.72697,-0.0227,-0.0402,-9.7837,0.529,0.7023,0.0983,0.2739,3,12,0.52,0.82,0.24,24.528,21.3,90.1,30.4,19812.0,8330,8341,8411,8082,51.4,46.5,46.8,45.6,3.016,2.831,2.886,2.982,7.12,337.7,23.1,72.5,1014.8,-33.34,-1.44,1.58,16.8,26.9,23.9,0,no_anomaly,0.0,0,0,0,0,17.384991,78.4867548,24.0,0.0
2024-04-02T09:32:10.100Z,MISSION_0044,101,1,transit,SITE_HYD_005,17.3849886,78.486755,24.0,264.72,4.568,0.114,6.25,4.5582,-0.3827,264.725,-0.67338,-0.02433,0.03163,0.73822,0.173,0.0048,-9.8649,-1.0202,0.7789,0.3367,0.1466,3,18,0.58,0.86,0.29,24.492,16.87,90.0,31.1,19796.0,8492,8503,8411,8593,48.3,47.9,50.6,48.5,2.747,2.861,2.908,3.039,7.47,337.4,23.0,72.0,1014.9,-30.17,0.64,1.64,19.4,32.2,26.0,0,no_anomaly,0.0,0,0,0,0,17.3849886,78.486755,24.0,0.0
2024-04-02T09:32:10.200Z,MISSION_0044,102,1,transit,SITE_HYD_005,17.3849906,78.4867516,24.0,266.68,3.91,0.128,5.84,-1.6978,-2.8043,266.682,-0.68579,0.02796,0.00602,0.72723,0.0031,0.0016,-9.8091,0.6925,0.1106,0.3433,0.2005,3,19,0.85,0.79,0.46,24.594,17.07,89.9,30.9,19779.0,8569,8475,8432,8457,49.3,48.4,46.9,43.6,2.754,2.661,2.895,2.627,6.59,342.8,22.8,72.0,1014.58,-32.85,0.74,1.43,20.8,35.0,25.2,0,no_anomaly,0.0,0,0,0,0,17.3849906,78.4867516,24.0,0.0
2024-04-02T09:32:10.300Z,MISSION_0044,103,1,transit,SITE_HYD_005,17.3849941,78.4867482,24.0,268.19,3.9,0.075,5.41,-4.0463,0.8738,268.1896,-0.69559,0.01909,-0.03066,0.71753,0.1446,0.032,-9.7772,-0.1524,-0.7558,0.0295,0.1415,3,19,0.54,1.04,0.28,24.541,20.16,89.8,32.4,19763.0,8298,8213,8405,8424,49.1,49.0,49.2,48.7,2.825,2.624,2.978,2.826,6.77,332.2,23.1,71.0,1015.07,-32.89,-0.16,1.44,19.8,35.4,23.4,0,no_anomaly,0.0,0,0,0,0,17.3849941,78.4867482,24.0,0.0
2024-04-02T09:32:10.400Z,MISSION_0044,104,1,transit,SITE_HYD_005,17.384996,78.4867509,24.0,265.97,3.347,0.068,5.68,8.016,-3.4756,265.9685,-0.68137,-0.0255,0.07173,0.72797,0.1718,0.0112,-9.764,0.463,0.2745,0.1857,0.3425,3,13,0.7,0.84,0.2,24.551,15.42,89.8,31.1,19746.0,8322,8563,8373,8371,43.9,46.8,48.4,47.2,2.968,2.613,2.697,2.59,6.93,349.5,23.1,70.9,1014.8,-34.69,0.56,1.81,20.1,35.6,27.0,0,no_anomaly,0.0,0,0,0,0,17.384996,78.4867509,24.0,0.0
2024-04-02T09:32:10.500Z,MISSION_0044,105,1,transit,SITE_HYD_005,17.3850006,78.4867531,24.0,264.38,3.276,0.134,5.91,4.0845,-1.4901,264.3774,-0.67143,-0.0143,0.03513,0.74009,-0.0486,-0.0376,-9.8347,-0.0428,-0.7478,-0.0062,0.2211,3,20,0.72,0.93,0.28,24.589,19.99,89.7,31.6,19730.0,8360,8557,8359,8506,51.5,48.1,48.9,51.8,2.686,2.726,2.673,2.787,6.53,346.5,23.2,71.9,1014.95,-32.13,1.81,1.83,14.5,36.7,23.9,0,no_anomaly,0.0,0,0,0,0,17.3850006,78.4867531,24.0,0.0
2024-04-02T09:32:10.600Z,MISSION_0044,106,1,transit,SITE_HYD_005,17.3849993,78.4867534,24.0,265.68,3.799,0.122,5.94,3.6958,-1.9273,265.6757,-0.67987,-0.0096,0.03507,0.73243,0.1905,-0.0166,-9.7889,0.1003,-0.8157,0.1271,0.2504,3,20,0.77,0.81,0.29,24.546,18.28,89.6,30.7,19713.0,8498,8433,8386,8457,51.0,45.1,48.1,48.0,2.924,2.981,2.986,2.892,6.07,335.9,23.2,71.7,1014.59,-28.72,0.62,1.42,20.0,37.0,23.8,0,no_anomaly,0.0,0,0,0,0,17.3849993,78.4867534,24.0,0.0
2024-04-02T09:32:10.700Z,MISSION_0044,107,1,transit,SITE_HYD_005,17.3849973,78.4867508,24.0,264.25,4.613,0.073,5.66,-2.9723,-3.4214,264.2475,-0.66964,0.03952,0.00079,0.74164,0.0575,-0.0337,-9.7238,-0.2146,-0.1373,-0.2245,0.1948,3,16,0.63,0.66,0.2,24.531,15.07,89.5,31.0,19697.0,8273,8210,8523,8491,45.7,48.3,44.3,48.6,2.68,2.608,2.718,2.796,7.03,340.9,23.0,71.4,1014.74,-28.64,0.87,1.04,17.3,33.4,26.3,0,no_anomaly,0.0,0,0,0,0,17.3849973,78.4867508,24.0,0.0
2024-04-02T09:32:10.800Z,MISSION_0044,108,1,transit,SITE_HYD_005,17.384999,78.4867538,24.0,266.24,4.644,0.185,5.99,0.0594,-0.6416,266.2421,-0.68353,0.00373,0.00421,0.7299,-0.1953,-0.0129,-9.7553,-0.3728,0.4201,-0.437,0.2607,3,10,0.68,0.84,0.24,24.558,24.78,89.5,31.4,19680.0,8064,8373,8226,8514,49.6,46.8,44.8,48.4,2.646,2.874,3.076,2.702,6.67,342.0,23.6,71.2,1014.98,-32.89,0.22,1.45,16.6,36.6,27.5,0,no_anomaly,0.0,0,0,0,0,17.384999,78.4867538,24.0,0.0
2024-04-02T09:32:10.900Z,MISSION_0044,109,1,transit,SITE_HYD_005,17.3850006,78.4867539,24.0,265.83,4.296,0.114,6.0,3.358,-0.215,265.8298,-0.68066,-0.01858,0.02274,0.73201,-0.2489,-0.0809,-9.8642,0.3755,0.1405,0.5733,0.2297,3,20,0.72,0.83,0.43,24.585,16.62,89.4,31.0,19664.0,8486,8499,8491,8548,44.7,48.0,46.2,46.9,2.849,2.606,2.949,2.806,6.75,338.6,22.7,71.2,1015.04,-26.66,0.0,1.65,18.0,35.5,24.9,0,no_anomaly,0.0,0,0,0,0,17.3850006,78.4867539,24.0,0.0
2024-04-02T09:32:11.000Z,MISSION_0044,110,1,transit,SITE_HYD_005,17.3850006,78.4867567,24.0,269.63,4.505,0.082,6.31,-1.8762,2.1685,269.631,-0.70483,-0.00188,-0.02495,0.70894,0.1288,-0.0811,-9.7884,0.3515,0.0762,0.0435,0.175,3,14,0.5,0.94,0.25,24.442,16.53,89.3,31.4,19647.0,8357,8473,8423,8380,52.1,51.4,46.1,49.7,2.714,2.908,2.72,2.989,6.66,340.5,23.1,71.2,1015.14,-27.86,-1.9,1.37,17.2,29.9,28.0,0,no_anomaly,0.0,0,0,0,0,17.3850006,78.4867567,24.0,0.0
2024-04-02T09:32:11.100Z,MISSION_0044,111,1,transit,SITE_HYD_005,17.3850009,78.4867557,24.0,270.05,4.806,0.075,6.2,7.3769,-2.9796,270.0492,-0.70689,-0.02715,0.06381,0.70392,-0.2737,0.0047,-9.8892,-0.649,-0.7012,-0.1545,0.145,3,20,0.67,0.91,0.28,24.502,10.46,89.2,31.1,19631.0,8483,8307,8197,8298,46.7,47.0,48.7,44.2,2.584,2.981,2.848,2.598,7.09,333.8,23.0,71.5,1014.83,-31.38,0.91,1.06,16.1,31.5,26.8,0,no_anomaly,0.0,0,0,0,0,17.3850009,78.4867557,24.0,0.0
2024-04-02T09:32:11.200Z,MISSION_0044,112,1,transit,SITE_HYD_005,17.3850007,78.4867532,24.0,270.59,5.012,0.062,5.92,-0.4943,-0.2407,270.588,-0.71071,0.00454,-0.00154,0.70347,0.1442,0.0615,-9.7512,-1.8405,0.3265,-0.0895,0.2195,3,14,0.74,0.96,0.35,24.58,21.87,89.2,31.5,19614.0,8417,8375,8379,8143,48.6,48.2,47.3,48.8,3.005,2.615,2.659,2.941,7.12,342.2,23.1,71.3,1014.93,-29.06,0.0,1.12,19.5,29.8,28.2,0,no_anomaly,0.0,0,0,0,0,17.3850007,78.4867532,24.0,0.0
2024-04-02T09:32:11.300Z,MISSION_0044,113,1,orbit_base,SITE_HYD_005,17.3849225,78.4866803,24.3,270.15,4.498,0.108,8.91,-1.2579,1.2621,270.1467,-0.70801,-1e-05,-0.01555,0.70603,0.2639,0.0105,-9.7253,0.0172,-0.5817,0.2709,0.1549,3,14,0.75,0.76,0.36,24.591,19.02,89.1,31.4,19598.0,8304,8271,8456,8543,46.4,51.1,52.8,45.2,2.66,2.847,2.706,2.984,6.92,351.3,23.0,71.4,1014.81,-30.68,-0.6,1.82,18.1,30.3,25.9,0,no_anomaly,0.0,0,0,0,0,17.3849225,78.4866803,24.3,0.0
2024-04-02T09:32:11.400Z,MISSION_0044,114,1,orbit_base,SITE_HYD_005,17.3849231,78.486678,24.6,270.97,3.951,0.131,8.91,-0.7928,-2.4509,270.969,-0.71278,0.01993,0.0104,0.70103,-0.0697,-0.0061,-9.7992,-0.1254,-1.4092,0.6958,0.2998,3,12,0.85,0.85,0.39,24.513,11.73,89.0,31.3,19581.0,8502,8441,8436,8482,49.9,47.3,47.2,48.8,2.888,3.028,2.976,2.579,6.87,344.0,23.3,70.5,1014.99,-27.58,1.29,1.56,17.6,33.8,25.5,0,no_anomaly,0.0,0,0,0,0,17.3849231,78.486678,24.6,0.0
2024-04-02T09:32:11.500Z,MISSION_0044,115,1,orbit_base,SITE_HYD_005,17.3849238,78.4866757,24.9,271.16,3.576,0.135,8.91,-1.677,-2.8667,271.1572,-0.71366,0.02795,0.00762,0.6999,0.1165,-0.1014,-9.7653,-0.3354,-0.0297,0.3858,0.2033,3,18,0.82,0.6,0.49,24.572,17.39,88.9,31.0,19565.0,8441,8462,8685,8237,50.4,50.4,48.1,47.0,2.58,2.735,2.791,2.745,6.17,333.9,23.2,71.1,1014.67,-29.42,0.17,1.75,17.8,36.1,26.8,0,no_anomaly,0.0,0,0,0,0,17.3849238,78.4866757,24.9,0.0
2024-04-02T09:32:11.600Z,MISSION_0044,116,1,orbit_base,SITE_HYD_005,17.3849245,78.4866734,25.2,270.95,3.534,0.196,8.91,-1.3841,0.5957,270.9485,-0.71292,0.00497,-0.01217,0.70112,-0.0343,0.0302,-9.7743,0.6631,1.1347,-0.014,0.26,3,10,0.86,0.81,0.55,24.56,15.93,88.9,30.3,19548.0,8393,8271,8296,8274,48.7,49.5,49.0,48.3,2.783,2.511,2.798,2.908,7.01,346.3,23.1,71.9,1014.92,-27.56,-0.17,1.41,19.3,32.0,25.3,0,no_anomaly,0.0,0,0,0,0,17.3849245,78.4866734,25.2,0.0
2024-04-02T09:32:11.700Z,MISSION_0044,117,1,orbit_base,SITE_HYD_005,17.3849254,78.4866712,25.5,270.55,3.727,0.053,8.91,-2.0317,-1.317,270.5536,-0.71021,0.02068,-0.00431,0.70367,-0.012,-0.001,-9.8147,0.2579,-0.5071,0.6435,0.2458,3,19,0.63,0.99,0.27,24.521,25.07,88.8,31.0,19532.0,8724,8392,8533,8427,47.2,45.4,45.5,46.7,2.754,2.875,3.006,2.857,6.92,343.3,22.9,71.0,1015.14,-34.8,-0.45,1.83,14.5,33.7,23.7,0,no_anomaly,0.0,0,0,0,0,17.3849254,78.4866712,25.5,0.0
2024-04-02T09:32:11.800Z,MISSION_0044,118,1,orbit_base,SITE_HYD_005,17.3849263,78.486669,25.8,269.95,3.667,0.113,8.91,0.3973,-1.0088,269.9477,-0.70677,0.00378,0.00867,0.70738,0.1862,-0.0205,-9.8341,-0.0956,0.2418,0.0006,0.1647,3,18,0.67,0.76,0.31,24.505,16.38,88.7,31.1,19515.0,8365,8280,8373,8471,46.6,47.3,50.7,49.2,2.678,2.624,2.668,2.814,7.11,348.6,23.0,72.4,1014.76,-30.04,-0.78,1.0,14.5,28.9,24.0,0,no_anomaly,0.0,0,0,0,0,17.3849263,78.486669,25.8,0.0
2024-04-02T09:32:11.900Z,MISSION_0044,119,1,orbit_base,SITE_HYD_005,17.3849272,78.4866668,26.1,270.0,4.118,0.066,8.91,-0.8093,-1.4774,269.9963,-0.70694,0.01411,0.00412,0.70712,-0.2639,-0.0166,-9.7636,0.3669,0.0617,-0.5061,0.2139,3,14,0.8,0.82,0.25,24.568,18.77,88.6,31.8,19499.0,8457,8192,8554,8394,46.7,48.6,46.4,51.2,2.77,2.744,2.663,2.886,7.21,338.5,23.2,71.6,1014.94,-27.97,0.07,1.67,19.4,31.8,26.5,0,no_anomaly,0.0,0,0,0,0,17.3849272,78.4866668,26.1,0.0
2024-04-02T09:32:12.000Z,MISSION_0044,120,1,orbit_base,SITE_HYD_005,17.3849283,78.4866646,26.4,269.46,3.956,0.026,8.91,0.3547,-1.4553,269.4599,-0.70373,0.00684,0.01114,0.71034,-0.0496,-0.0362,-9.8569,-0.0017,0.2894,-0.0075,0.2671,3,16,0.71,1.16,0.29,24.498,19.54,88.6,32.0,19482.0,8306,8441,8493,8522,47.8,45.9,47.7,48.6,2.947,2.432,2.745,2.723,6.23,333.7,23.1,71.0,1014.73,-31.02,1.41,1.35,18.0,29.8,27.2,0,no_anomaly,0.0,0,0,0,0,17.3849283,78.4866646,26.4,0.0
2024-04-02T09:32:12.100Z,MISSION_0044,121,1,orbit_base,SITE_HYD_005,17.3849294,78.4866625,26.7,268.18,4.087,0.079,8.91,1.1785,-2.2973,268.1813,-0.69577,0.00724,0.02133,0.71791,-0.4154,0.0704,-9.8253,0.5692,-0.2814,-0.0184,0.1682,3,14,0.59,1.1,0.21,24.561,20.28,88.5,32.7,19466.0,8236,8771,8565,8487,45.7,47.6,47.0,46.2,2.932,2.515,2.891,2.92,7.03,336.8,23.0,71.4,1014.72,-28.17,-0.53,1.7,15.2,31.4,26.4,0,no_anomaly,0.0,0,0,0,0,17.3849294,78.4866625,26.7,0.0
2024-04-02T09:32:12.200Z,MISSION_0044,122,1,orbit_base,SITE_HYD_005,17.3849305,78.4866604,27.0,269.33,4.211,0.086,8.91,-2.5403,1.873,269.3347,-0.70298,0.00396,-0.02725,0.71068,0.1017,-0.0172,-9.7919,0.0333,0.6034,0.0098,0.2483,3,17,0.78,0.78,0.26,24.437,24.04,88.4,32.1,19449.0,8272,8281,8714,8479,48.1,44.5,48.8,47.3,2.688,2.658,2.607,2.82,6.31,339.2,23.2,72.1,1015.04,-28.76,1.18,1.61,14.8,27.4,25.7,0,no_anomaly,0.0,0,0,0,0,17.3849305,78.4866604,27.0,0.0
2024-04-02T09:32:12.300Z,MISSION_0044,123,1,orbit_base,SITE_HYD_005,17.3849317,78.4866583,27.3,270.82,4.259,0.091,8.91,7.4098,-0.8745,270.8182,-0.71097,-0.04067,0.05079,0.7002,0.1612,-0.0111,-9.8741,-0.4726,-0.1983,0.0749,0.2814,3,13,0.6,0.9,0.2,24.482,15.71,88.3,32.4,19433.0,8662,8228,8226,8376,50.8,48.8,50.9,48.4,2.615,2.864,2.805,2.814,6.86,339.6,23.4,72.3,1014.99,-33.13,-0.35,1.48,18.2,34.8,23.6,0,no_anomaly,0.0,0,0,0,0,17.3849317,78.4866583,27.3,0.0
2024-04-02T09:32:12.400Z,MISSION_0044,124,1,orbit_base,SITE_HYD_005,17.384933,78.4866563,27.6,270.59,3.996,0.07,8.91,-1.0414,-1.9233,270.586,-0.71048,0.01826,0.00554,0.70346,0.0122,-0.0217,-9.8372,-0.1201,0.3396,0.0521,0.2743,3,15,0.62,0.74,0.25,24.423,17.03,88.3,31.8,19416.0,8411,8463,8036,8550,48.9,48.1,48.5,51.7,2.618,2.986,2.704,3.082,7.56,343.7,23.0,72.0,1015.06,-31.71,-1.06,1.92,16.3,32.7,26.4,0,no_anomaly,0.0,0,0,0,0,17.384933,78.4866563,27.6,0.0
2024-04-02T09:32:12.500Z,MISSION_0044,125,1,orbit_base,SITE_HYD_005,17.3849344,78.4866543,27.9,270.53,4.143,0.099,8.91,-0.5946,-1.7672,270.5342,-0.71025,0.01454,0.0073,0.70377,0.0407,0.0578,-9.8028,0.1113,0.2436,0.0566,0.1844,3,17,0.62,0.8,0.33,24.529,22.18,88.2,31.9,19400.0,8310,8463,8686,8628,46.5,45.4,49.0,44.7,2.761,3.128,2.993,2.542,6.89,346.7,23.0,71.8,1014.84,-28.85,1.39,1.93,16.3,34.1,24.2,0,no_anomaly,0.0,0,0,0,0,17.3849344,78.4866543,27.9,0.0
2024-04-02T09:32:12.600Z,MISSION_0044,126,1,orbit_base,SITE_HYD_005,17.3849358,78.4866523,28.2,270.66,4.185,0.108,8.91,1.5794,-2.039,270.6589,-0.71115,0.00271,0.02234,0.70268,-0.0425,0.0342,-9.7397,0.4596,0.2835,-0.1322,0.2347,3,20,0.68,1.26,0.27,24.529,21.72,88.1,31.9,19383.0,8496,8191,8431,8529,44.4,49.0,45.6,49.0,2.897,2.862,2.919,2.887,7.5,341.1,22.8,71.4,1014.38,-29.68,-2.45,1.39,20.1,37.8,27.5,0,no_anomaly,0.0,0,0,0,0,17.3849358,78.4866523,28.2,0.0
2024-04-02T09:32:12.700Z,MISSION_0044,127,1,orbit_base,SITE_HYD_005,17.3849372,78.4866504,28.5,269.23,3.722,0.028,8.91,-0.6492,-2.2531,269.2307,-0.70212,0.01797,0.00978,0.71177,-0.1052,-0.0865,-9.7861,-0.6828,0.4913,-0.4546,0.2532,3,17,0.73,0.93,0.36,24.474,22.42,88.0,30.8,19367.0,8523,8582,8453,8512,48.7,47.0,48.2,48.7,2.838,2.539,2.519,2.918,7.18,347.3,23.4,71.5,1014.95,-24.22,0.02,1.74,15.0,27.0,22.2,0,no_anomaly,0.0,0,0,0,0,17.3849372,78.4866504,28.5,0.0
2024-04-02T09:32:12.800Z,MISSION_0044,128,1,orbit_base,SITE_HYD_005,17.3849387,78.4866486,28.8,267.63,3.68,0.081,8.91,-0.0648,-1.6318,267.6338,-0.69228,0.01067,0.00945,0.72149,-0.2072,0.1072,-9.8257,0.1741,0.2796,0.314,0.3118,3,14,0.58,0.93,0.2,24.44,18.72,88.0,31.6,19350.0,8388,8298,8361,8483,48.7,49.8,49.8,49.2,2.609,2.801,2.823,2.405,6.94,340.7,23.0,71.2,1015.08,-32.35,1.2,1.0,20.0,36.8,24.9,0,no_anomaly,0.0,0,0,0,0,17.3849387,78.4866486,28.8,0.0
2024-04-02T09:32:12.900Z,MISSION_0044,129,1,orbit_base,SITE_HYD_005,17.3849403,78.4866467,29.1,266.93,3.587,0.107,8.91,-0.3005,-2.907,266.9299,-0.68764,0.02021,0.01555,0.72561,0.2787,-0.0356,-9.7952,-0.3764,-0.5253,-0.2904,0.223,3,13,0.66,0.93,0.35,24.585,20.13,87.9,31.7,19334.0,8375,8337,8487,8530,45.7,45.5,48.8,51.2,2.753,2.84,2.641,2.694,6.29,342.0,23.3,70.7,1015.15,-31.57,0.17,1.71,17.4,38.5,27.9,0,no_anomaly,0.0,0,0,0,0,17.3849403,78.4866467,29.1,0.0
