timestamp_utc,mission_id,frame_id,waypoint_id,inspection_phase,site_id,latitude_deg,longitude_deg,altitude_m,heading_deg,ground_speed_ms,vertical_speed_ms,distance_to_tower_m,roll_deg,pitch_deg,yaw_deg,quat_w,quat_x,quat_y,quat_z,accel_x_ms2,accel_y_ms2,accel_z_ms2,gyro_x_rads,gyro_y_rads,gyro_z_rads,vibration_level,gps_fix_type,gps_satellite_count,gps_hdop,gps_vdop,position_error_m,battery_voltage_v,battery_current_a,battery_remaining_pct,battery_temp_c,battery_capacity_mah,motor_fl_rpm,motor_fr_rpm,motor_rl_rpm,motor_rr_rpm,motor_fl_temp_c,motor_fr_temp_c,motor_rl_temp_c,motor_rr_temp_c,motor_fl_thrust_n,motor_fr_thrust_n,motor_rl_thrust_n,motor_rr_thrust_n,wind_speed_ms,wind_dir_deg,air_temp_c,humidity_pct,pressure_hpa,gimbal_pitch_deg,gimbal_roll_deg,zoom_factor,ir_temp_min_c,ir_temp_max_c,ir_temp_avg_c,anomaly_detected,anomaly_class,anomaly_confidence,anomaly_bbox_x,anomaly_bbox_y,anomaly_bbox_w,anomaly_bbox_h,anomaly_gps_lat,anomaly_gps_lon,anomaly_gps_alt_m,ir_temp_delta_c
2024-03-06T09:07:00.000Z,MISSION_0026,0,0,takeoff,SITE_PUN_007,18.5203985,73.8567024,1.5,167.74,0.052,0.17,0.32,-2.4629,-2.7944,167.7383,0.10726,0.02194,-0.02397,0.9937,0.0858,-0.108,-9.7617,0.8796,-0.4618,0.0609,0.1427,3,13,0.7,0.64,0.2,24.674,15.62,95.7,38.2,21053.0,7997,8124,8096,8196,53.6,54.7,56.4,52.0,2.921,2.863,2.887,2.685,5.17,69.4,29.6,48.7,1015.19,-34.01,0.28,1.69,25.8,44.8,33.9,0,no_anomaly,0.0,0,0,0,0,18.5203985,73.8567024,1.5,0.0
2024-03-06T09:07:00.100Z,MISSION_0026,1,0,takeoff,SITE_PUN_007,18.520395,73.8567014,3.0,169.99,0.0,0.118,0.58,1.3697,-2.1547,169.9921,0.08698,0.01977,0.01026,0.99596,0.0874,0.0126,-9.8102,1.1373,-0.7193,0.5785,0.251,3,11,0.77,0.9,0.25,24.734,18.53,95.6,38.2,21035.0,8155,7916,7931,8038,54.9,59.3,55.3,56.3,2.944,2.765,2.854,2.753,4.21,66.0,29.5,48.4,1015.02,-30.29,0.19,1.49,20.9,36.6,32.7,0,no_anomaly,0.0,0,0,0,0,18.520395,73.8567014,3.0,0.0
2024-03-06T09:07:00.200Z,MISSION_0026,2,0,takeoff,SITE_PUN_007,18.5203905,73.8567034,4.5,170.96,0.0,0.142,1.12,0.5172,-2.5313,170.9645,0.07865,0.02237,0.00276,0.99665,-0.0341,0.1046,-9.7943,-0.2142,0.0701,-0.2912,0.152,3,18,0.65,0.89,0.2,24.621,18.96,95.5,37.3,21017.0,7998,8361,8322,7902,53.3,52.5,54.2,56.0,2.655,2.661,2.874,3.217,3.86,73.6,29.3,48.6,1014.99,-34.68,1.31,1.36,24.4,33.2,30.1,0,no_anomaly,0.0,0,0,0,0,18.5203905,73.8567034,4.5,0.0
2024-03-06T09:07:00.300Z,MISSION_0026,3,0,takeoff,SITE_PUN_007,18.5203909,73.8566993,5.0,172.31,0.0,0.057,1.01,-0.7841,-2.3237,172.3065,0.06721,0.01977,-0.00819,0.99751,-0.3258,-0.0801,-9.8211,0.3101,-0.569,0.0163,0.31,3,18,0.74,0.91,0.36,24.7,12.71,95.5,37.7,20999.0,8534,8089,8225,8203,54.2,55.5,51.5,53.5,2.905,2.717,2.896,2.816,4.17,73.8,29.4,48.6,1015.26,-31.68,-1.48,1.44,22.4,39.0,31.6,0,no_anomaly,0.0,0,0,0,0,18.5203909,73.8566993,5.0,0.0
2024-03-06T09:07:00.400Z,MISSION_0026,4,0,takeoff,SITE_PUN_007,18.5203912,73.8566977,5.0,172.03,0.0,0.082,1.02,-8.0722,-1.4192,172.0315,0.07017,0.00743,-0.07107,0.99497,0.1021,-0.0347,-9.8567,0.5524,0.3077,0.0984,0.2022,3,18,0.7,0.89,0.34,24.712,18.6,95.4,37.3,20982.0,8170,7951,8568,8346,54.9,56.3,56.1,49.6,2.851,2.853,2.378,2.846,4.88,53.7,29.9,48.8,1015.25,-33.04,-0.95,1.7,25.3,42.7,33.9,0,no_anomaly,0.0,0,0,0,0,18.5203912,73.8566977,5.0,0.0
2024-03-06T09:07:00.500Z,MISSION_0026,5,0,takeoff,SITE_PUN_007,18.5203938,73.8567004,5.0,173.07,0.199,0.063,0.69,-6.3899,-4.9087,173.065,0.06271,0.03931,-0.05817,0.99556,-0.1206,-0.0181,-9.8065,-0.4644,-0.4198,0.017,0.223,3,18,0.73,0.97,0.24,24.669,15.94,95.3,38.0,20964.0,8078,8286,8215,8128,54.7,54.8,52.8,55.5,2.796,2.641,3.098,2.707,4.23,63.0,29.7,50.0,1014.98,-32.65,0.15,1.64,24.5,41.0,30.3,0,no_anomaly,0.0,0,0,0,0,18.5203938,73.8567004,5.0,0.0
2024-03-06T09:07:00.600Z,MISSION_0026,6,0,takeoff,SITE_PUN_007,18.5203947,73.856696,5.0,172.48,0.379,0.096,0.74,1.3743,-0.3643,172.4778,0.06555,0.00396,0.01176,0.99777,-0.0799,-0.0113,-9.7715,0.6894,-0.2931,0.1774,0.2521,3,11,0.63,0.88,0.21,24.665,18.46,95.2,37.4,20946.0,8211,7981,8188,8327,52.1,56.5,50.1,53.6,2.743,2.863,2.733,2.832,4.9,62.9,29.6,48.6,1015.13,-32.76,0.03,1.38,26.0,40.6,33.5,0,no_anomaly,0.0,0,0,0,0,18.5203947,73.856696,5.0,0.0
2024-03-06T09:07:00.700Z,MISSION_0026,7,0,takeoff,SITE_PUN_007,18.5203962,73.856696,5.0,171.72,0.592,0.164,0.61,5.8141,-3.2832,171.7225,0.0706,0.03219,0.0485,0.9958,0.1382,-0.011,-9.8155,-0.7349,-0.5577,0.0311,0.2481,3,11,0.56,0.8,0.2,24.717,17.18,95.1,37.8,20928.0,8174,8119,8175,8197,57.6,58.2,54.9,54.7,3.11,2.745,2.739,2.632,4.29,74.4,29.2,49.1,1014.89,-26.32,-0.73,1.51,22.5,38.9,29.8,0,no_anomaly,0.0,0,0,0,0,18.5203962,73.856696,5.0,0.0
2024-03-06T09:07:00.800Z,MISSION_0026,8,0,takeoff,SITE_PUN_007,18.5203987,73.8566909,5.0,170.1,0.232,0.118,1.02,1.3568,-2.433,170.099,0.08602,0.02217,0.00996,0.996,0.1047,-0.0019,-9.8098,-0.2092,0.4205,0.3798,0.1816,3,10,0.66,0.74,0.31,24.623,14.32,95.0,37.4,20911.0,8359,8132,8254,8138,51.3,52.5,55.7,53.1,2.915,3.03,3.058,3.055,3.62,73.0,29.2,48.6,1014.71,-32.29,-0.33,1.46,23.9,43.0,30.8,0,no_anomaly,0.0,0,0,0,0,18.5203987,73.8566909,5.0,0.0
2024-03-06T09:07:00.900Z,MISSION_0026,9,0,takeoff,SITE_PUN_007,18.5204012,73.8566868,5.0,171.49,0.313,0.081,1.47,1.6518,1.0712,171.4892,0.07433,-0.00825,0.01507,0.99709,0.1351,0.0233,-9.8053,0.1042,-0.1831,-0.1064,0.2568,3,11,0.73,0.82,0.3,24.668,18.47,95.0,36.7,20893.0,8273,8382,8262,8104,54.0,54.3,54.1,51.3,2.821,2.774,2.769,2.639,4.15,73.5,29.2,48.1,1015.0,-32.99,-1.77,1.23,26.8,43.9,34.0,0,no_anomaly,0.0,0,0,0,0,18.5204012,73.8566868,5.0,0.0
2024-03-06T09:07:01.000Z,MISSION_0026,10,0,takeoff,SITE_PUN_007,18.5204018,73.8566885,5.0,170.94,0.286,0.155,1.29,-2.4973,2.0892,170.9403,0.07855,-0.01989,-0.02028,0.99651,-0.1578,-0.0215,-9.8252,-0.2693,0.0424,-0.2975,0.2074,3,13,0.73,1.0,0.31,24.688,20.76,94.9,37.4,20875.0,8171,8531,8150,8202,57.5,55.1,55.3,55.0,2.947,2.952,2.875,2.85,4.66,67.8,29.4,48.9,1014.86,-28.03,-0.66,1.51,21.6,34.6,28.9,0,no_anomaly,0.0,0,0,0,0,18.5204018,73.8566885,5.0,0.0
2024-03-06T09:07:01.100Z,MISSION_0026,11,0,takeoff,SITE_PUN_007,18.5203991,73.8566848,5.0,171.03,0.075,-0.006,1.69,1.6363,-4.4617,171.03,0.07758,0.03992,0.01118,0.99612,-0.109,0.0338,-9.8031,-0.5947,-0.3704,-0.3511,0.2059,3,14,0.74,0.79,0.36,24.685,15.58,94.8,37.8,20857.0,8348,8216,8412,8211,52.1,54.0,51.6,54.2,2.819,2.594,3.063,2.771,4.56,69.1,29.4,49.3,1015.47,-33.11,0.79,1.61,26.7,36.9,32.5,0,no_anomaly,0.0,0,0,0,0,18.5203991,73.8566848,5.0,0.0
2024-03-06T09:07:01.200Z,MISSION_0026,12,0,takeoff,SITE_PUN_007,18.5203987,73.8566822,5.0,172.29,0.19,0.031,1.99,1.8924,-2.2175,172.2939,0.06686,0.02041,0.01517,0.99744,0.1206,-0.011,-9.7991,0.0989,-0.062,-0.0389,0.203,3,19,0.64,0.84,0.2,24.672,16.11,94.7,38.0,20840.0,8224,8115,7974,8427,52.3,52.3,55.4,52.0,2.863,2.658,2.669,2.906,4.55,68.9,29.3,48.7,1014.97,-26.02,0.53,1.24,25.1,42.1,31.9,0,no_anomaly,0.0,0,0,0,0,18.5203987,73.8566822,5.0,0.0
2024-03-06T09:07:01.300Z,MISSION_0026,13,0,takeoff,SITE_PUN_007,18.5204007,73.8566796,5.0,172.71,0.121,0.062,2.27,1.4307,-1.9182,172.7066,0.06338,0.0175,0.01139,0.99777,-0.121,0.0193,-9.7785,0.0065,-0.4424,0.0672,0.1684,3,14,0.73,1.19,0.25,24.688,17.94,94.6,37.4,20822.0,8299,8006,8159,7959,54.6,53.6,56.5,55.0,2.95,2.98,2.683,2.636,3.58,65.5,29.8,49.3,1014.94,-32.42,0.9,1.58,25.1,42.0,29.6,0,no_anomaly,0.0,0,0,0,0,18.5204007,73.8566796,5.0,0.0
2024-03-06T09:07:01.400Z,MISSION_0026,14,0,takeoff,SITE_PUN_007,18.5203983,73.856676,5.0,176.21,0.113,0.187,2.68,2.103,0.1312,176.2138,0.03305,-0.00054,0.01838,0.99928,-0.0171,0.0415,-9.8155,-0.1383,-0.5386,0.2095,0.0524,3,17,0.54,0.83,0.31,24.715,23.23,94.6,37.3,20804.0,8141,7953,8181,7981,52.6,53.3,53.0,54.3,2.918,2.55,2.639,2.528,4.63,75.5,29.4,48.7,1014.68,-32.79,-0.72,1.0,28.4,45.1,32.6,0,no_anomaly,0.0,0,0,0,0,18.5203983,73.856676,5.0,0.0
2024-03-06T09:07:01.500Z,MISSION_0026,15,0,takeoff,SITE_PUN_007,18.5203997,73.8566805,5.0,176.71,0.283,0.084,2.17,0.3269,-2.4409,176.7147,0.0286,0.02137,0.00224,0.99936,0.0588,-0.0221,-9.7719,-0.4991,-0.4668,-0.001,0.1676,3,17,0.65,0.96,0.25,24.58,15.63,94.5,37.0,20786.0,8099,8222,7966,8184,53.6,55.5,53.5,56.3,2.896,2.709,2.582,2.609,5.12,62.6,29.3,48.8,1015.33,-29.6,0.93,1.57,26.3,44.3,33.4,0,no_anomaly,0.0,0,0,0,0,18.5203997,73.8566805,5.0,0.0
2024-03-06T09:07:01.600Z,MISSION_0026,16,0,takeoff,SITE_PUN_007,18.5203982,73.8566767,5.0,174.6,0.238,0.137,2.6,-1.9779,-1.4126,174.5995,0.04731,0.0115,-0.01782,0.99865,0.067,-0.0222,-9.7708,0.4002,-0.4225,0.046,0.253,3,16,0.92,1.07,0.27,24.719,16.34,94.4,36.7,20769.0,8175,8171,8359,7805,56.0,53.2,51.8,49.7,2.836,2.591,3.068,2.983,4.15,70.9,29.5,48.2,1015.2,-31.08,-0.54,1.67,23.5,43.6,33.2,0,no_anomaly,0.0,0,0,0,0,18.5203982,73.8566767,5.0,0.0
2024-03-06T09:07:01.700Z,MISSION_0026,17,0,takeoff,SITE_PUN_007,18.5203999,73.8566794,5.0,177.9,0.565,0.071,2.29,2.0111,-0.3847,177.8953,0.0183,0.00368,0.01748,0.99967,-0.0713,0.0083,-9.7585,0.276,-0.5525,-0.1668,0.117,3,11,0.9,0.87,0.45,24.701,24.46,94.3,38.3,20751.0,8172,8187,8271,8222,55.2,52.3,56.1,51.5,2.755,2.84,2.875,2.784,3.77,69.5,29.4,49.8,1014.97,-30.55,-1.74,1.48,23.3,45.0,32.5,0,no_anomaly,0.0,0,0,0,0,18.5203999,73.8566794,5.0,0.0
2024-03-06T09:07:01.800Z,MISSION_0026,18,0,takeoff,SITE_PUN_007,18.5204013,73.8566801,5.0,177.28,0.275,0.096,2.21,1.3414,-3.2193,177.2762,0.02343,0.02836,0.01103,0.99926,-0.0056,0.0554,-9.7947,0.0527,-0.0751,-0.018,0.0984,3,17,0.64,0.78,0.2,24.601,19.65,94.2,37.7,20733.0,7973,8221,8204,8030,51.0,53.6,52.7,53.6,2.991,2.825,2.873,2.941,4.02,67.8,29.7,49.6,1015.15,-30.17,-1.57,1.17,22.9,40.5,30.7,0,no_anomaly,0.0,0,0,0,0,18.5204013,73.8566801,5.0,0.0
2024-03-06T09:07:01.900Z,MISSION_0026,19,0,takeoff,SITE_PUN_007,18.5203968,73.8566788,5.0,179.85,0.414,0.034,2.39,-1.581,-4.5529,179.847,0.00188,0.0397,-0.01384,0.99911,0.184,-0.0701,-9.8538,-0.4845,-0.2097,-0.462,0.1226,3,11,0.84,1.04,0.31,24.722,16.18,94.2,37.8,20715.0,8454,8057,7987,8027,57.3,55.1,54.4,54.6,2.747,2.789,3.175,2.912,4.3,69.2,29.7,49.0,1014.98,-31.34,-1.31,1.1,27.7,38.9,35.4,0,no_anomaly,0.0,0,0,0,0,18.5203968,73.8566788,5.0,0.0
2024-03-06T09:07:02.000Z,MISSION_0026,20,0,takeoff,SITE_PUN_007,18.5203958,73.8566822,5.0,180.61,0.4,0.134,2.03,0.5059,-4.0515,180.6134,-0.00551,0.03532,0.0046,0.99935,0.3258,-0.0111,-9.8797,0.1352,0.3459,-0.1625,0.1851,3,19,0.8,0.82,0.33,24.652,17.2,94.1,37.6,20698.0,8081,7966,8542,8425,55.4,51.9,54.2,54.1,2.991,2.692,2.879,3.057,4.08,66.1,29.4,48.8,1015.09,-31.33,-0.23,1.64,22.4,37.5,31.0,0,no_anomaly,0.0,0,0,0,0,18.5203958,73.8566822,5.0,0.0
2024-03-06T09:07:02.100Z,MISSION_0026,21,0,takeoff,SITE_PUN_007,18.5203974,73.8566779,5.0,182.12,0.129,0.121,2.47,0.3452,-1.358,182.1166,-0.0185,0.01179,0.00323,0.99975,0.0007,-0.0317,-9.7683,-0.6058,-0.756,-0.0596,0.2921,3,18,0.76,0.83,0.35,24.672,16.38,94.0,37.2,20680.0,8284,8250,8113,8225,52.7,52.7,56.1,56.1,2.908,2.855,2.812,2.98,5.09,72.6,29.7,49.4,1015.13,-25.03,-0.31,1.5,27.8,41.1,31.7,0,no_anomaly,0.0,0,0,0,0,18.5203974,73.8566779,5.0,0.0
2024-03-06T09:07:02.200Z,MISSION_0026,22,0,takeoff,SITE_PUN_007,18.5203959,73.8566733,5.0,182.39,0.688,0.119,3.01,0.2268,1.3,182.3943,-0.02087,-0.01138,0.00174,0.99972,-0.1375,-0.008,-9.7725,-0.0557,-0.1864,0.4953,0.1676,3,17,0.75,0.6,0.32,24.663,16.85,93.9,36.9,20662.0,8176,8013,8128,7847,55.1,54.3,55.7,57.3,2.874,2.852,2.678,2.849,5.23,69.0,29.1,49.0,1014.87,-33.93,1.23,1.49,21.7,37.6,33.6,0,no_anomaly,0.0,0,0,0,0,18.5203959,73.8566733,5.0,0.0
2024-03-06T09:07:02.300Z,MISSION_0026,23,0,takeoff,SITE_PUN_007,18.5203952,73.8566691,5.0,180.61,0.611,0.145,3.48,-5.8577,-0.2471,180.607,-0.00518,0.00242,-0.05108,0.99868,0.1041,0.0094,-9.816,-0.4435,0.8334,-0.3971,0.2003,3,12,0.57,0.84,0.23,24.744,16.01,93.8,37.2,20644.0,8202,8052,8006,8009,52.1,53.1,56.7,52.8,2.524,2.871,2.684,2.644,4.6,62.4,29.4,48.5,1015.01,-31.46,0.58,1.35,23.4,39.8,29.2,0,no_anomaly,0.0,0,0,0,0,18.5203952,73.8566691,5.0,0.0
2024-03-06T09:07:02.400Z,MISSION_0026,24,0,takeoff,SITE_PUN_007,18.5203943,73.8566762,5.0,182.82,0.837,0.126,2.72,-1.1044,-0.3143,182.8228,-0.0246,0.00298,-0.00957,0.99965,0.005,-0.0236,-9.7474,-0.1207,0.4966,0.1081,0.1887,3,19,0.75,1.0,0.2,24.617,19.47,93.8,37.1,20627.0,8094,8150,8308,8010,55.5,53.8,54.7,54.3,2.728,2.883,2.745,2.83,4.22,70.7,29.2,49.1,1015.2,-29.33,-0.42,1.46,22.6,35.4,30.1,0,no_anomaly,0.0,0,0,0,0,18.5203943,73.8566762,5.0,0.0
2024-03-06T09:07:02.500Z,MISSION_0026,25,0,takeoff,SITE_PUN_007,18.5203917,73.8566755,5.0,184.43,1.114,0.144,2.87,-0.21,-1.9342,184.4319,-0.03863,0.01694,-0.00118,0.99911,0.1579,-0.0286,-9.7305,-0.1656,0.4824,0.1846,0.1751,3,11,0.6,0.71,0.23,24.684,26.18,93.7,38.0,20609.0,7961,8425,8083,8367,55.0,55.6,54.1,51.4,2.8,2.806,3.048,2.851,4.32,73.3,29.4,48.5,1015.23,-30.07,-0.1,1.35,23.9,40.9,31.3,0,no_anomaly,0.0,0,0,0,0,18.5203917,73.8566755,5.0,0.0
2024-03-06T09:07:02.600Z,MISSION_0026,26,0,takeoff,SITE_PUN_007,18.5203952,73.8566756,5.0,184.47,0.728,0.117,2.76,-2.1914,-1.5453,184.4668,-0.0387,0.01422,-0.01858,0.99898,-0.1206,0.0031,-9.723,0.0261,-0.0652,-0.0208,0.1313,3,12,0.69,0.79,0.39,24.63,16.39,93.6,37.5,20591.0,7913,8154,8402,8184,54.4,53.3,55.2,56.0,2.845,2.777,3.14,2.96,3.83,69.7,29.4,48.8,1015.21,-35.53,-0.05,1.71,24.6,39.4,31.4,0,no_anomaly,0.0,0,0,0,0,18.5203952,73.8566756,5.0,0.0
2024-03-06T09:07:02.700Z,MISSION_0026,27,0,takeoff,SITE_PUN_007,18.5203982,73.8566787,5.0,184.51,0.242,0.036,2.38,-1.3819,1.1121,184.5138,-0.03949,-0.00922,-0.01243,0.9991,-0.1061,0.0198,-9.818,-1.1849,-0.0728,0.4121,0.1547,3,11,0.73,0.95,0.35,24.629,22.02,93.5,37.6,20574.0,8191,8036,7976,8150,55.6,51.9,54.6,52.0,2.932,2.639,2.671,2.841,4.61,77.5,29.7,48.1,1015.03,-30.61,-2.58,1.75,23.1,44.0,31.3,0,no_anomaly,0.0,0,0,0,0,18.5203982,73.8566787,5.0,0.0
2024-03-06T09:07:02.800Z,MISSION_0026,28,0,takeoff,SITE_PUN_007,18.5204016,73.8566797,5.0,181.58,0.161,0.154,2.27,-4.5582,-1.7324,181.5825,-0.0132,0.01565,-0.03955,0.99901,-0.0077,-0.0348,-9.7629,0.8592,-0.7359,-0.0686,0.2871,3,19,0.5,0.67,0.21,24.635,19.67,93.4,37.6,20556.0,8373,8141,8326,8455,53.5,56.6,53.7,58.3,2.627,2.877,2.679,2.727,5.34,67.1,29.4,48.7,1014.95,-31.44,-0.27,1.39,23.9,37.6,30.6,0,no_anomaly,0.0,0,0,0,0,18.5204016,73.8566797,5.0,0.0
2024-03-06T09:07:02.900Z,MISSION_0026,29,0,takeoff,SITE_PUN_007,18.5204033,73.8566735,5.0,183.49,0.718,0.057,2.98,4.2378,-0.6709,183.4932,-0.03067,0.00472,0.03713,0.99883,0.09,-0.0395,-9.8871,0.7773,-0.0746,-0.2408,0.2161,3,18,0.86,0.99,0.31,24.543,18.95,93.4,37.5,20538.0,8338,8346,8182,8234,54.0,59.2,53.6,55.0,2.595,2.642,2.758,2.349,4.27,62.9,29.3,48.7,1014.83,-33.87,-0.5,1.1,23.5,39.5,29.9,0,no_anomaly,0.0,0,0,0,0,18.5204033,73.8566735,5.0,0.0
2024-03-06T09:07:03.000Z,MISSION_0026,30,0,takeoff,SITE_PUN_007,18.5204052,73.8566747,5.0,183.97,0.812,0.194,2.87,0.2094,-4.5031,183.9666,-0.03465,0.0392,0.00318,0.99863,-0.0142,0.0395,-9.8014,-0.0445,-0.4609,-0.0684,0.1629,3,12,0.77,0.73,0.24,24.745,17.02,93.3,37.7,20520.0,8361,8151,8317,8168,51.3,54.6,55.2,54.5,2.655,2.79,2.675,2.581,4.0,64.2,29.2,49.6,1014.89,-33.36,-2.02,1.51,27.3,41.0,34.0,0,no_anomaly,0.0,0,0,0,0,18.5204052,73.8566747,5.0,0.0
2024-03-06T09:07:03.100Z,MISSION_0026,31,0,takeoff,SITE_PUN_007,18.5204023,73.8566741,5.0,184.41,0.516,0.119,2.89,-2.195,-3.6838,184.4127,-0.03786,0.03285,-0.01789,0.99858,0.0924,-0.0332,-9.8469,0.5364,-0.0645,0.5276,0.184,3,11,0.71,0.6,0.33,24.565,13.77,93.2,37.1,20503.0,8088,8005,8250,8274,54.9,52.8,57.2,52.7,2.782,2.918,2.556,2.888,4.77,71.3,29.3,49.2,1015.38,-29.84,-0.24,1.0,23.6,37.8,31.3,0,no_anomaly,0.0,0,0,0,0,18.5204023,73.8566741,5.0,0.0
2024-03-06T09:07:03.200Z,MISSION_0026,32,0,takeoff,SITE_PUN_007,18.5204039,73.856676,5.0,184.32,0.132,0.147,2.71,-2.3442,-3.5807,184.3169,-0.037,0.03198,-0.01925,0.99862,0.1328,0.0225,-9.8172,1.4479,-0.4876,0.6522,0.0983,3,16,0.72,0.96,0.36,24.674,13.85,93.1,38.4,20485.0,8258,8239,8153,8161,56.0,55.1,53.6,60.7,2.783,3.026,2.886,2.808,4.57,62.9,29.3,48.7,1015.16,-31.21,-0.08,1.51,21.3,37.5,31.5,0,no_anomaly,0.0,0,0,0,0,18.5204039,73.856676,5.0,0.0
2024-03-06T09:07:03.300Z,MISSION_0026,33,0,takeoff,SITE_PUN_007,18.5204041,73.856681,5.0,185.56,0.0,0.099,2.16,1.9142,-3.259,185.555,-0.04891,0.02759,0.01805,0.99826,-0.0049,0.0457,-9.8091,0.1762,0.8255,-0.2472,0.1896,3,12,0.61,0.77,0.2,24.634,20.01,93.0,37.3,20467.0,8079,8280,8266,8372,53.5,54.0,52.0,54.9,3.08,2.598,2.714,2.751,4.77,69.2,29.3,48.3,1014.99,-31.69,0.01,1.37,26.6,38.3,31.0,0,no_anomaly,0.0,0,0,0,0,18.5204041,73.856681,5.0,0.0
2024-03-06T09:07:03.400Z,MISSION_0026,34,0,takeoff,SITE_PUN_007,18.5204064,73.8566829,5.0,186.1,0.0,0.146,2.03,5.0345,-0.2566,186.0955,-0.05321,-0.0001,0.04398,0.99761,0.2736,-0.0743,-9.8667,0.0317,-0.417,-0.1771,0.0715,3,17,0.54,1.12,0.23,24.574,13.99,93.0,37.8,20449.0,8314,8204,8518,8121,53.8,54.8,56.6,54.2,2.922,2.907,2.637,2.633,4.85,68.3,29.3,49.0,1015.19,-27.41,1.09,1.24,22.2,37.8,30.1,0,no_anomaly,0.0,0,0,0,0,18.5204064,73.8566829,5.0,0.0
2024-03-06T09:07:03.500Z,MISSION_0026,35,0,takeoff,SITE_PUN_007,18.5204058,73.8566769,5.0,184.64,0.244,0.083,2.65,3.2407,-2.8792,184.639,-0.04115,0.02395,0.02926,0.99844,0.2501,-0.095,-9.8053,0.5413,-0.2071,0.2576,0.1558,3,15,0.7,0.77,0.22,24.659,13.2,92.9,37.4,20432.0,8250,8176,8005,7995,52.6,49.5,55.6,56.1,2.993,2.557,2.912,2.904,4.47,72.5,29.2,50.1,1014.81,-31.01,-0.1,1.42,27.4,43.9,31.8,0,no_anomaly,0.0,0,0,0,0,18.5204058,73.8566769,5.0,0.0
2024-03-06T09:07:03.600Z,MISSION_0026,36,0,takeoff,SITE_PUN_007,18.5204066,73.856674,5.0,187.58,0.19,0.157,2.98,-4.129,2.0006,187.5835,-0.0667,-0.01503,-0.03709,0.99697,0.0093,0.0545,-9.8093,0.1331,0.0635,-0.1366,0.1204,3,14,0.64,0.76,0.32,24.646,18.46,92.8,37.7,20414.0,8062,8071,8225,8248,53.5,55.4,54.2,54.5,3.069,2.678,2.981,2.855,4.29,64.8,29.6,48.3,1015.13,-30.28,0.2,1.92,27.1,38.6,31.1,0,no_anomaly,0.0,0,0,0,0,18.5204066,73.856674,5.0,0.0
2024-03-06T09:07:03.700Z,MISSION_0026,37,0,takeoff,SITE_PUN_007,18.5204041,73.8566774,5.0,185.49,0.459,0.032,2.55,-3.6676,-4.7613,185.4934,-0.04653,0.043,-0.02995,0.99754,-0.0828,-0.0028,-9.7961,-0.303,0.3419,0.2395,0.1928,3,14,0.74,0.78,0.2,24.708,23.11,92.7,36.4,20396.0,8087,8227,8087,8282,57.3,51.6,52.8,50.7,2.779,2.679,2.714,2.649,4.91,74.4,29.6,48.6,1014.94,-27.96,-0.35,1.0,27.0,39.8,34.4,0,no_anomaly,0.0,0,0,0,0,18.5204041,73.8566774,5.0,0.0
2024-03-06T09:07:03.800Z,MISSION_0026,38,0,takeoff,SITE_PUN_007,18.5204089,73.8566717,5.0,187.31,0.502,0.197,3.3,-0.1763,-2.2318,187.3115,-0.06372,0.01953,-0.00029,0.99778,-0.1076,-0.0363,-9.8565,-0.323,0.0557,-0.3461,0.1739,3,11,0.73,0.88,0.27,24.649,19.01,92.6,37.7,20378.0,8151,8307,8086,8118,57.9,51.0,53.4,54.8,2.72,2.685,2.864,2.745,4.34,60.5,29.5,49.3,1015.0,-28.74,-0.82,1.91,27.1,41.4,30.7,0,no_anomaly,0.0,0,0,0,0,18.5204089,73.8566717,5.0,0.0
2024-03-06T09:07:03.900Z,MISSION_0026,39,0,takeoff,SITE_PUN_007,18.5204116,73.8566714,5.0,186.51,0.509,0.079,3.43,-3.1311,-3.8969,186.5115,-0.05581,0.03548,-0.02533,0.99749,-0.1531,-0.0481,-9.843,0.2152,0.0183,-0.2914,0.1637,3,10,0.63,0.84,0.32,24.67,19.58,92.5,37.2,20361.0,7905,7867,8225,8281,54.3,54.7,51.6,57.6,2.492,2.639,3.025,2.874,4.81,57.9,29.4,49.1,1015.19,-30.03,-0.48,1.34,26.1,44.1,33.0,0,no_anomaly,0.0,0,0,0,0,18.5204116,73.8566714,5.0,0.0
2024-03-06T09:07:04.000Z,MISSION_0026,40,0,takeoff,SITE_PUN_007,18.5204182,73.8566696,5.0,186.87,0.765,0.155,3.94,-0.7945,-3.6364,186.8727,-0.05969,0.03209,-0.00502,0.99769,0.2259,0.0525,-9.7781,0.1556,0.835,-0.4118,0.2406,3,14,0.79,0.98,0.22,24.63,16.06,92.5,38.3,20343.0,8365,8138,8226,8132,55.3,53.4,55.6,57.1,2.948,2.809,2.731,2.854,3.96,67.1,29.3,48.4,1014.91,-32.75,0.77,1.35,24.8,40.4,34.4,0,no_anomaly,0.0,0,0,0,0,18.5204182,73.8566696,5.0,0.0
2024-03-06T09:07:04.100Z,MISSION_0026,41,0,takeoff,SITE_PUN_007,18.5204143,73.8566685,5.0,187.72,0.606,0.094,3.85,-2.0958,-3.4381,187.7168,-0.0667,0.03116,-0.01622,0.99715,-0.0734,0.1031,-9.7366,-0.049,0.1104,-0.2074,0.1835,3,12,0.86,0.91,0.2,24.606,21.09,92.4,37.7,20325.0,8446,8291,8074,8268,58.5,54.7,56.6,57.3,2.606,2.979,2.784,3.018,3.96,69.4,29.3,49.4,1014.9,-30.57,-0.95,1.46,20.3,38.5,32.6,0,no_anomaly,0.0,0,0,0,0,18.5204143,73.8566685,5.0,0.0
2024-03-06T09:07:04.200Z,MISSION_0026,42,0,takeoff,SITE_PUN_007,18.5204157,73.8566709,5.0,188.02,0.676,0.029,3.68,-2.3973,-2.1303,188.0212,-0.06953,0.02,-0.01956,0.99719,0.0497,-0.0591,-9.7724,0.4195,-0.327,-0.6361,0.1863,3,20,0.63,1.04,0.33,24.649,12.74,92.3,37.8,20307.0,8244,8308,8073,8344,54.7,52.3,56.1,49.4,2.766,2.638,2.611,2.766,3.31,71.3,29.2,49.1,1015.32,-29.07,1.12,1.45,21.7,37.0,31.0,0,no_anomaly,0.0,0,0,0,0,18.5204157,73.8566709,5.0,0.0
2024-03-06T09:07:04.300Z,MISSION_0026,43,0,takeoff,SITE_PUN_007,18.5204138,73.8566732,5.0,184.71,1.072,0.164,3.35,2.6389,-3.0317,184.7146,-0.04171,0.02548,0.02409,0.99851,-0.0709,0.0001,-9.8074,0.1032,0.2092,0.0849,0.1005,3,17,0.75,0.9,0.3,24.596,18.94,92.2,37.8,20290.0,8209,8084,8083,8410,56.6,53.2,56.0,54.8,2.802,2.876,3.048,2.861,5.04,74.5,29.4,49.4,1015.21,-26.54,0.44,1.07,22.7,36.1,32.6,0,no_anomaly,0.0,0,0,0,0,18.5204138,73.8566732,5.0,0.0
2024-03-06T09:07:04.400Z,MISSION_0026,44,0,takeoff,SITE_PUN_007,18.5204113,73.8566749,5.0,184.9,0.975,0.065,3.07,-3.7943,-4.5826,184.9003,-0.04137,0.04134,-0.03134,0.9978,-0.1651,0.0335,-9.7776,0.2001,0.3676,0.0906,0.2018,3,19,0.74,0.88,0.35,24.596,25.0,92.1,37.6,20272.0,7933,8210,8039,8208,56.1,54.1,56.3,52.9,2.914,2.831,2.92,2.646,3.19,66.9,29.6,48.3,1015.33,-31.93,0.33,1.36,22.8,34.4,32.6,0,no_anomaly,0.0,0,0,0,0,18.5204113,73.8566749,5.0,0.0
2024-03-06T09:07:04.500Z,MISSION_0026,45,0,takeoff,SITE_PUN_007,18.5204114,73.8566759,5.0,183.25,0.819,0.113,2.97,2.1929,0.5426,183.2477,-0.02824,-0.00527,0.01899,0.99941,0.0782,-0.0758,-9.8591,0.1138,-0.3816,-0.1347,0.1515,3,18,0.76,0.62,0.26,24.605,17.98,92.1,37.3,20254.0,8167,8220,8181,8280,58.8,57.0,56.2,55.3,2.914,3.079,2.938,2.902,4.77,62.9,29.2,48.4,1014.95,-30.95,-0.96,1.4,23.2,36.8,30.6,0,no_anomaly,0.0,0,0,0,0,18.5204114,73.8566759,5.0,0.0
2024-03-06T09:07:04.600Z,MISSION_0026,46,0,takeoff,SITE_PUN_007,18.5204117,73.856678,5.0,182.59,0.819,0.032,2.77,-2.6431,-1.048,182.5872,-0.02236,0.00966,-0.02285,0.99944,0.0643,0.0694,-10.0162,0.3489,-0.2186,0.1067,0.2734,3,13,0.78,1.14,0.37,24.505,14.3,92.0,37.4,20236.0,8265,8085,8239,8510,53.5,49.5,57.9,54.3,2.985,2.81,2.955,3.079,4.55,62.6,29.5,49.1,1014.93,-27.86,0.49,1.54,22.3,39.2,28.7,0,no_anomaly,0.0,0,0,0,0,18.5204117,73.856678,5.0,0.0
2024-03-06T09:07:04.700Z,MISSION_0026,47,0,takeoff,SITE_PUN_007,18.5204107,73.8566792,5.0,184.83,1.259,0.101,2.61,0.4245,-1.3464,184.8277,-0.04216,0.01158,0.0042,0.99904,0.0984,0.0296,-9.8345,0.1858,-0.1968,-0.2229,0.1836,3,20,0.56,0.9,0.2,24.635,22.22,91.9,37.5,20219.0,7877,8151,8236,8000,51.9,54.2,56.3,53.7,2.553,2.825,2.757,2.774,5.61,63.8,29.3,50.0,1014.66,-31.21,0.02,1.0,26.4,37.3,33.4,0,no_anomaly,0.0,0,0,0,0,18.5204107,73.8566792,5.0,0.0
2024-03-06T09:07:04.800Z,MISSION_0026,48,0,takeoff,SITE_PUN_007,18.5204154,73.856678,5.0,181.94,1.039,0.054,2.99,-1.6917,-0.1698,181.9409,-0.01691,0.00173,-0.01474,0.99975,-0.0363,-0.0244,-9.7578,-0.4429,0.3531,-0.1055,0.1426,3,17,0.67,0.65,0.33,24.64,18.57,91.8,36.6,20201.0,8192,8246,8027,8473,53.8,52.0,56.6,57.9,2.783,2.586,2.73,2.739,4.73,69.9,29.1,49.1,1014.66,-27.13,0.32,1.54,26.5,42.0,29.3,0,no_anomaly,0.0,0,0,0,0,18.5204154,73.856678,5.0,0.0
2024-03-06T09:07:04.900Z,MISSION_0026,49,0,takeoff,SITE_PUN_007,18.5204137,73.8566736,5.0,183.9,1.613,0.129,3.31,2.0092,-1.991,183.9028,-0.03435,0.01676,0.01811,0.99911,0.1775,-0.0101,-9.862,-0.3818,0.1837,-0.0198,0.235,3,19,0.8,1.11,0.39,24.567,14.18,91.7,37.2,20183.0,8273,8489,8022,8204,57.0,53.3,52.6,51.5,2.73,2.978,2.945,2.778,5.3,70.9,29.6,49.2,1015.2,-29.01,-0.65,1.07,21.6,38.0,28.6,0,no_anomaly,0.0,0,0,0,0,18.5204137,73.8566736,5.0,0.0
2024-03-06T09:07:05.000Z,MISSION_0026,50,0,transit,SITE_PUN_007,18.5204149,73.8566713,5.5,184.07,1.744,0.092,3.6,-2.2584,-2.0765,184.066,-0.03511,0.0188,-0.01905,0.99903,0.062,0.0334,-9.8456,0.1506,-0.2448,-0.1557,0.2487,3,17,0.67,0.94,0.2,24.593,22.4,91.7,37.1,20165.0,8177,8103,8374,8309,54.6,51.8,55.0,55.9,2.771,2.961,2.423,2.891,5.13,63.9,29.4,49.3,1015.34,-27.62,0.13,1.46,26.4,37.3,34.2,0,no_anomaly,0.0,0,0,0,0,18.5204149,73.8566713,5.5,0.0
2024-03-06T09:07:05.100Z,MISSION_0026,51,0,transit,SITE_PUN_007,18.5204177,73.8566699,6.0,182.91,1.376,0.096,3.89,-4.0114,-1.819,182.9149,-0.02486,0.01675,-0.03458,0.99895,-0.0726,0.0317,-9.6972,-0.4206,0.0972,0.091,0.1792,3,15,0.71,0.99,0.2,24.542,26.9,91.6,37.6,20148.0,8599,8030,8171,8135,54.8,56.2,54.2,53.2,3.095,2.814,2.642,3.061,2.93,74.3,29.5,48.5,1014.89,-32.63,-0.71,1.51,23.6,42.6,33.9,0,no_anomaly,0.0,0,0,0,0,18.5204177,73.8566699,6.0,0.0
2024-03-06T09:07:05.200Z,MISSION_0026,52,0,transit,SITE_PUN_007,18.5204126,73.8566687,6.5,184.75,0.921,0.115,3.76,1.5503,-2.5413,184.746,-0.04169,0.02159,0.01443,0.99879,0.1299,0.002,-9.7981,-0.0167,-0.166,0.3705,0.1283,3,18,0.77,1.04,0.35,24.576,15.77,91.5,37.7,20130.0,8280,8017,8241,8243,56.1,56.7,56.9,54.2,2.726,2.85,2.771,2.703,4.38,75.0,29.3,48.6,1015.43,-28.48,1.49,1.73,21.6,41.2,30.3,0,no_anomaly,0.0,0,0,0,0,18.5204126,73.8566687,6.5,0.0
2024-03-06T09:07:05.300Z,MISSION_0026,53,0,transit,SITE_PUN_007,18.520411,73.8566665,7.0,184.41,1.121,0.121,3.93,-0.8285,-1.6091,184.4086,-0.03836,0.01431,-0.00668,0.99914,-0.3028,0.0158,-9.7828,-0.8515,-0.0023,0.0552,0.1667,3,14,0.64,1.05,0.25,24.669,17.43,91.4,37.7,20112.0,8239,8104,8387,7767,53.1,54.9,54.6,53.9,2.759,2.485,2.743,2.804,5.08,55.3,29.3,49.3,1015.24,-33.36,-1.13,1.23,24.8,43.2,30.5,0,no_anomaly,0.0,0,0,0,0,18.520411,73.8566665,7.0,0.0
2024-03-06T09:07:05.400Z,MISSION_0026,54,0,transit,SITE_PUN_007,18.5204139,73.8566676,7.5,185.71,1.624,0.044,3.93,-2.8108,-2.8661,185.7131,-0.04919,0.02619,-0.02324,0.99818,-0.0799,-0.0216,-9.7114,0.4431,0.276,-0.012,0.2577,3,18,0.67,0.91,0.21,24.526,14.56,91.3,37.5,20094.0,8203,8196,8178,8350,53.1,58.6,55.5,52.5,2.651,2.795,2.589,2.662,3.94,65.5,29.3,48.4,1015.31,-36.01,0.42,1.91,24.2,40.3,32.5,0,no_anomaly,0.0,0,0,0,0,18.5204139,73.8566676,7.5,0.0
2024-03-06T09:07:05.500Z,MISSION_0026,55,0,transit,SITE_PUN_007,18.5204149,73.8566725,8.0,185.52,1.546,0.193,3.48,1.2321,-1.8309,185.5228,-0.04834,0.01544,0.01151,0.99865,-0.057,0.0229,-9.7886,-0.0607,0.103,0.1846,0.246,3,12,0.85,0.77,0.29,24.622,19.18,91.3,37.5,20077.0,8146,8359,7967,8306,55.3,56.0,55.2,54.2,2.722,2.659,2.85,2.693,4.61,70.4,29.3,48.8,1015.27,-33.25,1.04,1.1,26.3,40.2,30.2,0,no_anomaly,0.0,0,0,0,0,18.5204149,73.8566725,8.0,0.0
2024-03-06T09:07:05.600Z,MISSION_0026,56,0,transit,SITE_PUN_007,18.5204154,73.8566699,8.5,188.04,1.484,0.024,3.77,4.3544,0.8126,188.0402,-0.06979,-0.00973,0.0374,0.99681,0.2949,0.026,-9.7625,0.9826,-0.3307,0.5612,0.2702,3,11,0.61,0.82,0.33,24.516,19.41,91.2,38.2,20059.0,7969,8176,7795,8151,51.6,57.5,54.9,53.5,2.631,2.615,2.829,2.599,4.32,71.9,29.7,47.9,1015.27,-29.16,-2.23,1.0,22.8,42.4,29.5,0,no_anomaly,0.0,0,0,0,0,18.5204154,73.8566699,8.5,0.0
2024-03-06T09:07:05.700Z,MISSION_0026,57,0,transit,SITE_PUN_007,18.5204154,73.856669,9.0,188.08,1.046,0.063,3.85,1.5358,0.1807,188.0753,-0.07038,-0.00252,0.01326,0.99743,-0.1164,0.0664,-9.7895,0.2041,0.78,-0.1597,0.2979,3,16,0.63,0.77,0.21,24.565,22.37,91.1,37.6,20041.0,8211,8281,8236,8216,56.4,53.8,55.6,53.3,2.96,2.86,2.704,2.838,4.82,63.7,29.2,48.7,1014.77,-26.82,-0.26,1.44,21.4,39.5,29.1,0,no_anomaly,0.0,0,0,0,0,18.5204154,73.856669,9.0,0.0
2024-03-06T09:07:05.800Z,MISSION_0026,58,0,transit,SITE_PUN_007,18.5204147,73.8566727,9.5,189.13,1.025,0.086,3.45,2.5397,-1.0659,189.1302,-0.07977,0.00751,0.02283,0.99652,-0.0877,0.0287,-9.8819,-0.4871,0.0884,-0.2708,0.1754,3,14,0.68,0.71,0.29,24.506,21.71,91.0,38.4,20023.0,8215,8322,8235,8154,57.4,55.1,53.5,52.1,2.525,2.774,2.769,2.888,4.29,60.8,29.5,48.5,1015.25,-28.8,0.89,1.42,22.7,33.0,29.7,0,no_anomaly,0.0,0,0,0,0,18.5204147,73.8566727,9.5,0.0
2024-03-06T09:07:05.900Z,MISSION_0026,59,0,transit,SITE_PUN_007,18.5204095,73.8566733,10.0,183.98,1.182,0.157,3.16,0.1263,-2.1887,183.9754,-0.0347,0.01905,0.00176,0.99921,0.2389,0.0114,-9.8897,-0.1925,-0.076,0.274,0.2011,3,16,0.65,0.9,0.29,24.535,16.85,90.9,37.1,20006.0,8207,8235,8431,8283,53.8,51.1,57.0,53.0,2.859,2.88,2.812,2.893,4.66,69.9,29.4,48.7,1014.92,-32.34,-0.64,1.56,27.2,39.5,30.6,0,no_anomaly,0.0,0,0,0,0,18.5204095,73.8566733,10.0,0.0
2024-03-06T09:07:06.000Z,MISSION_0026,60,0,transit,SITE_PUN_007,18.5204124,73.8566798,10.5,183.69,1.251,0.084,2.64,-1.9951,1.4138,183.6877,-0.03238,-0.01177,-0.0178,0.99925,0.2175,-0.0187,-9.8218,-0.5369,0.0301,-0.1381,0.1831,3,12,0.51,0.78,0.2,24.641,21.21,90.9,37.6,19988.0,8428,8195,8218,8183,53.3,56.4,54.2,51.6,2.842,2.794,2.706,2.763,3.92,76.0,29.1,48.9,1015.18,-25.88,0.85,1.59,27.1,41.8,34.1,0,no_anomaly,0.0,0,0,0,0,18.5204124,73.8566798,10.5,0.0
2024-03-06T09:07:06.100Z,MISSION_0026,61,0,transit,SITE_PUN_007,18.5204108,73.8566782,11.0,183.71,1.256,0.085,2.71,-0.9493,-2.2945,183.7117,-0.03221,0.02028,-0.00763,0.99925,0.0728,-0.0166,-9.7336,0.5957,0.1858,-0.5458,0.2336,3,20,0.81,0.76,0.27,24.572,14.56,90.8,37.3,19970.0,8302,8421,8257,7962,53.6,58.1,54.5,55.0,2.512,2.791,2.832,2.896,4.49,75.3,29.5,49.7,1014.96,-37.48,-0.04,1.39,21.9,34.8,29.5,0,no_anomaly,0.0,0,0,0,0,18.5204108,73.8566782,11.0,0.0
2024-03-06T09:07:06.200Z,MISSION_0026,62,0,transit,SITE_PUN_007,18.5204097,73.8566861,11.5,179.87,1.133,0.143,1.88,0.6572,-3.2514,179.8691,0.00098,0.02838,0.0057,0.99958,0.0578,0.0643,-9.774,0.143,0.3549,0.0989,0.166,3,15,0.55,0.83,0.21,24.503,18.47,90.7,37.8,19952.0,8398,8163,8378,8051,51.9,52.6,54.0,54.6,3.125,2.568,2.825,2.785,5.55,67.5,29.5,48.4,1014.93,-29.44,-0.39,1.63,22.8,42.3,29.9,0,no_anomaly,0.0,0,0,0,0,18.5204097,73.8566861,11.5,0.0
2024-03-06T09:07:06.300Z,MISSION_0026,63,0,transit,SITE_PUN_007,18.5204038,73.8566858,12.0,179.25,1.15,0.149,1.64,0.5523,-1.4385,179.2459,0.00652,0.01258,0.00474,0.99989,-0.0076,-0.0494,-9.7892,0.3719,1.2455,0.4354,0.1372,3,16,0.55,1.16,0.23,24.531,15.93,90.6,37.6,19935.0,8195,8370,8205,8241,58.9,54.3,57.8,58.5,2.668,2.724,2.818,2.819,4.32,68.4,29.3,49.6,1015.0,-24.99,0.16,1.42,27.0,37.6,32.1,0,no_anomaly,0.0,0,0,0,0,18.5204038,73.8566858,12.0,0.0
2024-03-06T09:07:06.400Z,MISSION_0026,64,0,transit,SITE_PUN_007,18.5204036,73.8566892,12.0,179.21,1.381,0.037,1.27,2.1108,-0.7871,179.2123,0.00675,0.00699,0.01837,0.99978,0.108,0.0232,-9.6683,-0.478,0.0213,-0.1769,0.1693,3,18,0.52,0.98,0.2,24.509,22.5,90.5,37.7,19917.0,8020,8188,8225,8253,53.7,51.8,53.4,56.5,2.769,2.594,2.798,2.908,3.92,70.6,29.5,49.5,1015.2,-28.36,1.61,1.98,26.7,37.5,34.2,0,no_anomaly,0.0,0,0,0,0,18.5204036,73.8566892,12.0,0.0
2024-03-06T09:07:06.500Z,MISSION_0026,65,0,transit,SITE_PUN_007,18.5204015,73.8566884,12.0,178.88,1.533,0.137,1.31,-1.3053,0.5761,178.8791,0.00972,-0.00514,-0.01134,0.99988,0.2621,-0.0426,-9.8029,-0.2123,-0.7795,-0.053,0.2244,3,18,0.82,1.17,0.37,24.62,15.28,90.5,37.3,19899.0,8204,8311,8262,8197,50.7,55.0,54.9,55.6,2.735,2.298,2.574,3.002,4.47,77.8,29.2,49.3,1014.77,-33.56,-0.5,1.0,24.7,39.2,32.8,0,no_anomaly,0.0,0,0,0,0,18.5204015,73.8566884,12.0,0.0
2024-03-06T09:07:06.600Z,MISSION_0026,66,0,transit,SITE_PUN_007,18.5204004,73.8566868,12.0,176.63,2.082,0.111,1.47,1.4535,-2.3582,176.6253,0.02918,0.02094,0.01207,0.99928,0.0926,0.0625,-9.8659,-0.8962,0.0514,-0.3926,0.1963,3,16,0.74,0.96,0.32,24.486,20.07,90.4,38.3,19881.0,8179,8370,8488,8323,56.7,56.3,56.7,56.1,3.047,2.926,2.908,2.811,5.08,67.2,29.2,49.0,1015.55,-29.41,-0.07,1.49,24.0,37.9,31.2,0,no_anomaly,0.0,0,0,0,0,18.5204004,73.8566868,12.0,0.0
2024-03-06T09:07:06.700Z,MISSION_0026,67,0,transit,SITE_PUN_007,18.5203983,73.8566833,12.0,176.45,2.139,0.143,1.87,-2.0005,-1.399,176.4522,0.03116,0.01166,-0.01783,0.99929,0.0294,-0.0151,-9.7808,-0.6039,-0.0113,0.023,0.1544,3,17,0.79,0.72,0.27,24.547,18.79,90.3,38.5,19864.0,8029,8085,8070,8035,53.8,58.2,53.3,53.9,3.165,2.605,2.662,2.723,4.86,65.0,29.5,48.7,1014.94,-30.94,-1.78,1.23,24.9,36.2,33.3,0,no_anomaly,0.0,0,0,0,0,18.5203983,73.8566833,12.0,0.0
2024-03-06T09:07:06.800Z,MISSION_0026,68,0,transit,SITE_PUN_007,18.5203989,73.8566843,12.0,176.1,2.3,0.176,1.76,1.3408,-1.0553,176.1015,0.0339,0.0096,0.01138,0.99931,0.1643,-0.0326,-9.7696,-0.0702,-0.3006,-0.2534,0.2537,3,12,0.68,1.13,0.22,24.533,22.41,90.2,37.8,19846.0,8033,8247,8160,8374,54.0,56.7,52.6,53.5,2.944,3.016,2.753,2.763,4.56,72.0,29.5,49.3,1015.05,-31.24,-0.85,1.94,22.6,41.0,33.5,0,no_anomaly,0.0,0,0,0,0,18.5203989,73.8566843,12.0,0.0
2024-03-06T09:07:06.900Z,MISSION_0026,69,0,transit,SITE_PUN_007,18.5204028,73.8566795,12.0,173.79,2.551,0.082,2.3,-3.2161,-2.2424,173.7943,0.05465,0.01801,-0.02907,0.99792,0.0296,0.0285,-9.7713,-0.2758,0.231,0.0584,0.1474,3,13,0.67,0.98,0.23,24.64,15.12,90.1,37.7,19828.0,8182,8048,8131,7904,54.1,53.3,54.3,55.2,2.766,2.892,2.472,2.675,4.05,72.4,29.4,48.9,1014.96,-32.77,-0.86,1.55,23.1,43.0,31.9,0,no_anomaly,0.0,0,0,0,0,18.5204028,73.8566795,12.0,0.0
2024-03-06T09:07:07.000Z,MISSION_0026,70,0,transit,SITE_PUN_007,18.520401,73.8566813,12.0,173.43,2.714,0.126,2.08,2.3043,-1.5595,173.4301,0.05701,0.01474,0.01929,0.99808,0.027,-0.0522,-9.7781,-0.3834,0.0432,-0.0957,0.2774,3,14,0.72,0.87,0.37,24.544,19.03,90.0,37.9,19810.0,8181,8334,8524,8120,52.3,52.5,52.4,56.1,2.417,2.981,2.727,2.801,4.57,72.5,29.4,48.4,1014.78,-31.8,0.05,1.67,26.7,43.8,32.4,0,no_anomaly,0.0,0,0,0,0,18.520401,73.8566813,12.0,0.0
2024-03-06T09:07:07.100Z,MISSION_0026,71,0,transit,SITE_PUN_007,18.5203988,73.8566841,12.0,174.53,2.983,0.02,1.77,1.08,-4.8929,174.5301,0.04727,0.04308,0.00737,0.99793,0.0372,0.0162,-9.7904,0.5179,-0.0067,0.1828,0.2499,3,16,0.78,0.81,0.28,24.559,23.51,90.0,37.7,19793.0,8312,8001,8528,8292,50.9,57.2,57.6,53.6,2.736,2.641,2.63,3.022,4.4,49.8,29.4,49.5,1015.31,-35.14,0.84,1.72,25.1,41.0,33.5,0,no_anomaly,0.0,0,0,0,0,18.5203988,73.8566841,12.0,0.0
2024-03-06T09:07:07.200Z,MISSION_0026,72,0,transit,SITE_PUN_007,18.5203979,73.8566856,12.0,173.74,2.899,0.093,1.62,-0.0863,-2.3782,173.7355,0.05464,0.02068,-0.00189,0.99829,-0.0566,-0.1035,-9.826,-0.0852,0.2754,-0.3152,0.1523,3,19,0.8,0.89,0.33,24.558,26.64,89.9,37.6,19775.0,8218,8386,8502,8199,59.0,56.0,52.0,55.9,2.971,2.706,2.696,2.928,4.86,60.3,29.7,48.9,1014.85,-35.6,-0.27,1.49,24.1,40.9,29.2,0,no_anomaly,0.0,0,0,0,0,18.5203979,73.8566856,12.0,0.0
2024-03-06T09:07:07.300Z,MISSION_0026,73,0,transit,SITE_PUN_007,18.5203944,73.8566841,12.0,175.64,2.984,0.147,1.88,-2.1539,-3.3198,175.6354,0.0386,0.02823,-0.01988,0.99866,0.0881,-0.0168,-9.7625,0.434,-0.2472,-0.2425,0.2186,3,16,0.87,0.8,0.42,24.495,21.42,89.8,36.9,19757.0,8285,8416,8442,8319,55.3,53.5,48.6,55.8,2.776,2.866,2.596,2.862,4.56,72.4,29.4,49.2,1014.92,-22.68,-1.05,1.71,22.0,35.3,30.3,0,no_anomaly,0.0,0,0,0,0,18.5203944,73.8566841,12.0,0.0
2024-03-06T09:07:07.400Z,MISSION_0026,74,0,transit,SITE_PUN_007,18.5203947,73.856679,12.0,177.97,2.958,0.142,2.41,-4.1046,-1.0086,177.966,0.01805,0.00816,-0.03596,0.99916,0.0096,0.0374,-9.7845,-0.093,0.4015,-0.0651,0.2137,3,12,0.58,0.84,0.23,24.623,17.33,89.7,37.3,19739.0,8109,7719,8611,8336,58.0,54.3,53.4,54.6,2.781,2.921,2.68,2.476,5.04,65.1,29.4,49.1,1014.68,-33.96,-0.6,1.44,25.8,39.9,32.2,0,no_anomaly,0.0,0,0,0,0,18.5203947,73.856679,12.0,0.0
2024-03-06T09:07:07.500Z,MISSION_0026,75,0,transit,SITE_PUN_007,18.5203961,73.8566806,12.0,178.05,2.955,0.058,2.2,-0.0787,-0.4385,178.0484,0.01703,0.00381,-0.00075,0.99985,0.055,0.0402,-9.8409,-0.4422,-0.6527,0.1495,0.1506,3,10,0.8,1.03,0.23,24.576,19.52,89.6,38.2,19722.0,8099,7824,8040,8031,55.1,54.9,54.3,53.5,2.882,2.546,2.619,2.61,5.84,67.3,29.4,48.7,1015.15,-32.23,0.96,1.75,23.7,39.4,34.0,0,no_anomaly,0.0,0,0,0,0,18.5203961,73.8566806,12.0,0.0
2024-03-06T09:07:07.600Z,MISSION_0026,76,0,transit,SITE_PUN_007,18.5203957,73.85668,12.0,178.17,2.741,0.153,2.28,-0.8708,-0.0337,178.1749,0.01593,0.00017,-0.0076,0.99984,0.1558,-0.0507,-9.7414,1.6359,-0.684,-0.0762,0.2284,3,13,0.59,0.99,0.2,24.495,20.2,89.6,37.8,19704.0,7841,8267,8014,8276,56.9,52.4,52.0,56.0,3.221,2.886,2.826,2.623,4.05,69.2,29.4,48.6,1015.25,-27.03,-1.63,1.15,25.5,40.2,34.0,0,no_anomaly,0.0,0,0,0,0,18.5203957,73.85668,12.0,0.0
2024-03-06T09:07:07.700Z,MISSION_0026,77,0,transit,SITE_PUN_007,18.5203954,73.8566805,12.0,179.99,3.026,0.029,2.23,1.6696,-0.5033,179.9894,3e-05,0.00439,0.01457,0.99988,-0.1476,0.0369,-9.7923,-0.2567,0.2759,0.0312,0.2422,3,14,0.64,0.89,0.24,24.527,23.25,89.5,37.8,19686.0,8164,8292,8048,8102,56.0,54.1,52.2,51.9,2.649,2.928,2.762,2.927,4.71,66.3,29.7,48.8,1015.1,-31.65,0.06,1.65,26.4,39.2,33.5,0,no_anomaly,0.0,0,0,0,0,18.5203954,73.8566805,12.0,0.0
2024-03-06T09:07:07.800Z,MISSION_0026,78,0,transit,SITE_PUN_007,18.5203957,73.8566867,12.0,182.86,3.106,0.054,1.55,0.105,-1.33,182.8595,-0.02496,0.01158,0.00121,0.99962,-0.0419,-0.076,-9.7497,0.4143,-0.7602,-0.0917,0.2639,3,12,0.73,1.09,0.33,24.46,19.09,89.4,38.6,19668.0,8329,8156,8367,8373,56.7,55.5,54.5,51.7,2.636,2.709,3.068,2.684,3.91,70.8,29.4,48.6,1015.39,-33.47,1.38,1.39,22.8,34.9,32.8,0,no_anomaly,0.0,0,0,0,0,18.5203957,73.8566867,12.0,0.0
2024-03-06T09:07:07.900Z,MISSION_0026,79,0,transit,SITE_PUN_007,18.5203913,73.8566838,12.0,184.06,2.691,0.052,2.05,3.3046,-3.0258,184.0569,-0.03613,0.02535,0.02974,0.99858,-0.1328,0.04,-9.779,0.3235,0.5766,-0.4677,0.118,3,13,0.66,0.86,0.2,24.543,23.97,89.3,38.4,19651.0,8223,8286,8327,8114,55.5,53.7,54.0,52.4,2.832,2.662,2.766,2.896,4.34,74.0,29.6,48.9,1015.27,-27.79,-0.39,1.86,25.1,34.9,30.1,0,no_anomaly,0.0,0,0,0,0,18.5203913,73.8566838,12.0,0.0
2024-03-06T09:07:08.000Z,MISSION_0026,80,0,transit,SITE_PUN_007,18.5203942,73.8566862,12.0,184.32,2.412,0.014,1.66,-5.8598,-2.199,184.3209,-0.03666,0.02108,-0.05035,0.99784,0.0897,-0.0746,-9.7562,-0.4322,0.1673,0.1165,0.1454,3,14,0.76,1.06,0.29,24.516,23.52,89.2,38.4,19633.0,8227,8371,8208,8193,55.0,55.5,52.0,53.8,2.982,2.651,2.835,2.805,4.91,68.0,29.5,48.7,1014.83,-28.57,-1.9,1.68,21.4,41.6,33.5,0,no_anomaly,0.0,0,0,0,0,18.5203942,73.8566862,12.0,0.0
2024-03-06T09:07:08.100Z,MISSION_0026,81,0,transit,SITE_PUN_007,18.5203985,73.8566867,12.0,182.62,2.131,0.136,1.49,-6.767,-1.7385,182.62,-0.02192,0.01649,-0.05865,0.9979,-0.2039,0.0301,-9.7282,-0.0385,0.2987,-0.2131,0.1099,3,19,0.86,0.77,0.46,24.495,18.08,89.2,37.9,19615.0,8255,8226,8450,8262,52.8,53.0,53.5,56.2,2.801,2.918,2.524,2.823,4.9,71.0,29.4,49.0,1015.12,-24.76,1.83,1.24,24.3,36.8,34.1,0,no_anomaly,0.0,0,0,0,0,18.5203985,73.8566867,12.0,0.0
2024-03-06T09:07:08.200Z,MISSION_0026,82,0,transit,SITE_PUN_007,18.5203925,73.8566934,12.0,182.53,2.179,0.103,1.11,-3.7747,-0.669,182.5343,-0.02191,0.00656,-0.0328,0.9992,0.0047,0.0684,-9.7772,-0.5664,-0.8553,0.0411,0.202,3,10,0.81,0.96,0.43,24.484,19.19,89.1,37.1,19597.0,7818,8077,8087,8361,55.9,57.1,57.1,53.7,2.706,2.915,2.907,2.739,3.99,67.5,29.6,49.1,1014.93,-27.65,-1.37,1.61,26.9,42.5,30.3,0,no_anomaly,0.0,0,0,0,0,18.5203925,73.8566934,12.0,0.0
2024-03-06T09:07:08.300Z,MISSION_0026,83,0,transit,SITE_PUN_007,18.5203976,73.8566868,12.0,181.7,2.28,0.099,1.5,0.0662,-5.5064,181.6961,-0.01481,0.04802,0.00129,0.99874,0.2525,-0.012,-9.7811,0.7929,0.5203,-0.4478,0.1659,3,15,0.69,0.69,0.22,24.574,14.61,89.0,37.6,19580.0,8253,8288,8271,8406,54.2,55.0,54.8,54.4,2.861,2.874,2.873,2.475,5.03,75.9,29.4,49.0,1014.96,-31.69,-1.67,1.65,24.3,39.8,32.4,0,no_anomaly,0.0,0,0,0,0,18.5203976,73.8566868,12.0,0.0
2024-03-06T09:07:08.400Z,MISSION_0026,84,0,transit,SITE_PUN_007,18.5203982,73.8566868,12.0,180.91,2.021,0.085,1.48,2.1004,-4.5903,180.9057,-0.00863,0.03989,0.01863,0.99899,0.0012,-0.0842,-9.8362,0.2152,0.8874,-0.6106,0.0532,3,13,0.7,1.08,0.29,24.502,18.21,88.9,37.9,19562.0,8376,8220,8453,8220,51.3,53.7,54.9,52.0,3.022,2.735,2.803,2.833,5.39,76.0,29.8,49.2,1015.25,-29.64,0.83,1.84,20.9,38.6,28.2,0,no_anomaly,0.0,0,0,0,0,18.5203982,73.8566868,12.0,0.0
2024-03-06T09:07:08.500Z,MISSION_0026,85,0,transit,SITE_PUN_007,18.5203961,73.8566847,12.0,178.11,2.216,0.136,1.76,3.4786,-3.0791,178.1112,0.01565,0.02735,0.02989,0.99906,0.0827,-0.0684,-9.8203,0.7769,0.5699,0.1924,0.1286,3,12,0.7,1.27,0.3,24.52,22.66,88.8,36.9,19544.0,8322,8500,8354,8197,55.6,58.1,53.9,56.4,2.674,2.623,2.862,3.076,5.04,70.5,29.2,48.5,1015.28,-30.06,-0.38,1.45,26.8,39.0,32.5,0,no_anomaly,0.0,0,0,0,0,18.5203961,73.8566847,12.0,0.0
2024-03-06T09:07:08.600Z,MISSION_0026,86,0,transit,SITE_PUN_007,18.5203977,73.8566831,12.0,178.78,2.433,-0.01,1.89,2.5312,-0.4904,178.7807,0.01054,0.00451,0.02204,0.99969,-0.2179,-0.0635,-9.7897,0.3333,0.0197,0.6163,0.2415,3,15,0.78,0.72,0.31,24.478,20.02,88.8,37.6,19526.0,8146,8064,7916,8419,54.6,54.6,54.8,56.2,2.859,2.897,2.739,2.566,5.65,54.9,29.4,49.3,1015.09,-34.84,0.23,1.58,22.0,34.4,30.2,0,no_anomaly,0.0,0,0,0,0,18.5203977,73.8566831,12.0,0.0
2024-03-06T09:07:08.700Z,MISSION_0026,87,0,transit,SITE_PUN_007,18.5203974,73.8566861,12.0,177.24,1.578,0.085,1.58,-2.3153,-3.7039,177.2418,0.0247,0.03181,-0.02096,0.99897,-0.0745,0.0014,-9.7676,-0.0331,-1.095,-0.3545,0.2024,3,14,0.6,0.9,0.23,24.457,19.19,88.7,37.1,19509.0,8291,8033,8197,8237,54.4,54.8,50.1,57.9,2.581,2.882,2.59,3.028,3.58,68.9,29.3,48.6,1014.96,-31.46,0.45,1.13,22.6,42.5,30.2,0,no_anomaly,0.0,0,0,0,0,18.5203974,73.8566861,12.0,0.0
2024-03-06T09:07:08.800Z,MISSION_0026,88,0,transit,SITE_PUN_007,18.5203961,73.8566815,12.0,177.55,1.722,0.165,2.1,-0.8512,-2.2486,177.5514,0.02151,0.01946,-0.00784,0.99955,-0.1101,-0.0044,-9.8096,-0.6182,0.1265,-0.5993,0.0936,3,13,0.82,0.8,0.31,24.475,14.54,88.6,37.7,19491.0,8161,7979,8064,8388,53.9,54.9,58.8,51.1,2.611,2.868,2.953,2.96,5.14,68.9,29.5,49.1,1014.62,-28.56,-0.59,1.81,28.1,42.9,34.1,0,no_anomaly,0.0,0,0,0,0,18.5203961,73.8566815,12.0,0.0
2024-03-06T09:07:08.900Z,MISSION_0026,89,0,transit,SITE_PUN_007,18.5204007,73.8566792,12.0,177.95,1.278,0.075,2.31,2.533,-1.0346,177.9548,0.01764,0.00942,0.02194,0.99956,0.0902,0.0118,-9.8517,0.6487,0.5835,0.4193,0.1492,3,20,0.72,0.87,0.26,24.577,20.94,88.5,38.6,19473.0,8219,8170,8133,8136,53.5,55.2,55.9,56.5,2.75,2.822,2.832,2.654,4.63,69.5,29.4,49.8,1014.99,-27.76,-0.53,1.0,27.5,38.8,31.5,0,no_anomaly,0.0,0,0,0,0,18.5204007,73.8566792,12.0,0.0
2024-03-06T09:07:09.000Z,MISSION_0026,90,0,transit,SITE_PUN_007,18.5203975,73.8566807,12.0,178.21,1.884,0.077,2.16,-0.6845,0.4482,178.2099,0.0156,-0.004,-0.00591,0.99985,0.0729,-0.0594,-9.804,-0.2366,0.4297,-0.0444,0.2256,3,11,0.52,0.86,0.27,24.457,15.65,88.4,37.9,19455.0,8146,8421,8149,8285,54.5,55.8,53.2,55.7,2.913,2.855,2.899,2.831,5.05,66.3,29.5,48.5,1014.94,-27.3,1.12,2.39,25.5,33.8,31.4,0,no_anomaly,0.0,0,0,0,0,18.5203975,73.8566807,12.0,0.0
2024-03-06T09:07:09.100Z,MISSION_0026,91,0,transit,SITE_PUN_007,18.520396,73.8566833,12.0,177.19,2.315,0.165,1.91,2.4488,-2.8559,177.1948,0.02393,0.02543,0.02075,0.99917,-0.2601,-0.0038,-9.7672,-0.3643,0.0045,0.5008,0.1575,3,15,0.75,0.8,0.37,24.536,15.76,88.4,37.6,19438.0,7982,8108,8294,8145,51.8,50.9,53.7,57.3,2.716,3.017,2.775,2.721,4.2,67.5,29.1,48.6,1015.21,-24.21,0.23,1.31,24.9,39.8,33.4,0,no_anomaly,0.0,0,0,0,0,18.520396,73.8566833,12.0,0.0
2024-03-06T09:07:09.200Z,MISSION_0026,92,0,transit,SITE_PUN_007,18.5204039,73.8566831,12.0,177.75,2.224,0.155,1.93,3.8142,-4.7079,177.7512,0.01823,0.04169,0.03244,0.99844,-0.2861,0.0525,-9.8307,0.5308,-0.0301,-0.1009,0.1894,3,15,0.63,0.71,0.2,24.551,20.28,88.3,38.7,19420.0,7992,8066,8468,8254,54.9,51.9,55.6,59.6,2.663,2.92,2.811,2.796,4.65,64.3,29.4,48.6,1014.67,-34.78,-0.18,1.39,25.1,39.2,34.4,0,no_anomaly,0.0,0,0,0,0,18.5204039,73.8566831,12.0,0.0
2024-03-06T09:07:09.300Z,MISSION_0026,93,0,transit,SITE_PUN_007,18.5204043,73.8566885,12.0,179.79,2.09,0.061,1.37,-3.0427,-4.8858,179.7914,0.00295,0.04256,-0.0266,0.99874,-0.0385,-0.0219,-9.8792,0.243,0.3042,0.1831,0.2023,3,20,0.66,0.96,0.33,24.504,16.06,88.2,38.1,19402.0,7970,8207,8420,8328,53.6,50.1,52.4,53.2,2.821,2.711,2.695,2.482,4.12,61.8,29.4,48.7,1015.06,-26.68,-0.73,1.14,23.0,41.5,33.7,0,no_anomaly,0.0,0,0,0,0,18.5204043,73.8566885,12.0,0.0
2024-03-06T09:07:09.400Z,MISSION_0026,94,0,transit,SITE_PUN_007,18.5203988,73.8566859,12.0,179.67,1.886,0.109,1.57,2.4354,-3.4783,179.6707,0.00223,0.0304,0.02115,0.99931,0.1238,0.0149,-9.8911,0.2054,-0.169,-0.302,0.1997,3,13,0.76,1.01,0.33,24.526,17.09,88.1,38.2,19384.0,8113,8395,8129,8205,52.8,51.9,52.5,54.1,2.771,2.558,2.715,2.702,5.14,59.0,29.5,49.3,1014.98,-27.86,-0.25,1.33,25.3,45.6,35.5,0,no_anomaly,0.0,0,0,0,0,18.5203988,73.8566859,12.0,0.0
2024-03-06T09:07:09.500Z,MISSION_0026,95,0,transit,SITE_PUN_007,18.5203966,73.8566898,12.0,180.63,2.398,0.182,1.2,-4.7165,-4.7822,180.6342,-0.00381,0.04191,-0.04088,0.99828,0.0478,-0.0464,-9.8025,-0.7664,-0.1975,-0.0835,0.237,3,19,0.75,0.95,0.29,24.522,21.02,88.0,37.8,19367.0,8238,8231,8061,8337,55.4,55.5,54.5,53.8,2.75,2.755,3.062,2.655,3.91,64.8,29.7,48.4,1015.18,-32.34,-0.17,1.18,26.6,38.1,32.1,0,no_anomaly,0.0,0,0,0,0,18.5203966,73.8566898,12.0,0.0
2024-03-06T09:07:09.600Z,MISSION_0026,96,0,transit,SITE_PUN_007,18.5203939,73.8566893,12.0,180.39,2.789,0.084,1.37,-1.1835,-1.4532,180.3912,-0.00328,0.01272,-0.01028,0.99986,0.1229,-0.0142,-9.7939,-0.1172,0.4587,-0.0107,0.1438,3,18,0.72,1.18,0.33,24.506,20.6,87.9,37.4,19349.0,8114,8120,8165,8513,51.5,55.2,55.6,53.4,2.675,2.981,2.853,2.942,4.75,70.2,29.5,48.9,1014.99,-31.05,-1.77,1.15,20.6,33.8,32.0,0,no_anomaly,0.0,0,0,0,0,18.5203939,73.8566893,12.0,0.0
2024-03-06T09:07:09.700Z,MISSION_0026,97,0,transit,SITE_PUN_007,18.5203949,73.8566903,12.0,179.62,2.4,0.099,1.22,-0.3906,-3.5804,179.6177,0.00344,0.03123,-0.00351,0.9995,0.1796,-0.0779,-9.6685,0.2932,0.4656,-0.2171,0.1138,3,17,0.63,0.89,0.2,24.5,18.5,87.9,38.0,19331.0,8174,8131,8394,8248,55.1,53.3,50.5,57.1,2.748,3.091,2.824,2.671,5.01,72.2,29.6,50.2,1015.23,-29.87,-1.41,1.41,27.0,35.3,33.1,0,no_anomaly,0.0,0,0,0,0,18.5203949,73.8566903,12.0,0.0
2024-03-06T09:07:09.800Z,MISSION_0026,98,0,transit,SITE_PUN_007,18.5203895,73.8566915,12.0,177.99,2.644,0.201,1.5,4.9406,0.9099,177.9931,0.01784,-0.00718,0.04323,0.99888,-0.1342,0.0187,-9.7571,-0.3771,0.8698,-0.487,0.1331,3,17,0.84,0.89,0.52,24.529,16.37,87.8,38.1,19314.0,8125,8393,8170,8178,54.0,55.0,55.8,55.1,2.762,2.998,2.942,2.807,5.24,71.0,29.1,49.6,1015.12,-26.2,1.48,1.57,23.1,33.7,29.4,0,no_anomaly,0.0,0,0,0,0,18.5203895,73.8566915,12.0,0.0
2024-03-06T09:07:09.900Z,MISSION_0026,99,1,transit,SITE_PUN_007,18.5203952,73.8566998,12.0,178.12,2.238,0.222,0.53,-0.5874,0.1805,178.1213,0.01639,-0.00166,-0.0051,0.99985,0.358,-0.0334,-9.768,0.1804,0.094,0.0394,0.1667,3,14,0.73,1.05,0.28,24.425,20.62,87.7,37.5,19296.0,7972,8126,8291,8270,54.4,56.5,55.6,57.7,2.889,2.77,2.839,2.699,3.75,68.0,29.2,48.9,1015.0,-27.45,-0.49,1.14,25.0,36.5,31.0,0,no_anomaly,0.0,0,0,0,0,18.5203952,73.8566998,12.0,0.0
2024-03-06T09:07:10.000Z,MISSION_0026,100,1,transit,SITE_PUN_007,18.5203962,73.8566998,12.0,178.15,1.735,0.065,0.43,2.5198,-0.1978,178.1486,0.01611,0.00208,0.02196,0.99963,-0.0973,0.0475,-9.8831,0.2074,0.4143,0.1332,0.1987,3,18,0.53,0.99,0.2,24.479,20.85,87.6,38.2,19278.0,7916,8137,8297,8203,54.1,53.1,52.7,47.9,3.065,2.645,2.564,2.755,4.92,73.0,29.8,48.4,1014.98,-30.77,0.13,1.52,24.9,43.0,34.9,0,no_anomaly,0.0,0,0,0,0,18.5203962,73.8566998,12.0,0.0
2024-03-06T09:07:10.100Z,MISSION_0026,101,1,transit,SITE_PUN_007,18.5203936,73.8566933,12.0,180.02,1.784,0.133,1.03,1.997,-2.7738,180.0235,-0.00063,0.0242,0.01743,0.99956,0.0405,0.0446,-9.8074,-0.0713,-1.4634,-0.1444,0.1676,3,10,0.65,0.86,0.28,24.453,18.6,87.5,36.9,19260.0,8238,8261,8127,8387,54.3,53.2,56.7,52.9,2.695,2.767,2.872,2.687,5.64,68.8,29.4,48.6,1015.34,-27.56,1.34,1.12,23.4,36.2,31.0,0,no_anomaly,0.0,0,0,0,0,18.5203936,73.8566933,12.0,0.0
2024-03-06T09:07:10.200Z,MISSION_0026,102,1,transit,SITE_PUN_007,18.520394,73.8566914,12.0,178.86,1.718,0.089,1.17,-0.7105,-4.3596,178.8552,0.01022,0.03797,-0.00658,0.9992,0.1018,0.0181,-9.8372,0.2219,0.216,-0.3709,0.1481,3,12,0.53,0.91,0.29,24.412,22.28,87.5,38.3,19243.0,8380,8155,8275,8109,51.3,53.6,52.9,50.6,2.914,2.607,2.779,2.977,4.11,66.9,29.4,48.7,1015.01,-33.23,1.19,1.9,22.7,42.1,34.4,0,no_anomaly,0.0,0,0,0,0,18.520394,73.8566914,12.0,0.0
2024-03-06T09:07:10.300Z,MISSION_0026,103,1,transit,SITE_PUN_007,18.5203955,73.8566863,12.0,178.34,1.638,0.082,1.61,-5.6718,-3.7714,178.3362,0.01612,0.03214,-0.04992,0.99811,-0.0458,-0.1062,-9.8011,0.0214,0.5157,0.3487,0.1497,3,12,0.72,0.75,0.31,24.459,13.48,87.4,38.3,19225.0,8473,8121,8168,8099,58.1,58.7,56.6,56.0,2.57,2.855,3.043,2.583,4.62,72.3,29.4,48.8,1014.72,-31.15,0.09,1.07,22.1,39.1,31.6,0,no_anomaly,0.0,0,0,0,0,18.5203955,73.8566863,12.0,0.0
2024-03-06T09:07:10.400Z,MISSION_0026,104,1,transit,SITE_PUN_007,18.5203916,73.8566867,12.0,181.91,1.296,0.115,1.75,7.1596,-3.0434,181.9077,-0.01827,0.02546,0.06285,0.99753,-0.2856,0.0143,-9.8551,0.6348,0.1969,0.2627,0.1693,3,20,0.52,0.86,0.2,24.473,17.94,87.3,38.0,19207.0,8300,8375,8495,8202,56.2,55.1,55.3,51.9,2.853,2.824,2.589,2.686,4.14,75.0,29.2,49.0,1014.97,-32.83,1.3,1.48,26.1,38.9,32.9,0,no_anomaly,0.0,0,0,0,0,18.5203916,73.8566867,12.0,0.0
2024-03-06T09:07:10.500Z,MISSION_0026,105,1,transit,SITE_PUN_007,18.5203938,73.8566875,12.0,182.85,1.78,0.142,1.55,3.1721,-4.1256,182.8527,-0.02586,0.03528,0.02855,0.99863,0.0151,-0.0568,-9.8136,0.2839,0.1163,-0.1004,0.142,3,14,0.78,0.86,0.28,24.447,19.45,87.2,37.6,19189.0,8111,7819,8532,8171,54.5,51.0,57.1,53.1,2.951,2.913,3.022,2.567,4.84,61.9,29.3,48.8,1015.16,-25.03,1.43,1.37,23.0,36.9,31.8,0,no_anomaly,0.0,0,0,0,0,18.5203938,73.8566875,12.0,0.0
2024-03-06T09:07:10.600Z,MISSION_0026,106,1,transit,SITE_PUN_007,18.5203921,73.856687,12.0,183.34,1.99,0.133,1.7,-0.2324,-2.3675,183.3361,-0.02906,0.02071,-0.00143,0.99936,-0.015,-0.0213,-9.7469,0.6577,0.6178,0.2222,0.1784,3,19,0.7,0.75,0.25,24.444,23.72,87.1,37.9,19172.0,8112,8132,8351,8334,53.2,55.2,54.1,54.2,2.877,2.64,2.736,2.826,4.14,74.4,29.5,49.0,1014.84,-28.06,0.36,1.94,26.0,40.1,29.3,0,no_anomaly,0.0,0,0,0,0,18.5203921,73.856687,12.0,0.0
2024-03-06T09:07:10.700Z,MISSION_0026,107,1,transit,SITE_PUN_007,18.520393,73.8566898,12.0,179.6,1.83,0.131,1.37,2.8517,-1.6427,179.6029,0.00311,0.01442,0.02483,0.99958,0.0634,0.0208,-9.7638,-1.2556,0.4151,-0.3239,0.1956,3,16,0.58,1.12,0.24,24.442,20.25,87.1,37.4,19154.0,8468,8378,8129,8478,57.6,53.9,55.0,58.0,2.514,2.94,2.903,2.973,4.66,70.0,29.4,49.3,1015.36,-33.44,-0.86,1.28,25.5,37.7,32.6,0,no_anomaly,0.0,0,0,0,0,18.520393,73.8566898,12.0,0.0
2024-03-06T09:07:10.800Z,MISSION_0026,108,1,transit,SITE_PUN_007,18.5203867,73.8566919,12.0,178.63,2.122,0.073,1.74,-1.1202,0.4695,178.6262,0.01195,-0.00421,-0.00973,0.99987,0.1926,0.0703,-9.8305,0.3872,0.8585,0.2171,0.1801,3,10,0.79,0.94,0.38,24.379,16.66,87.0,38.5,19136.0,8220,7999,8254,8240,56.2,55.4,53.8,56.8,2.916,2.874,2.692,2.417,3.13,78.7,29.7,48.6,1015.0,-29.76,1.39,1.13,27.1,39.1,31.8,0,no_anomaly,0.0,0,0,0,0,18.5203867,73.8566919,12.0,0.0
2024-03-06T09:07:10.900Z,MISSION_0026,109,1,transit,SITE_PUN_007,18.5203899,73.8566935,12.0,179.99,2.239,0.18,1.34,5.4423,1.5402,179.99,0.00073,-0.01342,0.04747,0.99878,0.2225,-0.0012,-9.8104,0.1529,-0.3843,0.4674,0.2229,3,14,0.77,0.92,0.35,24.387,21.76,86.9,38.4,19118.0,7999,8091,8258,8164,51.9,51.5,59.0,53.3,2.761,2.75,3.047,2.833,4.43,74.8,29.6,48.9,1015.09,-29.29,-0.89,1.8,26.2,37.3,31.0,0,no_anomaly,0.0,0,0,0,0,18.5203899,73.8566935,12.0,0.0
2024-03-06T09:07:11.000Z,MISSION_0026,110,1,transit,SITE_PUN_007,18.5203848,73.8566937,12.0,181.77,2.263,0.121,1.83,-2.5787,-1.5034,181.7734,-0.01517,0.01346,-0.02229,0.99955,-0.0541,-0.0181,-9.7433,0.1966,0.4953,-0.148,0.2663,3,20,0.7,0.81,0.22,24.463,21.44,86.8,37.8,19101.0,7931,8344,8390,8062,57.6,55.5,53.6,52.4,2.945,2.601,2.931,2.962,4.49,62.2,29.2,48.5,1015.02,-27.92,1.15,1.33,22.1,35.2,33.0,0,no_anomaly,0.0,0,0,0,0,18.5203848,73.8566937,12.0,0.0
2024-03-06T09:07:11.100Z,MISSION_0026,111,1,transit,SITE_PUN_007,18.5203876,73.8566946,12.0,178.58,2.375,0.15,1.5,3.1691,-1.8783,178.5807,0.01193,0.01673,0.02744,0.99941,-0.1385,0.031,-9.8256,-0.0809,0.5783,0.1824,0.2376,3,10,0.68,0.92,0.22,24.424,23.02,86.7,37.4,19083.0,8072,8173,8047,8416,56.3,54.5,53.9,55.4,2.748,2.905,2.703,2.67,4.4,59.6,29.3,49.4,1015.09,-23.56,-2.93,1.13,24.7,41.2,31.4,0,no_anomaly,0.0,0,0,0,0,18.5203876,73.8566946,12.0,0.0
2024-03-06T09:07:11.200Z,MISSION_0026,112,1,transit,SITE_PUN_007,18.5203902,73.8566915,12.0,177.94,2.05,0.1,1.44,2.731,-1.2522,177.9423,0.01769,0.01135,0.02363,0.9995,0.0012,0.0773,-9.7877,-0.8851,0.1242,0.0634,0.1802,3,12,0.64,0.79,0.2,24.481,20.35,86.7,37.6,19065.0,8453,8052,8415,8047,50.9,55.3,52.7,52.2,2.873,2.731,2.727,2.72,4.51,69.0,29.4,49.1,1014.9,-28.87,2.02,1.42,25.9,44.0,33.8,0,no_anomaly,0.0,0,0,0,0,18.5203902,73.8566915,12.0,0.0
2024-03-06T09:07:11.300Z,MISSION_0026,113,1,transit,SITE_PUN_007,18.5203911,73.8566915,12.0,177.34,1.634,0.104,1.37,-1.4618,-3.6682,177.3393,0.02361,0.0317,-0.01349,0.99913,0.0781,-0.0142,-9.7662,-0.054,0.2789,-0.0074,0.1859,3,19,0.84,0.8,0.34,24.419,14.58,86.6,37.1,19047.0,8468,8200,8098,8432,56.8,52.0,54.0,55.3,2.791,2.674,2.746,2.633,4.85,73.2,29.5,49.7,1015.04,-31.87,-0.23,1.84,24.3,42.9,31.9,0,no_anomaly,0.0,0,0,0,0,18.5203911,73.8566915,12.0,0.0
2024-03-06T09:07:11.400Z,MISSION_0026,114,1,transit,SITE_PUN_007,18.5203916,73.8566962,12.0,178.03,1.24,0.148,1.03,1.7326,-3.3338,178.0272,0.01677,0.02934,0.01461,0.99932,0.1278,0.0303,-9.7651,-0.1469,0.8286,-0.1214,0.1964,3,17,0.71,0.89,0.2,24.403,20.17,86.5,38.1,19030.0,8292,8063,8032,8230,55.5,54.7,54.4,57.5,2.863,2.668,2.786,2.656,4.63,78.0,29.3,49.5,1014.97,-38.57,1.05,1.28,23.7,39.7,34.8,0,no_anomaly,0.0,0,0,0,0,18.5203916,73.8566962,12.0,0.0
2024-03-06T09:07:11.500Z,MISSION_0026,115,1,transit,SITE_PUN_007,18.5203899,73.8566983,12.0,178.94,0.83,0.077,1.14,2.4696,-1.5582,178.9415,0.00894,0.01379,0.02142,0.99964,-0.12,0.0575,-9.8405,0.6657,-0.2462,0.234,0.1683,3,19,0.82,1.1,0.43,24.363,18.72,86.4,38.7,19012.0,8071,8241,8443,8272,53.4,53.7,55.6,53.2,3.014,2.926,2.903,2.66,3.68,65.8,29.6,49.6,1015.35,-27.37,-0.74,1.6,23.8,35.3,34.2,0,no_anomaly,0.0,0,0,0,0,18.5203899,73.8566983,12.0,0.0
2024-03-06T09:07:11.600Z,MISSION_0026,116,1,transit,SITE_PUN_007,18.5203864,73.856699,12.0,177.47,0.825,0.069,1.52,0.6369,-1.3602,177.4658,0.02205,0.01199,0.00529,0.99967,-0.0341,-0.0891,-9.8708,1.0476,-0.553,0.1,0.277,3,13,0.63,0.92,0.24,24.464,18.26,86.3,37.8,18994.0,8566,8135,8319,8400,52.1,56.0,54.3,56.0,2.621,2.863,2.921,2.925,3.81,67.4,29.5,48.7,1015.18,-34.9,-0.23,1.0,25.1,35.6,32.9,0,no_anomaly,0.0,0,0,0,0,18.5203864,73.856699,12.0,0.0
2024-03-06T09:07:11.700Z,MISSION_0026,117,1,transit,SITE_PUN_007,18.5203867,73.856697,12.0,176.45,1.119,0.143,1.52,3.2884,-2.3158,176.4514,0.03036,0.02108,0.02805,0.99892,-0.0978,0.0611,-9.8456,0.738,-0.3333,0.2303,0.1719,3,11,0.58,0.98,0.26,24.463,18.4,86.3,37.8,18976.0,8172,8065,8396,8245,56.8,56.3,54.1,53.0,3.083,2.712,2.964,2.984,4.99,61.8,29.1,49.7,1015.15,-27.34,1.63,1.38,20.2,42.0,29.4,0,no_anomaly,0.0,0,0,0,0,18.5203867,73.856697,12.0,0.0
2024-03-06T09:07:11.800Z,MISSION_0026,118,1,transit,SITE_PUN_007,18.5203859,73.8566972,12.0,174.49,0.946,-0.016,1.6,-8.566,-0.241,174.4888,0.0481,-0.0015,-0.0747,0.99604,0.066,0.0058,-9.7722,0.7679,0.3594,-0.3188,0.1808,3,20,0.64,0.95,0.2,24.389,13.39,86.2,37.2,18959.0,8083,8267,8179,8247,58.4,54.9,55.0,54.5,3.185,2.773,2.78,3.022,4.94,75.2,29.0,48.9,1015.17,-27.82,-1.35,1.63,26.6,36.3,31.3,0,no_anomaly,0.0,0,0,0,0,18.5203859,73.8566972,12.0,0.0
2024-03-06T09:07:11.900Z,MISSION_0026,119,1,orbit_base,SITE_PUN_007,18.5203272,73.8566668,12.3,174.84,1.038,0.043,8.91,2.3284,-1.4063,174.8377,0.04477,0.01317,0.01974,0.99872,-0.1326,0.0231,-9.7952,0.0535,-0.1393,-0.0266,0.1895,3,12,0.73,1.16,0.25,24.475,21.65,86.1,37.6,18941.0,8174,8356,8272,8297,54.4,52.0,54.8,51.8,2.785,3.074,2.972,2.519,4.86,77.4,29.1,48.5,1014.86,-34.21,-2.5,1.24,26.8,41.5,35.1,0,no_anomaly,0.0,0,0,0,0,18.5203272,73.8566668,12.3,0.0
2024-03-06T09:07:12.000Z,MISSION_0026,120,1,orbit_base,SITE_PUN_007,18.5203283,73.8566646,12.6,176.5,0.829,0.083,8.91,1.8869,-2.6835,176.5015,0.03013,0.0239,0.01574,0.99914,0.2246,0.0647,-9.7942,-0.7585,-0.3821,0.6063,0.1987,3,18,0.63,0.76,0.28,24.519,16.64,86.0,38.3,18923.0,7930,8393,8279,8278,51.5,53.3,59.9,55.5,2.914,2.972,2.822,3.128,4.12,61.7,29.7,48.0,1015.17,-33.63,0.37,2.04,25.3,36.7,32.7,0,no_anomaly,0.0,0,0,0,0,18.5203283,73.8566646,12.6,0.0
2024-03-06T09:07:12.100Z,MISSION_0026,121,1,orbit_base,SITE_PUN_007,18.5203294,73.8566625,12.9,175.45,0.498,0.062,8.91,1.8712,-2.099,175.4542,0.03935,0.01895,0.01559,0.99892,0.047,-0.0277,-9.8632,-0.3668,-0.127,0.139,0.1345,3,18,0.93,1.03,0.36,24.458,16.19,85.9,38.1,18905.0,8341,8472,8011,8286,55.4,56.8,53.5,55.4,2.813,2.757,2.613,2.578,4.66,65.8,29.6,48.7,1014.76,-28.3,1.43,1.36,24.2,43.3,30.6,0,no_anomaly,0.0,0,0,0,0,18.5203294,73.8566625,12.9,0.0
2024-03-06T09:07:12.200Z,MISSION_0026,122,1,orbit_base,SITE_PUN_007,18.5203305,73.8566604,13.2,175.74,0.579,0.213,8.91,-1.5886,-5.1223,175.7426,0.03772,0.04414,-0.0155,0.99819,-0.0614,-0.008,-9.7287,-0.6256,-0.7888,0.2411,0.2349,3,19,0.73,0.6,0.32,24.466,19.99,85.9,37.3,18888.0,8296,8148,8129,7960,57.5,54.0,56.8,59.1,3.04,2.997,3.317,3.086,4.74,65.8,29.4,49.4,1014.9,-24.83,2.43,1.69,25.5,38.0,32.2,0,no_anomaly,0.0,0,0,0,0,18.5203305,73.8566604,13.2,0.0
2024-03-06T09:07:12.300Z,MISSION_0026,123,1,orbit_base,SITE_PUN_007,18.5203317,73.8566583,13.5,177.38,0.528,0.07,8.91,1.8273,-2.7793,177.3818,0.02245,0.02461,0.01538,0.99933,-0.0667,-0.0248,-9.8126,-1.2093,-0.1113,-0.2845,0.1477,3,20,0.65,0.75,0.21,24.383,17.03,85.8,38.4,18870.0,8329,8242,8295,8309,54.9,54.8,54.4,59.5,2.831,2.953,2.821,2.611,4.63,65.6,29.6,48.6,1015.51,-26.46,0.18,1.62,24.8,35.2,34.0,0,no_anomaly,0.0,0,0,0,0,18.5203317,73.8566583,13.5,0.0
2024-03-06T09:07:12.400Z,MISSION_0026,124,1,orbit_base,SITE_PUN_007,18.520333,73.8566563,13.8,177.03,0.774,0.142,8.91,0.8556,-2.4164,177.0263,0.02578,0.02127,0.00691,0.99942,0.1183,0.017,-9.7855,0.3056,0.3859,-0.3969,0.1882,3,11,0.65,0.81,0.29,24.465,17.41,85.7,37.3,18852.0,8256,8299,8258,8187,57.8,52.3,56.3,56.4,2.653,2.717,2.719,2.946,4.63,72.7,29.7,49.1,1015.09,-35.4,-0.18,1.37,24.4,35.8,30.9,0,no_anomaly,0.0,0,0,0,0,18.520333,73.8566563,13.8,0.0
2024-03-06T09:07:12.500Z,MISSION_0026,125,1,orbit_base,SITE_PUN_007,18.5203344,73.8566543,14.1,178.83,0.316,0.033,8.91,-3.2519,-0.8876,178.8339,0.01039,0.00745,-0.02845,0.99951,0.0441,-0.0542,-9.8612,0.0485,-0.3762,-0.678,0.1944,3,10,0.64,0.85,0.26,24.451,18.91,85.6,37.9,18834.0,8414,8277,8206,8174,50.6,55.4,51.7,54.1,2.702,2.592,2.804,2.527,4.78,66.4,29.5,47.8,1014.95,-28.89,0.91,1.64,22.2,37.9,29.6,0,no_anomaly,0.0,0,0,0,0,18.5203344,73.8566543,14.1,0.0
2024-03-06T09:07:12.600Z,MISSION_0026,126,1,orbit_base,SITE_PUN_007,18.5203358,73.8566523,14.4,178.8,0.4,0.167,8.91,-3.5604,-2.0647,178.7951,0.01107,0.01768,-0.03125,0.99929,0.0295,-0.019,-9.8777,-0.104,-0.1462,-0.588,0.1291,3,11,0.66,0.91,0.34,24.553,21.3,85.5,37.2,18817.0,8171,8460,8326,8153,56.2,54.4,53.7,52.9,2.63,2.968,2.96,2.774,4.17,64.1,29.4,49.6,1015.23,-24.45,-0.66,1.37,26.4,40.1,30.0,0,no_anomaly,0.0,0,0,0,0,18.5203358,73.8566523,14.4,0.0
2024-03-06T09:07:12.700Z,MISSION_0026,127,1,orbit_base,SITE_PUN_007,18.5203372,73.8566504,14.7,179.23,0.0,0.045,8.91,1.6251,-1.111,179.2268,0.00661,0.00979,0.01411,0.99983,0.1613,-0.0711,-9.8304,-0.3384,0.5129,-0.3605,0.1269,3,10,0.65,0.89,0.2,24.379,19.62,85.4,38.1,18799.0,8020,8196,8248,8404,54.6,53.7,56.5,52.4,2.661,2.786,2.744,2.912,4.69,65.5,29.4,49.3,1015.18,-33.17,0.46,1.43,22.3,41.0,34.2,0,no_anomaly,0.0,0,0,0,0,18.5203372,73.8566504,14.7,0.0
2024-03-06T09:07:12.800Z,MISSION_0026,128,1,orbit_base,SITE_PUN_007,18.5203387,73.8566486,15.0,181.76,0.0,0.15,8.91,1.5711,-2.2027,181.7634,-0.01565,0.01901,0.014,0.9996,-0.0871,0.0619,-9.8397,0.0835,0.595,0.2309,0.164,3,13,0.79,0.75,0.29,24.362,16.11,85.4,37.5,18781.0,8087,8336,8361,8167,54.8,54.9,54.4,54.6,2.688,2.868,3.038,2.819,4.79,72.4,29.3,49.9,1014.7,-31.9,0.81,1.63,22.4,40.9,35.2,0,no_anomaly,0.0,0,0,0,0,18.5203387,73.8566486,15.0,0.0
2024-03-06T09:07:12.900Z,MISSION_0026,129,1,orbit_base,SITE_PUN_007,18.5203403,73.8566467,15.3,181.78,0.099,0.153,8.91,2.3127,-0.3265,181.7813,-0.0156,0.00253,0.02022,0.99967,-0.1414,0.0523,-9.7618,-1.1117,0.7354,-0.1984,0.2435,3,19,0.66,0.69,0.32,24.38,17.76,85.3,38.4,18763.0,8210,7969,8400,8308,53.8,54.0,54.3,52.7,2.726,3.002,2.712,3.143,4.57,77.8,29.5,48.2,1014.81,-31.83,-1.07,1.3,26.5,35.5,34.1,0,no_anomaly,0.0,0,0,0,0,18.5203403,73.8566467,15.3,0.0
