timestamp_utc,mission_id,frame_id,waypoint_id,inspection_phase,site_id,latitude_deg,longitude_deg,altitude_m,heading_deg,ground_speed_ms,vertical_speed_ms,distance_to_tower_m,roll_deg,pitch_deg,yaw_deg,quat_w,quat_x,quat_y,quat_z,accel_x_ms2,accel_y_ms2,accel_z_ms2,gyro_x_rads,gyro_y_rads,gyro_z_rads,vibration_level,gps_fix_type,gps_satellite_count,gps_hdop,gps_vdop,position_error_m,battery_voltage_v,battery_current_a,battery_remaining_pct,battery_temp_c,battery_capacity_mah,motor_fl_rpm,motor_fr_rpm,motor_rl_rpm,motor_rr_rpm,motor_fl_temp_c,motor_fr_temp_c,motor_rl_temp_c,motor_rr_temp_c,motor_fl_thrust_n,motor_fr_thrust_n,motor_rl_thrust_n,motor_rr_thrust_n,wind_speed_ms,wind_dir_deg,air_temp_c,humidity_pct,pressure_hpa,gimbal_pitch_deg,gimbal_roll_deg,zoom_factor,ir_temp_min_c,ir_temp_max_c,ir_temp_avg_c,anomaly_detected,anomaly_class,anomaly_confidence,anomaly_bbox_x,anomaly_bbox_y,anomaly_bbox_w,anomaly_bbox_h,anomaly_gps_lat,anomaly_gps_lon,anomaly_gps_alt_m,ir_temp_delta_c
2024-05-14T17:02:00.000Z,MISSION_0036,0,0,takeoff,SITE_PUN_007,18.5203994,73.8567007,1.5,314.81,0.0,0.091,0.1,1.0088,-0.7292,314.812,-0.92322,-0.00568,0.00926,0.38412,-0.096,-0.0008,-9.8099,-0.384,-0.1101,0.059,0.2295,3,20,0.74,0.87,0.22,24.781,18.52,97.3,37.2,21404.0,8144,8285,8301,8253,53.5,54.9,55.2,56.8,2.815,2.738,2.724,2.813,7.93,215.9,29.3,33.3,1013.12,-36.75,0.88,1.32,26.4,36.2,29.0,0,no_anomaly,0.0,0,0,0,0,18.5203994,73.8567007,1.5,0.0
2024-05-14T17:02:00.100Z,MISSION_0036,1,0,takeoff,SITE_PUN_007,18.5204018,73.8567007,3.0,315.7,0.078,0.051,0.21,-7.3596,-1.3607,315.6986,-0.92393,0.06391,-0.01322,0.37695,0.1622,-0.0735,-9.799,0.4992,-0.1546,-0.1674,0.2344,3,15,0.65,0.97,0.32,24.764,17.07,97.2,37.5,21387.0,7996,8432,8444,8178,56.4,50.7,56.3,51.1,2.861,2.815,2.982,2.604,6.72,213.7,29.5,34.6,1012.87,-29.19,-0.98,1.81,23.7,41.8,33.2,0,no_anomaly,0.0,0,0,0,0,18.5204018,73.8567007,3.0,0.0
2024-05-14T17:02:00.200Z,MISSION_0036,2,0,takeoff,SITE_PUN_007,18.5204005,73.8567015,4.5,318.01,0.564,0.132,0.18,-6.3486,-3.4544,318.0107,-0.93116,0.06246,0.00827,0.35913,-0.2632,-0.0771,-9.8306,0.1094,0.0348,0.3917,0.2163,3,20,0.67,0.79,0.31,24.802,21.92,97.1,39.0,21370.0,8066,8056,8206,8331,54.5,55.4,54.0,53.8,2.954,3.002,2.87,2.644,6.98,226.2,29.9,34.2,1012.52,-27.92,-0.64,1.21,25.1,35.1,29.6,0,no_anomaly,0.0,0,0,0,0,18.5204005,73.8567015,4.5,0.0
2024-05-14T17:02:00.300Z,MISSION_0036,3,0,takeoff,SITE_PUN_007,18.5204024,73.8566961,5.0,319.64,0.764,0.094,0.51,-2.1062,-2.4924,319.643,-0.9381,0.02475,0.01407,0.34518,-0.3905,-0.0342,-9.8445,0.0012,-0.1987,0.2115,0.2042,3,14,0.71,1.02,0.38,24.707,20.16,97.1,37.8,21353.0,8096,8014,8503,8125,56.2,56.3,56.8,55.1,2.953,2.917,2.759,2.697,8.18,211.7,29.8,33.5,1012.72,-33.57,-0.14,1.16,22.9,35.4,28.5,0,no_anomaly,0.0,0,0,0,0,18.5204024,73.8566961,5.0,0.0
2024-05-14T17:02:00.400Z,MISSION_0036,4,0,takeoff,SITE_PUN_007,18.5204011,73.8566943,5.0,320.71,0.607,0.072,0.65,2.8445,-1.9965,320.7065,-0.9415,-0.01752,0.02475,0.33566,0.2523,-0.0135,-9.8242,0.9952,-0.2284,0.1907,0.1941,3,14,0.67,0.89,0.29,24.817,19.53,97.0,37.2,21337.0,7930,8650,8433,8393,55.6,57.2,54.2,53.2,2.811,2.823,2.663,2.626,8.05,202.4,29.0,34.3,1012.51,-29.9,1.07,1.25,23.1,37.8,34.1,0,no_anomaly,0.0,0,0,0,0,18.5204011,73.8566943,5.0,0.0
2024-05-14T17:02:00.500Z,MISSION_0036,5,0,takeoff,SITE_PUN_007,18.5204004,73.8566892,5.0,319.72,0.761,0.084,1.2,6.6984,-2.3221,319.7178,-0.93746,-0.04787,0.0391,0.34256,0.102,0.0606,-9.8566,0.4557,-0.0174,-0.068,0.3508,3,16,0.56,0.71,0.2,24.721,19.55,96.9,37.6,21320.0,8426,8107,8274,8401,51.5,53.9,55.9,51.5,2.949,2.906,2.682,2.719,7.63,218.7,29.4,34.0,1012.86,-33.41,0.01,1.19,23.4,40.8,34.4,0,no_anomaly,0.0,0,0,0,0,18.5204004,73.8566892,5.0,0.0
2024-05-14T17:02:00.600Z,MISSION_0036,6,0,takeoff,SITE_PUN_007,18.5204005,73.8566916,5.0,319.32,0.973,0.034,0.94,0.6759,-1.569,319.3249,-0.93759,-0.00077,0.01489,0.34744,0.2128,0.052,-9.7137,1.1991,0.9622,0.0067,0.2732,3,14,0.75,0.95,0.29,24.659,16.21,96.8,36.8,21303.0,7999,8282,8137,8263,53.3,54.4,52.5,56.2,2.839,2.384,2.944,3.002,8.0,214.7,29.4,34.2,1012.31,-33.75,0.29,1.38,25.0,42.6,31.3,0,no_anomaly,0.0,0,0,0,0,18.5204005,73.8566916,5.0,0.0
2024-05-14T17:02:00.700Z,MISSION_0036,7,0,takeoff,SITE_PUN_007,18.520402,73.8566931,5.0,321.74,0.629,0.125,0.8,-7.159,-1.593,321.7373,-0.94255,0.06353,-0.00735,0.32788,-0.18,0.0095,-9.8197,0.1267,0.2913,0.0578,0.2178,3,12,0.73,0.83,0.37,24.747,20.87,96.8,37.7,21286.0,8316,8211,8337,8129,54.3,53.8,52.3,52.9,2.731,3.121,2.795,2.674,7.61,214.3,29.5,33.2,1013.11,-30.04,0.63,1.43,26.8,41.5,33.6,0,no_anomaly,0.0,0,0,0,0,18.520402,73.8566931,5.0,0.0
2024-05-14T17:02:00.800Z,MISSION_0036,8,0,takeoff,SITE_PUN_007,18.5204012,73.8566921,5.0,321.14,0.529,0.141,0.9,-2.6655,-0.221,321.1371,-0.94277,0.02257,-0.00592,0.33263,0.1074,0.0439,-9.7811,0.0834,0.0628,0.1931,0.2356,3,16,0.89,0.9,0.32,24.678,19.54,96.7,36.8,21269.0,8051,8224,8469,8315,54.0,55.1,52.7,58.5,2.866,2.818,2.915,2.826,7.83,208.9,29.4,33.7,1013.22,-30.84,-1.6,1.54,24.6,37.2,30.8,0,no_anomaly,0.0,0,0,0,0,18.5204012,73.8566921,5.0,0.0
2024-05-14T17:02:00.900Z,MISSION_0036,9,0,takeoff,SITE_PUN_007,18.5204095,73.8566955,5.0,321.45,0.241,0.055,1.17,-4.2103,-2.3614,321.4494,-0.94286,0.04146,0.00731,0.33053,0.5375,0.0258,-9.742,0.1378,0.0663,-0.0742,0.3065,3,18,0.64,0.71,0.2,24.666,16.98,96.6,37.5,21252.0,8110,8280,8399,8167,53.2,54.0,53.4,54.4,2.789,2.853,2.598,2.585,7.44,212.1,29.1,34.0,1012.78,-33.74,1.7,1.51,22.8,32.2,27.1,0,no_anomaly,0.0,0,0,0,0,18.5204095,73.8566955,5.0,0.0
2024-05-14T17:02:01.000Z,MISSION_0036,10,0,takeoff,SITE_PUN_007,18.5204086,73.8566902,5.0,321.82,0.396,0.088,1.45,-1.3802,-1.4745,321.8181,-0.9448,0.01559,0.00822,0.32716,-0.4795,0.0229,-9.8746,-0.7655,-0.0135,-0.065,0.1184,3,19,0.53,0.89,0.21,24.69,16.67,96.5,37.9,21235.0,8226,8431,8339,8426,54.9,54.2,54.0,53.8,2.856,2.645,3.118,2.891,7.15,214.9,29.5,34.0,1013.0,-26.88,-0.58,1.99,23.2,36.2,31.3,0,no_anomaly,0.0,0,0,0,0,18.5204086,73.8566902,5.0,0.0
2024-05-14T17:02:01.100Z,MISSION_0036,11,0,takeoff,SITE_PUN_007,18.5204077,73.8566868,5.0,321.94,0.484,0.011,1.7,6.4632,-0.1817,321.9367,-0.94386,-0.05277,0.01988,0.32549,0.1707,-0.0385,-9.7634,0.6122,-0.6745,-0.3358,0.3049,3,20,0.78,0.98,0.23,24.761,14.62,96.4,37.4,21219.0,8246,8172,8012,8252,55.1,59.7,55.0,54.8,2.575,2.918,2.722,2.489,8.06,224.4,29.1,33.5,1012.74,-22.28,0.8,1.88,22.0,42.7,31.6,0,no_anomaly,0.0,0,0,0,0,18.5204077,73.8566868,5.0,0.0
2024-05-14T17:02:01.200Z,MISSION_0036,12,0,takeoff,SITE_PUN_007,18.5204066,73.8566878,5.0,321.35,0.427,0.079,1.54,-1.6286,-3.0636,321.3481,-0.94309,0.02225,0.02052,0.33115,-0.012,0.0004,-9.7666,-0.1715,-0.4276,-0.4262,0.3234,3,18,0.77,0.76,0.3,24.71,19.41,96.4,37.5,21202.0,8217,8272,8197,7981,54.4,53.1,53.7,55.7,2.692,2.772,3.044,2.712,6.36,217.2,29.6,33.5,1012.58,-30.07,-0.29,1.56,26.0,40.2,33.9,0,no_anomaly,0.0,0,0,0,0,18.5204066,73.8566878,5.0,0.0
2024-05-14T17:02:01.300Z,MISSION_0036,13,0,takeoff,SITE_PUN_007,18.5204041,73.8566877,5.0,317.65,0.72,0.086,1.45,-3.2812,0.4445,317.6466,-0.93212,0.0253,-0.01396,0.36099,0.04,-0.0041,-9.7771,0.0163,-0.3914,0.2673,0.2723,3,20,0.88,0.96,0.45,24.725,20.53,96.3,37.6,21185.0,8505,8469,8530,8310,53.8,54.6,53.8,54.8,2.744,2.856,3.07,2.609,7.88,215.6,29.3,33.9,1012.82,-26.98,-0.35,1.82,22.2,35.8,32.1,0,no_anomaly,0.0,0,0,0,0,18.5204041,73.8566877,5.0,0.0
2024-05-14T17:02:01.400Z,MISSION_0036,14,0,takeoff,SITE_PUN_007,18.520404,73.8566873,5.0,318.76,0.317,0.053,1.48,4.9509,-5.1682,318.7571,-0.93479,-0.02452,0.05735,0.34968,-0.148,0.0346,-9.9057,0.5506,0.0077,0.2306,0.2741,3,20,0.68,0.77,0.28,24.589,14.26,96.2,37.4,21168.0,8148,8252,8211,8280,57.1,53.7,55.2,53.9,2.941,2.853,2.775,2.885,8.31,217.5,29.5,34.0,1012.8,-29.07,0.08,1.71,26.4,39.5,33.4,0,no_anomaly,0.0,0,0,0,0,18.520404,73.8566873,5.0,0.0
2024-05-14T17:02:01.500Z,MISSION_0036,15,0,takeoff,SITE_PUN_007,18.5204056,73.8566885,5.0,319.06,0.082,0.024,1.42,0.2642,-2.3694,319.0618,-0.93667,0.00507,0.02018,0.34958,-0.0599,0.0958,-9.7997,-0.499,-0.5926,-0.2607,0.2106,3,17,0.78,0.92,0.23,24.733,20.22,96.1,38.1,21151.0,8545,8177,8315,8330,53.8,55.0,53.7,49.8,2.639,2.91,2.758,2.678,7.08,211.5,29.3,32.9,1012.95,-31.88,1.5,1.95,23.4,43.7,34.7,0,no_anomaly,0.0,0,0,0,0,18.5204056,73.8566885,5.0,0.0
2024-05-14T17:02:01.600Z,MISSION_0036,16,0,takeoff,SITE_PUN_007,18.5204051,73.8566847,5.0,317.95,0.419,0.103,1.8,3.3762,-2.9446,317.9482,-0.93298,-0.01827,0.03454,0.35781,-0.1023,-0.0011,-9.7225,-0.7107,0.2453,0.044,0.2462,3,19,0.85,0.79,0.38,24.62,16.2,96.1,38.3,21134.0,7945,8319,7983,8357,53.3,53.2,50.8,53.6,2.786,2.948,2.747,2.696,6.77,206.6,29.1,33.3,1012.62,-28.61,1.57,1.21,22.0,36.8,30.6,0,no_anomaly,0.0,0,0,0,0,18.5204051,73.8566847,5.0,0.0
2024-05-14T17:02:01.700Z,MISSION_0036,17,0,takeoff,SITE_PUN_007,18.5204069,73.8566821,5.0,317.48,0.744,0.108,2.13,-2.4482,1.3591,317.4795,-0.93176,0.01561,-0.0188,0.36226,0.0058,0.0316,-9.8632,0.0892,0.4421,1.0737,0.247,3,20,0.77,0.66,0.44,24.677,16.58,96.0,37.0,21117.0,8340,8267,8058,8392,54.6,55.7,54.6,53.4,2.659,3.019,2.997,2.689,7.77,211.2,29.0,34.2,1012.48,-32.48,-0.53,1.29,22.4,36.8,30.9,0,no_anomaly,0.0,0,0,0,0,18.5204069,73.8566821,5.0,0.0
2024-05-14T17:02:01.800Z,MISSION_0036,18,0,takeoff,SITE_PUN_007,18.5204025,73.8566819,5.0,316.13,1.033,0.068,2.04,-3.2028,-4.4535,316.1296,-0.92614,0.04041,0.0256,0.37414,-0.1107,-0.0632,-9.886,-0.1477,-0.223,0.3103,0.3316,3,15,0.87,0.85,0.45,24.704,19.46,95.9,37.2,21101.0,8341,8183,8465,8321,54.6,52.8,57.6,58.7,2.812,2.658,2.793,2.662,7.1,220.2,29.4,34.1,1012.62,-26.45,0.34,1.68,22.1,38.9,32.2,0,no_anomaly,0.0,0,0,0,0,18.5204025,73.8566819,5.0,0.0
2024-05-14T17:02:01.900Z,MISSION_0036,19,0,takeoff,SITE_PUN_007,18.5204011,73.856685,5.0,315.87,1.093,0.169,1.68,-0.6554,-2.3219,315.8747,-0.92652,0.01291,0.01663,0.37564,-0.0183,0.1027,-9.8059,0.5404,-0.0846,0.0876,0.2672,3,15,0.76,0.96,0.31,24.672,17.34,95.8,37.4,21084.0,8413,8018,8251,8518,48.1,56.7,54.4,53.9,2.998,2.862,2.772,2.883,7.45,215.7,29.3,33.8,1012.66,-32.71,0.98,1.0,25.9,42.9,31.6,0,no_anomaly,0.0,0,0,0,0,18.5204011,73.856685,5.0,0.0
2024-05-14T17:02:02.000Z,MISSION_0036,20,0,takeoff,SITE_PUN_007,18.5204042,73.8566858,5.0,317.06,1.419,0.067,1.65,-0.5204,-3.6169,317.0556,-0.93007,0.01578,0.02771,0.366,-0.3215,-0.0259,-9.8242,-0.1028,0.0804,0.0469,0.1788,3,11,0.73,0.98,0.36,24.678,18.85,95.8,37.6,21067.0,8203,8156,8071,8151,55.7,55.2,53.3,55.9,2.9,2.734,2.616,2.876,8.25,212.9,29.7,33.5,1012.46,-29.53,-0.86,1.46,23.7,37.7,30.2,0,no_anomaly,0.0,0,0,0,0,18.5204042,73.8566858,5.0,0.0
2024-05-14T17:02:02.100Z,MISSION_0036,21,0,takeoff,SITE_PUN_007,18.5204019,73.8566857,5.0,317.01,1.221,0.097,1.61,5.749,-1.3937,317.0141,-0.92945,-0.04221,0.02967,0.36533,-0.0492,-0.0878,-9.7467,0.0758,-0.0651,0.0504,0.2575,3,18,0.66,0.84,0.2,24.789,17.71,95.7,38.2,21050.0,8261,8103,7821,8416,53.0,55.0,54.5,54.9,2.596,2.692,2.92,2.773,8.31,214.2,29.3,33.5,1012.85,-26.47,0.27,1.15,23.7,40.9,32.7,0,no_anomaly,0.0,0,0,0,0,18.5204019,73.8566857,5.0,0.0
2024-05-14T17:02:02.200Z,MISSION_0036,22,0,takeoff,SITE_PUN_007,18.5204022,73.8566834,5.0,318.18,1.209,0.128,1.86,2.9975,-2.4465,318.185,-0.93382,-0.01681,0.02927,0.35614,-0.2831,0.0571,-9.8155,0.6011,-0.5804,-0.2835,0.1863,3,20,0.76,0.95,0.33,24.725,22.86,95.6,37.8,21033.0,8370,8253,8481,8214,56.4,53.0,53.5,54.7,2.56,2.915,2.782,2.741,7.83,211.3,29.1,33.6,1012.72,-26.31,0.58,1.1,21.6,35.6,29.9,0,no_anomaly,0.0,0,0,0,0,18.5204022,73.8566834,5.0,0.0
2024-05-14T17:02:02.300Z,MISSION_0036,23,0,takeoff,SITE_PUN_007,18.5204015,73.8566838,5.0,319.93,0.922,0.189,1.81,5.7614,-1.0799,319.9313,-0.93842,-0.04399,0.02606,0.34169,-0.0538,-0.0199,-9.8781,0.444,-0.7321,-0.038,0.2404,3,18,0.73,0.63,0.3,24.701,28.03,95.5,37.7,21016.0,8045,8238,8352,8208,56.6,52.5,51.9,54.1,2.947,2.65,2.776,3.042,8.51,214.9,29.4,33.3,1012.73,-34.35,-1.09,1.74,29.7,42.2,35.8,0,no_anomaly,0.0,0,0,0,0,18.5204015,73.8566838,5.0,0.0
2024-05-14T17:02:02.400Z,MISSION_0036,24,0,takeoff,SITE_PUN_007,18.5203985,73.856687,5.0,323.02,0.464,0.166,1.45,12.1772,-2.9813,323.0197,-0.94358,-0.09235,0.05816,0.31263,-0.3348,-0.0157,-9.793,-0.0889,-0.1052,0.5517,0.1296,3,18,0.58,0.81,0.24,24.744,16.36,95.5,37.9,20999.0,7979,8376,8357,8518,54.6,54.1,53.8,52.1,2.846,2.512,2.513,2.742,7.25,218.9,29.0,33.4,1012.6,-32.09,-0.92,1.23,23.5,40.8,32.6,0,no_anomaly,0.0,0,0,0,0,18.5203985,73.856687,5.0,0.0
2024-05-14T17:02:02.500Z,MISSION_0036,25,0,takeoff,SITE_PUN_007,18.5204042,73.8566871,5.0,322.94,0.0,0.112,1.51,0.8319,-3.7692,322.9376,-0.94769,0.00357,0.03349,0.31741,-0.1599,-0.0287,-9.7263,0.1759,0.5485,-0.1705,0.2423,3,15,0.73,0.85,0.22,24.619,21.65,95.4,37.5,20983.0,8145,8097,8512,8551,53.7,57.0,53.7,56.5,2.95,2.96,2.816,2.84,7.99,213.2,29.1,34.1,1012.62,-28.91,-1.23,1.55,24.4,43.5,32.3,0,no_anomaly,0.0,0,0,0,0,18.5204042,73.8566871,5.0,0.0
2024-05-14T17:02:02.600Z,MISSION_0036,26,0,takeoff,SITE_PUN_007,18.520406,73.8566897,5.0,324.95,0.0,0.225,1.33,2.1318,-3.4915,324.9462,-0.95314,-0.00856,0.03464,0.30042,-0.0226,-0.0722,-9.834,0.3487,-0.1673,0.5459,0.2823,3,11,0.81,1.12,0.38,24.656,14.97,95.3,38.0,20966.0,8436,8057,8145,8302,55.3,48.3,55.7,53.3,2.741,2.681,2.771,2.757,7.97,206.5,29.0,33.2,1012.9,-28.78,-0.23,1.52,26.3,43.1,30.4,0,no_anomaly,0.0,0,0,0,0,18.520406,73.8566897,5.0,0.0
2024-05-14T17:02:02.700Z,MISSION_0036,27,0,takeoff,SITE_PUN_007,18.5204042,73.8566903,5.0,325.12,0.0,0.168,1.17,2.2771,-1.1926,325.1237,-0.95386,-0.01584,0.01588,0.2994,0.2043,0.037,-9.7564,-0.3649,-0.4728,0.0735,0.2573,3,15,0.62,0.9,0.28,24.688,17.06,95.2,37.2,20949.0,8359,8579,8174,8109,54.6,52.7,55.6,52.5,2.952,2.793,2.617,2.693,6.84,219.6,29.4,34.6,1013.0,-29.45,-0.81,1.37,21.1,40.7,34.0,0,no_anomaly,0.0,0,0,0,0,18.5204042,73.8566903,5.0,0.0
2024-05-14T17:02:02.800Z,MISSION_0036,28,0,takeoff,SITE_PUN_007,18.5204061,73.8566925,5.0,325.92,0.0,0.04,1.07,4.7886,-2.0608,325.9193,-0.95533,-0.03467,0.02942,0.29202,-0.2083,0.0061,-9.7915,-0.1299,-0.532,0.1535,0.2334,3,11,0.7,0.82,0.26,24.718,17.98,95.1,37.6,20932.0,8283,8209,8345,7923,51.7,55.0,52.1,56.8,2.787,2.895,2.911,2.668,7.3,225.5,29.4,32.9,1012.79,-30.25,1.86,1.57,22.5,44.1,30.8,0,no_anomaly,0.0,0,0,0,0,18.5204061,73.8566925,5.0,0.0
2024-05-14T17:02:02.900Z,MISSION_0036,29,0,takeoff,SITE_PUN_007,18.5204085,73.8566899,5.0,321.65,0.181,0.037,1.48,-4.4504,-4.0623,321.6525,-0.94277,0.04828,0.02071,0.32928,0.0138,-0.0931,-9.8295,-0.6109,-0.2893,0.1245,0.2198,3,13,0.6,0.78,0.23,24.717,24.45,95.1,37.4,20915.0,8296,8151,8415,8407,56.5,54.2,54.2,51.8,2.632,2.603,2.836,2.895,6.86,214.9,29.2,33.9,1012.53,-28.93,-1.26,1.53,25.1,41.5,31.6,0,no_anomaly,0.0,0,0,0,0,18.5204085,73.8566899,5.0,0.0
2024-05-14T17:02:03.000Z,MISSION_0036,30,0,takeoff,SITE_PUN_007,18.5204068,73.8566903,5.0,322.62,0.187,0.096,1.32,0.1011,-2.2381,322.6161,-0.94708,0.00542,0.01878,0.3204,0.303,-0.0048,-9.8205,0.3294,-0.086,0.4043,0.2358,3,19,0.61,1.1,0.36,24.619,19.2,95.0,37.1,20898.0,7868,8276,8134,8509,55.9,58.5,57.0,53.4,2.997,2.642,2.74,2.758,7.04,214.7,29.4,32.6,1012.55,-24.88,1.96,1.51,23.6,35.7,33.5,0,no_anomaly,0.0,0,0,0,0,18.5204068,73.8566903,5.0,0.0
2024-05-14T17:02:03.100Z,MISSION_0036,31,0,takeoff,SITE_PUN_007,18.5204039,73.8566932,5.0,324.36,0.884,0.099,0.87,-1.0871,-3.0551,324.3563,-0.95155,0.01719,0.02247,0.30618,-0.0236,-0.0619,-9.7665,-0.1178,0.2996,0.698,0.246,3,16,0.58,0.71,0.2,24.699,17.07,94.9,38.1,20881.0,8202,8238,8448,8401,50.9,57.1,55.7,55.0,2.671,2.577,2.764,2.769,7.48,223.7,29.4,33.4,1012.84,-33.44,0.76,1.57,26.9,38.0,30.6,0,no_anomaly,0.0,0,0,0,0,18.5204039,73.8566932,5.0,0.0
2024-05-14T17:02:03.200Z,MISSION_0036,32,0,takeoff,SITE_PUN_007,18.5204066,73.8566988,5.0,323.47,0.847,0.079,0.74,-2.0943,-0.4829,323.4654,-0.94941,0.01867,-0.00173,0.31347,-0.0944,0.0174,-9.7889,-0.2706,0.4361,-0.0989,0.3384,3,14,0.82,0.98,0.47,24.695,14.82,94.8,37.4,20865.0,8017,8378,8406,8296,55.1,52.4,55.2,52.9,3.08,2.929,2.753,2.768,6.85,212.1,29.3,34.1,1012.74,-30.87,1.42,1.11,22.6,37.7,30.1,0,no_anomaly,0.0,0,0,0,0,18.5204066,73.8566988,5.0,0.0
2024-05-14T17:02:03.300Z,MISSION_0036,33,0,takeoff,SITE_PUN_007,18.5204071,73.8567002,5.0,324.36,1.143,0.115,0.79,-3.8652,-3.426,324.3603,-0.95075,0.04123,0.01813,0.30667,0.2145,-0.0765,-9.8431,0.0412,-0.7305,-0.133,0.2077,3,13,0.65,0.86,0.29,24.678,23.25,94.8,37.1,20848.0,8151,8145,8055,8249,57.2,54.1,53.1,57.0,2.666,2.804,2.884,2.947,7.26,213.2,29.9,33.0,1012.91,-24.77,0.68,1.24,24.6,36.1,32.3,0,no_anomaly,0.0,0,0,0,0,18.5204071,73.8567002,5.0,0.0
2024-05-14T17:02:03.400Z,MISSION_0036,34,0,takeoff,SITE_PUN_007,18.520405,73.8567012,5.0,325.29,0.569,0.046,0.57,1.1005,-4.5879,325.2932,-0.95379,0.00278,0.04107,0.29764,0.2047,0.0715,-9.7499,0.2183,-0.4332,0.1242,0.3045,3,18,0.84,0.88,0.33,24.658,18.32,94.7,37.0,20831.0,8348,8327,8238,7999,55.2,56.9,55.9,54.9,2.535,2.932,2.84,2.892,7.86,220.2,29.2,33.9,1012.71,-29.21,-0.64,1.79,26.1,42.9,34.4,0,no_anomaly,0.0,0,0,0,0,18.520405,73.8567012,5.0,0.0
2024-05-14T17:02:03.500Z,MISSION_0036,35,0,takeoff,SITE_PUN_007,18.5204043,73.8567015,5.0,326.69,0.231,0.128,0.5,-1.642,-1.0598,326.6927,-0.95788,0.01638,0.00475,0.28667,-0.1919,0.0112,-9.7231,0.5737,0.6152,-0.01,0.3069,3,18,0.71,0.95,0.34,24.611,21.55,94.6,37.5,20814.0,8319,8354,8298,8358,56.1,55.5,51.1,57.1,2.714,2.552,2.918,2.916,7.32,212.2,29.6,33.8,1012.75,-29.35,-0.65,1.56,28.7,41.1,32.8,0,no_anomaly,0.0,0,0,0,0,18.5204043,73.8567015,5.0,0.0
2024-05-14T17:02:03.600Z,MISSION_0036,36,0,takeoff,SITE_PUN_007,18.5204028,73.856704,5.0,326.34,0.276,0.021,0.54,3.6354,-0.414,326.3363,-0.9567,-0.02931,0.01264,0.28931,-0.4638,0.0138,-9.8586,0.2556,-0.6114,0.3815,0.2598,3,11,0.88,0.91,0.33,24.624,19.05,94.5,37.2,20797.0,8117,8510,8253,7992,54.2,53.6,57.3,54.9,2.696,2.869,2.892,2.534,7.83,220.2,29.3,33.7,1012.52,-28.78,-0.46,1.59,27.6,40.1,34.8,0,no_anomaly,0.0,0,0,0,0,18.5204028,73.856704,5.0,0.0
2024-05-14T17:02:03.700Z,MISSION_0036,37,0,takeoff,SITE_PUN_007,18.5204008,73.8567027,5.0,324.82,0.0,0.104,0.31,-2.6666,-3.107,324.8173,-0.95244,0.03036,0.01881,0.30263,-0.1464,-0.0639,-9.7108,-0.7166,-0.2296,-0.3614,0.3023,3,16,0.69,1.02,0.22,24.688,18.59,94.5,37.7,20780.0,8352,8187,8032,8083,53.1,55.8,54.3,54.0,2.69,2.884,2.835,2.604,7.51,221.8,29.2,33.5,1012.66,-29.62,0.22,1.87,24.4,39.1,33.9,0,no_anomaly,0.0,0,0,0,0,18.5204008,73.8567027,5.0,0.0
2024-05-14T17:02:03.800Z,MISSION_0036,38,0,takeoff,SITE_PUN_007,18.5204007,73.8567069,5.0,324.72,0.0,0.121,0.77,-0.6139,-2.5155,324.7205,-0.9527,0.01176,0.01929,0.30307,0.299,-0.0474,-9.8017,-0.4905,-0.2487,-0.1155,0.2834,3,20,0.58,1.17,0.2,24.735,14.6,94.4,36.7,20763.0,8192,8140,8272,8433,56.5,54.5,50.8,55.8,2.751,2.901,2.752,2.87,8.0,210.5,29.2,33.3,1012.62,-24.3,0.82,1.38,22.6,42.0,33.1,0,no_anomaly,0.0,0,0,0,0,18.5204007,73.8567069,5.0,0.0
2024-05-14T17:02:03.900Z,MISSION_0036,39,0,takeoff,SITE_PUN_007,18.5204004,73.8567089,5.0,324.99,0.0,0.085,0.99,-6.1511,-2.9026,324.9894,-0.9516,0.05876,0.00799,0.30156,-0.2133,-0.0702,-9.7358,-0.8418,-0.1935,0.2372,0.2491,3,11,0.8,0.99,0.47,24.709,21.59,94.3,36.9,20747.0,8516,8362,8368,8295,51.3,54.3,56.6,57.3,2.496,2.912,2.86,2.831,8.28,222.2,29.2,33.5,1012.74,-32.04,0.12,1.2,27.2,39.2,33.4,0,no_anomaly,0.0,0,0,0,0,18.5204004,73.8567089,5.0,0.0
2024-05-14T17:02:04.000Z,MISSION_0036,40,0,takeoff,SITE_PUN_007,18.5204002,73.8567131,5.0,325.58,0.071,0.169,1.46,-3.0632,-1.8046,325.576,-0.95463,0.03019,0.00713,0.29617,-0.2293,-0.0561,-9.8202,-0.2103,0.4331,-0.1244,0.2412,3,11,0.64,1.13,0.33,24.643,14.73,94.2,38.1,20730.0,8636,7974,8345,8299,54.7,57.8,54.2,51.2,2.701,2.967,3.036,2.83,8.23,214.5,29.4,33.5,1012.58,-26.94,0.14,1.54,26.2,42.1,33.8,0,no_anomaly,0.0,0,0,0,0,18.5204002,73.8567131,5.0,0.0
2024-05-14T17:02:04.100Z,MISSION_0036,41,0,takeoff,SITE_PUN_007,18.5204002,73.8567136,5.0,323.93,0.271,0.124,1.52,-2.5141,-2.997,323.9284,-0.95013,0.02895,0.01807,0.30998,-0.0784,-0.027,-9.8181,1.1156,-0.0762,0.0571,0.1295,3,14,0.69,0.98,0.34,24.551,16.57,94.1,37.0,20713.0,8340,8040,8129,8331,53.6,51.7,53.8,52.1,2.627,2.681,2.563,2.896,6.93,219.9,29.4,33.6,1013.07,-34.52,-0.01,2.01,23.2,35.9,30.5,0,no_anomaly,0.0,0,0,0,0,18.5204002,73.8567136,5.0,0.0
2024-05-14T17:02:04.200Z,MISSION_0036,42,0,takeoff,SITE_PUN_007,18.5204012,73.8567133,5.0,323.18,0.0,0.155,1.48,-2.4893,-3.4429,323.1811,-0.94797,0.03009,0.02164,0.31621,0.1982,-0.0151,-9.8629,-0.3118,0.1872,0.1715,0.2455,3,18,0.8,1.01,0.42,24.61,22.28,94.1,37.2,20696.0,8170,8088,8506,8482,55.4,56.2,53.4,56.3,2.636,3.013,2.7,2.76,7.09,217.2,29.3,34.0,1012.36,-33.28,0.1,1.45,26.0,37.4,32.8,0,no_anomaly,0.0,0,0,0,0,18.5204012,73.8567133,5.0,0.0
2024-05-14T17:02:04.300Z,MISSION_0036,43,0,takeoff,SITE_PUN_007,18.5203983,73.8567103,5.0,322.79,0.211,0.086,1.16,-7.281,-0.7259,322.7857,-0.94567,0.06219,-0.01427,0.31881,-0.4272,-0.0654,-9.8119,-0.3137,-0.409,0.0562,0.2062,3,19,0.61,0.81,0.34,24.579,21.92,94.0,37.1,20679.0,8174,8228,7981,8210,55.0,55.9,54.5,55.7,2.73,2.748,2.897,2.786,8.3,218.2,29.4,33.2,1012.91,-31.41,-0.36,1.34,23.0,43.8,32.3,0,no_anomaly,0.0,0,0,0,0,18.5203983,73.8567103,5.0,0.0
2024-05-14T17:02:04.400Z,MISSION_0036,44,0,takeoff,SITE_PUN_007,18.5204013,73.8567085,5.0,323.79,0.105,0.074,0.95,-0.8314,-3.6165,323.7903,-0.94992,0.0167,0.02774,0.31081,0.0346,0.0241,-9.7619,-0.0971,0.4892,-0.4344,0.2394,3,11,0.63,1.04,0.2,24.664,21.71,93.9,38.2,20662.0,8032,8163,8164,8267,55.0,55.3,50.8,53.2,2.649,2.662,2.767,2.685,7.19,214.6,29.5,32.3,1012.63,-29.79,-0.16,1.82,21.5,37.8,32.4,0,no_anomaly,0.0,0,0,0,0,18.5204013,73.8567085,5.0,0.0
2024-05-14T17:02:04.500Z,MISSION_0036,45,0,takeoff,SITE_PUN_007,18.5204013,73.8567094,5.0,322.84,0.607,0.137,1.05,2.467,-1.081,322.8438,-0.94769,-0.0174,0.0158,0.31832,-0.0144,-0.0516,-9.8302,0.6954,1.0408,0.3849,0.2453,3,10,0.89,0.78,0.37,24.561,18.98,93.8,36.9,20645.0,8354,8195,8294,8150,57.2,53.0,49.0,54.0,2.662,2.959,2.708,2.701,7.4,227.4,29.6,33.8,1012.69,-26.2,-0.62,2.0,24.2,41.5,31.2,0,no_anomaly,0.0,0,0,0,0,18.5204013,73.8567094,5.0,0.0
2024-05-14T17:02:04.600Z,MISSION_0036,46,0,takeoff,SITE_PUN_007,18.5203973,73.8567119,5.0,321.06,0.449,0.139,1.36,-0.6205,-3.1123,321.0612,-0.94241,0.01415,0.0238,0.33331,0.0408,-0.0016,-9.8261,0.0562,0.56,0.6531,0.1824,3,14,0.68,1.17,0.37,24.674,18.02,93.8,37.1,20629.0,8332,8180,8325,8284,55.2,55.8,50.3,55.2,2.828,2.866,2.809,2.964,7.53,215.9,29.7,33.9,1012.78,-27.17,-1.16,1.37,24.0,42.6,33.1,0,no_anomaly,0.0,0,0,0,0,18.5203973,73.8567119,5.0,0.0
2024-05-14T17:02:04.700Z,MISSION_0036,47,0,takeoff,SITE_PUN_007,18.5203989,73.8567131,5.0,323.27,0.873,0.103,1.47,0.3956,0.3535,323.2714,-0.94906,-0.00425,-0.00184,0.31506,-0.3018,0.0113,-9.7763,0.185,0.2744,-0.0441,0.3046,3,15,0.52,0.97,0.24,24.61,21.37,93.7,37.2,20612.0,8217,8129,8193,8283,59.7,52.5,56.4,54.6,3.088,2.863,2.768,2.938,7.64,220.8,29.2,34.4,1012.46,-32.03,0.54,1.43,23.3,35.6,29.6,0,no_anomaly,0.0,0,0,0,0,18.5203989,73.8567131,5.0,0.0
2024-05-14T17:02:04.800Z,MISSION_0036,48,0,takeoff,SITE_PUN_007,18.5203983,73.8567068,5.0,322.83,0.806,0.186,0.78,1.8473,-1.8768,322.8341,-0.9477,-0.01006,0.02066,0.31834,0.1462,-0.0369,-9.8672,0.188,-0.1183,0.2694,0.1736,3,15,0.86,0.6,0.42,24.566,21.59,93.6,37.5,20595.0,8170,8453,8196,8036,52.1,56.1,50.0,54.0,2.485,2.811,2.862,2.949,7.28,211.4,29.6,34.0,1012.96,-29.71,-2.06,1.69,24.2,40.1,31.2,0,no_anomaly,0.0,0,0,0,0,18.5203983,73.8567068,5.0,0.0
2024-05-14T17:02:04.900Z,MISSION_0036,49,0,takeoff,SITE_PUN_007,18.5204018,73.8567015,5.0,320.98,1.182,0.132,0.26,-2.4053,-0.3196,320.9834,-0.94236,0.02072,-0.00438,0.33392,0.1702,0.0321,-9.7906,-0.4685,-0.6454,0.4382,0.2842,3,10,0.66,0.7,0.27,24.636,21.41,93.5,37.0,20578.0,8139,8001,8243,8427,57.9,57.6,58.1,53.8,2.737,2.757,2.669,2.878,7.5,212.5,29.6,33.6,1012.73,-32.12,0.4,1.34,26.8,38.6,30.7,0,no_anomaly,0.0,0,0,0,0,18.5204018,73.8567015,5.0,0.0
2024-05-14T17:02:05.000Z,MISSION_0036,50,0,takeoff,SITE_PUN_007,18.5204003,73.8567034,5.0,321.78,0.501,0.149,0.38,3.7352,-2.5868,321.7826,-0.9444,-0.0234,0.03198,0.32641,0.2256,-0.0056,-9.826,-0.2327,0.5299,-0.0774,0.2672,3,17,0.69,0.8,0.41,24.591,17.92,93.5,36.9,20561.0,8037,8211,8166,8077,52.5,51.5,55.6,52.5,2.852,2.801,2.772,2.737,7.69,203.8,29.4,34.5,1012.78,-29.15,-0.94,1.72,28.0,42.6,34.0,0,no_anomaly,0.0,0,0,0,0,18.5204003,73.8567034,5.0,0.0
2024-05-14T17:02:05.100Z,MISSION_0036,51,0,takeoff,SITE_PUN_007,18.5204015,73.8566961,5.0,320.18,0.617,0.101,0.47,-0.1847,-0.5004,320.1805,-0.94022,0.003,0.00356,0.34054,0.3607,-0.0303,-9.8541,0.2149,0.4006,0.3458,0.2007,3,13,0.64,0.92,0.28,24.628,21.56,93.4,37.4,20544.0,7932,8196,8200,8274,56.5,57.6,57.7,51.4,2.81,2.863,3.025,2.746,7.78,207.9,29.5,34.0,1012.78,-32.85,0.92,1.46,23.9,36.3,31.3,0,no_anomaly,0.0,0,0,0,0,18.5204015,73.8566961,5.0,0.0
2024-05-14T17:02:05.200Z,MISSION_0036,52,0,takeoff,SITE_PUN_007,18.5203989,73.8566936,5.0,321.6,0.735,0.259,0.73,-0.4996,-1.4981,321.5957,-0.94426,0.00842,0.01091,0.32892,-0.2335,0.0451,-9.8804,0.659,0.7755,-0.0404,0.3215,3,10,0.51,1.13,0.2,24.669,16.76,93.3,37.2,20527.0,8131,8425,8274,8578,54.7,53.7,51.5,57.4,2.662,2.789,2.691,3.221,6.55,218.3,29.0,33.2,1012.69,-31.68,-0.4,1.83,26.2,43.2,29.5,0,no_anomaly,0.0,0,0,0,0,18.5203989,73.8566936,5.0,0.0
2024-05-14T17:02:05.300Z,MISSION_0036,53,0,takeoff,SITE_PUN_007,18.5203936,73.856694,5.0,320.75,1.212,0.12,0.98,4.5586,-1.2227,320.7465,-0.94124,-0.03388,0.0234,0.33521,0.1989,-0.0351,-9.7959,-1.1351,0.1619,-0.4735,0.2971,3,20,0.71,1.11,0.38,24.569,16.95,93.2,37.7,20511.0,8207,8246,8010,8563,55.7,50.8,55.1,51.7,2.753,2.775,2.912,2.997,6.33,215.0,29.7,33.7,1012.89,-32.02,0.38,1.4,24.3,42.6,32.1,0,no_anomaly,0.0,0,0,0,0,18.5203936,73.856694,5.0,0.0
2024-05-14T17:02:05.400Z,MISSION_0036,54,0,takeoff,SITE_PUN_007,18.5203901,73.8566968,5.0,324.71,1.306,0.12,1.16,-0.2388,-0.7373,324.7133,-0.95294,0.00394,0.0055,0.3031,-0.4559,-0.005,-9.7837,0.2945,-0.3643,0.2272,0.2278,3,13,0.83,0.98,0.23,24.661,14.56,93.2,37.5,20494.0,8281,8307,8351,8438,57.7,56.3,52.4,54.3,2.932,2.743,2.732,2.774,7.18,217.3,29.6,33.4,1013.03,-32.29,-0.97,1.63,25.4,41.7,31.4,0,no_anomaly,0.0,0,0,0,0,18.5203901,73.8566968,5.0,0.0
2024-05-14T17:02:05.500Z,MISSION_0036,55,0,takeoff,SITE_PUN_007,18.5203905,73.8566972,5.0,324.39,1.791,0.112,1.1,-1.0245,-2.1956,324.3909,-0.95184,0.01437,0.01551,0.30587,0.1276,-0.0148,-9.8766,0.0143,-0.6506,0.1585,0.2726,3,10,0.58,0.6,0.21,24.614,18.15,93.1,38.8,20477.0,8348,8258,8006,8334,54.8,54.9,50.8,51.3,2.578,2.86,2.642,2.885,6.58,214.9,29.9,34.2,1012.71,-33.72,-0.36,1.83,27.3,43.8,30.9,0,no_anomaly,0.0,0,0,0,0,18.5203905,73.8566972,5.0,0.0
2024-05-14T17:02:05.600Z,MISSION_0036,56,0,takeoff,SITE_PUN_007,18.5203962,73.856694,5.0,327.57,2.231,0.084,0.79,-0.9146,-2.1909,327.5746,-0.95998,0.013,0.01613,0.27929,-0.0139,0.0355,-9.8099,-0.2863,0.6391,0.7703,0.1642,3,18,0.76,0.79,0.39,24.527,21.07,93.0,37.3,20460.0,8184,8618,8415,8215,53.1,56.2,52.8,55.9,2.506,2.58,2.71,2.704,7.55,216.0,29.3,33.0,1012.37,-26.04,0.68,1.63,27.5,43.0,30.3,0,no_anomaly,0.0,0,0,0,0,18.5203962,73.856694,5.0,0.0
2024-05-14T17:02:05.700Z,MISSION_0036,57,0,takeoff,SITE_PUN_007,18.5203986,73.8566917,5.0,326.3,2.405,0.099,0.94,-0.0897,-2.195,326.2998,-0.95689,0.0063,0.0181,0.28983,0.1831,-0.0775,-9.7105,-0.454,0.1585,0.3382,0.2263,3,13,0.58,0.75,0.2,24.597,20.68,92.9,37.7,20443.0,8196,8221,8385,8418,52.0,56.1,58.6,54.4,2.744,2.6,2.563,2.739,8.24,207.4,29.3,34.3,1012.63,-30.13,-0.31,1.05,25.0,39.4,31.9,0,no_anomaly,0.0,0,0,0,0,18.5203986,73.8566917,5.0,0.0
2024-05-14T17:02:05.800Z,MISSION_0036,58,0,takeoff,SITE_PUN_007,18.5203967,73.8566945,5.0,327.07,2.211,0.085,0.71,-0.1512,0.7059,327.0678,-0.95897,-0.00048,-0.00628,0.28343,0.0685,0.0825,-9.798,-0.0117,-0.358,-0.0924,0.2928,3,20,0.86,1.01,0.35,24.577,22.26,92.8,37.3,20426.0,8416,8144,8282,8350,55.2,56.7,50.2,58.7,2.748,2.894,2.682,2.816,7.24,208.6,29.6,33.1,1012.66,-27.85,0.31,1.54,21.6,38.5,32.7,0,no_anomaly,0.0,0,0,0,0,18.5203967,73.8566945,5.0,0.0
2024-05-14T17:02:05.900Z,MISSION_0036,59,0,takeoff,SITE_PUN_007,18.5203963,73.8566967,5.0,325.48,2.536,0.035,0.55,1.175,-2.1598,325.4806,-0.95481,-0.0042,0.02104,0.29645,-0.0048,-0.0061,-9.8833,-0.5756,0.609,0.1252,0.2915,3,17,0.5,1.01,0.2,24.626,14.23,92.8,38.6,20409.0,8311,8562,8003,8307,55.1,51.7,54.0,51.2,2.994,2.809,2.893,2.719,7.42,223.3,29.4,33.8,1012.39,-27.8,0.94,1.18,21.9,40.7,29.4,0,no_anomaly,0.0,0,0,0,0,18.5203963,73.8566967,5.0,0.0
2024-05-14T17:02:06.000Z,MISSION_0036,60,0,takeoff,SITE_PUN_007,18.5204012,73.8566975,5.0,325.26,2.69,0.093,0.31,6.8592,-1.0807,325.2557,-0.9528,-0.05428,0.02685,0.29749,-0.3146,-0.0521,-9.8627,0.4274,0.2474,0.1823,0.2217,3,15,0.74,0.98,0.41,24.623,21.11,92.7,37.2,20393.0,8127,8052,8315,8284,49.0,58.5,56.1,53.8,3.108,2.829,2.877,3.019,7.42,223.3,29.5,33.4,1012.71,-31.17,-1.03,1.72,22.2,42.6,31.0,0,no_anomaly,0.0,0,0,0,0,18.5204012,73.8566975,5.0,0.0
2024-05-14T17:02:06.100Z,MISSION_0036,61,0,takeoff,SITE_PUN_007,18.520402,73.8567019,5.0,325.24,2.184,0.127,0.31,-4.6603,-3.0779,325.2351,-0.95287,0.0468,0.01347,0.29944,0.2804,0.0175,-9.8319,0.0814,0.8793,-0.3962,0.2029,3,14,0.62,1.12,0.3,24.658,26.57,92.6,38.1,20376.0,8194,8320,8252,8320,51.6,52.3,55.1,56.3,2.85,2.982,2.829,2.916,7.63,217.1,29.3,33.9,1012.73,-31.12,0.32,1.6,23.6,35.2,33.4,0,no_anomaly,0.0,0,0,0,0,18.520402,73.8567019,5.0,0.0
2024-05-14T17:02:06.200Z,MISSION_0036,62,0,takeoff,SITE_PUN_007,18.5204068,73.8567034,5.0,323.7,2.411,0.085,0.85,2.5338,-1.122,323.7031,-0.95004,-0.01796,0.01619,0.31118,-0.0719,-0.0074,-9.8662,-0.0642,0.0995,-0.3976,0.1795,3,10,0.68,0.61,0.31,24.551,17.38,92.5,37.7,20359.0,8488,8277,8075,8099,57.4,54.8,59.1,54.9,2.876,2.899,2.974,3.102,7.17,217.4,29.2,33.2,1012.63,-27.04,0.95,1.7,23.1,38.2,31.8,0,no_anomaly,0.0,0,0,0,0,18.5204068,73.8567034,5.0,0.0
2024-05-14T17:02:06.300Z,MISSION_0036,63,0,takeoff,SITE_PUN_007,18.5204054,73.8567007,5.0,322.79,2.519,0.104,0.6,0.5184,-2.627,322.7918,-0.94752,0.00303,0.02317,0.31884,0.1717,-0.0206,-9.9018,-0.4894,-0.4095,-0.0385,0.2264,3,19,0.83,0.98,0.33,24.596,18.39,92.5,37.9,20342.0,8441,8022,8261,8167,53.7,57.0,54.8,54.5,2.736,2.757,2.807,2.814,7.29,208.8,29.3,33.4,1012.63,-27.82,-0.1,1.45,22.3,43.7,33.1,0,no_anomaly,0.0,0,0,0,0,18.5204054,73.8567007,5.0,0.0
2024-05-14T17:02:06.400Z,MISSION_0036,64,0,takeoff,SITE_PUN_007,18.5204044,73.8567046,5.0,322.03,3.065,0.04,0.71,1.7403,-1.0794,322.0323,-0.94551,-0.0113,0.01385,0.32511,-0.3008,0.0366,-9.7611,0.2986,-0.0995,-0.2836,0.2306,3,14,0.93,1.2,0.3,24.596,16.7,92.4,37.6,20325.0,8035,8323,8539,8310,54.1,52.8,54.0,54.8,2.848,2.949,3.019,2.849,8.21,215.6,29.2,34.3,1012.85,-27.25,0.43,1.0,25.5,42.8,33.9,0,no_anomaly,0.0,0,0,0,0,18.5204044,73.8567046,5.0,0.0
2024-05-14T17:02:06.500Z,MISSION_0036,65,0,takeoff,SITE_PUN_007,18.5204091,73.8567042,5.0,322.89,3.671,0.133,1.11,1.9012,-1.6407,322.8946,-0.94788,-0.01117,0.01885,0.31788,-0.4074,-0.0177,-9.7845,0.5653,0.0017,0.4761,0.2291,3,18,0.78,0.79,0.21,24.653,21.18,92.3,37.4,20308.0,8659,8388,8277,8403,59.0,53.9,53.8,56.9,2.905,2.836,2.702,2.715,6.88,205.1,29.3,34.6,1012.76,-29.87,-0.2,1.61,26.3,43.4,32.6,0,no_anomaly,0.0,0,0,0,0,18.5204091,73.8567042,5.0,0.0
2024-05-14T17:02:06.600Z,MISSION_0036,66,0,takeoff,SITE_PUN_007,18.5204107,73.8567041,5.0,324.8,3.152,0.112,1.28,-1.7971,-0.1147,324.7993,-0.95307,0.01525,-0.00379,0.30235,0.1648,0.008,-9.8203,0.7126,1.0991,0.0942,0.2995,3,12,0.54,0.79,0.2,24.522,17.86,92.2,37.7,20291.0,8332,8223,8140,8383,54.1,56.6,52.3,54.9,2.469,2.896,2.644,2.723,7.31,217.3,29.8,34.2,1012.96,-30.57,1.37,1.37,23.2,44.4,34.1,0,no_anomaly,0.0,0,0,0,0,18.5204107,73.8567041,5.0,0.0
2024-05-14T17:02:06.700Z,MISSION_0036,67,0,takeoff,SITE_PUN_007,18.5204098,73.8567078,5.0,323.4,3.06,0.133,1.39,-0.6988,-3.2892,323.4006,-0.94896,0.0148,0.02533,0.31402,-0.0973,0.0834,-9.7985,-0.7396,0.622,0.2711,0.1796,3,10,0.64,0.97,0.43,24.602,20.87,92.2,37.4,20275.0,8350,8253,8263,8266,53.0,53.6,57.0,56.2,2.588,2.724,2.784,2.987,7.5,222.2,29.2,34.1,1012.46,-27.52,1.07,1.48,28.4,43.4,31.5,0,no_anomaly,0.0,0,0,0,0,18.5204098,73.8567078,5.0,0.0
2024-05-14T17:02:06.800Z,MISSION_0036,68,0,takeoff,SITE_PUN_007,18.5204057,73.856709,5.0,325.37,3.083,0.073,1.18,-1.0328,-0.953,325.3742,-0.9546,0.01108,0.00526,0.29764,-0.051,-0.0025,-9.8463,0.3861,0.206,-0.2348,0.3313,3,15,0.68,0.76,0.32,24.664,23.28,92.1,37.8,20258.0,8129,8269,8176,8361,51.3,55.2,55.2,55.4,2.845,2.852,2.49,2.663,6.5,217.5,29.3,32.6,1012.77,-31.53,1.6,2.14,25.4,36.4,29.8,0,no_anomaly,0.0,0,0,0,0,18.5204057,73.856709,5.0,0.0
2024-05-14T17:02:06.900Z,MISSION_0036,69,0,takeoff,SITE_PUN_007,18.5204058,73.8567125,5.0,323.73,3.501,0.091,1.53,-3.2042,-2.0983,323.7308,-0.94964,0.03226,0.00869,0.31156,0.2117,0.0265,-9.7582,-1.0361,-0.5325,0.0751,0.1889,3,16,0.64,0.93,0.43,24.545,21.03,92.0,38.0,20241.0,8054,8519,8298,8273,54.0,55.4,52.8,52.9,2.747,3.167,2.73,3.099,7.06,218.3,29.1,33.7,1012.81,-30.58,-0.68,1.69,27.3,41.7,33.0,0,no_anomaly,0.0,0,0,0,0,18.5204058,73.8567125,5.0,0.0
2024-05-14T17:02:07.000Z,MISSION_0036,70,0,takeoff,SITE_PUN_007,18.5204066,73.8567127,5.0,324.84,3.399,0.135,1.6,1.8995,-1.9934,324.8424,-0.95311,-0.01055,0.02159,0.30166,-0.2075,0.0315,-9.8536,0.8465,0.4922,0.2003,0.2997,3,13,0.69,0.8,0.22,24.567,17.89,91.9,37.5,20224.0,8246,7995,8206,8331,54.6,56.4,53.1,54.4,2.961,2.874,2.954,2.799,8.11,209.7,29.5,34.0,1012.92,-28.52,0.8,2.46,24.1,43.7,34.3,0,no_anomaly,0.0,0,0,0,0,18.5204066,73.8567127,5.0,0.0
2024-05-14T17:02:07.100Z,MISSION_0036,71,0,takeoff,SITE_PUN_007,18.5204098,73.8567048,5.0,324.17,3.876,0.123,1.21,5.0143,0.0583,324.1744,-0.95061,-0.04178,0.01297,0.3073,-0.3373,-0.0299,-9.8899,-0.3203,0.019,-0.274,0.181,3,11,0.73,0.89,0.34,24.581,19.55,91.9,37.2,20207.0,8170,8344,8236,8223,53.5,52.9,55.4,52.6,2.678,2.849,2.535,2.667,7.34,212.2,29.3,33.2,1012.54,-27.67,0.22,1.79,22.8,41.5,31.3,0,no_anomaly,0.0,0,0,0,0,18.5204098,73.8567048,5.0,0.0
2024-05-14T17:02:07.200Z,MISSION_0036,72,0,takeoff,SITE_PUN_007,18.5204076,73.8567037,5.0,323.07,4.137,0.062,0.93,1.5318,-3.4949,323.0711,-0.94812,-0.00302,0.03315,0.31615,-0.0295,-0.0467,-9.798,0.3512,-0.2555,-0.6208,0.2699,3,12,0.62,0.94,0.2,24.528,18.31,91.8,37.4,20190.0,7952,8273,8201,8217,52.0,57.2,59.7,52.2,2.651,2.745,2.844,2.634,7.85,212.9,29.2,33.4,1012.44,-28.02,0.87,1.72,23.3,43.2,31.3,0,no_anomaly,0.0,0,0,0,0,18.5204076,73.8567037,5.0,0.0
2024-05-14T17:02:07.300Z,MISSION_0036,73,0,takeoff,SITE_PUN_007,18.5204061,73.8567033,5.0,325.36,3.566,0.053,0.77,-1.6146,-2.7314,325.3594,-0.95419,0.02054,0.01856,0.29792,-0.115,0.0934,-9.73,-0.8886,0.7001,0.059,0.2469,3,16,0.74,0.99,0.35,24.596,21.77,91.7,37.0,20173.0,8138,8212,8420,8186,54.7,59.9,50.7,56.6,2.999,2.468,2.663,2.683,7.36,212.5,29.3,33.3,1012.9,-24.28,-2.16,1.98,21.3,37.9,28.9,0,no_anomaly,0.0,0,0,0,0,18.5204061,73.8567033,5.0,0.0
2024-05-14T17:02:07.400Z,MISSION_0036,74,0,takeoff,SITE_PUN_007,18.5204062,73.8566981,5.0,325.13,3.222,0.098,0.72,2.1167,-1.7089,325.1327,-0.95388,-0.01315,0.01976,0.29925,0.4252,-0.0085,-9.7499,-0.295,0.0894,0.3581,0.2919,3,14,0.82,1.05,0.33,24.557,10.86,91.6,36.8,20157.0,8167,8130,8073,8284,57.6,58.0,52.9,53.8,2.655,2.734,2.608,2.729,7.85,216.7,29.6,33.7,1012.77,-32.77,-0.77,2.0,25.8,42.9,34.5,0,no_anomaly,0.0,0,0,0,0,18.5204062,73.8566981,5.0,0.0
2024-05-14T17:02:07.500Z,MISSION_0036,75,0,takeoff,SITE_PUN_007,18.5204095,73.8566997,5.0,323.24,2.801,0.108,1.06,2.0609,-0.6348,323.2418,-0.94885,-0.01532,0.01093,0.31515,-0.263,0.0031,-9.8162,-1.173,-0.2621,0.0286,0.3277,3,15,0.68,0.72,0.28,24.544,21.39,91.5,36.9,20140.0,8332,8302,8217,8356,54.4,54.0,50.9,57.4,2.644,2.906,3.004,2.757,7.93,206.0,29.5,33.6,1012.49,-26.17,-1.56,1.26,22.9,38.0,33.7,0,no_anomaly,0.0,0,0,0,0,18.5204095,73.8566997,5.0,0.0
2024-05-14T17:02:07.600Z,MISSION_0036,76,0,takeoff,SITE_PUN_007,18.5204092,73.8567017,5.0,324.82,2.678,0.069,1.04,-1.6541,-2.3853,324.8211,-0.95285,0.02005,0.01548,0.30238,0.2555,-0.0053,-9.9043,-0.6944,-0.2815,0.3169,0.2721,3,16,0.7,0.9,0.27,24.691,17.64,91.5,38.0,20123.0,8208,8394,8268,8189,52.8,56.4,52.8,54.1,2.71,2.561,2.849,2.724,7.42,218.5,29.4,33.6,1012.72,-34.01,-0.19,1.0,27.1,42.2,35.5,0,no_anomaly,0.0,0,0,0,0,18.5204092,73.8567017,5.0,0.0
2024-05-14T17:02:07.700Z,MISSION_0036,77,0,transit,SITE_PUN_007,18.5204081,73.8567076,5.5,322.51,2.82,0.133,1.24,-4.4669,-3.4725,322.5122,-0.94543,0.04662,0.01615,0.32207,-0.3746,0.0721,-9.8199,-0.1164,0.4954,-0.2268,0.2022,3,11,0.67,1.02,0.23,24.557,19.72,91.4,36.5,20106.0,8198,8267,8372,8128,50.3,53.3,54.9,56.1,2.543,2.799,2.562,3.077,7.1,212.4,29.0,32.9,1012.79,-27.12,1.32,1.0,24.1,35.4,32.9,0,no_anomaly,0.0,0,0,0,0,18.5204081,73.8567076,5.5,0.0
2024-05-14T17:02:07.800Z,MISSION_0036,78,0,transit,SITE_PUN_007,18.5204074,73.8567094,6.0,324.12,2.902,0.071,1.33,7.1249,-2.4956,324.1197,-0.94973,-0.05241,0.03981,0.30607,-0.0189,-0.0152,-9.7996,0.1217,0.0402,0.3049,0.307,3,10,0.86,0.98,0.23,24.531,19.74,91.3,36.7,20089.0,8277,8405,8253,8476,50.5,56.1,53.2,55.3,2.785,2.636,2.617,2.675,6.61,215.7,29.1,34.5,1012.84,-30.41,-0.09,1.55,21.6,42.2,33.3,0,no_anomaly,0.0,0,0,0,0,18.5204074,73.8567094,6.0,0.0
2024-05-14T17:02:07.900Z,MISSION_0036,79,0,transit,SITE_PUN_007,18.5204052,73.8567125,6.5,324.99,2.981,0.034,1.5,2.8769,-2.8588,324.9916,-0.95329,-0.01643,0.03133,0.29999,0.1832,0.0482,-9.8917,-0.4181,0.497,-0.3104,0.1376,3,18,0.56,0.88,0.2,24.554,11.74,91.2,37.3,20072.0,8439,7987,8358,8431,57.0,52.4,57.6,51.0,2.979,2.795,2.861,2.585,7.7,215.2,29.3,33.3,1012.54,-33.2,1.57,1.54,23.2,42.4,33.2,0,no_anomaly,0.0,0,0,0,0,18.5204052,73.8567125,6.5,0.0
2024-05-14T17:02:08.000Z,MISSION_0036,80,0,transit,SITE_PUN_007,18.5204022,73.8567173,7.0,327.39,2.775,0.141,1.94,0.7895,-1.7968,327.3945,-0.95968,-0.00221,0.01698,0.28057,-0.4421,0.03,-9.8709,-0.1008,-0.2911,-0.022,0.2081,3,10,0.69,0.76,0.34,24.579,21.52,91.2,38.6,20055.0,8113,8423,8477,8178,52.6,54.1,52.0,53.5,3.039,2.96,2.739,2.719,6.87,217.9,29.6,32.9,1012.9,-29.06,-1.19,1.44,25.9,43.9,30.6,0,no_anomaly,0.0,0,0,0,0,18.5204022,73.8567173,7.0,0.0
2024-05-14T17:02:08.100Z,MISSION_0036,81,0,transit,SITE_PUN_007,18.5203994,73.8567127,7.5,326.42,2.203,0.119,1.42,2.298,-3.4869,326.4201,-0.95691,-0.0104,0.03491,0.28809,-0.1867,-0.0627,-9.8983,0.1854,0.0872,0.37,0.2844,3,17,0.56,0.92,0.21,24.612,23.89,91.1,37.6,20039.0,8077,8007,8321,8290,52.9,54.8,55.2,51.2,2.855,2.562,2.75,2.989,6.91,218.6,29.3,33.3,1012.81,-31.06,1.43,1.46,26.3,37.3,34.6,0,no_anomaly,0.0,0,0,0,0,18.5203994,73.8567127,7.5,0.0
2024-05-14T17:02:08.200Z,MISSION_0036,82,0,transit,SITE_PUN_007,18.5204007,73.8567194,8.0,323.82,1.63,0.106,2.16,-6.2061,-2.4799,323.8204,-0.94859,0.05815,0.00374,0.31109,-0.0584,-0.059,-9.8698,0.6685,-0.1232,-0.401,0.2207,3,18,0.7,0.92,0.2,24.605,18.04,91.0,38.5,20022.0,8369,8428,8216,8233,51.1,58.6,52.6,56.1,2.732,2.755,2.778,2.516,6.81,218.5,29.2,33.0,1013.07,-29.94,-0.84,1.53,25.9,40.9,29.0,0,no_anomaly,0.0,0,0,0,0,18.5204007,73.8567194,8.0,0.0
2024-05-14T17:02:08.300Z,MISSION_0036,83,0,transit,SITE_PUN_007,18.5204006,73.8567245,8.5,321.01,1.314,0.19,2.73,-7.5077,-2.6964,321.0064,-0.93986,0.06953,0.00029,0.3344,0.1151,0.128,-9.8167,0.0014,-0.3182,-0.1603,0.1785,3,14,0.62,1.0,0.2,24.566,18.41,90.9,37.5,20005.0,8646,8222,8206,8532,56.7,54.4,55.1,54.6,2.949,2.744,2.819,2.717,8.18,214.8,29.6,33.9,1012.97,-32.22,0.88,1.93,23.0,38.8,31.1,0,no_anomaly,0.0,0,0,0,0,18.5204006,73.8567245,8.5,0.0
2024-05-14T17:02:08.400Z,MISSION_0036,84,0,transit,SITE_PUN_007,18.5204041,73.8567274,9.0,321.1,1.656,0.046,3.09,-4.4453,-2.0161,321.0951,-0.94184,0.04242,0.00366,0.33337,0.058,0.0183,-9.8488,1.6377,0.562,0.0292,0.2459,3,20,0.71,0.79,0.33,24.541,23.04,90.9,37.8,19988.0,7941,8157,8261,8451,55.8,55.1,54.6,54.7,3.205,2.585,2.526,2.9,7.11,222.9,29.5,33.7,1012.52,-29.77,0.36,1.4,23.8,42.7,30.8,0,no_anomaly,0.0,0,0,0,0,18.5204041,73.8567274,9.0,0.0
2024-05-14T17:02:08.500Z,MISSION_0036,85,0,transit,SITE_PUN_007,18.5204017,73.8567355,9.5,318.99,1.524,0.131,3.96,-4.6905,-1.2797,318.9851,-0.93562,0.04223,-0.00388,0.35044,0.1807,-0.0752,-9.7929,0.0104,-0.2587,-0.6464,0.254,3,18,0.71,0.81,0.42,24.458,17.42,90.8,36.9,19971.0,8469,8166,8457,8460,55.6,54.7,52.4,56.0,2.915,2.839,2.542,2.674,6.3,210.2,29.6,34.0,1012.6,-35.88,-0.64,1.93,23.2,42.6,33.9,0,no_anomaly,0.0,0,0,0,0,18.5204017,73.8567355,9.5,0.0
2024-05-14T17:02:08.600Z,MISSION_0036,86,0,transit,SITE_PUN_007,18.5204043,73.8567387,10.0,321.0,2.019,0.116,4.34,-0.2491,0.2889,320.9998,-0.94264,0.00121,-0.0031,0.3338,0.034,-0.0516,-9.8183,0.5731,-0.4617,0.4151,0.3443,3,19,0.87,0.87,0.42,24.561,25.73,90.7,37.6,19954.0,8334,8389,8450,8300,53.8,53.4,53.6,55.4,2.827,3.165,2.511,2.711,7.23,204.5,29.5,33.6,1012.67,-36.7,0.43,1.03,26.1,40.7,30.8,0,no_anomaly,0.0,0,0,0,0,18.5204043,73.8567387,10.0,0.0
2024-05-14T17:02:08.700Z,MISSION_0036,87,0,transit,SITE_PUN_007,18.5204046,73.8567361,10.5,319.41,2.469,0.079,4.05,-0.3429,-2.5324,319.4132,-0.93767,0.01047,0.01969,0.3468,0.0129,0.0704,-9.7654,0.3443,0.4628,0.2911,0.2102,3,14,0.7,0.84,0.32,24.611,22.24,90.6,37.8,19937.0,8007,8276,8204,8432,52.1,52.7,56.0,53.6,2.942,2.748,2.827,2.831,7.24,212.7,29.4,33.9,1012.53,-32.44,0.1,1.97,23.7,37.3,26.1,0,no_anomaly,0.0,0,0,0,0,18.5204046,73.8567361,10.5,0.0
2024-05-14T17:02:08.800Z,MISSION_0036,88,0,transit,SITE_PUN_007,18.5204039,73.8567387,11.0,319.35,2.427,0.112,4.33,1.9091,-4.2886,319.3546,-0.93718,-0.00262,0.04086,0.34643,0.0881,0.0608,-9.806,-0.19,-1.4722,-0.2762,0.2447,3,15,0.76,0.7,0.36,24.604,13.11,90.5,37.6,19921.0,8435,8228,8243,8030,54.2,53.2,54.6,54.3,2.739,2.668,2.991,2.818,7.1,210.4,29.3,33.2,1012.81,-26.99,-1.4,1.0,24.8,37.8,29.6,0,no_anomaly,0.0,0,0,0,0,18.5204039,73.8567387,11.0,0.0
2024-05-14T17:02:08.900Z,MISSION_0036,89,0,transit,SITE_PUN_007,18.5204001,73.8567395,11.5,319.06,2.268,0.104,4.4,-8.7327,0.4731,319.0612,-0.93424,0.06989,-0.03048,0.34839,0.0791,-0.0021,-9.817,0.6533,-0.1453,-0.3148,0.2994,3,16,0.68,0.84,0.3,24.533,22.05,90.5,37.8,19904.0,8071,8283,8290,8299,51.3,56.0,52.2,55.4,2.824,2.9,2.891,2.873,8.28,203.9,29.2,33.5,1012.75,-28.75,1.22,1.67,22.3,38.0,30.0,0,no_anomaly,0.0,0,0,0,0,18.5204001,73.8567395,11.5,0.0
2024-05-14T17:02:09.000Z,MISSION_0036,90,0,transit,SITE_PUN_007,18.5204026,73.8567409,12.0,320.13,2.424,0.028,4.56,-0.8039,-2.6998,320.1335,-0.93975,0.01462,0.01975,0.34098,0.373,-0.0181,-9.846,-0.3635,0.1006,-0.126,0.3493,3,13,0.66,0.6,0.2,24.498,14.43,90.4,38.3,19887.0,8350,8276,8366,8241,53.8,51.9,53.1,54.4,2.99,2.941,2.68,2.945,6.85,227.6,29.4,34.1,1012.44,-26.11,1.98,1.09,27.0,41.4,33.8,0,no_anomaly,0.0,0,0,0,0,18.5204026,73.8567409,12.0,0.0
2024-05-14T17:02:09.100Z,MISSION_0036,91,0,transit,SITE_PUN_007,18.520402,73.8567422,12.0,322.28,2.81,0.077,4.7,-1.7153,-2.7811,322.2828,-0.94582,0.022,0.01813,0.32345,0.0998,0.1128,-9.8695,-0.6979,0.4554,-0.0682,0.2773,3,11,0.66,1.0,0.32,24.471,16.99,90.3,37.7,19870.0,8553,8246,8360,8551,54.8,56.8,53.7,52.3,2.866,2.672,2.972,2.867,7.92,220.6,29.2,34.7,1012.69,-34.51,0.25,1.27,21.5,43.1,31.7,0,no_anomaly,0.0,0,0,0,0,18.520402,73.8567422,12.0,0.0
2024-05-14T17:02:09.200Z,MISSION_0036,92,0,transit,SITE_PUN_007,18.5203988,73.856746,12.0,321.09,3.034,0.124,5.12,6.3346,-3.5289,321.0944,-0.9416,-0.04183,0.04738,0.33076,-0.4831,-0.0159,-9.8077,0.0042,0.4317,-0.1377,0.1992,3,16,0.62,1.06,0.31,24.581,14.6,90.2,38.2,19853.0,8332,8289,8783,8140,53.3,56.3,53.6,52.6,2.58,2.849,2.881,2.786,7.36,221.1,29.2,34.0,1012.86,-31.19,2.14,1.04,24.5,40.1,33.3,0,no_anomaly,0.0,0,0,0,0,18.5203988,73.856746,12.0,0.0
2024-05-14T17:02:09.300Z,MISSION_0036,93,0,transit,SITE_PUN_007,18.5203997,73.8567463,12.0,321.52,3.621,0.157,5.16,2.5313,-1.6449,321.5198,-0.94392,-0.01612,0.02083,0.32911,-0.1248,-0.0314,-9.8703,0.2925,-0.4733,-0.055,0.2245,3,18,0.8,0.97,0.2,24.616,28.15,90.2,37.6,19836.0,8454,8393,8321,8291,53.6,56.9,55.6,53.1,2.835,2.63,2.864,2.973,7.4,223.3,29.4,34.0,1012.78,-31.51,-0.44,1.71,24.9,37.1,31.1,0,no_anomaly,0.0,0,0,0,0,18.5203997,73.8567463,12.0,0.0
2024-05-14T17:02:09.400Z,MISSION_0036,94,0,transit,SITE_PUN_007,18.5204019,73.8567463,12.0,324.34,3.914,0.089,5.16,-1.9222,-3.2781,324.3391,-0.9513,0.02472,0.02209,0.30649,-0.1736,0.0504,-9.8814,0.1822,0.1741,0.3426,0.3592,3,19,0.89,0.97,0.32,24.596,26.11,90.1,37.8,19819.0,8152,8262,7969,8277,59.1,53.5,54.5,56.0,2.653,2.964,2.811,2.903,7.99,218.4,29.3,33.7,1012.89,-33.31,-1.09,1.3,23.3,38.7,32.7,0,no_anomaly,0.0,0,0,0,0,18.5204019,73.8567463,12.0,0.0
2024-05-14T17:02:09.500Z,MISSION_0036,95,0,transit,SITE_PUN_007,18.5204035,73.8567448,12.0,324.87,3.951,0.152,5.01,-2.3444,1.3154,324.8725,-0.95319,0.01604,-0.01711,0.30146,0.2797,0.0393,-9.8213,0.0908,-0.7284,-0.2609,0.2194,3,10,0.71,0.88,0.28,24.54,18.99,90.0,37.2,19803.0,8300,8428,8043,8548,57.5,55.5,58.6,58.5,2.644,3.012,2.795,2.894,6.9,207.2,29.6,34.2,1012.79,-25.53,-1.2,1.38,22.7,38.5,30.1,0,no_anomaly,0.0,0,0,0,0,18.5204035,73.8567448,12.0,0.0
2024-05-14T17:02:09.600Z,MISSION_0036,96,0,transit,SITE_PUN_007,18.5204028,73.8567431,12.0,324.68,3.854,0.082,4.81,0.0114,-0.7895,324.6828,-0.95286,0.002,0.0066,0.30334,-0.333,0.0155,-9.7772,-0.6822,0.0406,0.0413,0.2608,3,16,0.65,1.17,0.27,24.578,19.97,89.9,38.1,19786.0,8325,8216,8358,8367,57.2,53.1,54.6,54.6,2.732,2.728,2.851,2.716,7.99,222.4,29.6,33.2,1012.55,-26.86,-0.44,1.4,28.5,38.3,35.4,0,no_anomaly,0.0,0,0,0,0,18.5204028,73.8567431,12.0,0.0
2024-05-14T17:02:09.700Z,MISSION_0036,97,0,transit,SITE_PUN_007,18.5204011,73.8567426,12.0,323.41,3.933,0.095,4.75,-1.2832,-1.5906,323.407,-0.94924,0.01499,0.00966,0.31403,0.0063,0.1177,-9.8077,-1.574,-1.1274,0.3388,0.3235,3,17,0.59,1.05,0.3,24.522,21.27,89.9,37.9,19769.0,8248,8297,8234,8278,54.1,53.6,54.9,52.4,2.82,3.068,2.725,2.845,7.48,217.1,29.5,33.9,1012.94,-30.34,-0.11,1.64,21.2,41.1,31.3,0,no_anomaly,0.0,0,0,0,0,18.5204011,73.8567426,12.0,0.0
2024-05-14T17:02:09.800Z,MISSION_0036,98,0,transit,SITE_PUN_007,18.5204015,73.8567448,12.0,323.13,3.979,0.169,4.99,-0.6357,-0.0256,323.1339,-0.94868,0.00533,-0.00154,0.31619,-0.0951,0.0147,-9.869,0.5453,-0.2136,0.1835,0.2351,3,16,0.73,0.86,0.25,24.53,19.64,89.8,37.5,19752.0,8060,8304,7897,8312,52.3,53.8,54.8,55.5,2.488,2.733,2.951,3.009,6.77,208.0,29.7,34.4,1012.76,-28.9,-0.84,1.69,24.0,42.1,33.5,0,no_anomaly,0.0,0,0,0,0,18.5204015,73.8567448,12.0,0.0
2024-05-14T17:02:09.900Z,MISSION_0036,99,0,transit,SITE_PUN_007,18.5203983,73.8567406,12.0,323.42,4.018,0.074,4.52,-4.1344,-2.7228,323.4182,-0.94832,0.04169,0.01123,0.31436,0.1145,0.058,-9.8143,-0.1049,-0.0982,0.3839,0.328,3,11,0.57,0.95,0.2,24.518,19.46,89.7,37.7,19735.0,8502,8036,8280,8428,52.7,54.3,52.6,56.9,2.641,2.68,2.826,2.651,7.07,221.2,29.0,33.6,1012.85,-29.27,0.12,1.46,24.3,36.9,32.6,0,no_anomaly,0.0,0,0,0,0,18.5203983,73.8567406,12.0,0.0
2024-05-14T17:02:10.000Z,MISSION_0036,100,0,transit,SITE_PUN_007,18.5203994,73.8567367,12.0,322.72,3.967,0.159,4.08,0.8188,-2.3466,322.7212,-0.94737,-0.00023,0.02169,0.3194,-0.1246,-0.1211,-9.831,-0.4914,0.0922,-0.0804,0.2667,3,17,0.62,0.99,0.22,24.52,22.67,89.6,38.3,19718.0,8556,8151,8158,8191,54.8,54.8,53.4,56.3,2.536,2.8,2.876,2.826,6.76,216.5,29.4,34.7,1012.75,-28.83,1.51,1.23,26.6,37.7,33.6,0,no_anomaly,0.0,0,0,0,0,18.5203994,73.8567367,12.0,0.0
2024-05-14T17:02:10.100Z,MISSION_0036,101,0,transit,SITE_PUN_007,18.520399,73.8567378,12.0,322.72,4.164,0.083,4.21,6.9207,-3.0882,322.7216,-0.946,-0.04857,0.04477,0.31737,0.0712,-0.0503,-9.7379,0.4312,0.3335,-0.4997,0.2955,3,14,0.63,0.97,0.3,24.557,17.06,89.6,38.7,19701.0,8003,8676,8302,8073,57.8,52.8,53.5,55.6,2.997,2.61,2.997,2.651,7.22,213.7,29.2,33.8,1012.69,-25.94,0.02,1.26,26.5,36.7,28.7,0,no_anomaly,0.0,0,0,0,0,18.520399,73.8567378,12.0,0.0
2024-05-14T17:02:10.200Z,MISSION_0036,102,0,transit,SITE_PUN_007,18.5203981,73.8567397,12.0,322.69,4.598,0.068,4.43,5.2204,-2.638,322.6905,-0.94656,-0.03578,0.03635,0.31846,0.1396,0.0768,-9.7057,0.4097,0.2326,0.1192,0.259,3,13,0.77,0.94,0.31,24.451,21.55,89.5,37.3,19685.0,8501,8090,8334,8491,54.0,58.0,52.8,51.7,2.802,2.922,2.939,2.666,7.52,210.7,29.3,33.6,1012.62,-30.78,-2.35,1.69,24.2,42.2,33.3,0,no_anomaly,0.0,0,0,0,0,18.5203981,73.8567397,12.0,0.0
2024-05-14T17:02:10.300Z,MISSION_0036,103,0,transit,SITE_PUN_007,18.5204024,73.8567359,12.0,323.95,4.62,0.086,4.01,4.2847,-1.288,323.9514,-0.95033,-0.03207,0.02225,0.30879,-0.0704,-0.0494,-9.765,0.6282,-0.2013,0.3277,0.1805,3,14,0.77,1.0,0.4,24.508,20.27,89.4,37.3,19668.0,8300,8304,8175,8074,54.2,56.2,55.1,52.8,2.882,2.925,2.777,2.751,7.7,209.8,29.2,33.6,1012.94,-30.4,0.04,1.0,25.0,36.9,31.7,0,no_anomaly,0.0,0,0,0,0,18.5204024,73.8567359,12.0,0.0
2024-05-14T17:02:10.400Z,MISSION_0036,104,0,transit,SITE_PUN_007,18.5204014,73.8567381,12.0,321.36,5.02,0.161,4.25,-2.4829,0.4482,321.3618,-0.94349,0.01915,-0.01086,0.33067,0.2559,-0.0468,-9.7755,-0.136,-0.1674,0.2301,0.2823,3,17,0.8,0.93,0.26,24.492,22.95,89.3,37.9,19651.0,8120,8456,8298,8378,54.8,58.0,53.3,58.8,2.882,2.819,2.558,2.756,7.02,217.9,29.3,33.6,1012.66,-25.5,0.98,1.13,25.7,38.7,30.9,0,no_anomaly,0.0,0,0,0,0,18.5204014,73.8567381,12.0,0.0
2024-05-14T17:02:10.500Z,MISSION_0036,105,0,transit,SITE_PUN_007,18.520405,73.8567362,12.0,319.88,5.761,-0.021,4.07,0.5249,-4.2219,319.8761,-0.93873,0.00834,0.03617,0.34264,0.1004,0.0984,-9.8553,-0.0494,-0.0122,0.3659,0.2743,3,12,0.76,0.82,0.3,24.553,20.78,89.2,37.8,19634.0,8347,8329,8342,8338,55.4,52.2,54.4,54.1,2.886,2.71,2.846,2.763,7.61,215.0,29.1,34.3,1013.11,-28.13,-1.65,1.77,28.8,41.1,35.7,0,no_anomaly,0.0,0,0,0,0,18.520405,73.8567362,12.0,0.0
2024-05-14T17:02:10.600Z,MISSION_0036,106,0,transit,SITE_PUN_007,18.520405,73.856732,12.0,319.66,6.242,0.137,3.61,-1.8188,-2.1931,319.6586,-0.93827,0.02149,0.01249,0.345,0.1642,0.0055,-9.8525,0.1019,0.502,-0.2408,0.1366,3,12,0.86,0.96,0.38,24.488,19.66,89.2,37.8,19617.0,8349,8240,8306,8106,52.0,55.9,53.9,52.1,2.74,2.641,2.804,2.697,7.89,219.7,29.3,34.1,1012.73,-31.07,1.07,1.38,24.5,36.8,30.1,0,no_anomaly,0.0,0,0,0,0,18.520405,73.856732,12.0,0.0
2024-05-14T17:02:10.700Z,MISSION_0036,107,0,transit,SITE_PUN_007,18.5204031,73.8567299,12.0,317.42,6.162,0.192,3.34,-3.7638,1.0284,317.4233,-0.93133,0.02734,-0.02028,0.36258,0.0783,0.0664,-9.9116,0.5938,0.5007,-0.0695,0.2764,3,11,1.07,0.89,0.58,24.499,18.42,89.1,37.1,19600.0,8330,8362,8303,8243,55.6,53.6,56.4,56.8,2.744,2.941,2.901,2.882,7.45,212.2,29.6,33.2,1013.02,-27.88,-1.14,1.9,22.1,37.1,32.8,0,no_anomaly,0.0,0,0,0,0,18.5204031,73.8567299,12.0,0.0
2024-05-14T17:02:10.800Z,MISSION_0036,108,0,transit,SITE_PUN_007,18.5203989,73.8567308,12.0,318.04,6.419,0.111,3.43,1.9181,0.2183,318.0408,-0.93356,-0.01631,0.00421,0.35801,0.1117,-0.0173,-9.955,-1.0199,-0.3315,-0.2355,0.2766,3,18,0.78,0.73,0.3,24.578,24.29,89.0,38.6,19583.0,8227,8257,8721,8209,55.5,54.7,55.7,51.0,2.819,2.548,2.784,2.742,7.01,213.7,29.4,34.5,1012.94,-31.64,-1.91,1.07,27.2,42.9,33.1,0,no_anomaly,0.0,0,0,0,0,18.5203989,73.8567308,12.0,0.0
2024-05-14T17:02:10.900Z,MISSION_0036,109,0,transit,SITE_PUN_007,18.5203908,73.8567355,12.0,318.75,6.824,0.091,4.08,-0.0822,-2.5917,318.7454,-0.93565,0.00864,0.02091,0.35221,0.0353,0.032,-9.8034,-0.2108,-0.0453,0.0375,0.2878,3,19,0.68,0.72,0.22,24.542,18.8,88.9,38.1,19567.0,8546,8120,8324,8253,53.2,56.3,55.3,58.3,2.73,2.733,2.937,2.705,8.23,218.5,29.4,33.0,1012.63,-32.52,0.44,1.76,23.2,35.3,33.0,0,no_anomaly,0.0,0,0,0,0,18.5203908,73.8567355,12.0,0.0
2024-05-14T17:02:11.000Z,MISSION_0036,110,0,transit,SITE_PUN_007,18.5203879,73.856737,12.0,316.83,6.781,0.159,4.34,2.9376,-1.2518,316.8314,-0.92962,-0.01982,0.01958,0.36747,-0.0653,-0.1007,-9.8424,0.6326,-0.2423,-0.2712,0.1798,3,17,0.76,1.05,0.27,24.452,20.12,88.9,38.0,19550.0,8412,8235,8258,8073,52.9,60.3,54.3,54.8,2.795,2.998,2.72,2.778,7.31,217.1,29.4,34.3,1012.52,-30.61,0.54,1.53,28.2,37.5,32.7,0,no_anomaly,0.0,0,0,0,0,18.5203879,73.856737,12.0,0.0
2024-05-14T17:02:11.100Z,MISSION_0036,111,0,transit,SITE_PUN_007,18.520386,73.8567414,12.0,314.17,6.987,0.121,4.87,2.2113,-0.9266,314.1688,-0.92094,-0.01462,0.01496,0.38915,0.0048,0.1143,-9.8064,0.9897,-1.2789,-0.0529,0.1372,3,20,0.5,0.72,0.2,24.593,22.06,88.8,37.6,19533.0,8330,8058,8333,8271,55.1,52.9,51.3,57.1,2.722,2.902,2.525,2.657,7.98,217.7,29.4,34.3,1012.55,-32.1,-0.21,1.9,25.9,35.0,30.6,0,no_anomaly,0.0,0,0,0,0,18.520386,73.8567414,12.0,0.0
2024-05-14T17:02:11.200Z,MISSION_0036,112,0,transit,SITE_PUN_007,18.520389,73.8567375,12.0,313.21,6.687,0.122,4.35,-2.7223,-0.515,313.2086,-0.91747,0.02359,-0.00531,0.39706,0.1869,0.0735,-9.7319,0.4342,-0.482,0.3664,0.2671,3,17,0.61,0.68,0.24,24.574,24.75,88.7,38.1,19516.0,8451,8167,8417,8252,56.3,55.2,55.0,57.5,2.979,2.824,2.68,2.975,6.98,215.1,29.3,34.1,1012.78,-33.01,-0.41,1.34,25.2,39.6,32.1,0,no_anomaly,0.0,0,0,0,0,18.520389,73.8567375,12.0,0.0
2024-05-14T17:02:11.300Z,MISSION_0036,113,0,transit,SITE_PUN_007,18.5203872,73.8567391,12.0,313.23,6.567,0.054,4.58,5.1017,-1.153,313.2319,-0.91709,-0.03686,0.02689,0.39607,0.0866,-0.0022,-9.818,0.1677,-1.333,0.2043,0.2864,3,10,0.7,0.94,0.22,24.553,27.18,88.6,37.8,19499.0,7955,7994,8264,8389,56.1,57.9,53.4,56.0,2.851,2.849,2.547,2.824,6.85,212.9,29.4,33.5,1012.75,-32.99,0.77,1.52,28.4,42.1,32.9,0,no_anomaly,0.0,0,0,0,0,18.5203872,73.8567391,12.0,0.0
2024-05-14T17:02:11.400Z,MISSION_0036,114,0,transit,SITE_PUN_007,18.5203876,73.8567379,12.0,313.13,6.514,0.078,4.44,-3.0506,-1.2626,313.1325,-0.91702,0.0288,-0.00048,0.39779,-0.2586,-0.0504,-9.8813,-0.6979,-0.2398,-0.2448,0.2501,3,15,0.56,0.98,0.29,24.516,26.68,88.6,37.9,19482.0,8248,8429,8512,8289,52.3,56.4,56.1,53.0,2.643,2.894,2.712,2.948,6.97,227.3,29.6,33.9,1012.99,-29.86,0.36,1.64,26.7,34.2,31.6,0,no_anomaly,0.0,0,0,0,0,18.5203876,73.8567379,12.0,0.0
2024-05-14T17:02:11.500Z,MISSION_0036,115,0,transit,SITE_PUN_007,18.5203901,73.8567389,12.0,314.65,6.382,0.157,4.47,-3.4523,-2.8938,314.6456,-0.92169,0.03752,0.01168,0.38594,0.3408,0.0179,-9.8648,0.2706,0.127,0.6396,0.2118,3,16,0.64,0.81,0.22,24.496,21.13,88.5,37.7,19465.0,8235,8434,8198,8260,56.1,52.1,52.2,56.4,2.888,2.723,2.592,2.931,6.87,216.7,29.4,33.9,1012.78,-35.99,0.26,2.04,23.6,34.4,31.7,0,no_anomaly,0.0,0,0,0,0,18.5203901,73.8567389,12.0,0.0
2024-05-14T17:02:11.600Z,MISSION_0036,116,0,transit,SITE_PUN_007,18.520394,73.8567373,12.0,312.43,6.5,0.104,4.2,0.8887,-2.4524,312.4336,-0.91491,0.00153,0.02271,0.40302,0.0237,-0.0171,-9.8273,0.015,-0.5648,-0.3728,0.2646,3,16,0.77,0.71,0.35,24.46,21.2,88.4,37.8,19449.0,8187,8244,8174,8259,51.5,53.7,53.9,57.9,2.739,2.597,2.876,2.783,7.47,221.1,29.6,33.4,1012.73,-28.82,0.67,1.68,25.6,36.3,32.8,0,no_anomaly,0.0,0,0,0,0,18.520394,73.8567373,12.0,0.0
2024-05-14T17:02:11.700Z,MISSION_0036,117,0,transit,SITE_PUN_007,18.5203929,73.8567355,12.0,313.25,6.709,0.093,4.03,3.8982,-2.2706,313.253,-0.91749,-0.02336,0.03167,0.3958,0.0679,0.0567,-9.8154,0.5161,-0.934,0.067,0.2243,3,17,0.63,0.74,0.34,24.511,21.28,88.3,37.6,19432.0,8454,8366,8568,8263,54.8,53.5,54.4,55.1,2.742,2.766,2.879,2.879,8.33,211.7,29.3,34.1,1012.81,-28.89,-1.76,1.66,24.4,41.6,30.8,0,no_anomaly,0.0,0,0,0,0,18.5203929,73.8567355,12.0,0.0
2024-05-14T17:02:11.800Z,MISSION_0036,118,0,transit,SITE_PUN_007,18.5203921,73.8567326,12.0,315.15,6.809,0.067,3.73,-1.4394,-1.8718,315.1506,-0.92411,0.01784,0.01031,0.38158,0.168,-0.0301,-9.8005,0.1278,-0.0496,0.1049,0.3146,3,10,0.67,1.21,0.26,24.478,20.38,88.2,37.2,19415.0,8507,8266,8492,8296,53.5,52.1,54.1,58.4,2.85,2.627,2.919,2.473,7.37,212.9,29.2,33.1,1012.51,-30.04,0.98,1.28,26.8,39.2,33.0,0,no_anomaly,0.0,0,0,0,0,18.5203921,73.8567326,12.0,0.0
2024-05-14T17:02:11.900Z,MISSION_0036,119,0,transit,SITE_PUN_007,18.520394,73.8567295,12.0,314.28,7.39,0.061,3.35,3.1723,-2.7235,314.2831,-0.92111,-0.01627,0.03264,0.38759,0.0432,-0.0214,-9.89,-0.6437,-0.8578,-0.275,0.3016,3,19,0.73,1.0,0.23,24.499,22.19,88.2,38.3,19398.0,8133,7990,8043,8062,50.9,55.0,53.9,55.4,2.721,2.681,2.77,2.991,8.01,217.1,29.1,33.9,1012.73,-31.66,-0.27,1.28,25.8,43.4,32.6,0,no_anomaly,0.0,0,0,0,0,18.520394,73.8567295,12.0,0.0
2024-05-14T17:02:12.000Z,MISSION_0036,120,0,transit,SITE_PUN_007,18.5203948,73.8567286,12.0,313.14,7.449,0.023,3.23,1.1393,0.1006,313.1448,-0.91751,-0.00947,0.00315,0.39758,0.1692,0.0064,-9.7818,-0.2109,-0.9421,-0.541,0.2468,3,17,0.62,0.64,0.36,24.585,24.84,88.1,38.3,19381.0,8563,8230,8307,8199,58.1,56.6,58.9,52.2,2.94,2.927,2.719,2.849,7.02,220.3,29.4,33.3,1012.56,-27.99,-0.02,1.24,21.7,35.0,29.8,0,no_anomaly,0.0,0,0,0,0,18.5203948,73.8567286,12.0,0.0
2024-05-14T17:02:12.100Z,MISSION_0036,121,0,transit,SITE_PUN_007,18.5203975,73.8567257,12.0,312.84,7.749,0.075,2.87,3.0909,-4.0159,312.836,-0.91597,-0.01069,0.04288,0.3988,-0.15,-0.0529,-9.7997,0.2581,-0.2103,-0.0825,0.1822,3,18,0.68,1.22,0.25,24.6,21.27,88.0,37.8,19364.0,8401,8048,8313,8228,60.7,53.9,54.4,57.0,2.652,2.802,2.991,2.635,7.64,211.4,29.5,33.8,1012.65,-32.26,0.47,1.72,24.0,37.3,32.1,0,no_anomaly,0.0,0,0,0,0,18.5203975,73.8567257,12.0,0.0
2024-05-14T17:02:12.200Z,MISSION_0036,122,0,transit,SITE_PUN_007,18.5203961,73.8567231,12.0,311.26,7.777,0.157,2.61,2.0988,-1.5477,311.2601,-0.91077,-0.01111,0.01986,0.41229,-0.2284,-0.0369,-9.7812,-0.3572,0.7817,-0.3106,0.2367,3,17,0.84,0.62,0.4,24.466,22.39,87.9,38.5,19347.0,8591,8321,8414,8077,54.1,53.0,57.3,56.6,2.636,2.573,2.854,2.896,8.11,214.4,29.6,33.7,1012.86,-27.93,0.52,1.56,25.2,44.4,32.1,0,no_anomaly,0.0,0,0,0,0,18.5203961,73.8567231,12.0,0.0
2024-05-14T17:02:12.300Z,MISSION_0036,123,0,transit,SITE_PUN_007,18.520398,73.8567236,12.0,309.89,8.068,0.151,2.63,1.0893,-2.3516,309.893,-0.90576,8e-05,0.02261,0.42318,-0.2592,-0.0588,-9.81,-0.5132,0.3626,0.0944,0.2735,3,11,0.68,0.72,0.27,24.494,25.87,87.9,37.7,19331.0,8436,8052,7999,8201,53.1,55.2,53.0,56.3,2.7,2.804,2.73,2.961,7.83,222.9,29.4,33.3,1012.49,-28.29,-0.43,1.29,26.6,40.7,29.0,0,no_anomaly,0.0,0,0,0,0,18.520398,73.8567236,12.0,0.0
2024-05-14T17:02:12.400Z,MISSION_0036,124,0,transit,SITE_PUN_007,18.5203991,73.856722,12.0,310.69,8.191,0.124,2.46,0.4145,1.9415,310.6889,-0.90867,-0.01035,-0.01389,0.41716,-0.2068,0.0262,-9.81,0.1641,-0.0569,0.2742,0.3205,3,10,0.81,0.96,0.23,24.486,20.37,87.8,36.8,19314.0,8226,8410,8421,8213,57.5,55.8,56.9,54.5,2.67,2.679,2.847,2.668,7.21,210.8,29.5,33.3,1012.48,-25.04,-0.8,1.73,24.8,37.0,32.1,0,no_anomaly,0.0,0,0,0,0,18.5203991,73.856722,12.0,0.0
2024-05-14T17:02:12.500Z,MISSION_0036,125,0,transit,SITE_PUN_007,18.5204042,73.8567196,12.0,309.34,8.603,0.018,2.23,2.5767,-4.0096,309.3416,-0.90342,-0.00535,0.04123,0.42674,-0.0961,-0.0179,-9.7243,-0.5503,0.1261,-0.2542,0.2384,3,17,0.67,0.91,0.36,24.528,17.25,87.7,37.3,19297.0,8142,8201,8236,8065,57.5,54.0,54.0,57.9,2.869,2.797,2.694,2.633,7.97,220.9,29.5,34.1,1012.43,-27.28,-2.45,1.0,25.2,43.2,31.0,0,no_anomaly,0.0,0,0,0,0,18.5204042,73.8567196,12.0,0.0
2024-05-14T17:02:12.600Z,MISSION_0036,126,0,transit,SITE_PUN_007,18.520409,73.8567229,12.0,307.94,8.787,0.141,2.74,-1.9643,0.8208,307.9372,-0.89845,0.01226,-0.01396,0.43868,0.3866,-0.0297,-9.7887,-0.478,-0.7487,-0.2619,0.2311,3,12,0.92,0.91,0.31,24.517,22.0,87.6,37.5,19280.0,8494,8389,8308,8187,56.2,53.5,55.7,56.4,3.082,2.793,2.71,2.882,7.01,217.1,29.0,33.8,1012.93,-34.57,1.62,1.47,24.6,37.4,28.1,0,no_anomaly,0.0,0,0,0,0,18.520409,73.8567229,12.0,0.0
2024-05-14T17:02:12.700Z,MISSION_0036,127,0,transit,SITE_PUN_007,18.5204089,73.8567249,12.0,307.18,8.737,0.058,2.94,-2.4228,-1.5894,307.1768,-0.8952,0.0251,0.00302,0.44494,-0.0057,0.11,-9.7751,0.5236,0.339,0.3352,0.3371,3,14,0.66,0.89,0.2,24.461,29.5,87.6,37.6,19263.0,8446,8426,8474,8333,55.0,55.3,55.0,56.9,2.689,2.879,2.772,2.858,6.88,219.6,29.4,33.7,1012.53,-27.65,-0.9,1.54,25.8,42.7,30.6,0,no_anomaly,0.0,0,0,0,0,18.5204089,73.8567249,12.0,0.0
2024-05-14T17:02:12.800Z,MISSION_0036,128,0,transit,SITE_PUN_007,18.5204102,73.8567292,12.0,305.78,8.892,0.134,3.44,-5.3014,-2.4969,305.7825,-0.88852,0.05107,-0.0017,0.45598,0.1025,0.0351,-9.8392,-0.6746,0.2669,-0.268,0.2908,3,13,0.5,0.97,0.2,24.529,16.85,87.5,38.5,19246.0,8381,8419,8462,8318,55.9,52.6,54.7,50.9,2.772,2.554,2.623,2.799,6.77,215.6,29.6,34.1,1012.57,-30.92,-0.33,1.35,25.2,39.0,31.0,0,no_anomaly,0.0,0,0,0,0,18.5204102,73.8567292,12.0,0.0
2024-05-14T17:02:12.900Z,MISSION_0036,129,0,transit,SITE_PUN_007,18.5204086,73.856726,12.0,305.15,9.013,0.049,3.05,-0.094,-3.6674,305.15,-0.88715,0.01547,0.02803,0.46037,0.0612,0.0194,-9.7955,0.2008,-0.065,-0.0619,0.1874,3,20,0.67,1.05,0.29,24.42,20.53,87.4,38.2,19229.0,8498,8253,7884,8202,53.8,54.9,57.2,53.0,2.87,3.078,2.884,2.691,7.61,214.2,29.4,33.2,1012.77,-33.26,1.27,1.53,24.1,41.7,32.9,0,no_anomaly,0.0,0,0,0,0,18.5204086,73.856726,12.0,0.0
