timestamp_utc,mission_id,frame_id,waypoint_id,inspection_phase,site_id,latitude_deg,longitude_deg,altitude_m,heading_deg,ground_speed_ms,vertical_speed_ms,distance_to_tower_m,roll_deg,pitch_deg,yaw_deg,quat_w,quat_x,quat_y,quat_z,accel_x_ms2,accel_y_ms2,accel_z_ms2,gyro_x_rads,gyro_y_rads,gyro_z_rads,vibration_level,gps_fix_type,gps_satellite_count,gps_hdop,gps_vdop,position_error_m,battery_voltage_v,battery_current_a,battery_remaining_pct,battery_temp_c,battery_capacity_mah,motor_fl_rpm,motor_fr_rpm,motor_rl_rpm,motor_rr_rpm,motor_fl_temp_c,motor_fr_temp_c,motor_rl_temp_c,motor_rr_temp_c,motor_fl_thrust_n,motor_fr_thrust_n,motor_rl_thrust_n,motor_rr_thrust_n,wind_speed_ms,wind_dir_deg,air_temp_c,humidity_pct,pressure_hpa,gimbal_pitch_deg,gimbal_roll_deg,zoom_factor,ir_temp_min_c,ir_temp_max_c,ir_temp_avg_c,anomaly_detected,anomaly_class,anomaly_confidence,anomaly_bbox_x,anomaly_bbox_y,anomaly_bbox_w,anomaly_bbox_h,anomaly_gps_lat,anomaly_gps_lon,anomaly_gps_alt_m,ir_temp_delta_c
2024-09-18T18:49:00.000Z,MISSION_0067,0,0,takeoff,SITE_AMD_008,23.0225016,72.571402,1.5,66.72,0.163,0.073,0.28,3.6419,-3.7589,66.7245,0.83377,0.04455,-0.00991,0.55023,0.2773,0.033,-9.8059,0.1449,0.458,0.3207,0.2543,3,15,0.75,1.14,0.28,24.758,9.72,99.2,43.7,21820.0,8034,7758,7762,7757,60.1,60.9,57.7,61.5,2.735,2.838,2.609,2.676,7.33,179.2,35.7,53.5,1013.12,-31.33,-0.01,1.74,27.7,46.4,37.0,0,no_anomaly,0.0,0,0,0,0,23.0225016,72.571402,1.5,0.0
2024-09-18T18:49:00.100Z,MISSION_0067,1,0,takeoff,SITE_AMD_008,23.0225044,72.5714077,3.0,65.73,0.006,0.135,0.98,-2.2019,-1.8325,65.7277,0.83987,-0.00746,-0.02385,0.54222,-0.3109,0.0261,-9.7988,0.1303,0.0298,-0.2938,0.1868,3,19,0.82,0.67,0.38,24.749,21.31,99.1,43.0,21809.0,7740,7743,7803,7799,60.1,60.6,60.1,58.7,2.849,2.702,2.871,3.029,7.66,176.8,35.2,54.7,1013.38,-28.99,2.11,1.39,29.2,48.3,36.8,0,no_anomaly,0.0,0,0,0,0,23.0225044,72.5714077,3.0,0.0
2024-09-18T18:49:00.200Z,MISSION_0067,2,0,takeoff,SITE_AMD_008,23.0225053,72.5714051,4.5,65.88,0.0,0.086,0.82,-6.6221,-2.3955,65.8794,0.83832,-0.03711,-0.04891,0.54172,-0.0341,0.0546,-9.7811,0.2198,-0.3065,-0.1667,0.2855,3,18,0.61,0.85,0.36,24.816,24.29,99.1,43.7,21798.0,7622,7459,7842,7884,61.5,62.2,63.7,62.8,2.647,2.566,2.799,2.871,7.83,178.4,35.5,54.4,1012.92,-24.38,0.18,1.34,31.1,41.0,36.4,0,no_anomaly,0.0,0,0,0,0,23.0225053,72.5714051,4.5,0.0
2024-09-18T18:49:00.300Z,MISSION_0067,3,0,takeoff,SITE_AMD_008,23.0225044,72.5714088,5.0,64.17,0.514,0.058,1.09,-7.0103,-3.049,64.1713,0.84623,-0.03768,-0.05496,0.52863,-0.3783,0.0697,-9.8428,-0.1336,0.0103,-0.1472,0.3852,3,10,0.61,1.13,0.25,24.788,22.56,99.0,44.3,21787.0,7724,7749,7856,7698,59.7,57.8,56.1,61.7,2.714,2.848,2.699,3.134,7.52,179.9,35.7,52.9,1013.21,-34.55,-1.15,1.28,33.9,42.7,40.0,0,no_anomaly,0.0,0,0,0,0,23.0225044,72.5714088,5.0,0.0
2024-09-18T18:49:00.400Z,MISSION_0067,4,0,takeoff,SITE_AMD_008,23.0225085,72.5714065,5.0,64.01,0.473,0.125,1.19,-3.0823,-1.901,64.0088,0.84782,-0.01402,-0.02831,0.52934,0.3866,-0.0918,-9.84,-1.0716,-0.0651,0.1891,0.1862,3,17,0.8,0.73,0.33,24.821,16.89,99.0,43.6,21775.0,7569,7847,7810,7769,61.0,56.9,61.1,59.5,2.859,2.993,2.745,2.917,7.95,168.9,35.3,54.6,1012.83,-25.61,0.08,1.77,32.5,52.4,41.7,0,no_anomaly,0.0,0,0,0,0,23.0225085,72.5714065,5.0,0.0
2024-09-18T18:49:00.500Z,MISSION_0067,5,0,takeoff,SITE_AMD_008,23.0225045,72.5714078,5.0,64.0,0.0,0.139,1.0,1.7787,0.1318,64.0048,0.84793,0.01255,0.0092,0.52988,0.1163,0.0335,-9.7492,0.0418,0.4602,-0.1179,0.2507,3,15,0.85,0.73,0.4,24.716,13.75,98.9,44.2,21764.0,7787,7580,7568,7851,63.6,61.8,61.8,62.0,2.832,2.657,2.975,2.951,7.36,174.7,35.5,54.9,1013.01,-26.96,-0.85,1.12,32.7,43.3,38.8,0,no_anomaly,0.0,0,0,0,0,23.0225045,72.5714078,5.0,0.0
2024-09-18T18:49:00.600Z,MISSION_0067,6,0,takeoff,SITE_AMD_008,23.0225051,72.5714083,5.0,64.82,0.0,0.145,1.08,2.7506,0.2124,64.8202,0.84401,0.01927,0.01443,0.53578,0.3143,-0.0147,-9.7607,-0.0716,0.4228,-0.2301,0.202,3,19,0.85,0.75,0.31,24.765,21.07,98.9,43.1,21753.0,7692,7676,7620,7905,58.7,65.2,55.8,60.1,2.807,2.601,2.826,2.808,8.59,172.1,35.3,54.9,1013.21,-28.4,-0.46,1.6,31.4,43.3,39.4,0,no_anomaly,0.0,0,0,0,0,23.0225051,72.5714083,5.0,0.0
2024-09-18T18:49:00.700Z,MISSION_0067,7,0,takeoff,SITE_AMD_008,23.0225057,72.5714132,5.0,64.26,0.152,0.092,1.6,3.1096,-0.0365,64.2643,0.84651,0.02315,0.01416,0.53169,-0.1421,0.0265,-9.7858,0.3494,-0.1026,0.3582,0.2879,3,15,0.66,0.86,0.39,24.795,18.19,98.8,43.9,21742.0,7881,7676,7945,7798,58.5,58.6,60.8,59.6,2.775,2.576,2.775,2.665,7.82,177.6,35.6,53.8,1013.28,-33.4,0.5,1.09,33.4,42.0,36.5,0,no_anomaly,0.0,0,0,0,0,23.0225057,72.5714132,5.0,0.0
2024-09-18T18:49:00.800Z,MISSION_0067,8,0,takeoff,SITE_AMD_008,23.0225034,72.5714147,5.0,62.76,0.076,0.118,1.68,1.359,-2.1316,62.7605,0.85341,0.01981,-0.00971,0.52078,-0.1902,-0.0234,-9.871,0.0212,0.8556,-0.6173,0.2417,3,10,0.5,0.85,0.2,24.776,15.7,98.8,44.2,21730.0,7721,8096,7586,7620,58.4,61.3,57.7,57.5,2.783,2.592,2.842,2.782,8.05,169.2,35.8,53.7,1013.01,-26.31,0.44,1.31,33.3,45.0,35.4,0,no_anomaly,0.0,0,0,0,0,23.0225034,72.5714147,5.0,0.0
2024-09-18T18:49:00.900Z,MISSION_0067,9,0,takeoff,SITE_AMD_008,23.0225047,72.5714171,5.0,61.46,0.684,0.067,1.98,3.0522,-3.5374,61.4635,0.85844,0.03865,-0.01292,0.5113,-0.0525,0.0095,-9.8361,-0.2312,-0.1804,-0.3527,0.2453,3,12,0.8,1.0,0.28,24.814,13.63,98.7,43.7,21719.0,7652,7459,7886,7787,60.8,62.7,61.5,60.8,2.664,3.087,2.834,2.641,7.32,166.7,35.4,54.3,1013.07,-25.1,-0.97,1.7,27.4,46.4,37.6,0,no_anomaly,0.0,0,0,0,0,23.0225047,72.5714171,5.0,0.0
2024-09-18T18:49:01.000Z,MISSION_0067,10,0,takeoff,SITE_AMD_008,23.0225072,72.5714191,5.0,61.25,0.507,0.093,2.27,7.2772,-3.3177,61.2532,0.85748,0.06931,0.00746,0.50978,-0.09,0.0027,-9.8275,-0.3382,0.1392,0.2822,0.2772,3,11,0.8,0.76,0.2,24.769,14.63,98.7,43.0,21708.0,7760,7839,7954,7845,62.7,61.9,62.0,60.3,2.643,2.874,2.86,2.912,8.03,178.1,35.5,54.1,1013.26,-31.37,0.29,1.23,30.8,48.1,41.0,0,no_anomaly,0.0,0,0,0,0,23.0225072,72.5714191,5.0,0.0
2024-09-18T18:49:01.100Z,MISSION_0067,11,0,takeoff,SITE_AMD_008,23.0225112,72.5714186,5.0,62.62,0.678,0.086,2.42,8.6506,-2.5241,62.6161,0.85088,0.07583,0.02042,0.51945,0.001,0.0385,-9.813,0.7467,0.1751,-0.1874,0.2139,3,16,0.63,1.2,0.28,24.721,17.01,98.6,44.3,21697.0,7661,7703,7865,7649,58.4,60.2,62.0,60.2,2.851,2.846,2.808,2.743,8.1,177.7,35.5,54.2,1013.19,-28.41,0.29,1.85,32.0,42.7,38.1,0,no_anomaly,0.0,0,0,0,0,23.0225112,72.5714186,5.0,0.0
2024-09-18T18:49:01.200Z,MISSION_0067,12,0,takeoff,SITE_AMD_008,23.0225088,72.5714173,5.0,64.62,0.34,0.227,2.16,-2.9435,-4.2129,64.6224,0.84481,-0.00205,-0.04477,0.53318,-0.188,-0.0067,-9.8654,-0.3927,0.4858,-0.0931,0.1723,3,20,0.91,0.9,0.26,24.714,14.19,98.6,43.6,21685.0,7815,7841,7821,7830,60.6,59.1,60.5,60.9,2.592,2.711,2.939,2.847,8.15,179.1,35.7,54.8,1013.05,-32.59,0.18,1.67,33.5,44.3,36.8,0,no_anomaly,0.0,0,0,0,0,23.0225088,72.5714173,5.0,0.0
2024-09-18T18:49:01.300Z,MISSION_0067,13,0,takeoff,SITE_AMD_008,23.0225105,72.5714196,5.0,63.42,0.62,0.096,2.48,0.6428,-3.4162,63.4191,0.85024,0.02044,-0.02241,0.52551,-0.1231,-0.0568,-9.7351,0.3657,0.3935,-0.2207,0.2128,3,13,0.63,0.77,0.34,24.766,24.0,98.5,42.7,21674.0,7694,7760,7682,7644,62.9,60.1,61.5,62.3,2.941,2.655,2.822,2.775,8.7,184.2,35.5,53.7,1013.25,-35.72,-0.63,1.97,28.5,50.0,36.0,0,no_anomaly,0.0,0,0,0,0,23.0225105,72.5714196,5.0,0.0
2024-09-18T18:49:01.400Z,MISSION_0067,14,0,takeoff,SITE_AMD_008,23.0225147,72.571416,5.0,63.8,0.222,0.109,2.42,6.2928,-2.2931,63.7979,0.84695,0.05715,0.01204,0.52845,-0.25,0.0331,-9.7599,0.768,-0.1598,-0.1176,0.2691,3,10,0.51,0.87,0.2,24.784,17.07,98.5,42.8,21663.0,7596,7712,7727,7841,62.0,59.4,58.1,57.9,2.683,2.692,2.749,2.793,8.4,173.7,35.8,53.9,1012.95,-30.86,1.84,1.65,30.8,46.9,36.8,0,no_anomaly,0.0,0,0,0,0,23.0225147,72.571416,5.0,0.0
2024-09-18T18:49:01.500Z,MISSION_0067,15,0,takeoff,SITE_AMD_008,23.0225099,72.5714173,5.0,64.01,0.203,0.081,2.21,0.8577,-3.7179,64.0065,0.84742,0.02354,-0.02354,0.52988,0.0092,-0.0327,-9.8094,-0.0036,0.058,-0.4584,0.3695,3,10,0.81,1.0,0.3,24.719,23.72,98.4,44.5,21652.0,7854,7780,7558,7838,62.6,59.7,61.1,63.2,2.806,3.042,2.824,2.849,8.15,180.9,36.0,54.9,1012.65,-26.03,-0.68,1.07,32.3,46.5,40.2,0,no_anomaly,0.0,0,0,0,0,23.0225099,72.5714173,5.0,0.0
2024-09-18T18:49:01.600Z,MISSION_0067,16,0,takeoff,SITE_AMD_008,23.02251,72.5714153,5.0,66.27,0.0,0.108,2.03,3.4012,-1.7725,66.2681,0.83667,0.0333,0.00327,0.54668,-0.1001,-0.0152,-9.7939,-0.5942,0.0725,-0.2658,0.21,3,14,0.68,0.72,0.26,24.798,17.07,98.4,43.2,21640.0,7851,7615,8066,7796,56.8,61.6,63.3,59.0,2.545,3.172,2.795,2.829,7.32,184.3,35.7,54.2,1013.2,-27.47,0.95,1.3,35.6,44.4,41.3,0,no_anomaly,0.0,0,0,0,0,23.02251,72.5714153,5.0,0.0
2024-09-18T18:49:01.700Z,MISSION_0067,17,0,takeoff,SITE_AMD_008,23.022508,72.5714142,5.0,64.74,0.1,0.119,1.81,2.4986,-4.795,64.7388,0.84319,0.04079,-0.02366,0.53555,0.148,0.0982,-9.7988,0.0627,0.4447,0.0029,0.2542,3,14,0.74,0.75,0.31,24.799,20.03,98.3,43.4,21629.0,7380,7739,7786,7683,60.4,60.4,62.5,58.2,3.04,2.763,2.777,2.713,7.94,172.0,35.4,53.9,1012.95,-27.54,-0.25,1.31,29.7,47.2,36.5,0,no_anomaly,0.0,0,0,0,0,23.022508,72.5714142,5.0,0.0
2024-09-18T18:49:01.800Z,MISSION_0067,18,0,takeoff,SITE_AMD_008,23.0225093,72.5714106,5.0,65.06,0.0,0.048,1.57,0.5053,0.672,65.0642,0.84308,0.00056,0.00732,0.53774,-0.2217,-0.0189,-9.7597,0.8154,0.137,-0.1483,0.3091,3,19,0.84,0.8,0.37,24.741,20.87,98.3,43.6,21618.0,7571,7691,7475,7920,60.4,61.3,62.6,63.9,2.816,2.806,2.628,2.895,8.66,170.5,35.4,54.6,1012.99,-32.34,-1.42,1.6,28.0,45.8,38.7,0,no_anomaly,0.0,0,0,0,0,23.0225093,72.5714106,5.0,0.0
2024-09-18T18:49:01.900Z,MISSION_0067,19,0,takeoff,SITE_AMD_008,23.0225038,72.5714062,5.0,65.37,0.0,0.065,0.81,2.8238,-3.142,65.3745,0.84069,0.03553,-0.00977,0.54025,0.142,-0.0279,-9.7826,-0.0276,-0.1686,0.1969,0.2387,3,15,0.67,0.99,0.43,24.819,20.36,98.2,44.9,21607.0,7689,7714,7830,7618,62.0,61.5,57.7,62.1,3.174,2.8,2.695,2.777,8.14,182.7,35.4,54.5,1012.93,-34.07,-1.72,1.6,33.8,42.1,41.4,0,no_anomaly,0.0,0,0,0,0,23.0225038,72.5714062,5.0,0.0
2024-09-18T18:49:02.000Z,MISSION_0067,20,0,takeoff,SITE_AMD_008,23.0225079,72.5714082,5.0,65.78,0.0,0.136,1.27,0.17,-2.6178,65.7776,0.83949,0.01365,-0.01838,0.5429,0.08,-0.0247,-9.7782,-0.1675,-0.1181,0.3087,0.2288,3,10,0.83,0.83,0.27,24.695,19.59,98.2,43.4,21595.0,7860,7763,7787,7586,58.4,59.2,63.3,63.1,2.599,3.1,2.949,2.985,8.05,176.8,35.6,55.2,1012.97,-29.39,0.39,1.56,26.0,39.0,35.8,0,no_anomaly,0.0,0,0,0,0,23.0225079,72.5714082,5.0,0.0
2024-09-18T18:49:02.100Z,MISSION_0067,21,0,takeoff,SITE_AMD_008,23.0225092,72.5714075,5.0,65.67,0.032,0.168,1.32,5.4264,2.4186,65.6748,0.83963,0.02833,0.04338,0.54069,0.087,0.0379,-9.6999,-0.1998,-0.2929,0.1114,0.2806,3,15,0.8,1.09,0.34,24.751,17.19,98.1,43.7,21584.0,7679,7931,7813,7596,58.0,62.3,58.1,61.3,2.858,2.545,2.813,2.604,7.64,180.3,35.4,54.2,1013.39,-25.15,-1.06,1.36,29.5,48.2,35.0,0,no_anomaly,0.0,0,0,0,0,23.0225092,72.5714075,5.0,0.0
2024-09-18T18:49:02.200Z,MISSION_0067,22,0,takeoff,SITE_AMD_008,23.0225103,72.5714137,5.0,65.74,0.317,0.204,1.91,-1.5359,-1.992,65.7442,0.83981,-0.00182,-0.02187,0.54244,-0.2859,0.0928,-9.8106,-0.4094,-0.5157,0.0948,0.2464,3,18,0.66,0.81,0.39,24.764,13.57,98.1,43.1,21573.0,7946,7750,7663,7734,62.3,59.3,63.9,59.2,2.489,2.639,2.596,2.804,7.58,180.0,35.7,54.4,1012.76,-31.73,-0.87,1.13,36.1,50.5,38.3,0,no_anomaly,0.0,0,0,0,0,23.0225103,72.5714137,5.0,0.0
2024-09-18T18:49:02.300Z,MISSION_0067,23,0,takeoff,SITE_AMD_008,23.0225085,72.5714164,5.0,67.03,0.244,0.06,2.05,-1.243,-1.8479,67.0289,0.83369,-0.00014,-0.01943,0.5519,-0.035,0.0062,-9.7522,-0.0296,0.7134,0.1598,0.2126,3,11,0.81,1.04,0.24,24.702,21.89,98.0,42.8,21562.0,7674,7977,7970,7698,59.9,62.4,61.2,58.8,2.554,2.622,2.783,2.627,8.32,186.3,35.8,53.7,1013.13,-28.19,-0.11,1.25,31.4,48.0,38.2,0,no_anomaly,0.0,0,0,0,0,23.0225085,72.5714164,5.0,0.0
2024-09-18T18:49:02.400Z,MISSION_0067,24,0,takeoff,SITE_AMD_008,23.0225127,72.5714149,5.0,67.72,0.191,0.104,2.18,3.036,-4.1754,67.7156,0.82904,0.04227,-0.01549,0.55737,-0.0497,-0.0096,-9.8723,-0.0164,-0.8123,0.2403,0.253,3,10,0.65,0.99,0.2,24.74,19.83,98.0,43.2,21550.0,7447,7640,7981,7636,59.2,61.9,59.5,62.7,2.889,2.798,2.784,2.615,8.47,183.6,35.5,54.1,1013.24,-31.0,-0.25,1.66,33.1,42.3,38.4,0,no_anomaly,0.0,0,0,0,0,23.0225127,72.5714149,5.0,0.0
2024-09-18T18:49:02.500Z,MISSION_0067,25,0,takeoff,SITE_AMD_008,23.0225121,72.571417,5.0,69.64,0.0,0.075,2.32,0.9039,-2.9095,69.6372,0.82056,0.02097,-0.01634,0.57094,0.2182,0.0849,-9.8284,1.1119,0.9843,0.1486,0.2396,3,12,0.58,1.13,0.24,24.772,16.31,97.9,44.2,21539.0,7463,7831,7710,7785,65.2,58.1,62.4,63.3,2.707,2.65,2.871,2.721,8.89,177.0,35.9,53.1,1012.98,-32.35,-0.78,1.48,33.1,50.1,36.7,0,no_anomaly,0.0,0,0,0,0,23.0225121,72.571417,5.0,0.0
2024-09-18T18:49:02.600Z,MISSION_0067,26,0,takeoff,SITE_AMD_008,23.0225145,72.5714166,5.0,69.63,0.0,0.012,2.45,9.1459,-1.6973,69.6254,0.81765,0.07388,0.03339,0.56999,0.0615,0.0319,-9.8103,-1.4467,-0.3812,0.4527,0.2755,3,18,1.02,0.81,0.42,24.648,15.3,97.9,43.7,21528.0,7846,7580,7733,7693,57.7,58.8,62.4,59.7,2.848,2.829,2.853,2.685,8.34,184.0,35.3,54.5,1012.98,-31.14,-1.16,1.17,27.8,48.2,37.8,0,no_anomaly,0.0,0,0,0,0,23.0225145,72.5714166,5.0,0.0
2024-09-18T18:49:02.700Z,MISSION_0067,27,0,takeoff,SITE_AMD_008,23.0225131,72.5714203,5.0,71.41,0.0,0.074,2.69,3.394,-0.4402,71.4091,0.81161,0.02629,0.01416,0.58344,-0.0795,0.0981,-9.8618,0.4029,0.5324,0.2816,0.2817,3,10,0.75,0.91,0.28,24.726,16.92,97.8,43.8,21517.0,7872,7864,7906,7792,61.4,62.5,63.4,62.0,2.637,2.551,2.381,2.779,8.12,180.6,35.8,54.0,1013.19,-27.45,-0.42,1.43,28.7,50.8,38.5,0,no_anomaly,0.0,0,0,0,0,23.0225131,72.5714203,5.0,0.0
2024-09-18T18:49:02.800Z,MISSION_0067,28,0,takeoff,SITE_AMD_008,23.0225158,72.5714289,5.0,72.03,0.565,0.077,3.66,1.5727,-2.689,72.0331,0.80836,0.02489,-0.01091,0.58806,-0.2278,-0.0656,-9.8013,-0.631,0.4678,0.4997,0.2632,3,18,0.84,0.95,0.3,24.787,19.81,97.8,43.1,21506.0,7784,7697,7916,8141,57.7,57.9,61.3,62.8,2.646,2.743,2.881,2.813,8.22,186.1,35.6,54.6,1012.9,-32.57,0.18,1.99,29.3,46.0,40.1,0,no_anomaly,0.0,0,0,0,0,23.0225158,72.5714289,5.0,0.0
2024-09-18T18:49:02.900Z,MISSION_0067,29,0,takeoff,SITE_AMD_008,23.0225137,72.5714263,5.0,71.84,0.225,0.188,3.3,-5.8576,-2.9745,71.8432,0.80927,-0.02616,-0.05096,0.58464,0.2117,-0.0373,-9.7459,-0.1562,-0.1491,-0.2815,0.1107,3,19,0.7,1.01,0.2,24.753,12.35,97.7,43.6,21494.0,7733,7694,7583,7482,60.0,61.3,60.6,63.7,2.68,2.621,2.986,2.756,8.72,173.1,35.5,54.5,1013.08,-30.84,-0.54,1.18,32.8,50.0,39.8,0,no_anomaly,0.0,0,0,0,0,23.0225137,72.5714263,5.0,0.0
2024-09-18T18:49:03.000Z,MISSION_0067,30,0,takeoff,SITE_AMD_008,23.0225148,72.5714254,5.0,72.06,0.256,0.092,3.27,0.6229,-3.0357,72.0603,0.80833,0.01998,-0.01822,0.58811,-0.094,-0.0188,-9.8317,1.0304,-0.2876,-0.1368,0.257,3,18,0.54,0.7,0.2,24.703,32.87,97.7,43.4,21483.0,7884,7678,7944,7893,59.4,62.3,58.5,60.6,2.864,3.014,2.653,2.652,8.16,183.6,35.2,54.4,1013.12,-31.14,0.33,1.07,32.2,50.2,37.4,0,no_anomaly,0.0,0,0,0,0,23.0225148,72.5714254,5.0,0.0
2024-09-18T18:49:03.100Z,MISSION_0067,31,0,takeoff,SITE_AMD_008,23.0225149,72.5714252,5.0,73.2,0.591,0.127,3.26,0.4626,-1.2069,73.2012,0.80273,0.00952,-0.00605,0.59623,0.0633,0.0225,-9.7252,0.2239,-0.3268,0.7327,0.247,3,14,0.72,0.92,0.2,24.679,18.89,97.6,43.7,21472.0,7702,7930,7805,7776,59.1,58.0,63.1,63.4,2.837,2.767,2.734,2.742,7.05,177.0,35.3,53.9,1013.31,-35.53,-0.94,1.34,28.6,48.3,39.0,0,no_anomaly,0.0,0,0,0,0,23.0225149,72.5714252,5.0,0.0
2024-09-18T18:49:03.200Z,MISSION_0067,32,0,takeoff,SITE_AMD_008,23.0225137,72.5714228,5.0,75.74,0.512,0.166,2.96,1.701,-1.5584,75.7352,0.78915,0.02006,-0.00162,0.61387,-0.3434,-0.0583,-9.8213,0.5663,-0.9188,-0.1423,0.2561,3,15,0.75,0.6,0.2,24.841,14.94,97.5,42.8,21461.0,7537,7697,7823,7551,61.5,61.9,61.0,59.8,2.862,2.591,2.837,2.589,7.3,179.6,35.4,54.3,1012.74,-31.81,0.62,1.73,28.6,44.2,39.3,0,no_anomaly,0.0,0,0,0,0,23.0225137,72.5714228,5.0,0.0
2024-09-18T18:49:03.300Z,MISSION_0067,33,0,takeoff,SITE_AMD_008,23.022515,72.5714187,5.0,76.99,0.774,0.17,2.66,-3.7289,-3.6014,76.9871,0.78251,-0.0059,-0.04482,0.62099,-0.2862,-0.0126,-9.8151,0.5496,-0.4894,-0.3435,0.2951,3,19,0.7,0.84,0.23,24.745,17.98,97.5,43.6,21449.0,7707,7841,7820,7853,62.6,57.7,57.4,58.5,2.709,2.691,2.777,2.84,7.97,183.3,35.6,54.2,1013.08,-32.03,-3.39,1.53,28.4,46.4,40.7,0,no_anomaly,0.0,0,0,0,0,23.022515,72.5714187,5.0,0.0
2024-09-18T18:49:03.400Z,MISSION_0067,34,0,takeoff,SITE_AMD_008,23.0225176,72.5714135,5.0,77.87,0.748,0.091,2.47,1.5079,-1.4311,77.8739,0.77761,0.01808,-0.00144,0.62849,-0.0666,-0.062,-9.7862,0.3765,0.4978,-0.0356,0.254,3,20,0.67,1.04,0.36,24.668,20.63,97.4,43.8,21438.0,7849,7690,7689,7985,62.2,60.2,59.7,60.6,2.982,2.881,2.905,2.465,7.69,173.1,35.8,53.7,1013.07,-30.0,-1.18,1.81,33.9,51.5,38.0,0,no_anomaly,0.0,0,0,0,0,23.0225176,72.5714135,5.0,0.0
2024-09-18T18:49:03.500Z,MISSION_0067,35,0,takeoff,SITE_AMD_008,23.0225163,72.5714103,5.0,78.9,0.608,0.122,2.15,-1.5534,-3.3888,78.9047,0.772,0.00832,-0.03144,0.63479,-0.1226,0.0014,-9.7474,-0.9394,-0.7964,-0.0053,0.2302,3,18,0.64,0.84,0.22,24.729,18.75,97.4,43.0,21427.0,7755,7793,7967,7826,60.5,60.6,62.6,62.2,2.454,2.841,2.784,2.681,7.1,174.6,35.2,54.8,1013.36,-31.96,-1.91,1.87,28.8,48.6,35.5,0,no_anomaly,0.0,0,0,0,0,23.0225163,72.5714103,5.0,0.0
2024-09-18T18:49:03.600Z,MISSION_0067,36,0,takeoff,SITE_AMD_008,23.0225132,72.5714141,5.0,80.53,1.218,0.063,2.15,-0.5141,0.3734,80.5306,0.76304,-0.00553,-0.00041,0.64633,-0.2416,-0.0373,-9.8406,-0.7466,0.719,-0.0959,0.1999,3,16,0.63,1.06,0.39,24.742,14.89,97.3,43.9,21416.0,7514,7992,7793,7935,62.2,58.9,60.8,59.1,2.932,3.028,2.807,2.607,7.55,174.1,35.5,54.2,1012.81,-28.74,-0.44,1.8,29.4,44.4,41.5,0,no_anomaly,0.0,0,0,0,0,23.0225132,72.5714141,5.0,0.0
2024-09-18T18:49:03.700Z,MISSION_0067,37,0,takeoff,SITE_AMD_008,23.0225119,72.5714114,5.0,82.67,1.049,0.088,1.84,-0.0635,-1.9817,82.6709,0.75075,0.01101,-0.01335,0.66036,0.2162,0.0503,-9.8046,-0.3779,-0.0689,0.0394,0.2456,3,17,0.65,0.71,0.26,24.711,20.63,97.3,44.8,21404.0,7803,7722,7810,7985,60.3,61.8,60.1,60.6,2.947,2.819,2.492,2.644,7.99,173.7,35.3,54.2,1013.34,-28.64,-1.88,1.38,33.5,41.0,40.3,0,no_anomaly,0.0,0,0,0,0,23.0225119,72.5714114,5.0,0.0
2024-09-18T18:49:03.800Z,MISSION_0067,38,0,takeoff,SITE_AMD_008,23.0225103,72.5714147,5.0,83.92,1.127,0.004,2.0,-3.075,-2.6513,83.9172,0.74358,-0.00449,-0.03513,0.66771,0.1198,-0.0336,-9.8876,0.0224,-0.1382,0.7682,0.2361,3,10,0.72,0.92,0.21,24.643,16.34,97.2,43.9,21393.0,7885,7452,7742,7669,60.5,60.8,59.5,59.7,2.751,2.875,2.685,2.621,8.15,180.8,35.5,54.3,1012.6,-26.04,-1.49,1.7,31.2,41.1,39.2,0,no_anomaly,0.0,0,0,0,0,23.0225103,72.5714147,5.0,0.0
2024-09-18T18:49:03.900Z,MISSION_0067,39,0,takeoff,SITE_AMD_008,23.0225042,72.5714084,5.0,84.41,0.58,0.013,1.05,-3.7275,-0.4527,84.4146,0.74041,-0.02144,-0.02477,0.67136,-0.0059,-0.0104,-9.8002,-0.2731,0.1703,0.1349,0.2434,3,18,0.75,0.78,0.36,24.702,15.38,97.2,43.3,21382.0,7691,7507,7760,7805,64.1,60.0,58.6,61.9,2.623,2.668,2.808,2.806,7.39,173.3,35.6,54.3,1013.33,-34.65,-0.33,1.57,33.1,44.6,37.8,0,no_anomaly,0.0,0,0,0,0,23.0225042,72.5714084,5.0,0.0
2024-09-18T18:49:04.000Z,MISSION_0067,40,0,takeoff,SITE_AMD_008,23.0225042,72.5714148,5.0,82.33,0.065,0.073,1.72,-0.9333,-2.372,82.3315,0.75273,0.00749,-0.02094,0.65795,0.0576,-0.0347,-9.7836,-0.74,0.5969,-0.6252,0.2637,3,17,0.6,0.84,0.2,24.763,18.82,97.1,43.6,21371.0,7690,7789,7786,7631,60.9,59.4,64.1,60.5,2.81,2.658,2.737,2.711,7.95,176.9,35.7,54.1,1012.89,-28.93,0.8,2.55,29.2,46.9,38.9,0,no_anomaly,0.0,0,0,0,0,23.0225042,72.5714148,5.0,0.0
2024-09-18T18:49:04.100Z,MISSION_0067,41,0,takeoff,SITE_AMD_008,23.0225038,72.5714116,5.0,85.31,0.282,0.114,1.36,-8.1366,-3.3408,85.3068,0.7347,-0.03245,-0.06943,0.67405,0.043,-0.0232,-9.8768,-0.3178,0.0537,-0.4095,0.2191,3,11,0.73,0.99,0.32,24.692,18.54,97.1,43.3,21359.0,7639,8151,7824,8101,61.0,60.8,59.5,61.3,2.59,2.527,2.718,2.904,6.93,174.9,35.6,54.8,1013.3,-27.62,-0.2,1.49,33.0,48.7,38.2,0,no_anomaly,0.0,0,0,0,0,23.0225038,72.5714116,5.0,0.0
2024-09-18T18:49:04.200Z,MISSION_0067,42,0,takeoff,SITE_AMD_008,23.0225013,72.5714171,5.0,84.2,0.531,0.088,1.91,3.1111,-1.2323,84.1951,0.74149,0.02735,0.01022,0.67033,-0.2702,0.0185,-9.8817,-0.0831,-0.0892,-0.1827,0.1699,3,16,0.59,0.97,0.28,24.646,19.21,97.0,43.7,21348.0,7695,7755,7618,8104,57.3,59.3,65.7,61.0,2.678,2.543,2.667,2.624,7.89,180.6,35.8,53.0,1013.27,-28.39,0.46,1.55,30.1,43.1,40.7,0,no_anomaly,0.0,0,0,0,0,23.0225013,72.5714171,5.0,0.0
2024-09-18T18:49:04.300Z,MISSION_0067,43,0,takeoff,SITE_AMD_008,23.0224988,72.5714215,5.0,84.02,0.533,0.081,2.4,-2.1499,-0.2164,84.0218,0.74291,-0.01268,-0.01396,0.66913,-0.1182,-0.0338,-9.7215,-0.6704,0.5356,0.0429,0.2755,3,13,0.68,0.69,0.31,24.644,21.22,97.0,43.5,21337.0,7747,7694,7693,7783,62.1,63.2,60.8,60.9,2.468,2.884,2.702,2.848,7.46,182.2,35.4,54.0,1013.0,-30.24,-0.26,1.39,30.6,49.1,38.1,0,no_anomaly,0.0,0,0,0,0,23.0224988,72.5714215,5.0,0.0
2024-09-18T18:49:04.400Z,MISSION_0067,44,0,takeoff,SITE_AMD_008,23.022499,72.5714233,5.0,86.1,0.117,0.067,2.59,2.1059,-0.1294,86.1044,0.73059,0.0142,0.01172,0.68256,0.0001,0.0172,-9.807,0.494,0.168,-0.0935,0.2898,3,11,0.79,0.98,0.28,24.721,16.37,96.9,43.4,21326.0,7419,7588,7521,7654,62.8,59.3,59.9,62.5,2.855,2.822,2.523,2.658,8.95,166.2,35.7,54.5,1013.31,-28.59,-0.55,1.59,29.9,48.6,35.5,0,no_anomaly,0.0,0,0,0,0,23.022499,72.5714233,5.0,0.0
2024-09-18T18:49:04.500Z,MISSION_0067,45,0,takeoff,SITE_AMD_008,23.0224986,72.5714238,5.0,84.38,0.0,0.077,2.65,0.0311,-1.5776,84.3757,0.74087,0.00945,-0.01002,0.6715,0.1452,0.0057,-9.8684,0.9512,-0.0424,0.3516,0.2189,3,17,0.77,0.87,0.32,24.712,20.64,96.9,43.2,21314.0,7728,7830,7814,7826,60.0,59.7,62.2,59.0,2.748,2.535,3.014,2.772,7.47,167.3,35.8,53.6,1013.15,-24.29,0.57,1.61,33.1,45.8,36.7,0,no_anomaly,0.0,0,0,0,0,23.0224986,72.5714238,5.0,0.0
2024-09-18T18:49:04.600Z,MISSION_0067,46,0,takeoff,SITE_AMD_008,23.0224993,72.5714272,5.0,84.01,0.476,0.086,3.03,1.575,-0.5791,84.0142,0.74294,0.01359,0.00544,0.6692,0.0878,-0.0371,-9.8166,0.0291,-0.1724,-0.2883,0.2633,3,11,0.65,1.13,0.2,24.706,18.82,96.8,43.4,21303.0,7846,7620,7708,7820,62.3,60.3,60.5,62.7,2.629,2.5,2.665,2.93,7.94,184.0,35.5,54.1,1012.97,-31.7,0.85,1.38,29.9,41.5,40.9,0,no_anomaly,0.0,0,0,0,0,23.0224993,72.5714272,5.0,0.0
2024-09-18T18:49:04.700Z,MISSION_0067,47,0,takeoff,SITE_AMD_008,23.0225013,72.5714283,5.0,84.14,0.218,0.1,3.16,-1.5776,-0.5856,84.1408,0.74229,-0.0068,-0.01302,0.66992,-0.2309,-0.07,-9.7928,0.2223,-0.2342,0.5668,0.3419,3,11,0.66,0.99,0.35,24.717,12.77,96.8,44.6,21292.0,7782,7941,7879,7777,62.5,59.1,62.8,62.6,2.464,2.79,3.036,2.897,8.49,173.2,35.5,54.4,1013.3,-29.33,-0.87,1.99,27.7,41.4,38.4,0,no_anomaly,0.0,0,0,0,0,23.0225013,72.5714283,5.0,0.0
2024-09-18T18:49:04.800Z,MISSION_0067,48,0,takeoff,SITE_AMD_008,23.0225003,72.5714289,5.0,83.25,0.796,0.083,3.22,2.4814,-2.5904,83.2506,0.74681,0.03119,-0.00251,0.6643,-0.0509,0.0085,-9.808,-0.0909,0.52,-0.1967,0.2831,3,12,0.63,1.04,0.24,24.754,22.95,96.7,43.7,21281.0,7700,8111,7774,7582,62.0,58.7,55.6,57.8,2.913,2.8,2.948,2.729,7.66,176.8,35.8,53.6,1013.22,-32.38,0.33,2.05,33.0,47.0,39.5,0,no_anomaly,0.0,0,0,0,0,23.0225003,72.5714289,5.0,0.0
2024-09-18T18:49:04.900Z,MISSION_0067,49,0,takeoff,SITE_AMD_008,23.0225023,72.5714301,5.0,83.1,1.108,0.143,3.37,2.7496,-2.8403,83.1022,0.74752,0.03438,-0.00263,0.66334,-0.2907,-0.0376,-9.743,0.2363,-0.4069,-0.37,0.2736,3,14,0.65,0.89,0.29,24.732,15.44,96.7,44.0,21269.0,7743,7552,7884,7752,59.9,62.9,60.2,59.3,2.874,2.961,3.114,2.756,7.65,177.4,35.6,54.2,1012.92,-31.33,0.41,1.44,28.8,41.2,38.3,0,no_anomaly,0.0,0,0,0,0,23.0225023,72.5714301,5.0,0.0
2024-09-18T18:49:05.000Z,MISSION_0067,50,0,takeoff,SITE_AMD_008,23.0224996,72.5714279,5.0,85.44,1.196,0.171,3.1,1.0409,-3.0317,85.4422,0.73421,0.02462,-0.01327,0.67834,-0.0869,0.015,-9.8219,-0.5606,0.4079,0.3694,0.2311,3,20,0.7,1.03,0.2,24.749,18.2,96.6,44.6,21258.0,7695,7806,7704,7888,63.6,60.2,60.5,58.0,2.788,2.838,2.515,2.896,7.82,179.7,35.4,53.0,1013.36,-31.21,0.41,1.31,32.7,45.7,35.1,0,no_anomaly,0.0,0,0,0,0,23.0224996,72.5714279,5.0,0.0
2024-09-18T18:49:05.100Z,MISSION_0067,51,0,takeoff,SITE_AMD_008,23.0224971,72.571428,5.0,86.06,0.949,-0.008,3.13,6.4977,-3.256,86.0604,0.72843,0.06077,0.01792,0.68219,-0.2133,-0.0681,-9.7976,0.0672,-0.9743,0.0469,0.1964,3,13,0.68,0.66,0.3,24.659,16.48,96.6,43.6,21247.0,7506,7826,7605,7705,61.4,62.4,59.8,60.1,2.557,2.93,2.446,2.73,7.91,169.5,35.4,54.1,1013.03,-27.06,-0.42,1.0,28.7,45.4,36.8,0,no_anomaly,0.0,0,0,0,0,23.0224971,72.571428,5.0,0.0
2024-09-18T18:49:05.200Z,MISSION_0067,52,0,takeoff,SITE_AMD_008,23.022498,72.5714241,5.0,83.62,0.691,0.093,2.69,-4.9119,-1.9423,83.6198,0.74505,-0.02065,-0.04118,0.66541,0.3475,0.0172,-9.8485,-0.4036,0.585,0.0004,0.3598,3,20,0.51,1.14,0.24,24.754,21.3,96.5,43.8,21236.0,7639,7876,7994,7917,60.3,62.1,60.6,60.1,2.635,2.692,2.454,2.639,7.41,179.7,35.5,53.9,1013.03,-27.57,0.27,1.96,27.2,44.7,39.5,0,no_anomaly,0.0,0,0,0,0,23.022498,72.5714241,5.0,0.0
2024-09-18T18:49:05.300Z,MISSION_0067,53,0,takeoff,SITE_AMD_008,23.0224942,72.5714216,5.0,85.79,0.476,0.063,2.49,-0.6166,-1.8182,85.7899,0.73256,0.00686,-0.01529,0.6805,0.261,-0.0214,-9.8091,-0.8495,-0.4016,0.3946,0.2904,3,18,0.73,0.7,0.42,24.705,15.69,96.5,43.6,21224.0,7806,7329,7573,7703,61.8,59.6,58.6,60.2,2.727,2.581,2.632,2.995,9.21,175.2,35.5,53.7,1013.49,-28.48,-1.54,1.21,29.1,45.5,36.7,0,no_anomaly,0.0,0,0,0,0,23.0224942,72.5714216,5.0,0.0
2024-09-18T18:49:05.400Z,MISSION_0067,54,0,takeoff,SITE_AMD_008,23.0224952,72.5714217,5.0,84.76,0.062,0.124,2.47,-5.2573,-1.3894,84.7595,0.73824,-0.02571,-0.03986,0.67287,-0.2187,0.0052,-9.8345,-0.0976,0.0248,-0.0696,0.3377,3,12,0.73,0.99,0.23,24.671,16.89,96.4,43.1,21213.0,7970,7596,7669,7805,57.4,58.9,60.3,57.2,2.882,2.928,2.691,2.901,7.9,185.5,35.2,53.8,1013.07,-33.58,-0.1,1.15,27.3,43.6,37.5,0,no_anomaly,0.0,0,0,0,0,23.0224952,72.5714217,5.0,0.0
2024-09-18T18:49:05.500Z,MISSION_0067,55,0,takeoff,SITE_AMD_008,23.0224918,72.571417,5.0,87.58,0.0,0.105,2.1,-0.3263,-1.0613,87.5846,0.72184,0.00435,-0.00866,0.69199,0.1953,0.0525,-9.8183,0.4677,0.0454,-0.3858,0.3253,3,13,0.83,0.85,0.42,24.724,17.32,96.4,43.4,21202.0,7817,7880,7789,7796,63.8,63.2,61.2,57.7,2.974,2.981,2.752,2.74,8.57,180.9,35.6,53.9,1012.95,-34.16,-0.63,1.1,30.2,42.8,37.6,0,no_anomaly,0.0,0,0,0,0,23.0224918,72.571417,5.0,0.0
2024-09-18T18:49:05.600Z,MISSION_0067,56,0,transit,SITE_AMD_008,23.0224964,72.5714169,5.5,90.56,0.0,0.103,1.93,-2.1863,-1.8604,90.5624,0.70363,-0.00189,-0.02497,0.71013,0.0997,-0.0828,-9.8263,-0.5383,0.9732,-0.2572,0.2304,3,20,0.53,1.05,0.28,24.754,16.54,96.3,43.0,21191.0,7708,7602,7570,7818,60.1,59.9,58.4,57.7,2.595,2.875,2.858,2.569,8.14,180.1,35.5,54.6,1012.92,-26.82,-0.14,1.5,28.5,44.2,38.4,0,no_anomaly,0.0,0,0,0,0,23.0224964,72.5714169,5.5,0.0
2024-09-18T18:49:05.700Z,MISSION_0067,57,0,transit,SITE_AMD_008,23.0224929,72.5714176,6.0,90.7,0.0,0.083,2.12,1.2161,-4.3551,90.7015,0.70193,0.03448,-0.01916,0.71115,-0.125,0.0533,-9.7919,0.9094,-0.7842,-0.0212,0.3302,3,15,0.74,0.9,0.2,24.671,17.94,96.3,44.3,21180.0,7787,7774,7537,7859,60.0,59.9,58.7,61.5,2.593,2.844,2.573,2.844,8.38,174.6,35.6,54.1,1013.13,-32.4,-1.59,1.21,30.4,47.2,40.0,0,no_anomaly,0.0,0,0,0,0,23.0224929,72.5714176,6.0,0.0
2024-09-18T18:49:05.800Z,MISSION_0067,58,0,transit,SITE_AMD_008,23.0224909,72.5714156,6.5,91.52,0.0,0.096,2.01,6.9379,-2.8915,91.5205,0.69507,0.06024,0.02577,0.71595,0.1748,0.0312,-9.7902,-0.6817,-0.2227,-0.4336,0.1953,3,10,0.96,0.93,0.25,24.666,18.1,96.2,43.6,21168.0,7929,7794,7808,7540,60.5,62.0,57.2,59.3,2.866,2.822,2.498,2.678,8.34,177.3,35.1,53.5,1013.36,-31.77,-0.92,1.32,31.4,46.8,35.7,0,no_anomaly,0.0,0,0,0,0,23.0224909,72.5714156,6.5,0.0
2024-09-18T18:49:05.900Z,MISSION_0067,59,0,transit,SITE_AMD_008,23.0224961,72.5714152,7.0,92.22,0.0,0.099,1.75,5.2701,-3.022,92.2223,0.69141,0.05085,0.01486,0.72051,-0.2547,-0.0088,-9.8395,0.3329,-0.2766,0.1774,0.241,3,19,0.99,0.71,0.32,24.652,16.37,96.2,44.5,21157.0,7964,7964,7644,7870,59.6,61.8,60.0,59.8,2.829,2.644,2.965,2.593,7.47,166.7,35.7,53.6,1013.09,-25.14,1.01,1.57,31.7,43.7,37.7,0,no_anomaly,0.0,0,0,0,0,23.0224961,72.5714152,7.0,0.0
2024-09-18T18:49:06.000Z,MISSION_0067,60,0,transit,SITE_AMD_008,23.0224974,72.5714175,7.5,93.51,0.225,0.118,1.97,-7.4938,-1.3369,93.5102,0.68416,-0.03629,-0.05558,0.7263,0.0433,-0.0084,-9.889,-0.1713,-1.5562,-0.5733,0.221,3,15,0.63,1.21,0.2,24.729,22.76,96.1,43.2,21146.0,7862,7639,7648,7567,59.6,56.9,63.3,60.4,3.07,2.838,2.562,2.636,8.45,174.4,35.3,53.0,1012.91,-28.3,-0.65,1.72,32.7,46.9,40.0,0,no_anomaly,0.0,0,0,0,0,23.0224974,72.5714175,7.5,0.0
2024-09-18T18:49:06.100Z,MISSION_0067,61,0,transit,SITE_AMD_008,23.0225004,72.5714144,8.0,91.42,0.348,0.157,1.61,7.0009,-1.377,91.4152,0.69644,0.05122,0.03532,0.71491,-0.0443,-0.0451,-9.7971,-0.3879,0.5342,-0.335,0.1607,3,14,0.56,0.91,0.2,24.704,20.75,96.1,43.8,21135.0,8030,7810,7775,7602,62.1,61.5,56.7,58.0,2.796,2.686,2.369,2.842,7.61,173.3,35.5,54.4,1013.02,-29.13,0.23,1.23,30.2,43.1,38.6,0,no_anomaly,0.0,0,0,0,0,23.0225004,72.5714144,8.0,0.0
2024-09-18T18:49:06.200Z,MISSION_0067,62,0,transit,SITE_AMD_008,23.0224965,72.571417,8.5,91.35,0.88,0.121,1.93,0.5625,0.1816,91.3456,0.69875,0.0023,0.00462,0.71535,-0.0197,-0.1177,-9.7943,0.4319,0.204,-0.0032,0.2696,3,19,0.79,1.21,0.26,24.663,19.13,96.0,44.0,21123.0,7586,7724,7819,7765,64.2,61.2,60.9,60.5,2.636,2.639,3.098,2.742,7.61,172.7,35.6,54.5,1013.49,-36.65,1.11,1.4,33.4,50.1,37.4,0,no_anomaly,0.0,0,0,0,0,23.0224965,72.571417,8.5,0.0
2024-09-18T18:49:06.300Z,MISSION_0067,63,0,transit,SITE_AMD_008,23.0224914,72.5714119,9.0,92.01,0.914,0.121,1.63,-0.1752,-1.7631,92.0112,0.69452,0.01001,-0.01179,0.71931,-0.0612,-0.1321,-9.8121,-0.2468,-0.3372,0.1383,0.2054,3,11,0.62,0.87,0.2,24.67,20.3,96.0,43.5,21112.0,7837,7682,7836,8128,62.0,59.9,58.1,60.3,2.81,2.91,3.056,2.905,7.74,174.3,35.6,53.9,1012.95,-30.43,-0.77,1.35,29.1,43.4,39.4,0,no_anomaly,0.0,0,0,0,0,23.0224914,72.5714119,9.0,0.0
2024-09-18T18:49:06.400Z,MISSION_0067,64,0,transit,SITE_AMD_008,23.0224901,72.5714158,9.5,90.75,0.622,0.037,2.08,1.2037,-2.3925,90.749,0.70212,0.02223,-0.00719,0.71167,-0.0583,0.0064,-9.771,-0.7941,-0.3969,0.299,0.1783,3,17,0.71,0.7,0.27,24.732,18.05,95.9,44.4,21101.0,7672,7464,7754,7642,60.1,60.1,58.9,60.3,2.746,2.79,2.924,2.765,8.2,171.0,35.7,54.3,1012.98,-32.24,-0.87,1.26,33.6,40.7,39.9,0,no_anomaly,0.0,0,0,0,0,23.0224901,72.5714158,9.5,0.0
2024-09-18T18:49:06.500Z,MISSION_0067,65,0,transit,SITE_AMD_008,23.0224901,72.5714132,10.0,91.62,0.0,0.05,1.84,-0.5339,-2.9123,91.6227,0.69688,0.01497,-0.02105,0.71673,-0.225,0.021,-9.7372,-0.0702,-0.9942,0.1114,0.3001,3,15,0.89,0.93,0.2,24.613,21.65,95.9,43.1,21090.0,7714,7959,7772,7724,59.3,58.8,62.2,62.2,2.993,2.695,2.652,2.916,8.22,178.3,35.4,54.4,1013.03,-25.05,0.81,1.0,28.7,44.6,39.7,0,no_anomaly,0.0,0,0,0,0,23.0224901,72.5714132,10.0,0.0
2024-09-18T18:49:06.600Z,MISSION_0067,66,0,transit,SITE_AMD_008,23.0224895,72.5714107,10.5,92.43,0.0,0.098,1.67,-1.181,-0.5226,92.4317,0.69193,-0.00384,-0.0106,0.72187,0.0523,0.0044,-9.7764,0.6908,-0.3262,-0.267,0.3069,3,11,0.99,0.87,0.37,24.669,13.6,95.8,44.2,21078.0,7905,7829,7722,8015,59.6,59.0,62.2,58.9,2.779,2.891,2.69,2.944,8.28,167.8,35.6,53.4,1013.07,-28.52,-1.61,1.28,31.6,51.3,39.6,0,no_anomaly,0.0,0,0,0,0,23.0224895,72.5714107,10.5,0.0
2024-09-18T18:49:06.700Z,MISSION_0067,67,0,transit,SITE_AMD_008,23.0224933,72.5714109,11.0,90.85,0.0,0.058,1.43,3.07,-0.4942,90.8528,0.70148,0.02187,0.01606,0.71217,0.2266,0.009,-9.8345,-0.2107,-0.0599,0.0321,0.2697,3,16,0.73,1.11,0.2,24.676,22.23,95.8,43.5,21067.0,7907,7675,7816,8012,59.8,59.9,62.1,65.0,2.862,2.455,2.784,2.853,8.65,176.3,35.7,53.2,1012.95,-25.68,1.04,1.34,30.7,48.9,37.3,0,no_anomaly,0.0,0,0,0,0,23.0224933,72.5714109,11.0,0.0
2024-09-18T18:49:06.800Z,MISSION_0067,68,0,transit,SITE_AMD_008,23.0224869,72.5714135,11.5,89.83,0.038,0.073,2.09,3.408,-2.3455,89.8313,0.70726,0.0355,0.0065,0.70604,-0.0245,-0.0008,-9.8472,-0.2435,-0.6382,0.3753,0.2493,3,11,0.56,0.94,0.25,24.612,14.44,95.7,44.6,21056.0,7860,7847,8036,7606,62.4,59.5,60.4,57.1,2.767,2.804,2.976,2.637,8.23,169.6,35.6,53.4,1013.06,-28.67,2.36,1.66,27.1,43.9,35.7,0,no_anomaly,0.0,0,0,0,0,23.0224869,72.5714135,11.5,0.0
2024-09-18T18:49:06.900Z,MISSION_0067,69,0,transit,SITE_AMD_008,23.0224882,72.5714153,12.0,88.79,0.0,0.16,2.15,11.1138,-4.3358,88.7944,0.70808,0.09548,0.0408,0.69846,-0.1175,-0.0259,-9.7041,-0.0321,0.1869,-0.0039,0.2921,3,19,0.72,0.65,0.34,24.68,18.07,95.7,43.3,21045.0,7767,7766,7827,7781,63.7,62.4,58.0,60.1,2.625,2.883,3.051,2.597,8.43,183.0,35.6,54.5,1013.4,-34.13,-0.15,1.03,34.7,43.6,38.6,0,no_anomaly,0.0,0,0,0,0,23.0224882,72.5714153,12.0,0.0
2024-09-18T18:49:07.000Z,MISSION_0067,70,0,transit,SITE_AMD_008,23.0224902,72.5714152,12.5,87.05,0.0,0.058,2.02,3.1878,-4.416,87.0508,0.72351,0.04668,-0.00878,0.68868,-0.0404,0.071,-9.8403,-0.4802,0.3668,0.1582,0.2771,3,12,0.83,0.79,0.2,24.701,16.83,95.6,43.0,21033.0,7788,7663,7873,7611,59.3,62.0,60.4,61.0,2.862,2.844,2.646,3.026,7.1,175.3,35.7,54.5,1013.04,-28.77,1.31,1.04,29.8,49.1,38.3,0,no_anomaly,0.0,0,0,0,0,23.0224902,72.5714152,12.5,0.0
2024-09-18T18:49:07.100Z,MISSION_0067,71,0,transit,SITE_AMD_008,23.0224905,72.5714144,13.0,84.76,0.0,0.03,1.92,3.054,-3.8178,84.7551,0.73745,0.04212,-0.00665,0.67406,0.0032,-0.0266,-9.7922,0.3651,-0.9707,-0.27,0.3612,3,13,0.75,0.89,0.2,24.727,22.89,95.6,44.5,21022.0,7525,7753,7837,7738,60.8,59.9,61.0,61.1,2.713,2.767,2.466,2.647,8.12,169.3,35.8,53.7,1013.05,-29.7,0.26,1.45,29.1,50.9,37.1,0,no_anomaly,0.0,0,0,0,0,23.0224905,72.5714144,13.0,0.0
2024-09-18T18:49:07.200Z,MISSION_0067,72,0,transit,SITE_AMD_008,23.0224864,72.5714148,13.5,85.47,0.241,0.155,2.24,3.0619,-2.0698,85.4744,0.73376,0.03187,0.00487,0.67864,-0.0266,-0.0019,-9.8058,0.8569,-0.4382,-0.3036,0.2767,3,17,0.57,0.98,0.2,24.711,20.48,95.5,43.8,21011.0,7648,7774,7682,7756,61.6,62.2,61.7,62.2,2.802,2.826,2.851,3.029,7.68,174.0,35.5,53.6,1013.06,-32.77,0.4,1.73,32.1,50.8,41.3,0,no_anomaly,0.0,0,0,0,0,23.0224864,72.5714148,13.5,0.0
2024-09-18T18:49:07.300Z,MISSION_0067,73,0,transit,SITE_AMD_008,23.0224845,72.5714139,14.0,86.24,0.534,0.116,2.32,8.3259,-0.5434,86.2384,0.72776,0.05622,0.04617,0.68196,0.4282,0.0686,-9.7991,-0.617,-0.3966,0.2238,0.2263,3,16,0.86,0.71,0.39,24.771,16.75,95.5,42.8,21000.0,7709,7944,7815,7832,57.4,60.7,62.0,60.0,2.758,2.777,2.634,2.785,7.71,178.6,35.7,54.9,1012.96,-29.17,-1.2,1.55,34.6,43.5,38.6,0,no_anomaly,0.0,0,0,0,0,23.0224845,72.5714139,14.0,0.0
2024-09-18T18:49:07.400Z,MISSION_0067,74,0,transit,SITE_AMD_008,23.0224865,72.5714115,14.5,87.55,0.298,0.121,1.97,3.114,-1.5088,87.5497,0.72149,0.02872,0.00929,0.69177,0.0322,0.0051,-9.7805,0.1811,0.4483,-0.1356,0.3548,3,15,0.67,0.63,0.22,24.696,14.71,95.4,43.0,20988.0,8043,7749,7930,7710,60.3,59.7,63.5,58.3,2.813,2.704,2.718,2.897,8.24,173.9,35.5,54.0,1012.79,-28.94,1.73,1.25,28.7,45.6,37.5,0,no_anomaly,0.0,0,0,0,0,23.0224865,72.5714115,14.5,0.0
2024-09-18T18:49:07.500Z,MISSION_0067,75,0,transit,SITE_AMD_008,23.0224833,72.571412,15.0,87.53,0.604,0.091,2.29,1.7144,-0.9771,87.5255,0.72201,0.0167,0.00419,0.69166,0.0108,0.0158,-9.7995,-0.4653,-0.681,0.0088,0.3107,3,15,0.79,0.76,0.2,24.645,13.67,95.4,44.3,20977.0,7766,7749,7777,7619,59.3,57.3,60.3,56.8,3.053,2.746,2.871,2.985,8.21,186.3,36.0,54.0,1013.33,-24.67,-0.34,1.44,26.2,41.6,37.7,0,no_anomaly,0.0,0,0,0,0,23.0224833,72.571412,15.0,0.0
2024-09-18T18:49:07.600Z,MISSION_0067,76,0,transit,SITE_AMD_008,23.0224833,72.5714112,15.5,88.38,0.745,0.146,2.24,0.8287,-2.8313,88.3767,0.71669,0.0224,-0.01268,0.69692,-0.1983,0.0216,-9.7895,-0.1194,0.0147,-0.1675,0.2339,3,15,0.66,1.03,0.22,24.633,19.88,95.3,44.5,20966.0,7763,7708,7875,7699,61.8,62.6,59.7,60.2,2.55,2.884,2.794,3.042,8.02,163.1,35.5,53.3,1013.07,-28.07,0.09,1.88,29.5,45.2,38.1,0,no_anomaly,0.0,0,0,0,0,23.0224833,72.5714112,15.5,0.0
2024-09-18T18:49:07.700Z,MISSION_0067,77,0,transit,SITE_AMD_008,23.0224849,72.5714097,16.0,87.75,0.039,0.03,2.0,0.3849,-2.3342,87.7486,0.72066,0.01654,-0.01236,0.69298,0.3771,-0.0562,-9.8077,-0.4871,-0.1018,0.1459,0.279,3,14,0.59,0.86,0.27,24.653,15.46,95.2,45.2,20955.0,7737,7669,7701,7850,55.7,62.6,61.3,61.8,2.884,2.911,2.991,2.826,7.78,176.6,35.8,54.7,1013.2,-30.28,1.17,1.48,31.1,41.4,35.2,0,no_anomaly,0.0,0,0,0,0,23.0224849,72.5714097,16.0,0.0
2024-09-18T18:49:07.800Z,MISSION_0067,78,0,transit,SITE_AMD_008,23.0224848,72.5714143,16.5,88.87,0.173,0.145,2.32,6.2951,-2.5409,88.8666,0.71196,0.0547,0.02262,0.69972,0.0748,0.0119,-9.9019,-0.4678,0.3677,-0.1474,0.1614,3,14,0.55,0.95,0.22,24.723,18.27,95.2,43.3,20943.0,7943,8112,7832,7857,61.9,59.1,58.3,60.4,2.715,2.879,2.882,2.834,7.4,176.5,35.4,54.5,1013.17,-25.32,-0.75,1.76,31.9,47.5,36.1,0,no_anomaly,0.0,0,0,0,0,23.0224848,72.5714143,16.5,0.0
2024-09-18T18:49:07.900Z,MISSION_0067,79,0,transit,SITE_AMD_008,23.0224822,72.5714139,17.0,91.12,0.419,0.169,2.51,4.9011,0.1697,91.1159,0.69959,0.02888,0.03156,0.71326,-0.1298,0.0,-9.8154,0.5352,0.2217,-0.1977,0.2494,3,13,0.68,0.91,0.26,24.731,19.65,95.1,44.4,20932.0,7992,7864,7687,7785,60.4,61.3,60.7,60.8,2.841,2.851,2.66,2.727,7.74,172.5,35.5,54.1,1013.18,-27.94,-0.1,1.61,27.7,47.0,36.1,0,no_anomaly,0.0,0,0,0,0,23.0224822,72.5714139,17.0,0.0
2024-09-18T18:49:08.000Z,MISSION_0067,80,0,transit,SITE_AMD_008,23.0224827,72.5714178,17.5,88.96,0.552,0.022,2.76,-2.9161,-2.6071,88.9642,0.71346,-0.00221,-0.03405,0.69987,-0.0236,0.0408,-9.7716,0.0158,0.1298,-0.0061,0.3449,3,13,0.66,0.97,0.22,24.686,16.48,95.1,43.4,20921.0,7869,7944,7586,7804,61.0,58.4,59.4,63.4,2.852,2.789,2.869,2.743,8.05,174.9,35.7,54.7,1012.91,-31.12,1.03,1.38,31.9,49.6,39.2,0,no_anomaly,0.0,0,0,0,0,23.0224827,72.5714178,17.5,0.0
2024-09-18T18:49:08.100Z,MISSION_0067,81,0,transit,SITE_AMD_008,23.0224879,72.571421,18.0,85.84,0.801,0.049,2.7,-0.8759,-2.9926,85.8378,0.73218,0.01219,-0.02432,0.68056,0.151,0.0742,-9.7992,0.9014,-1.1593,-0.4149,0.2176,3,12,0.6,1.19,0.29,24.727,19.42,95.0,43.6,20910.0,7906,7960,7740,7906,59.8,62.1,63.1,59.4,2.956,2.896,2.785,3.025,7.86,175.4,35.4,54.0,1013.05,-26.82,0.48,1.31,30.5,42.1,38.6,0,no_anomaly,0.0,0,0,0,0,23.0224879,72.571421,18.0,0.0
2024-09-18T18:49:08.200Z,MISSION_0067,82,0,transit,SITE_AMD_008,23.022484,72.5714212,18.0,83.95,1.076,-0.032,2.96,-5.9356,-2.0004,83.9494,0.74293,-0.02683,-0.04758,0.66713,0.4907,-0.008,-9.7144,0.0646,-0.4957,-0.3024,0.266,3,11,0.62,0.87,0.36,24.638,15.61,95.0,43.8,20899.0,7740,7855,7857,7815,58.1,62.4,62.1,62.0,2.957,2.652,2.667,2.738,8.41,175.0,35.6,53.1,1013.22,-24.68,0.19,1.0,28.4,44.7,35.3,0,no_anomaly,0.0,0,0,0,0,23.022484,72.5714212,18.0,0.0
2024-09-18T18:49:08.300Z,MISSION_0067,83,0,transit,SITE_AMD_008,23.0224831,72.5714193,18.0,80.52,0.687,0.118,2.86,-3.1608,-2.8264,80.5178,0.76305,-0.00511,-0.03663,0.64528,0.0324,0.0275,-9.8265,0.663,-0.1626,0.33,0.2127,3,15,0.7,0.84,0.29,24.645,17.87,94.9,43.9,20887.0,7920,7713,7666,7917,64.8,55.7,64.3,59.8,2.635,2.763,2.847,2.717,8.43,170.3,35.4,53.5,1013.18,-25.7,-2.1,1.2,29.6,41.9,36.0,0,no_anomaly,0.0,0,0,0,0,23.0224831,72.5714193,18.0,0.0
2024-09-18T18:49:08.400Z,MISSION_0067,84,0,transit,SITE_AMD_008,23.0224841,72.5714199,18.0,82.04,0.7,0.131,2.83,-0.5486,-1.6286,82.0375,0.75445,0.00572,-0.01386,0.65618,0.2443,-0.0419,-9.9178,-0.2508,0.0732,-0.1758,0.201,3,20,0.83,0.81,0.42,24.58,19.73,94.9,43.6,20876.0,7968,8129,7926,7815,63.5,57.6,60.3,64.6,2.728,2.916,2.788,2.53,9.14,181.7,35.6,55.1,1013.49,-27.47,-0.13,1.59,31.6,44.0,38.6,0,no_anomaly,0.0,0,0,0,0,23.0224841,72.5714199,18.0,0.0
2024-09-18T18:49:08.500Z,MISSION_0067,85,0,transit,SITE_AMD_008,23.022488,72.5714151,18.0,81.72,1.136,0.146,2.15,-1.3896,-1.4351,81.7212,0.75629,-0.00098,-0.0174,0.65401,0.0741,-0.016,-9.84,0.2268,0.4613,0.0261,0.2666,3,12,0.8,1.0,0.31,24.76,19.47,94.8,43.3,20865.0,7982,7673,7653,7534,60.5,60.3,59.4,61.5,3.004,2.903,2.904,2.486,7.26,176.5,35.6,53.8,1013.05,-29.28,0.96,1.73,31.2,46.2,37.4,0,no_anomaly,0.0,0,0,0,0,23.022488,72.5714151,18.0,0.0
2024-09-18T18:49:08.600Z,MISSION_0067,86,0,transit,SITE_AMD_008,23.0224889,72.5714189,18.0,80.84,1.274,0.122,2.43,-3.3086,0.0434,80.8405,0.76098,-0.02222,-0.01843,0.64813,0.2449,-0.0332,-9.7978,-0.6101,-0.412,-0.0785,0.2756,3,13,0.67,1.02,0.29,24.635,18.93,94.8,44.1,20854.0,7760,7871,7935,7576,59.5,59.8,57.2,62.0,2.857,2.743,2.957,2.658,6.61,180.1,35.3,54.5,1013.2,-31.76,-1.76,1.13,32.8,50.3,36.8,0,no_anomaly,0.0,0,0,0,0,23.0224889,72.5714189,18.0,0.0
2024-09-18T18:49:08.700Z,MISSION_0067,87,0,transit,SITE_AMD_008,23.0224957,72.5714167,18.0,80.08,1.215,0.041,1.92,3.1538,-3.9568,80.0797,0.76424,0.04326,-0.00873,0.64342,0.2274,-0.1279,-9.8429,0.3506,-1.0038,0.3036,0.2279,3,14,0.61,1.09,0.28,24.69,18.83,94.7,43.9,20842.0,7615,7853,7798,7804,56.3,57.9,62.0,62.3,2.702,3.077,2.754,2.702,7.6,168.5,35.7,54.5,1013.43,-36.1,-0.57,1.4,29.4,48.4,36.9,0,no_anomaly,0.0,0,0,0,0,23.0224957,72.5714167,18.0,0.0
2024-09-18T18:49:08.800Z,MISSION_0067,88,0,transit,SITE_AMD_008,23.0224975,72.5714177,18.0,79.52,1.452,0.08,1.99,6.3323,-3.0994,79.521,0.76632,0.05971,0.01455,0.63952,0.3449,-0.0895,-9.761,-0.0849,0.4695,-0.4011,0.2445,3,11,0.77,0.81,0.34,24.743,18.47,94.7,43.6,20831.0,8023,7809,7829,7903,63.5,60.0,63.7,59.8,2.896,2.806,2.809,2.685,7.36,172.8,35.5,54.7,1013.05,-33.91,1.43,1.37,29.6,49.4,39.4,0,no_anomaly,0.0,0,0,0,0,23.0224975,72.5714177,18.0,0.0
2024-09-18T18:49:08.900Z,MISSION_0067,89,0,transit,SITE_AMD_008,23.022498,72.5714206,18.0,78.41,1.678,0.15,2.3,-2.1691,-5.0659,78.4129,0.77451,0.01328,-0.04619,0.63074,-0.1637,-0.0056,-9.9015,0.2111,-0.0344,-0.4294,0.2183,3,18,0.74,1.0,0.36,24.653,20.31,94.6,44.3,20820.0,7942,7656,7851,8011,61.3,60.3,63.4,61.0,2.889,2.786,2.988,2.87,6.74,170.8,35.6,53.8,1012.74,-26.51,-0.19,1.96,26.7,44.3,34.6,0,no_anomaly,0.0,0,0,0,0,23.022498,72.5714206,18.0,0.0
2024-09-18T18:49:09.000Z,MISSION_0067,90,0,transit,SITE_AMD_008,23.0224958,72.5714195,18.0,82.17,1.611,0.153,2.22,3.9565,-1.2404,82.1698,0.753,0.03313,0.01453,0.65703,-0.2491,-0.0373,-9.7959,-0.2527,0.1834,0.1825,0.2679,3,15,0.65,0.71,0.2,24.543,21.89,94.6,43.8,20809.0,7861,7997,7642,8081,61.0,62.7,60.4,59.8,2.677,2.532,3.046,2.875,8.23,173.6,35.7,54.1,1012.99,-30.92,0.44,1.31,31.2,50.4,36.0,0,no_anomaly,0.0,0,0,0,0,23.0224958,72.5714195,18.0,0.0
2024-09-18T18:49:09.100Z,MISSION_0067,91,0,transit,SITE_AMD_008,23.0225017,72.5714189,18.0,82.8,1.443,0.053,2.11,0.8187,-1.184,82.7969,0.75002,0.01219,-0.00303,0.66129,0.2719,-0.0147,-9.8368,0.9066,-1.3498,0.2161,0.2978,3,19,0.67,0.97,0.29,24.6,20.36,94.5,42.8,20797.0,7763,7608,7630,7791,64.0,62.6,57.3,56.3,2.771,2.755,2.814,2.645,8.69,175.9,35.8,54.5,1012.92,-26.61,-1.12,1.06,30.9,46.7,36.0,0,no_anomaly,0.0,0,0,0,0,23.0225017,72.5714189,18.0,0.0
2024-09-18T18:49:09.200Z,MISSION_0067,92,0,transit,SITE_AMD_008,23.0225082,72.5714169,18.0,82.4,1.085,0.042,2.09,0.1501,-1.4557,82.4025,0.75233,0.00935,-0.00869,0.65866,-0.1367,-0.0055,-9.7707,-0.0447,-0.2361,0.1212,0.1715,3,14,0.75,0.9,0.29,24.65,20.18,94.5,43.7,20786.0,7718,7850,7822,7964,61.7,58.8,56.9,63.0,2.742,2.666,2.827,2.829,8.15,171.8,35.8,53.4,1012.97,-34.96,1.15,1.38,32.6,42.9,37.9,0,no_anomaly,0.0,0,0,0,0,23.0225082,72.5714169,18.0,0.0
2024-09-18T18:49:09.300Z,MISSION_0067,93,0,transit,SITE_AMD_008,23.0225064,72.5714211,18.0,81.73,0.683,0.072,2.45,-2.8279,-2.5918,81.734,0.75617,-0.00386,-0.03324,0.65352,0.0931,0.0124,-9.8262,0.0487,0.4688,0.2267,0.2018,3,16,0.5,1.0,0.27,24.588,22.43,94.4,43.0,20775.0,7735,7880,8027,8064,58.1,61.0,60.9,58.5,2.732,2.867,3.256,2.773,8.76,173.1,35.6,53.8,1013.06,-29.94,0.72,1.35,29.2,46.4,36.5,0,no_anomaly,0.0,0,0,0,0,23.0225064,72.5714211,18.0,0.0
2024-09-18T18:49:09.400Z,MISSION_0067,94,0,transit,SITE_AMD_008,23.022509,72.5714215,18.0,80.66,0.935,0.112,2.59,3.284,-1.5435,80.6568,0.76172,0.03056,0.00828,0.64714,0.1586,-0.0574,-9.8142,0.4527,-0.3965,0.3067,0.2665,3,15,0.77,0.81,0.2,24.67,18.5,94.4,44.7,20764.0,7776,7755,7952,7577,58.9,61.4,59.7,57.9,2.994,2.854,2.736,3.044,6.83,185.7,35.6,55.2,1013.18,-31.77,-0.29,1.53,30.6,47.0,36.7,0,no_anomaly,0.0,0,0,0,0,23.022509,72.5714215,18.0,0.0
2024-09-18T18:49:09.500Z,MISSION_0067,95,0,transit,SITE_AMD_008,23.0225085,72.5714256,18.0,79.99,0.522,0.091,3.01,-3.7318,-2.4247,79.9931,0.76595,-0.01135,-0.03712,0.64173,-0.4455,-0.1069,-9.851,0.4271,0.1394,0.5467,0.2579,3,17,0.74,0.83,0.44,24.617,18.4,94.3,44.2,20752.0,7877,7871,7671,7894,58.1,65.2,61.5,59.5,2.787,2.706,2.837,3.086,8.53,179.2,35.5,54.6,1013.5,-29.56,-0.41,1.54,31.0,40.0,35.2,0,no_anomaly,0.0,0,0,0,0,23.0225085,72.5714256,18.0,0.0
2024-09-18T18:49:09.600Z,MISSION_0067,96,0,transit,SITE_AMD_008,23.0225058,72.5714283,18.0,80.77,1.117,0.029,3.21,5.2417,-1.1845,80.7715,0.76056,0.04152,0.02176,0.64758,-0.2521,-0.0049,-9.7702,0.5645,-0.6222,0.2148,0.2775,3,16,0.79,0.75,0.26,24.598,18.08,94.3,42.8,20741.0,7738,7717,7841,7789,60.1,58.5,60.4,62.3,2.844,2.803,2.828,2.946,8.27,181.1,35.5,54.1,1013.39,-29.2,-0.62,1.64,32.2,42.3,36.3,0,no_anomaly,0.0,0,0,0,0,23.0225058,72.5714283,18.0,0.0
2024-09-18T18:49:09.700Z,MISSION_0067,97,0,transit,SITE_AMD_008,23.0225041,72.5714296,18.0,80.97,1.485,0.055,3.33,2.2208,-3.4504,80.9667,0.75973,0.03427,-0.01032,0.64925,-0.1106,-0.0183,-9.7944,0.4147,0.2037,-0.1151,0.2782,3,15,0.67,1.03,0.2,24.685,17.74,94.2,44.0,20730.0,7627,8015,7970,7846,65.1,60.3,56.6,62.2,2.92,2.851,2.57,2.837,7.01,166.8,35.5,54.1,1013.13,-31.17,0.38,1.55,33.3,46.3,38.8,0,no_anomaly,0.0,0,0,0,0,23.0225041,72.5714296,18.0,0.0
2024-09-18T18:49:09.800Z,MISSION_0067,98,0,transit,SITE_AMD_008,23.0225006,72.5714285,18.0,79.99,1.321,0.025,3.17,-0.2801,-2.405,79.9922,0.76595,0.01162,-0.01765,0.64255,-0.0529,0.0563,-9.8354,0.1705,-0.3835,0.0204,0.2306,3,11,0.55,0.8,0.2,24.704,22.96,94.2,44.3,20719.0,7638,7695,8187,8184,60.4,57.8,60.6,61.7,2.803,2.701,2.925,2.746,7.26,180.4,35.4,54.5,1013.06,-29.1,0.99,1.29,29.1,40.9,35.8,0,no_anomaly,0.0,0,0,0,0,23.0225006,72.5714285,18.0,0.0
2024-09-18T18:49:09.900Z,MISSION_0067,99,0,transit,SITE_AMD_008,23.0224976,72.5714302,18.0,79.21,1.52,0.072,3.37,1.6679,-1.9568,79.2083,0.77011,0.0221,-0.00388,0.63751,-0.0118,0.0848,-9.8043,0.2975,-0.1246,-0.1391,0.3078,3,15,0.67,0.62,0.2,24.616,21.95,94.1,43.8,20707.0,7656,7951,7841,7933,61.0,58.5,62.3,61.3,3.057,2.814,2.744,2.794,7.77,172.6,35.1,53.8,1013.26,-31.24,0.86,1.37,32.8,48.5,37.4,0,no_anomaly,0.0,0,0,0,0,23.0224976,72.5714302,18.0,0.0
2024-09-18T18:49:10.000Z,MISSION_0067,100,0,transit,SITE_AMD_008,23.0224927,72.5714327,18.0,80.19,1.489,0.06,3.72,-2.3069,0.2478,80.185,0.76482,-0.01679,-0.01131,0.64393,0.131,0.0119,-9.7526,0.4366,-0.1119,-0.2325,0.1504,3,13,0.59,0.92,0.34,24.627,15.79,94.1,43.8,20696.0,7547,7994,7941,7976,61.7,58.7,62.1,61.3,3.081,2.547,2.632,2.634,7.35,183.5,35.5,54.1,1013.02,-30.75,1.74,1.81,29.2,46.5,38.9,0,no_anomaly,0.0,0,0,0,0,23.0224927,72.5714327,18.0,0.0
2024-09-18T18:49:10.100Z,MISSION_0067,101,0,transit,SITE_AMD_008,23.0224956,72.5714349,18.0,81.72,0.992,0.084,3.91,-4.731,-3.5932,81.7178,0.75615,-0.01071,-0.05068,0.65234,0.1442,0.0941,-9.7781,-0.3564,-0.2433,-0.1321,0.2809,3,17,0.72,1.04,0.35,24.609,17.09,94.0,44.3,20685.0,7770,8065,8108,7886,62.4,58.5,57.1,64.4,2.778,2.884,3.041,2.673,8.29,177.8,35.2,55.1,1013.4,-24.64,-0.63,1.64,30.8,50.5,40.9,0,no_anomaly,0.0,0,0,0,0,23.0224956,72.5714349,18.0,0.0
2024-09-18T18:49:10.200Z,MISSION_0067,102,0,transit,SITE_AMD_008,23.022494,72.5714314,18.0,80.89,1.064,0.071,3.56,1.0632,-5.7297,80.8949,0.75972,0.03947,-0.03202,0.64826,-0.3594,0.0187,-9.7677,0.037,-0.2321,0.3895,0.2506,3,11,0.71,1.14,0.25,24.651,17.47,94.0,44.1,20674.0,7780,7963,7826,7655,58.0,61.4,60.4,61.9,2.749,2.762,3.028,2.869,8.22,178.8,35.6,53.7,1013.28,-32.57,-0.58,1.61,33.1,50.4,40.7,0,no_anomaly,0.0,0,0,0,0,23.022494,72.5714314,18.0,0.0
2024-09-18T18:49:10.300Z,MISSION_0067,103,0,transit,SITE_AMD_008,23.0224894,72.5714354,18.0,80.62,0.453,0.241,4.11,0.1617,-1.2801,80.6155,0.76252,0.0083,-0.00761,0.64686,0.3893,0.0255,-9.8064,0.032,0.6085,-0.0423,0.3049,3,15,0.83,0.81,0.2,24.606,14.72,93.9,44.0,20662.0,7733,7661,7848,7917,61.2,59.5,61.2,61.0,2.653,2.72,2.68,2.983,7.14,172.3,35.5,53.9,1013.33,-30.46,0.49,1.24,32.1,43.9,35.3,0,no_anomaly,0.0,0,0,0,0,23.0224894,72.5714354,18.0,0.0
2024-09-18T18:49:10.400Z,MISSION_0067,104,0,transit,SITE_AMD_008,23.0224922,72.571433,18.0,81.99,0.553,0.041,3.78,-1.0658,-4.327,81.9878,0.75444,0.01775,-0.03459,0.65522,-0.293,-0.0574,-9.748,-0.219,-0.0935,0.0117,0.2493,3,13,0.65,0.79,0.2,24.705,18.04,93.9,43.7,20651.0,7678,7822,7865,7864,59.9,60.5,60.3,60.4,2.832,2.921,2.849,2.831,7.64,178.6,35.9,54.5,1013.57,-26.93,-0.26,1.51,33.4,46.6,38.3,0,no_anomaly,0.0,0,0,0,0,23.0224922,72.571433,18.0,0.0
2024-09-18T18:49:10.500Z,MISSION_0067,105,0,transit,SITE_AMD_008,23.0224961,72.5714306,18.0,82.5,0.748,0.167,3.43,1.2664,-0.6939,82.5007,0.75173,0.0123,0.00273,0.65935,-0.314,-0.0284,-9.8376,0.483,0.1299,0.093,0.2175,3,15,0.64,0.93,0.25,24.564,18.39,93.8,44.1,20640.0,8032,7831,7620,7803,57.9,59.6,58.4,61.9,2.737,2.69,2.897,2.872,7.99,182.0,35.6,53.6,1013.23,-27.51,2.32,1.65,31.1,45.5,41.6,0,no_anomaly,0.0,0,0,0,0,23.0224961,72.5714306,18.0,0.0
2024-09-18T18:49:10.600Z,MISSION_0067,106,0,transit,SITE_AMD_008,23.0224966,72.5714297,18.0,84.44,1.015,0.121,3.32,-6.2829,0.565,84.4442,0.73924,-0.04389,-0.03318,0.67119,-0.1212,0.0634,-9.7581,0.1929,1.0163,-0.184,0.1874,3,20,0.5,0.77,0.2,24.61,16.37,93.8,43.8,20629.0,7739,8088,7800,7639,60.9,59.1,61.6,60.5,2.885,2.675,2.924,2.714,7.97,172.0,35.2,53.7,1012.84,-30.15,1.43,1.73,29.5,49.3,37.3,0,no_anomaly,0.0,0,0,0,0,23.0224966,72.5714297,18.0,0.0
2024-09-18T18:49:10.700Z,MISSION_0067,107,0,transit,SITE_AMD_008,23.0224982,72.5714346,18.0,85.61,1.692,0.21,3.85,-1.0693,-0.7626,85.6068,0.73368,-0.00232,-0.01122,0.67939,-0.0377,-0.0515,-9.8704,-0.4789,0.5868,-0.1429,0.2438,3,19,0.67,0.84,0.25,24.626,26.09,93.7,44.3,20617.0,8052,7865,7909,8018,60.5,58.7,63.5,59.9,2.925,3.04,2.862,2.523,7.75,179.2,35.5,52.8,1013.12,-30.93,0.74,1.5,29.4,43.4,36.6,0,no_anomaly,0.0,0,0,0,0,23.0224982,72.5714346,18.0,0.0
2024-09-18T18:49:10.800Z,MISSION_0067,108,0,transit,SITE_AMD_008,23.022495,72.5714323,18.0,85.86,1.495,0.164,3.64,-4.9386,-1.3135,85.8575,0.73181,-0.02374,-0.03773,0.68005,0.0977,0.0088,-9.8685,0.1772,-0.5287,-0.1617,0.2509,3,10,0.51,0.93,0.2,24.549,20.88,93.7,43.8,20606.0,7959,7642,7571,8156,59.3,56.5,64.4,61.2,2.728,2.785,2.67,2.561,7.06,180.7,35.5,53.7,1013.18,-31.18,-1.57,1.82,34.3,46.6,41.1,0,no_anomaly,0.0,0,0,0,0,23.022495,72.5714323,18.0,0.0
2024-09-18T18:49:10.900Z,MISSION_0067,109,0,transit,SITE_AMD_008,23.022496,72.5714351,18.0,85.32,1.618,0.078,3.93,2.6494,-2.8586,85.322,0.73456,0.03389,-0.00268,0.67769,-0.0713,0.0321,-9.8061,0.4219,0.0066,-0.0764,0.2499,3,16,0.78,1.15,0.29,24.645,18.08,93.6,44.3,20595.0,7848,8060,7983,7724,62.9,64.8,64.0,62.1,2.664,2.746,2.761,2.611,8.26,172.1,35.7,54.7,1013.01,-31.19,-0.79,1.42,29.3,43.3,36.3,0,no_anomaly,0.0,0,0,0,0,23.022496,72.5714351,18.0,0.0
2024-09-18T18:49:11.000Z,MISSION_0067,110,0,transit,SITE_AMD_008,23.0224989,72.5714391,18.0,86.16,1.559,0.103,4.35,-2.1652,-2.7742,86.1629,0.73035,0.00274,-0.03058,0.68238,-0.0974,0.0088,-9.7956,-0.5458,-0.241,-0.1333,0.2697,3,16,0.5,1.04,0.26,24.723,20.63,93.6,43.9,20584.0,7648,7861,7783,7665,59.2,59.7,61.6,62.2,2.934,2.486,2.842,2.787,8.2,171.1,35.7,54.2,1013.05,-32.06,-0.53,1.59,26.9,47.3,37.5,0,no_anomaly,0.0,0,0,0,0,23.0224989,72.5714391,18.0,0.0
2024-09-18T18:49:11.100Z,MISSION_0067,111,0,transit,SITE_AMD_008,23.0224971,72.571435,18.0,84.84,1.559,0.064,3.91,0.9377,-2.187,84.8361,0.73798,0.01891,-0.00857,0.6745,0.044,0.035,-9.7707,-0.3356,0.5712,-0.5077,0.2443,3,15,0.65,0.78,0.27,24.633,18.53,93.5,42.1,20573.0,7866,7532,7908,7855,61.4,62.7,61.5,62.3,2.966,2.91,2.657,2.974,8.74,177.1,35.4,54.1,1012.85,-30.92,-1.11,1.78,30.7,43.8,38.4,0,no_anomaly,0.0,0,0,0,0,23.0224971,72.571435,18.0,0.0
2024-09-18T18:49:11.200Z,MISSION_0067,112,1,transit,SITE_AMD_008,23.0225021,72.5714354,18.0,82.53,0.915,0.016,3.95,0.311,-0.9063,82.5328,0.75161,0.00726,-0.00415,0.65955,0.001,0.0478,-9.832,-0.2649,0.7337,0.1115,0.2716,3,15,0.68,0.85,0.27,24.687,15.37,93.5,43.7,20561.0,7804,8005,8006,7783,60.7,60.9,61.9,59.1,2.832,2.624,2.661,2.791,8.05,173.7,35.2,54.2,1012.91,-28.45,1.26,1.22,32.2,44.2,38.1,0,no_anomaly,0.0,0,0,0,0,23.0225021,72.5714354,18.0,0.0
2024-09-18T18:49:11.300Z,MISSION_0067,113,1,transit,SITE_AMD_008,23.0224967,72.5714316,18.0,83.39,0.777,0.158,3.53,-5.1077,-1.9286,83.391,0.74634,-0.02208,-0.04219,0.66386,-0.2495,-0.0439,-9.8041,-0.4026,0.0364,0.0411,0.2551,3,12,0.78,1.13,0.39,24.599,16.74,93.4,43.7,20550.0,7901,7899,7779,7865,60.2,64.3,59.3,60.3,3.016,2.674,2.995,2.513,8.13,178.4,35.1,54.8,1012.95,-28.45,0.31,1.06,33.4,45.2,39.2,0,no_anomaly,0.0,0,0,0,0,23.0224967,72.5714316,18.0,0.0
2024-09-18T18:49:11.400Z,MISSION_0067,114,1,transit,SITE_AMD_008,23.0224969,72.5714292,18.0,82.29,0.485,0.124,3.27,4.8889,-1.4671,82.2933,0.75192,0.04053,0.01843,0.65775,-0.1997,0.0661,-9.8184,0.6668,0.1409,0.072,0.3068,3,10,0.6,0.78,0.2,24.636,19.4,93.4,43.9,20539.0,7694,7698,7656,7724,63.0,59.7,58.2,62.0,3.053,3.004,2.823,3.029,8.02,176.6,35.4,54.1,1013.03,-34.6,-0.36,1.47,29.0,44.8,37.6,0,no_anomaly,0.0,0,0,0,0,23.0224969,72.5714292,18.0,0.0
2024-09-18T18:49:11.500Z,MISSION_0067,115,1,transit,SITE_AMD_008,23.0224957,72.5714289,18.0,81.83,0.701,0.102,3.25,-3.0621,-1.4712,81.8332,0.75556,-0.01178,-0.0272,0.65441,0.4849,-0.0503,-9.7919,-0.0336,-0.4839,-0.068,0.2165,3,10,0.9,0.75,0.43,24.599,12.0,93.3,43.7,20528.0,7883,7835,7816,8174,62.2,55.8,63.0,57.8,2.874,2.947,2.921,2.945,7.5,172.4,35.4,54.1,1013.25,-28.14,1.39,1.05,30.4,48.4,39.6,0,no_anomaly,0.0,0,0,0,0,23.0224957,72.5714289,18.0,0.0
2024-09-18T18:49:11.600Z,MISSION_0067,116,1,transit,SITE_AMD_008,23.0224861,72.571431,18.0,81.85,1.178,0.005,3.78,2.9223,-0.3916,81.8517,0.75525,0.0215,0.01412,0.65493,0.2426,0.0088,-9.819,0.0345,-0.0687,0.2373,0.2405,3,13,0.59,0.89,0.2,24.594,15.98,93.3,44.1,20516.0,7671,7939,7768,7706,62.3,63.1,63.3,62.6,2.962,2.715,2.422,2.805,7.7,181.3,35.6,54.3,1013.01,-27.14,-0.94,1.83,28.8,41.3,37.3,0,no_anomaly,0.0,0,0,0,0,23.0224861,72.571431,18.0,0.0
2024-09-18T18:49:11.700Z,MISSION_0067,117,1,transit,SITE_AMD_008,23.0224883,72.5714314,18.0,82.57,1.47,0.159,3.73,3.2257,-1.096,82.5665,0.75095,0.02746,0.01138,0.65969,0.2129,-0.102,-9.712,-0.53,0.5337,0.356,0.2935,3,13,0.63,0.83,0.25,24.644,18.25,93.2,44.6,20505.0,7606,7800,7935,7952,65.8,62.5,61.0,60.5,2.387,2.628,2.957,2.91,7.52,174.7,35.4,53.7,1012.97,-27.84,1.92,1.86,31.4,44.0,38.4,0,no_anomaly,0.0,0,0,0,0,23.0224883,72.5714314,18.0,0.0
2024-09-18T18:49:11.800Z,MISSION_0067,118,1,transit,SITE_AMD_008,23.0224907,72.571433,18.0,78.96,1.641,0.092,3.82,-6.4976,-4.5976,78.9645,0.77141,-0.01824,-0.06691,0.63255,-0.0149,0.0314,-9.8247,-0.4413,-0.252,0.1738,0.1661,3,15,0.61,0.75,0.33,24.63,15.91,93.2,43.8,20494.0,7851,7653,7757,7635,62.8,62.5,60.8,61.9,2.986,2.94,2.668,2.971,8.1,179.5,35.3,54.6,1012.97,-31.93,1.88,1.36,31.4,42.3,39.7,0,no_anomaly,0.0,0,0,0,0,23.0224907,72.571433,18.0,0.0
2024-09-18T18:49:11.900Z,MISSION_0067,119,1,transit,SITE_AMD_008,23.0224927,72.5714401,18.0,78.93,1.66,0.042,4.53,-2.0301,-4.5257,78.9305,0.77173,0.01143,-0.04173,0.63447,-0.0313,0.024,-9.8617,-0.8866,0.1959,-0.1318,0.3111,3,19,0.56,0.87,0.29,24.604,17.98,93.1,43.6,20483.0,7741,7949,7783,7677,61.6,64.5,59.1,63.5,2.751,2.948,3.058,2.847,8.23,172.5,35.5,54.2,1013.04,-33.32,0.06,1.31,30.3,42.3,39.7,0,no_anomaly,0.0,0,0,0,0,23.0224927,72.5714401,18.0,0.0
2024-09-18T18:49:12.000Z,MISSION_0067,120,1,transit,SITE_AMD_008,23.0224899,72.5714398,18.0,77.45,1.885,0.093,4.57,-1.8135,-4.0484,77.4515,0.77991,0.00976,-0.03745,0.62469,-0.0834,0.0292,-9.7833,0.4148,-0.7816,-0.571,0.2715,3,11,0.65,0.65,0.28,24.651,17.97,93.1,43.1,20471.0,7627,7629,7965,7977,65.4,59.4,58.9,57.6,2.837,2.577,2.674,2.516,7.7,180.4,35.8,54.4,1013.61,-33.03,0.75,1.0,31.0,50.3,39.5,0,no_anomaly,0.0,0,0,0,0,23.0224899,72.5714398,18.0,0.0
2024-09-18T18:49:12.100Z,MISSION_0067,121,1,transit,SITE_AMD_008,23.02249,72.5714404,18.0,75.29,1.84,0.129,4.63,-3.9156,-4.0404,75.2921,0.79158,-0.00551,-0.04875,0.60909,0.3448,0.0303,-9.8702,-0.7592,0.1005,0.0658,0.2665,3,14,0.62,1.12,0.23,24.627,18.02,93.0,44.0,20460.0,7858,7887,7643,7408,58.7,58.9,58.7,61.6,2.681,2.913,2.83,2.611,8.33,175.9,35.7,53.6,1013.05,-34.03,1.3,1.19,32.7,49.8,36.9,0,no_anomaly,0.0,0,0,0,0,23.02249,72.5714404,18.0,0.0
2024-09-18T18:49:12.200Z,MISSION_0067,122,1,transit,SITE_AMD_008,23.0224925,72.5714337,18.0,75.39,1.235,0.147,3.84,-5.0736,-3.0739,75.3908,0.79094,-0.01863,-0.04826,0.60971,0.2025,-0.0073,-9.8262,-0.2308,-0.1418,0.5384,0.2319,3,18,0.65,0.88,0.2,24.633,23.22,92.9,43.9,20449.0,7849,7747,7960,7999,60.1,59.9,62.9,63.0,2.68,3.012,2.899,2.757,7.81,176.2,35.2,53.9,1012.94,-33.64,-0.33,2.24,32.3,39.9,38.4,0,no_anomaly,0.0,0,0,0,0,23.0224925,72.5714337,18.0,0.0
2024-09-18T18:49:12.300Z,MISSION_0067,123,1,transit,SITE_AMD_008,23.0224882,72.5714332,18.0,77.34,1.071,0.069,3.92,0.3523,-0.4367,77.3389,0.78075,0.00478,-0.00105,0.62483,-0.3019,0.0119,-9.7831,-0.512,1.3157,-0.0701,0.2777,3,19,0.54,0.89,0.23,24.64,17.53,92.9,43.6,20438.0,7746,7771,8136,7928,61.9,57.9,61.5,62.9,2.506,2.938,2.969,2.679,7.63,170.0,35.7,53.6,1012.68,-35.47,-1.18,1.55,31.8,46.8,40.2,0,no_anomaly,0.0,0,0,0,0,23.0224882,72.5714332,18.0,0.0
2024-09-18T18:49:12.400Z,MISSION_0067,124,1,transit,SITE_AMD_008,23.0224897,72.5714382,18.0,79.86,0.842,0.016,4.4,-1.018,-3.6131,79.8553,0.76662,0.01342,-0.02987,0.64126,0.1075,-0.0445,-9.7777,0.4693,-0.7137,-0.1607,0.2447,3,13,0.71,1.08,0.34,24.733,26.41,92.8,43.9,20426.0,7799,7560,7656,7809,59.4,59.0,57.6,56.4,2.942,2.702,2.758,2.713,8.61,177.3,35.5,53.9,1012.75,-29.96,0.45,1.23,29.6,41.4,38.3,0,no_anomaly,0.0,0,0,0,0,23.0224897,72.5714382,18.0,0.0
2024-09-18T18:49:12.500Z,MISSION_0067,125,1,transit,SITE_AMD_008,23.0224939,72.5714363,18.0,78.93,0.517,0.127,4.1,-1.4287,-3.9242,78.9269,0.77179,0.01214,-0.03435,0.63483,-0.0923,-0.0795,-9.8239,-0.0042,-1.0042,-0.2379,0.1917,3,16,0.6,0.86,0.2,24.486,18.28,92.8,44.7,20415.0,7770,7860,7841,7639,57.1,59.7,61.7,60.3,2.667,2.936,2.86,2.723,8.46,180.5,35.8,53.9,1013.31,-31.15,-0.3,1.0,31.0,48.4,36.6,0,no_anomaly,0.0,0,0,0,0,23.0224939,72.5714363,18.0,0.0
2024-09-18T18:49:12.600Z,MISSION_0067,126,1,transit,SITE_AMD_008,23.0224886,72.5714365,18.0,79.34,0.649,0.096,4.25,-3.8215,-2.6994,79.3355,0.76962,-0.01063,-0.0394,0.6372,-0.0948,0.0804,-9.7376,0.6135,-0.4269,0.0841,0.1576,3,18,0.82,1.01,0.2,24.598,10.98,92.7,43.5,20404.0,7456,7735,7718,8010,60.6,61.4,60.1,62.0,3.03,2.739,2.944,2.785,8.82,171.4,35.6,54.5,1012.97,-27.51,0.66,1.42,27.7,46.2,38.3,0,no_anomaly,0.0,0,0,0,0,23.0224886,72.5714365,18.0,0.0
2024-09-18T18:49:12.700Z,MISSION_0067,127,1,transit,SITE_AMD_008,23.0224922,72.5714404,18.0,77.05,0.688,0.101,4.58,1.1668,-2.5346,77.052,0.78195,0.02174,-0.01096,0.62286,-0.051,0.0192,-9.7921,-0.1963,0.0401,0.319,0.2625,3,13,0.81,0.8,0.33,24.637,15.1,92.7,43.7,20393.0,7742,7493,7757,7912,61.4,60.3,57.5,60.8,2.908,2.641,2.622,2.842,7.82,183.0,35.5,54.0,1013.06,-29.88,-0.93,1.55,31.8,50.4,37.7,0,no_anomaly,0.0,0,0,0,0,23.0224922,72.5714404,18.0,0.0
2024-09-18T18:49:12.800Z,MISSION_0067,128,1,transit,SITE_AMD_008,23.0224861,72.5714396,18.0,76.4,0.443,0.061,4.67,-6.1699,-2.4614,76.4047,0.78523,-0.02902,-0.05013,0.61649,-0.0653,-0.0252,-9.716,0.3001,-0.3777,0.0031,0.2525,3,14,0.72,0.88,0.3,24.625,24.65,92.6,43.9,20381.0,7747,7782,7581,7789,62.1,59.4,59.6,60.2,2.853,3.031,2.987,2.759,8.23,170.1,35.7,54.1,1012.84,-30.79,0.46,1.14,27.9,49.8,38.6,0,no_anomaly,0.0,0,0,0,0,23.0224861,72.5714396,18.0,0.0
2024-09-18T18:49:12.900Z,MISSION_0067,129,1,transit,SITE_AMD_008,23.0224858,72.5714365,18.0,76.46,0.03,0.011,4.36,4.6759,-0.2564,76.4631,0.7848,0.03343,0.02349,0.6184,0.1408,0.0053,-9.7602,0.3575,0.2697,-0.6944,0.1836,3,12,0.75,0.95,0.39,24.605,17.61,92.6,45.3,20370.0,7752,7558,7840,7898,60.9,64.1,61.6,64.5,3.19,2.656,2.926,2.865,8.57,172.1,35.3,54.4,1013.25,-29.99,-0.03,1.75,31.4,49.0,39.8,0,no_anomaly,0.0,0,0,0,0,23.0224858,72.5714365,18.0,0.0
