timestamp_utc,mission_id,frame_id,waypoint_id,inspection_phase,site_id,latitude_deg,longitude_deg,altitude_m,heading_deg,ground_speed_ms,vertical_speed_ms,distance_to_tower_m,roll_deg,pitch_deg,yaw_deg,quat_w,quat_x,quat_y,quat_z,accel_x_ms2,accel_y_ms2,accel_z_ms2,gyro_x_rads,gyro_y_rads,gyro_z_rads,vibration_level,gps_fix_type,gps_satellite_count,gps_hdop,gps_vdop,position_error_m,battery_voltage_v,battery_current_a,battery_remaining_pct,battery_temp_c,battery_capacity_mah,motor_fl_rpm,motor_fr_rpm,motor_rl_rpm,motor_rr_rpm,motor_fl_temp_c,motor_fr_temp_c,motor_rl_temp_c,motor_rr_temp_c,motor_fl_thrust_n,motor_fr_thrust_n,motor_rl_thrust_n,motor_rr_thrust_n,wind_speed_ms,wind_dir_deg,air_temp_c,humidity_pct,pressure_hpa,gimbal_pitch_deg,gimbal_roll_deg,zoom_factor,ir_temp_min_c,ir_temp_max_c,ir_temp_avg_c,anomaly_detected,anomaly_class,anomaly_confidence,anomaly_bbox_x,anomaly_bbox_y,anomaly_bbox_w,anomaly_bbox_h,anomaly_gps_lat,anomaly_gps_lon,anomaly_gps_alt_m,ir_temp_delta_c
2024-01-07T07:07:00.000Z,MISSION_0020,0,0,takeoff,SITE_BOM_001,19.0760019,72.8777001,1.5,352.8,0.269,0.122,0.21,2.7813,-1.5648,352.8003,-0.99766,-0.02336,0.01515,0.06243,-0.0445,0.055,-9.7383,0.413,0.564,0.1298,0.1988,3,19,0.58,0.92,0.22,24.822,19.03,97.8,31.8,21506.0,8438,8419,8513,8633,50.6,48.6,49.2,51.4,2.886,2.796,2.663,2.876,4.64,217.2,24.0,51.5,1010.77,-33.61,0.6,1.35,20.4,32.0,27.0,0,no_anomaly,0.0,0,0,0,0,19.0760019,72.8777001,1.5,0.0
2024-01-07T07:07:00.100Z,MISSION_0020,1,0,takeoff,SITE_BOM_001,19.0760026,72.8776982,3.0,351.74,0.374,0.146,0.35,-3.7657,0.387,351.7443,-0.99687,0.03253,-0.00573,0.07183,0.1474,-0.0141,-9.9231,-0.0973,-0.2953,0.0419,0.1503,3,14,0.61,0.68,0.2,24.779,17.56,97.7,31.9,21495.0,8625,8627,8675,8544,47.1,50.0,47.1,52.6,2.934,2.889,2.811,2.713,5.54,201.5,24.0,51.4,1011.11,-30.78,1.12,1.23,16.5,33.6,23.8,0,no_anomaly,0.0,0,0,0,0,19.0760026,72.8776982,3.0,0.0
2024-01-07T07:07:00.200Z,MISSION_0020,2,0,takeoff,SITE_BOM_001,19.0760022,72.8776978,4.5,352.32,0.619,0.081,0.34,-1.1206,-1.4055,352.3164,-0.99762,0.01058,0.01158,0.06711,0.03,0.0646,-9.8227,-0.8833,-0.0174,0.4776,0.2714,3,13,0.65,0.9,0.31,24.734,21.43,97.7,32.7,21484.0,8650,8613,8725,8515,49.7,50.1,49.1,48.2,2.906,2.663,2.733,2.674,5.01,212.5,24.3,51.0,1010.82,-26.14,0.85,1.49,24.4,41.2,27.4,0,no_anomaly,0.0,0,0,0,0,19.0760022,72.8776978,4.5,0.0
2024-01-07T07:07:00.300Z,MISSION_0020,3,0,takeoff,SITE_BOM_001,19.0760067,72.8776997,5.0,352.61,0.0,0.164,0.74,0.3569,-0.4812,352.6079,-0.99791,-0.00284,0.00439,0.06445,0.0723,0.1126,-9.8959,-0.1946,-0.3849,0.0445,0.2077,3,14,0.58,0.92,0.37,24.762,16.2,97.6,32.2,21473.0,8555,8689,8691,8434,47.4,49.2,49.8,50.4,2.779,2.754,2.977,2.577,4.62,202.6,23.9,50.3,1010.74,-29.2,-0.05,1.24,19.5,36.9,26.4,0,no_anomaly,0.0,0,0,0,0,19.0760067,72.8776997,5.0,0.0
2024-01-07T07:07:00.400Z,MISSION_0020,4,0,takeoff,SITE_BOM_001,19.0760045,72.8776936,5.0,352.9,0.0,0.144,0.87,-1.1383,-4.5842,352.8958,-0.99721,0.01238,0.0393,0.0623,-0.0197,0.0752,-9.8516,-0.4335,-0.3345,-0.047,0.1756,3,12,0.74,0.87,0.36,24.739,16.28,97.6,32.4,21462.0,8585,8430,8702,8624,53.0,50.4,48.3,45.3,2.87,2.92,2.629,2.795,4.39,208.3,23.8,52.2,1010.9,-30.34,0.96,1.0,18.1,35.7,25.0,0,no_anomaly,0.0,0,0,0,0,19.0760045,72.8776936,5.0,0.0
2024-01-07T07:07:00.500Z,MISSION_0020,5,0,takeoff,SITE_BOM_001,19.0760071,72.8776929,5.0,352.28,0.0,0.073,1.12,4.7019,-1.2618,352.2813,-0.99686,-0.04018,0.01374,0.0668,-0.0042,-0.0268,-9.7588,0.8803,0.7606,0.2263,0.1802,3,16,0.57,0.84,0.23,24.718,13.66,97.5,31.8,21451.0,8573,8786,8604,8702,50.3,48.7,48.8,48.1,2.763,2.894,2.63,2.814,5.17,210.5,24.1,52.1,1011.05,-30.0,2.25,1.42,22.3,31.4,29.3,0,no_anomaly,0.0,0,0,0,0,19.0760071,72.8776929,5.0,0.0
2024-01-07T07:07:00.600Z,MISSION_0020,6,0,takeoff,SITE_BOM_001,19.0760095,72.8776925,5.0,350.19,0.0,0.086,1.34,-2.2722,-2.1234,350.1924,-0.99594,0.02134,0.01676,0.08582,0.0868,-0.0367,-9.779,-0.7049,-0.0156,-0.4448,0.1743,3,17,0.6,0.95,0.2,24.744,13.35,97.5,32.3,21439.0,8756,8584,8546,8649,51.9,47.2,45.6,49.0,2.728,2.887,2.595,2.807,4.5,204.6,23.8,51.5,1010.86,-28.88,-0.02,1.64,18.9,39.0,25.7,0,no_anomaly,0.0,0,0,0,0,19.0760095,72.8776925,5.0,0.0
2024-01-07T07:07:00.700Z,MISSION_0020,7,0,takeoff,SITE_BOM_001,19.0760084,72.8776974,5.0,350.14,0.161,0.164,0.98,0.4201,-2.0739,350.1436,-0.99614,-0.0021,0.01835,0.08583,0.2629,-0.019,-9.7615,0.0738,-0.7331,0.093,0.2151,3,17,0.89,0.94,0.43,24.71,18.0,97.4,32.6,21428.0,8679,8674,8517,8768,48.1,48.9,48.5,47.0,2.803,2.817,2.963,2.599,5.07,214.8,24.4,52.3,1010.82,-25.68,-0.04,1.48,15.9,28.0,25.5,0,no_anomaly,0.0,0,0,0,0,19.0760084,72.8776974,5.0,0.0
2024-01-07T07:07:00.800Z,MISSION_0020,8,0,takeoff,SITE_BOM_001,19.0760067,72.8776959,5.0,349.24,0.0,0.068,0.88,3.5371,-1.2977,349.2356,-0.99509,-0.02966,0.01416,0.0934,-0.2717,-0.0908,-9.8779,-0.2484,0.1369,0.0987,0.1767,3,18,0.61,0.78,0.2,24.741,18.21,97.4,31.2,21417.0,8684,8594,8777,8676,47.7,48.5,49.0,49.3,2.859,2.814,2.954,3.103,5.32,210.3,23.7,51.6,1010.85,-36.22,-0.09,1.34,14.8,28.4,24.1,0,no_anomaly,0.0,0,0,0,0,19.0760067,72.8776959,5.0,0.0
2024-01-07T07:07:00.900Z,MISSION_0020,9,0,takeoff,SITE_BOM_001,19.0760037,72.8776972,5.0,348.44,0.0,0.104,0.52,-3.7748,-1.6236,348.4386,-0.99423,0.03419,0.01077,0.10112,0.2636,0.0194,-9.7777,-0.4981,-0.0333,-0.2334,0.1863,3,19,0.71,0.83,0.2,24.675,14.21,97.3,31.1,21406.0,8672,8749,8637,8708,44.3,50.9,50.0,49.4,3.126,2.984,2.705,2.88,5.86,210.1,24.0,51.0,1010.32,-30.35,0.51,1.77,22.1,35.2,25.5,0,no_anomaly,0.0,0,0,0,0,19.0760037,72.8776972,5.0,0.0
2024-01-07T07:07:01.000Z,MISSION_0020,10,0,takeoff,SITE_BOM_001,19.0760061,72.8776963,5.0,349.62,0.511,0.114,0.79,-2.9573,-1.2955,349.6174,-0.99548,0.02672,0.00892,0.09074,-0.148,0.0089,-9.7721,-0.1508,0.0449,-0.0139,0.1467,3,18,0.73,0.66,0.4,24.705,19.16,97.3,31.9,21395.0,8633,8845,8533,8710,49.5,49.3,50.3,50.2,2.722,2.603,2.732,2.777,5.21,214.2,24.0,51.3,1010.65,-31.72,-0.71,1.59,20.9,33.8,28.6,0,no_anomaly,0.0,0,0,0,0,19.0760061,72.8776963,5.0,0.0
2024-01-07T07:07:01.100Z,MISSION_0020,11,0,takeoff,SITE_BOM_001,19.0760092,72.877694,5.0,349.26,0.415,0.027,1.23,-4.8308,-4.025,349.263,-0.99398,0.04522,0.03099,0.09489,-0.1667,-0.0048,-9.8255,0.5321,0.0011,-0.0855,0.2182,3,15,0.61,0.76,0.25,24.673,15.19,97.2,31.3,21384.0,8626,8976,8583,8881,49.9,50.3,49.5,43.7,2.776,2.763,2.964,2.768,5.27,213.7,24.1,51.1,1011.1,-29.37,0.53,1.0,16.2,32.5,26.1,0,no_anomaly,0.0,0,0,0,0,19.0760092,72.877694,5.0,0.0
2024-01-07T07:07:01.200Z,MISSION_0020,12,0,takeoff,SITE_BOM_001,19.0760104,72.8776911,5.0,349.46,0.243,0.077,1.53,-4.0658,-1.4126,349.4622,-0.99503,0.03645,0.00901,0.0922,-0.1193,-0.0312,-9.8724,0.5807,-0.7752,-0.3062,0.2982,3,10,0.53,0.86,0.29,24.736,17.69,97.1,32.0,21373.0,8899,8609,8836,8694,50.1,48.3,52.4,43.4,2.611,2.679,2.965,2.627,5.63,216.5,24.1,50.7,1010.57,-29.17,-0.88,1.0,18.7,36.6,27.9,0,no_anomaly,0.0,0,0,0,0,19.0760104,72.8776911,5.0,0.0
2024-01-07T07:07:01.300Z,MISSION_0020,13,0,takeoff,SITE_BOM_001,19.0760131,72.877689,5.0,349.3,0.0,0.138,1.9,0.843,-1.3946,349.2982,-0.99555,-0.00619,0.0128,0.09316,-0.2438,-0.0121,-9.7984,-0.1293,-0.2531,-0.1154,0.2947,3,15,0.67,0.89,0.26,24.671,18.59,97.1,32.0,21362.0,8602,8862,8653,8709,48.7,52.3,45.2,48.8,2.819,2.661,2.841,2.794,5.34,208.5,23.8,51.5,1010.92,-26.63,-0.19,1.18,18.8,37.5,28.6,0,no_anomaly,0.0,0,0,0,0,19.0760131,72.877689,5.0,0.0
2024-01-07T07:07:01.400Z,MISSION_0020,14,0,takeoff,SITE_BOM_001,19.0760148,72.8776961,5.0,346.73,0.0,0.108,1.71,1.7159,-2.1992,346.7336,-0.99304,-0.01265,0.02079,0.11519,-0.0006,-0.0319,-9.8382,0.1716,-0.0192,0.0065,0.1226,3,16,0.61,1.07,0.32,24.831,17.7,97.0,32.0,21351.0,8559,8814,8764,8745,48.8,46.5,50.5,52.4,2.359,2.402,3.015,3.144,4.76,207.1,23.9,50.5,1010.62,-25.07,-0.72,1.15,20.8,38.7,29.0,0,no_anomaly,0.0,0,0,0,0,19.0760148,72.8776961,5.0,0.0
2024-01-07T07:07:01.500Z,MISSION_0020,15,0,takeoff,SITE_BOM_001,19.0760189,72.8776983,5.0,344.95,0.0,0.121,2.11,1.7315,-2.0813,344.9483,-0.99115,-0.0126,0.01998,0.13066,0.1955,-0.0206,-9.7286,-0.3984,-1.1006,0.046,0.2402,3,17,0.73,0.91,0.34,24.611,17.42,97.0,31.7,21340.0,8666,8783,8336,8755,50.8,47.7,51.2,48.1,2.591,2.964,2.688,2.772,4.75,201.0,24.2,51.8,1011.02,-30.28,-2.17,1.36,18.7,35.8,29.1,0,no_anomaly,0.0,0,0,0,0,19.0760189,72.8776983,5.0,0.0
2024-01-07T07:07:01.600Z,MISSION_0020,16,0,takeoff,SITE_BOM_001,19.0760175,72.8776977,5.0,343.87,0.0,0.172,1.96,-1.3288,0.3473,343.8719,-0.99005,0.01106,-0.00463,0.14023,0.0515,-0.0515,-9.8886,-0.1601,-0.5441,0.4256,0.2424,3,19,0.68,0.91,0.2,24.681,20.03,96.9,32.9,21328.0,8664,8462,8536,8663,49.8,50.5,48.3,46.9,2.67,2.718,2.872,2.899,4.43,210.1,24.0,51.5,1010.93,-28.28,-0.32,1.5,16.0,33.9,28.4,0,no_anomaly,0.0,0,0,0,0,19.0760175,72.8776977,5.0,0.0
2024-01-07T07:07:01.700Z,MISSION_0020,17,0,takeoff,SITE_BOM_001,19.0760173,72.877694,5.0,344.18,0.0,0.075,2.04,-1.9903,-2.8869,344.1833,-0.98997,0.02066,0.02256,0.13796,-0.0061,-0.0135,-9.8407,-0.0006,0.1296,0.0118,0.1794,3,12,0.57,1.14,0.24,24.711,18.62,96.9,32.1,21317.0,8476,8691,8562,8632,48.0,52.5,46.0,51.6,2.825,2.766,2.59,2.729,4.57,204.1,24.2,51.3,1010.69,-27.82,-2.02,1.46,20.9,32.5,26.9,0,no_anomaly,0.0,0,0,0,0,19.0760173,72.877694,5.0,0.0
2024-01-07T07:07:01.800Z,MISSION_0020,18,0,takeoff,SITE_BOM_001,19.0760167,72.8776938,5.0,343.23,0.0,0.014,1.99,4.7991,-4.283,343.2341,-0.98799,-0.03595,0.04304,0.14401,-0.1074,0.0214,-9.8717,0.2653,-0.3916,-0.0562,0.1879,3,10,0.74,0.89,0.3,24.721,15.96,96.8,31.5,21306.0,8361,8837,8302,8297,47.4,48.2,49.2,46.3,2.571,2.716,2.87,2.669,4.95,212.5,23.8,51.9,1011.2,-28.82,-1.24,1.65,16.7,32.2,25.4,0,no_anomaly,0.0,0,0,0,0,19.0760167,72.8776938,5.0,0.0
2024-01-07T07:07:01.900Z,MISSION_0020,19,0,takeoff,SITE_BOM_001,19.0760155,72.8776957,5.0,343.51,0.498,0.098,1.79,1.4616,-0.8701,343.514,-0.98957,-0.01153,0.00934,0.14326,0.0672,-0.0373,-9.8292,-0.01,-0.2541,-0.0068,0.2071,3,10,0.5,0.71,0.21,24.645,15.62,96.8,32.1,21295.0,8815,8617,8653,8717,51.4,49.2,48.8,50.0,2.955,2.603,2.865,2.774,5.11,209.0,23.7,51.0,1010.76,-31.43,0.8,1.49,21.1,36.9,26.8,0,no_anomaly,0.0,0,0,0,0,19.0760155,72.8776957,5.0,0.0
2024-01-07T07:07:02.000Z,MISSION_0020,20,0,takeoff,SITE_BOM_001,19.0760064,72.8776978,5.0,343.87,0.021,0.089,0.76,2.7781,-1.0498,343.8734,-0.98981,-0.02272,0.01247,0.14,-0.1316,-0.0112,-9.8226,0.1242,0.7871,-0.0309,0.2194,3,15,0.67,0.95,0.24,24.761,15.16,96.7,32.0,21284.0,8761,8476,8591,8738,49.6,49.9,49.2,52.5,2.738,2.844,2.532,3.025,4.82,204.3,24.1,51.7,1010.63,-33.31,0.78,1.19,18.4,31.4,25.7,0,no_anomaly,0.0,0,0,0,0,19.0760064,72.8776978,5.0,0.0
2024-01-07T07:07:02.100Z,MISSION_0020,21,0,takeoff,SITE_BOM_001,19.0760053,72.8776985,5.0,344.85,0.198,0.13,0.61,-1.3231,-3.2831,344.8451,-0.99075,0.01522,0.02687,0.13213,-0.2025,0.1153,-9.7928,0.0025,-0.9514,0.0739,0.1682,3,20,0.78,0.88,0.2,24.763,20.08,96.7,32.8,21273.0,8465,8637,8656,8607,49.6,52.5,43.4,47.3,2.898,2.826,2.713,2.993,4.82,211.0,24.0,51.7,1010.7,-32.35,-0.68,1.34,19.4,32.0,27.3,0,no_anomaly,0.0,0,0,0,0,19.0760053,72.8776985,5.0,0.0
2024-01-07T07:07:02.200Z,MISSION_0020,22,0,takeoff,SITE_BOM_001,19.0760085,72.8776999,5.0,343.76,0.196,0.221,0.94,-0.9615,-2.3669,343.7606,-0.9897,0.01122,0.01926,0.14138,0.2599,0.0039,-9.8201,1.043,0.4014,-0.3592,0.1991,3,15,0.67,0.97,0.31,24.732,18.28,96.6,32.3,21262.0,8801,8525,8511,8632,48.6,49.9,44.8,49.8,2.748,2.922,2.95,2.862,5.09,220.3,24.1,51.2,1010.68,-30.31,-1.74,1.76,19.7,31.7,24.7,0,no_anomaly,0.0,0,0,0,0,19.0760085,72.8776999,5.0,0.0
2024-01-07T07:07:02.300Z,MISSION_0020,23,0,takeoff,SITE_BOM_001,19.0760082,72.8776983,5.0,342.37,0.37,0.185,0.93,5.0949,-2.7042,342.3737,-0.9871,-0.0403,0.0301,0.15198,-0.0728,-0.141,-9.861,0.2473,-0.397,-0.3522,0.1138,3,19,0.79,0.78,0.36,24.733,19.39,96.6,32.4,21251.0,8657,8790,8288,8771,46.8,48.6,50.6,49.3,2.924,2.849,2.777,2.968,6.23,213.9,24.0,52.2,1010.72,-33.29,-0.65,1.53,21.7,39.2,27.1,0,no_anomaly,0.0,0,0,0,0,19.0760082,72.8776983,5.0,0.0
2024-01-07T07:07:02.400Z,MISSION_0020,24,0,takeoff,SITE_BOM_001,19.0760132,72.8777013,5.0,340.39,0.311,0.175,1.48,4.8309,-1.6865,340.3884,-0.98451,-0.03902,0.02167,0.16953,0.1012,-0.0567,-9.8788,-0.3472,-0.3205,0.0585,0.1503,3,18,0.66,0.92,0.22,24.708,13.41,96.5,32.1,21240.0,8707,8524,8702,8720,47.0,51.6,48.8,47.9,2.977,2.918,3.059,2.772,4.17,219.5,23.6,51.5,1010.95,-34.62,-0.24,1.65,22.3,31.5,26.6,0,no_anomaly,0.0,0,0,0,0,19.0760132,72.8777013,5.0,0.0
2024-01-07T07:07:02.500Z,MISSION_0020,25,0,takeoff,SITE_BOM_001,19.0760114,72.8776948,5.0,342.0,0.927,0.112,1.4,-5.2773,-4.2314,341.9971,-0.9857,0.05121,0.02923,0.15787,0.0552,-0.0451,-9.8704,0.815,-0.5273,-0.4217,0.1706,3,19,0.51,0.96,0.3,24.764,16.2,96.5,32.4,21229.0,8522,8754,8577,8942,49.7,49.4,46.5,55.5,2.959,2.675,3.047,2.981,4.34,218.6,23.9,51.6,1010.56,-30.44,0.39,1.29,15.6,35.5,24.3,0,no_anomaly,0.0,0,0,0,0,19.0760114,72.8776948,5.0,0.0
2024-01-07T07:07:02.600Z,MISSION_0020,26,0,takeoff,SITE_BOM_001,19.0760096,72.8776979,5.0,341.4,1.192,0.058,1.1,5.8096,-2.4237,341.4044,-0.98555,-0.04659,0.02903,0.16026,0.2283,0.0277,-9.8222,1.1096,1.3882,0.24,0.2555,3,11,0.62,1.23,0.29,24.664,19.42,96.4,32.3,21217.0,8804,8689,8719,8813,50.3,45.0,46.7,50.3,2.912,2.768,2.477,2.824,5.07,202.2,24.3,51.1,1010.91,-27.16,-1.43,1.69,16.8,38.2,27.6,0,no_anomaly,0.0,0,0,0,0,19.0760096,72.8776979,5.0,0.0
2024-01-07T07:07:02.700Z,MISSION_0020,27,0,takeoff,SITE_BOM_001,19.0760053,72.8776888,5.0,341.41,1.05,0.101,1.38,0.498,-2.4526,341.4094,-0.98665,-0.00083,0.02182,0.16139,0.003,0.0548,-9.8428,-0.4486,-0.2898,0.3473,0.1993,3,19,0.56,0.6,0.25,24.703,15.37,96.4,32.3,21206.0,8483,8563,8593,8664,47.7,49.6,46.8,50.4,2.77,2.845,2.644,2.777,5.82,218.6,23.8,51.0,1010.87,-28.08,-0.86,1.03,18.8,36.5,25.7,0,no_anomaly,0.0,0,0,0,0,19.0760053,72.8776888,5.0,0.0
2024-01-07T07:07:02.800Z,MISSION_0020,28,0,takeoff,SITE_BOM_001,19.0760098,72.8776923,5.0,341.68,1.249,0.14,1.39,0.719,-3.0772,341.6796,-0.9869,-0.00192,0.02751,0.15897,0.0531,0.0887,-9.799,-0.315,1.5658,0.319,0.1677,3,13,0.58,0.95,0.25,24.781,18.84,96.3,32.0,21195.0,8683,8951,8810,8233,52.8,49.1,49.8,46.6,2.738,2.935,3.096,2.619,4.69,209.8,23.8,51.3,1010.86,-30.91,0.74,1.4,16.4,36.8,24.1,0,no_anomaly,0.0,0,0,0,0,19.0760098,72.8776923,5.0,0.0
2024-01-07T07:07:02.900Z,MISSION_0020,29,0,takeoff,SITE_BOM_001,19.0760066,72.877695,5.0,341.9,0.821,0.25,0.92,0.0628,-0.3545,341.9044,-0.98755,-5e-05,0.00314,0.15726,-0.1726,-0.0468,-9.767,0.0225,-0.4072,-0.0771,0.2375,3,14,0.53,0.77,0.26,24.709,19.59,96.3,31.6,21184.0,8828,8662,8717,8743,49.9,45.4,47.8,49.6,2.998,2.717,2.767,2.761,4.12,195.7,24.1,52.1,1010.5,-30.92,0.38,1.9,16.3,38.3,27.2,0,no_anomaly,0.0,0,0,0,0,19.0760066,72.877695,5.0,0.0
2024-01-07T07:07:03.000Z,MISSION_0020,30,0,takeoff,SITE_BOM_001,19.0760074,72.8776923,5.0,345.52,0.829,0.139,1.19,-2.6227,-3.6266,345.5216,-0.99118,0.02668,0.0285,0.12663,0.065,-0.0201,-9.8418,0.0255,0.8057,0.3735,0.1357,3,10,0.56,0.67,0.25,24.584,18.74,96.2,31.8,21173.0,8610,8602,8466,8238,51.6,49.1,48.5,53.4,2.911,2.827,2.529,2.715,5.67,212.5,23.8,51.7,1010.77,-28.51,1.68,1.69,18.4,35.7,29.1,0,no_anomaly,0.0,0,0,0,0,19.0760074,72.8776923,5.0,0.0
2024-01-07T07:07:03.100Z,MISSION_0020,31,0,takeoff,SITE_BOM_001,19.0760079,72.8776937,5.0,346.6,1.275,0.13,1.12,0.0516,-2.2574,346.6049,-0.99298,0.00185,0.01962,0.1166,0.0746,0.0443,-9.835,0.0738,-0.2227,0.0638,0.2247,3,17,0.61,0.82,0.34,24.662,18.51,96.2,32.6,21162.0,8638,8531,8694,8658,49.4,49.9,45.6,49.9,3.124,2.887,2.965,2.842,5.38,208.5,24.1,51.9,1010.79,-29.58,-1.2,1.93,20.8,37.5,24.9,0,no_anomaly,0.0,0,0,0,0,19.0760079,72.8776937,5.0,0.0
2024-01-07T07:07:03.200Z,MISSION_0020,32,0,takeoff,SITE_BOM_001,19.0760071,72.8777,5.0,344.91,0.873,0.159,0.79,2.4637,-1.7024,344.9103,-0.99105,-0.01936,0.01755,0.13094,-0.0634,-0.12,-9.7582,-1.3412,0.4416,-0.4398,0.1444,3,10,0.61,0.98,0.3,24.729,19.31,96.1,31.5,21151.0,8855,8719,8675,8985,46.9,50.5,52.0,50.0,2.588,2.881,2.65,2.832,4.59,218.4,23.9,51.0,1010.95,-33.94,-0.52,1.37,17.9,35.4,25.7,0,no_anomaly,0.0,0,0,0,0,19.0760071,72.8777,5.0,0.0
2024-01-07T07:07:03.300Z,MISSION_0020,33,0,takeoff,SITE_BOM_001,19.0760054,72.8777001,5.0,344.47,0.781,0.095,0.6,0.0414,-2.2119,344.4728,-0.99065,0.00225,0.01917,0.13505,-0.4398,0.0677,-9.8031,0.4547,0.2783,-0.0714,0.1086,3,18,0.81,0.88,0.49,24.738,16.23,96.1,32.7,21140.0,8494,8488,8581,8596,47.2,48.4,49.1,45.7,2.733,2.95,2.977,2.889,5.35,215.8,24.4,50.8,1010.51,-29.3,0.47,1.5,21.5,32.9,27.1,0,no_anomaly,0.0,0,0,0,0,19.0760054,72.8777001,5.0,0.0
2024-01-07T07:07:03.400Z,MISSION_0020,34,0,takeoff,SITE_BOM_001,19.0760069,72.8777023,5.0,344.98,1.373,0.192,0.81,3.923,-2.7164,344.98,-0.99067,-0.03083,0.02796,0.12978,0.1003,0.0495,-9.8125,-0.2514,-0.6932,-0.07,0.2368,3,18,0.8,0.92,0.32,24.664,16.6,96.0,32.0,21129.0,8543,8757,8580,8434,48.6,49.1,49.4,49.8,2.732,2.791,2.958,2.599,4.87,210.8,23.8,51.7,1010.9,-26.02,1.77,1.44,18.7,35.7,26.4,0,no_anomaly,0.0,0,0,0,0,19.0760069,72.8777023,5.0,0.0
2024-01-07T07:07:03.500Z,MISSION_0020,35,0,takeoff,SITE_BOM_001,19.0760068,72.877707,5.0,344.35,1.173,0.064,1.09,-2.799,-5.2327,344.3463,-0.9892,0.03039,0.04189,0.1371,0.034,0.0029,-9.745,0.5155,0.1512,0.277,0.1794,3,15,0.66,1.05,0.29,24.697,15.77,96.0,32.2,21118.0,8684,8908,8503,8591,49.6,47.1,49.2,50.2,2.851,2.666,3.074,2.808,5.61,211.5,23.7,51.3,1010.61,-29.41,1.43,1.35,18.2,31.3,26.0,0,no_anomaly,0.0,0,0,0,0,19.0760068,72.877707,5.0,0.0
2024-01-07T07:07:03.600Z,MISSION_0020,36,0,takeoff,SITE_BOM_001,19.0760102,72.8777054,5.0,344.34,1.717,0.085,1.28,0.3216,-1.2603,344.3448,-0.99062,-0.00128,0.01128,0.13615,0.0814,-0.0432,-9.7912,0.0981,-0.3033,-0.3895,0.1881,3,16,0.66,1.05,0.3,24.721,15.83,95.9,32.3,21106.0,8638,8830,8746,8644,50.6,51.8,46.4,49.5,2.71,2.738,2.879,2.934,4.54,203.6,23.9,52.0,1010.83,-34.42,-0.06,1.27,17.6,29.7,27.6,0,no_anomaly,0.0,0,0,0,0,19.0760102,72.8777054,5.0,0.0
2024-01-07T07:07:03.700Z,MISSION_0020,37,0,takeoff,SITE_BOM_001,19.0760094,72.8777101,5.0,344.3,1.866,0.12,1.53,-1.2525,-1.3945,344.2986,-0.99048,0.01249,0.01056,0.13671,-0.116,-0.0555,-9.9007,-0.0176,-0.5653,-0.1851,0.0649,3,20,0.56,0.97,0.31,24.711,24.73,95.9,31.4,21095.0,8620,8420,8681,8750,50.4,46.8,49.8,46.3,2.637,3.052,2.701,2.951,4.04,206.8,24.2,50.4,1010.67,-27.4,1.01,1.88,19.3,37.5,27.4,0,no_anomaly,0.0,0,0,0,0,19.0760094,72.8777101,5.0,0.0
2024-01-07T07:07:03.800Z,MISSION_0020,38,0,takeoff,SITE_BOM_001,19.0760101,72.8777083,5.0,344.87,1.792,0.06,1.45,-1.1164,-2.9459,344.8749,-0.99089,0.01304,0.0242,0.13181,0.1771,0.0227,-9.7968,-0.8219,-0.624,0.2185,0.1036,3,19,0.5,1.01,0.2,24.705,14.49,95.8,33.1,21084.0,8578,8617,8730,8767,51.2,47.3,48.7,48.4,2.675,2.943,2.913,3.078,4.86,209.3,24.1,51.2,1010.97,-27.9,1.17,1.48,18.6,28.0,22.7,0,no_anomaly,0.0,0,0,0,0,19.0760101,72.8777083,5.0,0.0
2024-01-07T07:07:03.900Z,MISSION_0020,39,0,takeoff,SITE_BOM_001,19.0760098,72.8777077,5.0,344.7,2.17,0.14,1.39,2.5412,-3.8942,344.6983,-0.99038,-0.01744,0.03662,0.13228,-0.0697,0.079,-9.8267,-0.0167,-0.0249,-0.5019,0.3069,3,14,0.65,1.04,0.31,24.627,22.39,95.8,32.4,21073.0,8843,8643,8696,8751,48.6,48.8,49.0,50.3,2.882,2.795,2.787,2.748,5.08,205.0,24.0,50.8,1010.54,-30.09,0.78,1.96,18.9,35.2,24.7,0,no_anomaly,0.0,0,0,0,0,19.0760098,72.8777077,5.0,0.0
2024-01-07T07:07:04.000Z,MISSION_0020,40,0,takeoff,SITE_BOM_001,19.0760071,72.8776991,5.0,344.95,2.443,0.046,0.8,3.1104,-3.962,344.9519,-0.99056,-0.02237,0.03781,0.12989,0.0297,0.116,-9.8234,0.5448,0.0184,-0.2541,0.1215,3,18,0.66,0.9,0.43,24.687,19.0,95.7,32.3,21062.0,8722,8666,8664,8715,49.7,51.8,52.5,52.4,2.919,2.666,2.381,2.84,5.01,210.5,23.9,51.8,1010.9,-30.96,0.22,1.53,16.4,34.0,27.0,0,no_anomaly,0.0,0,0,0,0,19.0760071,72.8776991,5.0,0.0
2024-01-07T07:07:04.100Z,MISSION_0020,41,0,takeoff,SITE_BOM_001,19.0760058,72.8776984,5.0,346.99,2.54,0.073,0.67,-2.6171,-4.6693,346.9896,-0.99237,0.02728,0.03788,0.11409,-0.0967,0.0501,-9.8467,0.208,0.2196,0.4002,0.1376,3,11,0.59,0.82,0.25,24.734,18.27,95.7,32.4,21051.0,8765,8821,8772,8774,45.4,49.3,48.8,47.9,2.793,2.529,2.889,2.667,5.11,208.6,24.3,50.9,1010.5,-31.05,1.39,1.71,15.9,32.0,28.0,0,no_anomaly,0.0,0,0,0,0,19.0760058,72.8776984,5.0,0.0
2024-01-07T07:07:04.200Z,MISSION_0020,42,0,takeoff,SITE_BOM_001,19.0760069,72.8777016,5.0,346.21,2.737,0.057,0.79,0.6061,-3.909,346.2062,-0.99219,-0.00115,0.03449,0.11983,0.059,-0.0504,-9.7395,0.2523,-0.3487,-0.2559,0.2028,3,11,0.61,0.65,0.28,24.689,17.26,95.6,31.5,21040.0,8801,8469,8605,8767,51.0,52.1,47.7,50.0,2.738,2.572,2.48,2.791,4.9,211.5,24.1,51.7,1010.66,-32.43,-1.69,1.66,21.8,38.6,29.2,0,no_anomaly,0.0,0,0,0,0,19.0760069,72.8777016,5.0,0.0
2024-01-07T07:07:04.300Z,MISSION_0020,43,0,takeoff,SITE_BOM_001,19.0760026,72.8777025,5.0,347.28,3.301,0.107,0.41,-1.6325,-0.636,347.2783,-0.99372,0.01477,0.00394,0.11086,0.053,-0.0268,-9.8091,-0.1671,-0.4657,0.2711,0.2869,3,20,0.81,0.89,0.36,24.653,13.93,95.6,32.6,21029.0,8761,8684,8582,8445,51.3,51.3,46.5,50.4,2.728,2.668,2.942,2.774,4.86,217.6,24.2,51.1,1010.72,-31.68,0.81,1.7,19.5,35.2,23.7,0,no_anomaly,0.0,0,0,0,0,19.0760026,72.8777025,5.0,0.0
2024-01-07T07:07:04.400Z,MISSION_0020,44,0,takeoff,SITE_BOM_001,19.0760083,72.8777027,5.0,345.84,3.325,0.098,0.97,0.0061,-1.464,345.8374,-0.99229,0.00152,0.01268,0.12327,-0.1146,0.0262,-9.7945,0.1062,-0.0022,-0.3596,0.3157,3,19,0.64,0.9,0.21,24.699,21.21,95.5,32.0,21018.0,8750,8692,8367,8512,49.2,45.6,49.6,50.0,2.825,2.788,2.506,2.861,5.12,212.5,24.1,51.7,1010.98,-31.03,-1.11,1.26,18.8,37.9,24.7,0,no_anomaly,0.0,0,0,0,0,19.0760083,72.8777027,5.0,0.0
2024-01-07T07:07:04.500Z,MISSION_0020,45,0,takeoff,SITE_BOM_001,19.0760068,72.8777033,5.0,347.99,3.093,0.142,0.84,-8.5415,-2.975,347.9857,-0.99121,0.07675,0.01795,0.10625,-0.1024,-0.0066,-9.8184,-0.6674,0.3405,-0.1514,0.1088,3,20,0.59,1.08,0.35,24.667,23.54,95.5,32.9,21007.0,8419,8658,8686,8649,48.4,46.4,50.4,50.2,2.819,2.675,2.964,2.867,5.17,211.5,24.4,51.2,1010.8,-31.57,0.93,1.38,20.5,36.8,29.3,0,no_anomaly,0.0,0,0,0,0,19.0760068,72.8777033,5.0,0.0
2024-01-07T07:07:04.600Z,MISSION_0020,46,0,takeoff,SITE_BOM_001,19.0760076,72.8777052,5.0,346.14,3.637,0.082,1.02,2.9891,-1.2504,346.1365,-0.99233,-0.02457,0.01398,0.12036,-0.0409,-0.0887,-9.8128,-0.7928,0.0278,0.0072,0.2475,3,13,0.71,0.82,0.3,24.653,19.3,95.4,32.3,20995.0,8558,8675,8626,8653,48.4,53.4,46.5,54.6,2.889,2.93,2.942,2.57,4.43,206.6,23.9,50.9,1010.74,-33.91,0.79,1.65,20.8,36.5,30.0,0,no_anomaly,0.0,0,0,0,0,19.0760076,72.8777052,5.0,0.0
2024-01-07T07:07:04.700Z,MISSION_0020,47,0,takeoff,SITE_BOM_001,19.0760131,72.8777058,5.0,343.58,3.321,0.017,1.59,3.7674,-3.7761,343.5792,-0.98883,-0.02781,0.03728,0.14158,0.0104,-0.0249,-9.7583,0.2534,-0.0063,0.1516,0.1652,3,14,0.66,0.87,0.22,24.68,23.62,95.4,32.2,20984.0,8609,8485,8533,8523,44.9,47.2,48.1,48.1,2.62,2.747,2.98,2.861,4.57,210.0,23.9,51.3,1010.82,-26.34,-0.6,1.66,17.3,32.7,28.6,0,no_anomaly,0.0,0,0,0,0,19.0760131,72.8777058,5.0,0.0
2024-01-07T07:07:04.800Z,MISSION_0020,48,0,takeoff,SITE_BOM_001,19.0760108,72.877708,5.0,341.97,3.925,0.092,1.5,2.1453,-2.984,341.968,-0.98721,-0.0144,0.02864,0.15615,-0.1737,-0.0633,-9.83,-0.2492,-0.0792,0.0854,0.2204,3,20,0.59,1.05,0.26,24.607,23.96,95.3,31.2,20973.0,8557,8544,8787,8769,45.5,48.5,48.3,47.9,2.789,2.829,2.78,2.96,5.59,209.4,23.9,51.1,1010.93,-27.72,-0.54,1.51,21.0,34.6,24.6,0,no_anomaly,0.0,0,0,0,0,19.0760108,72.877708,5.0,0.0
2024-01-07T07:07:04.900Z,MISSION_0020,49,0,takeoff,SITE_BOM_001,19.0760077,72.8777063,5.0,341.88,3.686,0.175,1.1,3.742,-2.3734,341.882,-0.98689,-0.02898,0.02558,0.15667,0.0716,0.0668,-9.8032,-0.6785,-0.2435,-0.2811,0.16,3,10,0.5,0.82,0.2,24.696,17.4,95.3,32.3,20962.0,8572,8619,8780,8609,49.5,48.9,50.7,48.3,2.643,2.757,2.872,2.486,4.96,194.5,24.2,50.9,1011.01,-34.57,0.04,1.4,20.9,33.5,27.4,0,no_anomaly,0.0,0,0,0,0,19.0760077,72.8777063,5.0,0.0
2024-01-07T07:07:05.000Z,MISSION_0020,50,0,takeoff,SITE_BOM_001,19.0760041,72.8777027,5.0,340.75,3.408,0.15,0.55,-1.083,-1.1114,340.7503,-0.98582,0.01094,0.00798,0.16727,0.0527,-0.0617,-9.8069,1.7226,-0.4954,-0.1373,0.1917,3,15,0.87,0.86,0.36,24.802,18.64,95.2,31.9,20951.0,8523,8921,8614,8771,50.1,50.4,45.9,47.8,2.503,2.668,3.121,2.922,3.98,214.5,24.1,52.1,1010.67,-27.06,0.29,1.61,19.5,32.0,25.9,0,no_anomaly,0.0,0,0,0,0,19.0760041,72.8777027,5.0,0.0
2024-01-07T07:07:05.100Z,MISSION_0020,51,0,takeoff,SITE_BOM_001,19.0760055,72.8777036,5.0,339.38,3.304,0.127,0.73,-0.3881,-0.6059,339.3825,-0.98384,0.00428,0.0046,0.17897,0.0116,0.0196,-9.901,0.8719,0.334,0.038,0.17,3,17,0.66,0.79,0.34,24.734,19.16,95.2,32.5,20940.0,8639,8684,8589,9014,53.6,48.4,48.8,50.7,2.961,2.666,3.083,2.861,4.44,213.0,24.2,50.0,1010.97,-33.55,0.09,1.86,19.6,34.9,24.0,0,no_anomaly,0.0,0,0,0,0,19.0760055,72.8777036,5.0,0.0
2024-01-07T07:07:05.200Z,MISSION_0020,52,0,takeoff,SITE_BOM_001,19.0760029,72.8777046,5.0,340.38,3.41,0.072,0.61,0.495,-3.0031,340.3827,-0.98505,0.00021,0.02656,0.17019,-0.3434,0.0166,-9.7989,0.2346,0.521,-0.5431,0.2216,3,15,0.57,0.81,0.2,24.66,16.89,95.1,31.6,20929.0,8613,8579,8624,8668,48.9,48.7,44.4,52.3,2.509,2.709,2.696,2.933,5.19,211.3,23.8,51.7,1010.89,-34.54,-1.26,1.38,16.9,35.1,25.9,0,no_anomaly,0.0,0,0,0,0,19.0760029,72.8777046,5.0,0.0
2024-01-07T07:07:05.300Z,MISSION_0020,53,0,takeoff,SITE_BOM_001,19.0760019,72.8777006,5.0,340.37,3.628,0.091,0.22,-0.1816,-1.291,340.3651,-0.98529,0.00348,0.01083,0.17052,-0.1488,-0.023,-9.8396,0.2902,-0.353,-0.0987,0.0843,3,15,0.65,0.93,0.32,24.744,20.02,95.1,31.0,20918.0,8577,8525,8609,8606,49.5,48.1,47.5,48.9,3.027,2.824,2.744,2.773,4.38,204.9,23.9,52.1,1010.8,-32.93,-0.17,1.6,22.1,33.5,29.6,0,no_anomaly,0.0,0,0,0,0,19.0760019,72.8777006,5.0,0.0
2024-01-07T07:07:05.400Z,MISSION_0020,54,0,takeoff,SITE_BOM_001,19.0760004,72.8777028,5.0,339.73,3.883,0.03,0.32,5.6325,-2.9656,339.734,-0.98311,-0.0438,0.03408,0.17441,-0.1341,-0.0713,-9.8318,-0.2426,0.0429,0.4725,0.2214,3,15,0.65,0.79,0.23,24.662,17.49,95.0,32.4,20907.0,8688,8608,8825,8670,45.1,48.5,48.2,49.3,2.751,2.754,2.76,2.67,3.98,223.2,24.5,51.6,1011.19,-29.98,0.63,1.52,16.4,37.3,24.7,0,no_anomaly,0.0,0,0,0,0,19.0760004,72.8777028,5.0,0.0
2024-01-07T07:07:05.500Z,MISSION_0020,55,0,takeoff,SITE_BOM_001,19.0759971,72.8777032,5.0,342.53,4.257,0.095,0.48,-3.6402,-4.1217,342.5298,-0.98709,0.03683,0.03071,0.15282,-0.1081,0.024,-9.8479,-0.2863,0.8223,0.0335,0.1768,3,19,0.77,0.96,0.42,24.643,15.61,95.0,32.1,20896.0,8614,8650,8790,8653,49.1,50.4,45.4,49.9,2.88,2.817,2.974,2.87,5.05,208.2,23.7,51.6,1011.31,-27.57,1.13,1.15,21.3,30.9,27.9,0,no_anomaly,0.0,0,0,0,0,19.0759971,72.8777032,5.0,0.0
2024-01-07T07:07:05.600Z,MISSION_0020,56,0,takeoff,SITE_BOM_001,19.0759953,72.8776976,5.0,339.08,4.675,0.084,0.58,-0.8359,-3.3217,339.0828,-0.98291,0.01243,0.02718,0.18165,0.114,0.0156,-9.7819,-0.2007,0.0962,0.0418,0.2034,3,11,0.55,1.06,0.27,24.685,19.78,94.9,32.6,20884.0,8523,8683,8661,8741,47.9,48.3,47.4,48.1,2.718,2.827,2.873,2.939,4.92,209.0,24.3,51.3,1010.3,-32.29,0.65,1.82,19.4,36.6,23.6,0,no_anomaly,0.0,0,0,0,0,19.0759953,72.8776976,5.0,0.0
2024-01-07T07:07:05.700Z,MISSION_0020,57,0,takeoff,SITE_BOM_001,19.0759909,72.8776992,5.0,339.81,4.877,0.046,1.02,0.0332,-0.6091,339.808,-0.9845,0.00065,0.00528,0.17529,-0.0401,-0.0699,-9.8983,-0.0306,0.0212,0.0521,0.249,3,12,0.75,0.9,0.38,24.762,20.8,94.9,33.3,20873.0,8665,8525,8861,8742,55.4,47.6,46.9,45.1,2.849,2.656,2.799,2.777,4.91,215.1,24.3,51.9,1011.08,-31.23,-0.37,1.38,20.8,31.6,27.0,0,no_anomaly,0.0,0,0,0,0,19.0759909,72.8776992,5.0,0.0
2024-01-07T07:07:05.800Z,MISSION_0020,58,0,takeoff,SITE_BOM_001,19.0759937,72.8777031,5.0,341.92,5.227,0.036,0.79,5.7424,-2.6164,341.9177,-0.98626,-0.04587,0.03039,0.15578,0.0999,-0.0642,-9.7604,-1.1154,-0.0751,0.012,0.2289,3,13,0.72,0.94,0.27,24.699,20.95,94.8,31.8,20862.0,8380,8653,8804,8630,45.5,46.2,49.8,52.1,2.968,2.942,2.742,2.83,5.29,200.8,24.2,51.2,1010.58,-31.15,-0.06,1.47,21.4,30.0,27.2,0,no_anomaly,0.0,0,0,0,0,19.0759937,72.8777031,5.0,0.0
2024-01-07T07:07:05.900Z,MISSION_0020,59,0,takeoff,SITE_BOM_001,19.0759908,72.8777052,5.0,341.79,5.466,0.233,1.18,-0.4851,-0.8997,341.7889,-0.98735,0.00542,0.00708,0.15828,-0.1965,0.0327,-9.7727,-0.3083,0.503,-0.267,0.2251,3,17,0.7,0.61,0.28,24.716,24.69,94.8,31.8,20851.0,8765,8549,8765,8725,48.3,52.2,46.3,50.5,2.837,2.549,2.953,3.053,5.19,206.0,24.0,50.5,1011.16,-29.78,-0.4,1.76,17.5,31.8,26.9,0,no_anomaly,0.0,0,0,0,0,19.0759908,72.8777052,5.0,0.0
2024-01-07T07:07:06.000Z,MISSION_0020,60,0,takeoff,SITE_BOM_001,19.0759902,72.8777076,5.0,343.6,5.658,0.115,1.38,0.688,-2.0297,343.6044,-0.98962,-0.00342,0.01839,0.14246,-0.1048,0.0041,-9.7382,0.0248,-0.116,0.0159,0.151,3,14,0.59,1.06,0.29,24.661,18.85,94.7,31.9,20840.0,8524,8555,9118,8715,49.9,52.1,46.4,49.1,2.851,2.882,2.627,3.052,5.04,212.0,23.8,52.0,1010.71,-26.7,0.5,1.42,20.7,32.8,27.2,0,no_anomaly,0.0,0,0,0,0,19.0759902,72.8777076,5.0,0.0
2024-01-07T07:07:06.100Z,MISSION_0020,61,0,takeoff,SITE_BOM_001,19.0759884,72.8777059,5.0,342.37,5.755,0.049,1.45,1.908,-2.7993,342.3699,-0.98782,-0.01271,0.02668,0.15278,0.1323,-0.0604,-9.8569,-0.7757,-0.0346,-0.4583,0.1626,3,11,0.76,1.0,0.36,24.698,16.67,94.7,32.6,20829.0,8821,8799,8534,8568,50.9,45.6,48.8,49.4,2.694,2.452,2.785,2.788,4.7,198.2,24.3,51.1,1011.11,-31.32,0.26,1.55,20.2,33.0,27.6,0,no_anomaly,0.0,0,0,0,0,19.0759884,72.8777059,5.0,0.0
2024-01-07T07:07:06.200Z,MISSION_0020,62,0,takeoff,SITE_BOM_001,19.075982,72.8777049,5.0,341.57,5.968,0.145,2.07,0.3432,0.4975,341.5734,-0.98708,-0.00365,-0.00381,0.16012,-0.1553,-0.0532,-9.8234,0.0738,0.5331,-0.1576,0.153,3,15,0.84,0.65,0.34,24.695,25.02,94.6,32.8,20818.0,8641,8661,8882,8563,50.0,45.7,50.3,45.3,2.605,3.135,2.725,3.132,5.02,212.1,24.2,51.3,1010.88,-33.65,-1.88,1.51,17.2,34.0,26.8,0,no_anomaly,0.0,0,0,0,0,19.075982,72.8777049,5.0,0.0
2024-01-07T07:07:06.300Z,MISSION_0020,63,0,takeoff,SITE_BOM_001,19.0759847,72.8777065,5.0,339.84,5.685,0.126,1.85,0.4818,-0.4575,339.8366,-0.98455,-0.00344,0.00467,0.17503,0.0187,-0.0211,-9.8599,-0.2981,0.1218,0.5482,0.1307,3,18,0.55,1.0,0.24,24.655,19.38,94.6,32.4,20807.0,8696,8628,8735,8561,51.1,47.5,49.0,49.2,2.945,2.828,2.916,2.935,4.85,208.2,24.1,50.3,1011.04,-37.21,0.46,1.38,18.9,37.5,23.8,0,no_anomaly,0.0,0,0,0,0,19.0759847,72.8777065,5.0,0.0
2024-01-07T07:07:06.400Z,MISSION_0020,64,0,takeoff,SITE_BOM_001,19.0759888,72.8777047,5.0,341.05,5.635,0.078,1.35,-1.2029,-3.5018,341.0518,-0.98579,0.01538,0.02841,0.16483,0.0514,-0.0195,-9.795,0.4455,0.1457,-0.2605,0.2149,3,11,0.64,0.99,0.2,24.569,20.28,94.5,32.5,20796.0,8617,8906,8568,8921,48.2,45.4,51.0,52.9,2.619,2.812,2.809,2.451,5.28,207.1,24.1,51.4,1010.7,-29.61,-0.72,1.46,17.4,33.3,26.4,0,no_anomaly,0.0,0,0,0,0,19.0759888,72.8777047,5.0,0.0
2024-01-07T07:07:06.500Z,MISSION_0020,65,0,takeoff,SITE_BOM_001,19.0759904,72.8777057,5.0,340.95,5.126,0.027,1.24,7.7673,-2.5306,340.9526,-0.98396,-0.06314,0.03293,0.16356,0.0396,0.0248,-9.7705,-0.0059,-0.5863,0.3732,0.1142,3,19,0.52,1.14,0.2,24.721,19.62,94.5,31.5,20785.0,9022,8684,8661,8761,48.5,45.9,47.4,50.2,3.064,2.824,2.924,2.646,4.64,218.1,24.0,51.6,1010.71,-32.92,-0.71,1.49,19.1,29.2,25.2,0,no_anomaly,0.0,0,0,0,0,19.0759904,72.8777057,5.0,0.0
2024-01-07T07:07:06.600Z,MISSION_0020,66,0,takeoff,SITE_BOM_001,19.075992,72.8777055,5.0,338.63,4.962,0.032,1.08,5.8495,-1.8381,338.6277,-0.9814,-0.04716,0.0252,0.18436,0.1342,-0.0058,-9.7404,-0.0653,0.5727,0.163,0.2455,3,16,0.58,0.6,0.24,24.623,23.03,94.4,31.4,20773.0,8740,8786,9021,8551,47.0,52.9,47.0,50.4,2.824,2.626,2.825,2.876,3.95,210.6,23.8,52.0,1011.04,-35.39,0.57,1.61,14.9,35.4,24.6,0,no_anomaly,0.0,0,0,0,0,19.075992,72.8777055,5.0,0.0
2024-01-07T07:07:06.700Z,MISSION_0020,67,0,takeoff,SITE_BOM_001,19.0759973,72.877706,5.0,340.43,4.737,0.09,0.73,2.817,-3.3683,340.434,-0.98486,-0.01922,0.03313,0.16908,-0.2357,-0.037,-9.8246,-0.1258,-0.3687,-0.1545,0.2542,3,13,0.69,1.05,0.38,24.631,22.76,94.4,31.7,20762.0,8906,8447,8397,8529,47.8,50.3,50.5,47.7,2.788,2.744,3.015,2.618,5.05,201.6,24.1,51.7,1011.17,-29.65,0.76,1.37,16.3,34.6,26.7,0,no_anomaly,0.0,0,0,0,0,19.0759973,72.877706,5.0,0.0
2024-01-07T07:07:06.800Z,MISSION_0020,68,0,takeoff,SITE_BOM_001,19.0759916,72.8777082,5.0,341.6,4.659,0.061,1.31,0.0331,-0.0521,341.5984,-0.98713,-0.00021,0.0005,0.15989,-0.2342,0.0385,-9.7159,-0.4883,0.9767,-0.0593,0.1943,3,19,0.74,0.89,0.34,24.713,15.25,94.3,31.8,20751.0,8696,8858,8435,8480,49.0,42.3,49.7,48.9,3.096,2.742,2.916,2.647,4.7,219.2,24.2,51.3,1011.09,-36.5,-2.22,1.89,16.9,36.6,27.3,0,no_anomaly,0.0,0,0,0,0,19.0759916,72.8777082,5.0,0.0
2024-01-07T07:07:06.900Z,MISSION_0020,69,0,takeoff,SITE_BOM_001,19.0759898,72.8777102,5.0,340.97,4.785,-0.006,1.61,5.6682,1.2201,340.9736,-0.9849,-0.05052,-0.00232,0.16558,-0.1887,-0.0281,-9.8654,0.5629,-0.3826,-0.6927,0.1764,3,17,0.69,0.85,0.2,24.69,15.11,94.3,32.3,20740.0,8473,8729,8641,8930,47.7,48.7,52.5,50.0,2.874,2.482,2.73,2.665,5.28,209.6,24.0,51.8,1010.64,-28.75,0.56,1.27,19.4,31.5,24.7,0,no_anomaly,0.0,0,0,0,0,19.0759898,72.8777102,5.0,0.0
2024-01-07T07:07:07.000Z,MISSION_0020,70,0,transit,SITE_BOM_001,19.0759879,72.8777133,5.5,342.34,4.643,0.071,2.0,1.3346,-0.1849,342.342,-0.98809,-0.01126,0.00338,0.15346,0.2324,0.0375,-9.7615,0.9256,0.4008,-0.4529,0.1729,3,13,0.84,0.79,0.34,24.582,15.67,94.2,31.8,20729.0,8465,8919,8715,8487,49.5,49.7,49.4,49.3,2.714,2.914,2.93,2.729,4.98,207.5,24.0,51.6,1010.45,-29.71,0.28,1.6,22.3,37.4,29.7,0,no_anomaly,0.0,0,0,0,0,19.0759879,72.8777133,5.5,0.0
2024-01-07T07:07:07.100Z,MISSION_0020,71,0,transit,SITE_BOM_001,19.0759879,72.8777125,6.0,342.92,4.417,0.203,1.94,-3.8702,-4.1494,342.9223,-0.98752,0.03874,0.03077,0.14951,0.3197,-0.0397,-9.7823,0.3132,-0.7692,0.2125,0.1893,3,19,0.75,0.84,0.2,24.586,22.11,94.2,31.9,20718.0,8769,8766,8642,8655,50.4,46.3,46.9,50.9,2.864,2.68,2.798,2.689,4.0,202.4,24.0,52.7,1011.01,-29.52,-1.11,1.69,16.2,36.0,25.2,0,no_anomaly,0.0,0,0,0,0,19.0759879,72.8777125,6.0,0.0
2024-01-07T07:07:07.200Z,MISSION_0020,72,0,transit,SITE_BOM_001,19.0759904,72.8777076,6.5,344.87,4.319,0.063,1.37,4.633,-2.5661,344.8672,-0.99035,-0.03711,0.0275,0.13064,-0.1622,-0.0675,-9.7437,-0.0449,0.2005,0.2275,0.1668,3,17,0.77,0.77,0.32,24.62,21.55,94.1,33.0,20707.0,8552,8785,8682,8698,47.4,47.4,56.9,47.6,2.618,2.958,2.878,2.765,4.39,206.3,23.7,51.6,1010.81,-31.67,0.55,1.19,23.0,34.1,29.5,0,no_anomaly,0.0,0,0,0,0,19.0759904,72.8777076,6.5,0.0
2024-01-07T07:07:07.300Z,MISSION_0020,73,0,transit,SITE_BOM_001,19.0759907,72.8777075,7.0,343.28,4.353,0.096,1.33,3.6012,-2.7633,343.2781,-0.98871,-0.02757,0.02841,0.14455,0.0866,0.0374,-9.8821,-0.2483,-0.2544,0.2555,0.1902,3,11,0.56,0.84,0.27,24.739,19.08,94.1,32.4,20696.0,8802,8719,8861,8854,49.7,50.8,49.1,48.2,2.499,2.86,2.612,2.975,4.92,206.5,23.9,52.3,1010.39,-31.59,1.06,1.59,19.8,31.3,24.9,0,no_anomaly,0.0,0,0,0,0,19.0759907,72.8777075,7.0,0.0
2024-01-07T07:07:07.400Z,MISSION_0020,74,0,transit,SITE_BOM_001,19.075993,72.8777068,7.5,343.77,4.315,0.051,1.08,-0.7862,0.428,343.7651,-0.98995,0.00626,-0.00467,0.14117,0.1535,0.0236,-9.7486,-0.7108,0.701,-0.2886,0.2863,3,16,0.5,0.78,0.22,24.739,19.75,94.0,31.3,20685.0,8627,8486,8393,8714,52.9,49.0,52.0,45.9,2.668,2.875,2.772,2.696,5.35,209.2,24.1,52.2,1010.86,-30.55,0.25,1.27,19.2,36.6,27.7,0,no_anomaly,0.0,0,0,0,0,19.075993,72.8777068,7.5,0.0
2024-01-07T07:07:07.500Z,MISSION_0020,75,0,transit,SITE_BOM_001,19.0760002,72.8777036,8.0,345.44,4.65,0.113,0.4,-0.9205,-6.0065,345.4392,-0.99049,0.0146,0.05095,0.12696,-0.1074,-0.044,-9.7816,0.746,0.3866,-0.0328,0.284,3,10,0.59,0.95,0.2,24.66,19.03,94.0,32.3,20674.0,8375,8484,8799,8591,47.0,49.8,46.7,47.8,2.744,2.511,2.576,3.022,4.56,209.3,23.8,49.2,1010.56,-31.16,-0.72,1.78,20.1,37.6,27.8,0,no_anomaly,0.0,0,0,0,0,19.0760002,72.8777036,8.0,0.0
2024-01-07T07:07:07.600Z,MISSION_0020,76,0,transit,SITE_BOM_001,19.0759947,72.8777034,8.5,345.75,4.345,0.033,0.7,-0.2433,-3.8291,345.7538,-0.99172,0.00625,0.03289,0.124,-0.0712,-0.0843,-9.8337,-0.1854,-0.5778,-0.2101,0.1329,3,16,0.63,0.94,0.28,24.678,20.54,93.9,32.9,20662.0,8970,8944,8673,8688,51.4,46.4,47.6,48.9,2.813,2.897,2.707,2.713,3.9,208.9,24.4,51.7,1010.92,-26.14,1.01,1.19,16.4,37.2,24.2,0,no_anomaly,0.0,0,0,0,0,19.0759947,72.8777034,8.5,0.0
2024-01-07T07:07:07.700Z,MISSION_0020,77,0,transit,SITE_BOM_001,19.0759987,72.877705,9.0,344.42,3.943,0.052,0.58,-2.2462,-0.2978,344.4219,-0.99057,0.01977,-8e-05,0.13555,0.0215,0.0977,-9.8965,0.1626,-0.3676,0.3499,0.1616,3,16,0.7,1.05,0.34,24.634,10.39,93.9,31.8,20651.0,8807,8408,8803,8386,50.5,48.2,48.8,50.1,2.93,2.951,2.716,2.894,4.61,215.5,24.1,52.1,1010.74,-27.46,-2.69,1.65,16.7,34.0,24.3,0,no_anomaly,0.0,0,0,0,0,19.0759987,72.877705,9.0,0.0
2024-01-07T07:07:07.800Z,MISSION_0020,78,0,transit,SITE_BOM_001,19.0759974,72.8777022,9.5,343.58,4.102,0.11,0.38,6.1427,-2.6076,343.5803,-0.98825,-0.04977,0.03014,0.14135,0.0919,0.0178,-9.7975,0.021,0.3084,0.0702,0.2236,3,13,0.63,0.64,0.2,24.654,21.75,93.8,33.0,20640.0,8775,8549,8777,8568,50.1,50.0,48.3,48.4,2.799,2.767,2.719,2.595,5.83,214.9,24.0,52.0,1010.91,-31.52,0.03,1.78,20.6,36.9,29.4,0,no_anomaly,0.0,0,0,0,0,19.0759974,72.8777022,9.5,0.0
2024-01-07T07:07:07.900Z,MISSION_0020,79,0,transit,SITE_BOM_001,19.076001,72.8777083,10.0,345.32,4.384,0.07,0.93,5.6016,-2.2578,345.3198,-0.99055,-0.04594,0.02576,0.12663,-0.0482,0.0252,-9.7975,0.4406,-0.1606,0.0323,0.2579,3,20,0.8,0.79,0.33,24.612,19.15,93.8,32.8,20629.0,8897,8737,8635,8339,49.6,48.5,47.6,48.3,2.578,2.975,2.886,2.726,5.23,206.5,24.4,51.5,1010.67,-31.25,-3.07,1.59,19.2,31.1,24.1,0,no_anomaly,0.0,0,0,0,0,19.076001,72.8777083,10.0,0.0
2024-01-07T07:07:08.000Z,MISSION_0020,80,0,transit,SITE_BOM_001,19.0760007,72.877706,10.5,346.56,4.172,0.172,0.67,0.2442,-2.112,346.5601,-0.99296,4e-05,0.01855,0.11696,0.1815,0.0316,-9.8582,0.4489,-0.2695,-0.567,0.1732,3,11,0.76,1.07,0.21,24.651,19.79,93.7,32.0,20618.0,8764,8515,8651,8584,46.5,51.1,50.9,49.4,2.808,2.964,2.826,2.47,5.05,209.0,24.3,51.6,1010.67,-23.93,1.66,1.33,17.1,31.9,25.4,0,no_anomaly,0.0,0,0,0,0,19.0760007,72.877706,10.5,0.0
2024-01-07T07:07:08.100Z,MISSION_0020,81,0,transit,SITE_BOM_001,19.0759985,72.8777071,11.0,346.23,3.804,0.125,0.8,-0.33,-3.0829,346.23,-0.99242,0.00608,0.02636,0.11991,0.1797,-0.0889,-9.793,0.383,0.2829,-0.258,0.111,3,11,0.84,1.24,0.38,24.674,29.61,93.7,32.2,20607.0,8664,8576,8537,8857,49.0,48.6,47.6,47.0,2.823,2.906,3.002,2.955,4.71,214.7,23.9,52.7,1011.26,-29.26,0.81,1.41,18.3,38.0,23.7,0,no_anomaly,0.0,0,0,0,0,19.0759985,72.8777071,11.0,0.0
2024-01-07T07:07:08.200Z,MISSION_0020,82,0,transit,SITE_BOM_001,19.0760011,72.8777123,11.5,345.65,3.883,0.035,1.37,-1.6138,-2.2223,345.6541,-0.99185,0.01639,0.01748,0.1251,0.001,0.1128,-9.7558,0.281,-0.0398,-0.0995,0.1204,3,16,0.58,0.96,0.21,24.61,16.44,93.6,32.6,20596.0,8870,8602,8803,8764,46.7,48.8,46.4,50.7,2.902,2.59,2.573,2.578,4.49,210.0,24.2,51.0,1010.76,-30.14,-0.07,1.15,22.2,34.8,25.9,0,no_anomaly,0.0,0,0,0,0,19.0760011,72.8777123,11.5,0.0
2024-01-07T07:07:08.300Z,MISSION_0020,83,0,transit,SITE_BOM_001,19.0760028,72.8777099,12.0,347.22,3.836,0.14,1.15,0.815,-2.7919,347.2245,-0.99349,-0.00436,0.025,0.11105,0.0409,0.0317,-9.8455,0.2761,-0.0198,0.1392,0.2764,3,13,0.86,0.98,0.3,24.592,16.54,93.6,31.9,20585.0,8796,8544,8633,8830,45.0,49.9,53.7,51.3,3.103,2.67,3.031,2.867,4.49,202.1,24.1,51.3,1010.84,-30.37,-0.48,1.0,21.3,35.6,29.0,0,no_anomaly,0.0,0,0,0,0,19.0760028,72.8777099,12.0,0.0
2024-01-07T07:07:08.400Z,MISSION_0020,84,0,transit,SITE_BOM_001,19.0760042,72.8777096,12.5,345.77,4.086,0.144,1.17,-3.7257,-5.8221,345.7668,-0.99029,0.0385,0.04635,0.1253,0.0566,0.0252,-9.7851,-0.1716,-0.1534,0.1961,0.1906,3,18,0.85,0.87,0.32,24.643,19.54,93.5,32.5,20574.0,8708,8575,8345,8647,50.0,48.4,50.1,47.2,3.041,2.807,2.664,2.906,3.93,200.1,24.0,51.9,1011.01,-31.23,-0.96,1.25,14.6,29.5,24.1,0,no_anomaly,0.0,0,0,0,0,19.0760042,72.8777096,12.5,0.0
2024-01-07T07:07:08.500Z,MISSION_0020,85,0,transit,SITE_BOM_001,19.075998,72.8777104,13.0,348.64,4.076,0.076,1.18,-0.9684,-1.8495,348.6416,-0.99491,0.01001,0.01522,0.09908,0.3425,0.0424,-9.739,-0.0535,0.0717,0.3872,0.2172,3,18,0.58,0.86,0.3,24.62,14.63,93.5,32.0,20563.0,8781,9093,8322,8677,47.9,48.4,48.2,49.9,2.87,2.595,2.931,2.915,3.7,211.2,23.8,51.3,1010.39,-31.51,-0.41,1.17,18.1,31.4,25.4,0,no_anomaly,0.0,0,0,0,0,19.075998,72.8777104,13.0,0.0
2024-01-07T07:07:08.600Z,MISSION_0020,86,0,transit,SITE_BOM_001,19.0759964,72.8777102,13.5,347.49,3.736,0.142,1.2,-0.9358,-0.0736,347.4877,-0.99401,0.00819,-0.00025,0.10898,0.1502,0.0661,-9.8813,0.0154,0.8441,0.1577,0.0854,3,20,0.61,0.73,0.35,24.581,20.96,93.4,32.2,20551.0,8894,8856,8730,8999,46.9,51.3,47.4,46.6,2.919,2.629,2.96,3.071,4.39,211.9,24.1,51.2,1010.7,-29.83,0.7,1.28,21.1,36.3,29.8,0,no_anomaly,0.0,0,0,0,0,19.0759964,72.8777102,13.5,0.0
2024-01-07T07:07:08.700Z,MISSION_0020,87,0,transit,SITE_BOM_001,19.0760019,72.8777105,14.0,345.76,3.628,0.089,1.19,0.6846,-2.7298,345.7635,-0.99201,-0.00297,0.02438,0.12374,-0.067,-0.0856,-9.8797,-0.2818,-0.7422,0.1593,0.1519,3,13,0.67,0.76,0.26,24.652,26.43,93.4,31.2,20540.0,8753,8723,8812,8610,48.3,46.1,46.0,47.8,2.552,2.926,2.743,2.871,4.42,212.7,24.3,51.9,1010.44,-28.55,-1.32,1.88,20.2,32.6,26.7,0,no_anomaly,0.0,0,0,0,0,19.0760019,72.8777105,14.0,0.0
2024-01-07T07:07:08.800Z,MISSION_0020,88,0,transit,SITE_BOM_001,19.0760086,72.8777033,14.5,346.49,3.676,0.16,1.02,-2.814,-0.5824,346.4852,-0.99273,0.02498,0.00216,0.11775,-0.09,0.0336,-9.8562,-0.3623,-0.3639,0.3936,0.1797,3,19,0.6,1.06,0.27,24.589,19.45,93.3,32.4,20529.0,8439,8747,8706,8724,50.5,49.4,51.5,47.4,2.844,2.512,2.945,2.531,4.66,211.4,24.1,50.9,1010.92,-27.6,-0.26,1.4,14.9,34.1,23.7,0,no_anomaly,0.0,0,0,0,0,19.0760086,72.8777033,14.5,0.0
2024-01-07T07:07:08.900Z,MISSION_0020,89,0,transit,SITE_BOM_001,19.0760077,72.8777047,15.0,343.75,3.94,0.1,1.0,0.9318,-2.5993,343.7547,-0.98971,-0.00484,0.0236,0.14107,0.1952,0.0597,-9.8355,1.0453,-0.3182,0.3079,0.179,3,12,0.58,0.91,0.23,24.671,19.47,93.3,32.0,20518.0,8831,8905,8816,8511,53.2,54.0,51.4,50.8,2.709,2.559,2.891,2.781,5.03,215.3,24.1,51.0,1010.85,-32.65,-0.73,1.53,20.6,34.4,27.5,0,no_anomaly,0.0,0,0,0,0,19.0760077,72.8777047,15.0,0.0
2024-01-07T07:07:09.000Z,MISSION_0020,90,0,transit,SITE_BOM_001,19.0760044,72.8777,15.5,345.65,3.516,0.037,0.49,-6.6389,-0.9671,345.6519,-0.99041,0.0585,0.00113,0.12515,-0.0665,0.0602,-9.8091,0.3654,-0.1946,-0.5441,0.1425,3,17,0.61,0.88,0.24,24.679,23.74,93.2,32.3,20507.0,8936,8825,8660,8370,49.9,49.0,50.9,46.9,2.838,2.803,2.753,2.899,4.48,212.6,24.0,51.2,1010.65,-33.73,0.27,1.28,18.2,36.7,28.4,0,no_anomaly,0.0,0,0,0,0,19.0760044,72.8777,15.5,0.0
2024-01-07T07:07:09.100Z,MISSION_0020,91,0,transit,SITE_BOM_001,19.0760051,72.8777025,16.0,345.82,3.552,0.125,0.63,-1.4201,-2.9515,345.8249,-0.99191,0.01547,0.02403,0.12365,0.0636,-0.0498,-9.8014,-0.1346,-1.0285,-0.2629,0.1505,3,18,0.5,0.95,0.2,24.462,14.99,93.2,32.1,20496.0,8856,8671,8667,8730,48.2,52.9,48.5,49.9,2.817,2.607,2.744,2.658,5.43,206.0,24.1,52.2,1010.44,-31.0,1.75,1.72,17.6,31.4,24.7,0,no_anomaly,0.0,0,0,0,0,19.0760051,72.8777025,16.0,0.0
2024-01-07T07:07:09.200Z,MISSION_0020,92,0,transit,SITE_BOM_001,19.0760045,72.877709,16.5,343.45,3.686,0.175,1.12,0.3206,-5.7636,343.4473,-0.98835,0.00447,0.05015,0.14363,0.04,0.0236,-9.8823,0.6368,0.0512,0.4026,0.265,3,10,0.7,0.91,0.2,24.664,21.01,93.1,32.4,20485.0,8791,8589,8630,8521,47.5,51.0,50.6,47.7,2.653,2.71,2.704,2.966,5.17,208.7,24.0,51.9,1011.01,-26.58,-0.56,1.0,20.9,31.5,24.9,0,no_anomaly,0.0,0,0,0,0,19.0760045,72.877709,16.5,0.0
2024-01-07T07:07:09.300Z,MISSION_0020,93,0,transit,SITE_BOM_001,19.0760013,72.8777074,16.8,345.81,4.406,0.146,0.83,2.023,-1.3642,345.8137,-0.99215,-0.01605,0.01399,0.12325,-0.1125,0.0137,-9.8604,-0.681,-0.3378,0.1076,0.1856,3,14,0.75,0.88,0.22,24.712,22.86,93.1,32.0,20474.0,8621,8756,8782,8764,49.7,52.0,48.7,49.7,2.786,2.818,2.838,2.552,5.02,212.1,24.1,50.5,1010.92,-34.76,-1.67,1.6,18.6,30.6,24.9,0,no_anomaly,0.0,0,0,0,0,19.0760013,72.8777074,16.8,0.0
2024-01-07T07:07:09.400Z,MISSION_0020,94,0,transit,SITE_BOM_001,19.076002,72.8777043,16.8,344.77,4.791,0.124,0.53,-1.6663,-1.0066,344.7679,-0.99102,0.01558,0.00678,0.13264,0.0836,0.0183,-9.791,-0.0716,0.4112,-0.0222,0.2327,3,10,0.75,0.93,0.32,24.61,19.73,93.0,31.8,20463.0,8918,8939,8934,8921,45.1,47.0,46.6,51.3,2.873,2.857,2.947,2.775,5.16,211.4,23.9,51.6,1011.12,-35.22,-0.89,1.76,21.3,31.5,29.0,0,no_anomaly,0.0,0,0,0,0,19.076002,72.8777043,16.8,0.0
2024-01-07T07:07:09.500Z,MISSION_0020,95,0,transit,SITE_BOM_001,19.0760055,72.8777074,16.8,345.58,4.959,0.12,1.02,-0.5534,-0.0045,345.5799,-0.99208,0.0048,-0.00057,0.12551,0.0288,0.0207,-9.7885,-0.8815,0.1932,0.7244,0.1831,3,10,0.72,0.79,0.38,24.668,17.83,93.0,32.4,20452.0,8578,8863,8750,8781,52.0,51.7,49.0,52.1,2.65,2.9,2.919,2.597,5.47,205.6,24.2,51.1,1010.99,-27.71,0.13,1.74,16.7,29.2,27.5,0,no_anomaly,0.0,0,0,0,0,19.0760055,72.8777074,16.8,0.0
2024-01-07T07:07:09.600Z,MISSION_0020,96,0,transit,SITE_BOM_001,19.0760076,72.8777072,16.8,345.57,4.603,0.069,1.17,-2.4166,-2.9832,345.5652,-0.99145,0.02418,0.02317,0.12611,0.1301,-0.0305,-9.7456,0.2873,0.1209,-0.0861,0.2342,3,10,0.68,0.9,0.35,24.605,24.51,92.9,32.4,20440.0,8873,8696,8688,8689,47.5,50.6,53.6,47.9,3.0,2.89,2.732,2.911,5.03,207.9,24.3,51.3,1010.88,-27.31,0.87,1.83,21.7,32.2,27.8,0,no_anomaly,0.0,0,0,0,0,19.0760076,72.8777072,16.8,0.0
2024-01-07T07:07:09.700Z,MISSION_0020,97,0,transit,SITE_BOM_001,19.0760022,72.8777085,16.8,344.66,4.113,0.096,0.98,2.2608,-3.1418,344.6559,-0.99056,-0.01589,0.0298,0.13289,0.2554,0.0463,-9.7958,-0.2737,0.4484,0.1191,0.2489,3,11,0.68,0.68,0.32,24.551,17.99,92.9,32.2,20429.0,8560,8623,8789,8835,49.1,48.7,49.6,50.8,2.654,2.803,2.673,2.684,5.21,203.4,24.0,51.2,1011.17,-30.73,-0.69,1.35,19.3,36.3,29.2,0,no_anomaly,0.0,0,0,0,0,19.0760022,72.8777085,16.8,0.0
2024-01-07T07:07:09.800Z,MISSION_0020,98,0,transit,SITE_BOM_001,19.076002,72.8777057,16.8,343.62,4.038,0.101,0.67,2.2854,-2.0666,343.6242,-0.9895,-0.01717,0.02069,0.14201,0.1884,-0.0836,-9.807,0.1887,1.1178,-0.4801,0.2575,3,18,0.91,1.09,0.29,24.553,22.84,92.8,32.4,20418.0,8787,8410,8757,8653,47.4,50.6,42.8,50.3,2.885,2.825,2.706,2.734,4.74,214.1,24.0,52.0,1010.87,-32.07,0.11,1.93,20.6,38.9,25.4,0,no_anomaly,0.0,0,0,0,0,19.076002,72.8777057,16.8,0.0
2024-01-07T07:07:09.900Z,MISSION_0020,99,0,transit,SITE_BOM_001,19.0759994,72.8777026,16.8,346.84,3.907,0.13,0.29,1.4062,-3.3723,346.8373,-0.99295,-0.00881,0.03063,0.1142,-0.0347,0.0406,-9.8355,0.0496,0.765,0.1998,0.2133,3,18,0.75,1.03,0.2,24.589,16.66,92.8,33.3,20407.0,8535,8756,8726,8376,49.5,48.6,48.6,51.6,2.796,2.63,2.8,2.668,5.46,209.9,23.9,50.8,1010.65,-26.92,0.02,2.38,16.5,36.7,27.9,0,no_anomaly,0.0,0,0,0,0,19.0759994,72.8777026,16.8,0.0
2024-01-07T07:07:10.000Z,MISSION_0020,100,0,transit,SITE_BOM_001,19.0760014,72.8776973,16.8,347.15,3.916,0.155,0.34,0.0381,-1.9941,347.152,-0.99357,0.00162,0.01733,0.11186,-0.3781,0.06,-9.8162,-0.3257,-0.0885,-0.4062,0.1858,3,18,0.75,0.99,0.21,24.626,14.3,92.7,32.2,20396.0,8660,8570,8711,8860,51.6,44.6,50.8,47.7,2.994,2.597,2.628,2.813,4.52,210.9,24.0,52.5,1010.64,-35.22,0.83,1.39,16.9,34.1,27.6,0,no_anomaly,0.0,0,0,0,0,19.0760014,72.8776973,16.8,0.0
2024-01-07T07:07:10.100Z,MISSION_0020,101,0,transit,SITE_BOM_001,19.075996,72.877694,16.8,344.87,3.872,0.131,0.8,0.2874,-4.1247,344.8677,-0.99066,0.00225,0.036,0.1315,-0.1369,0.019,-9.8298,-1.2726,-0.5313,-0.3775,0.2175,3,14,0.76,0.87,0.4,24.607,18.9,92.7,31.5,20385.0,8847,8823,8727,8678,46.4,45.9,48.0,50.5,2.802,2.878,2.833,2.692,5.27,212.3,23.8,51.0,1010.91,-31.02,-0.38,1.86,17.0,30.4,26.8,0,no_anomaly,0.0,0,0,0,0,19.075996,72.877694,16.8,0.0
2024-01-07T07:07:10.200Z,MISSION_0020,102,0,transit,SITE_BOM_001,19.0759932,72.8776957,16.8,342.04,4.217,0.037,0.89,1.9897,-3.2509,342.0394,-0.98727,-0.01272,0.03072,0.15552,-0.1838,-0.0467,-9.8181,0.233,0.2597,-0.5057,0.2616,3,16,0.82,0.86,0.33,24.613,21.36,92.6,32.7,20374.0,8429,8521,8961,8827,51.6,48.9,47.5,49.4,2.728,2.755,2.7,2.826,4.16,210.1,24.3,51.9,1011.12,-34.11,-0.83,1.45,18.5,35.8,23.9,0,no_anomaly,0.0,0,0,0,0,19.0759932,72.8776957,16.8,0.0
2024-01-07T07:07:10.300Z,MISSION_0020,103,0,transit,SITE_BOM_001,19.075999,72.8776961,16.8,343.84,3.806,0.15,0.45,-0.4227,-3.3033,343.8447,-0.98965,0.0077,0.02802,0.14056,-0.0496,0.0368,-9.8313,-0.8055,-0.2311,0.8371,0.2113,3,15,0.71,1.06,0.2,24.475,19.17,92.6,32.8,20363.0,8672,8507,8840,8670,46.9,49.0,49.5,49.9,2.316,2.555,2.847,2.767,5.53,216.4,24.2,51.0,1010.58,-30.84,1.54,1.93,19.4,36.0,28.1,0,no_anomaly,0.0,0,0,0,0,19.075999,72.8776961,16.8,0.0
2024-01-07T07:07:10.400Z,MISSION_0020,104,0,transit,SITE_BOM_001,19.0759985,72.8776968,16.8,344.55,3.674,0.119,0.4,2.6848,-2.3922,344.5509,-0.9905,-0.0204,0.02383,0.13386,-0.0615,-0.0731,-9.7831,-0.5602,0.1538,-0.0815,0.1115,3,11,0.67,0.84,0.34,24.619,16.84,92.5,32.8,20352.0,8773,8335,8834,8671,50.1,49.0,47.9,50.7,2.76,2.92,2.581,2.725,6.12,205.1,24.4,51.0,1010.74,-31.68,0.79,1.79,21.5,29.3,24.1,0,no_anomaly,0.0,0,0,0,0,19.0759985,72.8776968,16.8,0.0
2024-01-07T07:07:10.500Z,MISSION_0020,105,0,transit,SITE_BOM_001,19.075999,72.8776934,16.8,342.37,3.34,0.054,0.74,0.1888,-4.9952,342.3723,-0.98726,0.00505,0.04332,0.15301,-0.0656,-0.0713,-9.8113,-0.1397,-0.1982,0.0981,0.2623,3,14,0.71,0.92,0.26,24.615,21.08,92.5,31.8,20341.0,9040,8731,8817,8638,49.6,48.1,49.6,52.3,2.862,3.194,2.809,2.478,4.23,209.5,23.9,51.7,1010.63,-24.53,0.21,1.78,16.2,30.6,27.2,0,no_anomaly,0.0,0,0,0,0,19.075999,72.8776934,16.8,0.0
2024-01-07T07:07:10.600Z,MISSION_0020,106,0,transit,SITE_BOM_001,19.0760001,72.877694,16.8,338.88,3.261,0.212,0.67,1.3664,-1.1068,338.8753,-0.98296,-0.00995,0.01168,0.18317,0.0381,0.0405,-9.7626,-0.7414,-0.3698,0.1305,0.189,3,16,0.76,1.0,0.23,24.584,21.39,92.4,31.9,20329.0,8913,8654,8583,8749,45.8,46.1,52.9,49.1,2.755,2.722,2.697,2.644,4.49,223.0,24.2,51.4,1010.77,-27.89,-0.39,1.69,19.1,31.0,23.2,0,no_anomaly,0.0,0,0,0,0,19.0760001,72.877694,16.8,0.0
2024-01-07T07:07:10.700Z,MISSION_0020,107,0,transit,SITE_BOM_001,19.0760036,72.8776919,16.8,339.2,3.213,0.106,0.99,1.6567,-1.8207,339.2015,-0.98339,-0.01135,0.01823,0.18024,0.025,-0.0224,-9.8325,0.6928,1.8051,-0.5812,0.1543,3,19,0.77,0.77,0.33,24.616,18.42,92.4,32.6,20318.0,8774,8629,8759,8727,47.8,50.9,45.8,46.7,2.699,2.73,2.942,2.706,4.08,203.4,23.9,51.2,1010.65,-27.74,-0.4,1.11,20.0,34.6,24.3,0,no_anomaly,0.0,0,0,0,0,19.0760036,72.8776919,16.8,0.0
2024-01-07T07:07:10.800Z,MISSION_0020,108,0,transit,SITE_BOM_001,19.0760015,72.8776905,16.8,339.49,3.395,0.173,1.07,-0.9588,-1.6833,339.4875,-0.98386,0.01085,0.01296,0.17815,0.0005,0.0103,-9.8056,-0.7909,1.1171,0.4156,0.1796,3,11,0.54,0.74,0.26,24.527,18.73,92.3,32.3,20307.0,8735,8768,8764,8717,47.8,45.2,47.5,49.2,2.811,2.778,2.72,2.692,4.12,212.6,24.3,50.8,1010.8,-37.13,0.11,1.93,19.1,33.6,26.7,0,no_anomaly,0.0,0,0,0,0,19.0760015,72.8776905,16.8,0.0
2024-01-07T07:07:10.900Z,MISSION_0020,109,0,transit,SITE_BOM_001,19.0760011,72.8776888,16.8,336.34,3.672,0.081,1.26,-1.157,-0.3448,336.3442,-0.97871,0.0105,0.00088,0.20499,-0.166,0.0092,-9.8763,-0.1061,-0.6829,0.2488,0.1535,3,11,0.68,1.24,0.3,24.635,17.76,92.3,31.9,20296.0,8721,8776,8648,9003,53.8,48.9,54.8,50.6,2.682,2.734,2.793,2.479,5.23,214.2,24.1,51.3,1010.92,-23.38,1.65,1.72,20.5,33.1,28.2,0,no_anomaly,0.0,0,0,0,0,19.0760011,72.8776888,16.8,0.0
2024-01-07T07:07:11.000Z,MISSION_0020,110,0,transit,SITE_BOM_001,19.0760042,72.8776855,16.8,333.85,3.385,0.177,1.68,3.545,-1.0012,333.846,-0.97362,-0.02815,0.0155,0.22588,0.2835,0.0603,-9.8425,0.0726,0.0585,-0.2464,0.1964,3,19,0.75,0.72,0.31,24.496,16.45,92.2,32.2,20285.0,8407,8962,8432,8627,51.0,49.0,48.1,44.9,2.848,2.618,2.71,2.894,3.65,202.7,24.2,51.0,1010.96,-27.75,-1.0,1.0,18.4,31.9,26.6,0,no_anomaly,0.0,0,0,0,0,19.0760042,72.8776855,16.8,0.0
2024-01-07T07:07:11.100Z,MISSION_0020,111,0,transit,SITE_BOM_001,19.0760029,72.8776846,16.8,333.69,3.406,0.139,1.75,-1.8901,-3.0264,333.6865,-0.97318,0.02206,0.02196,0.22793,-0.2012,-0.0215,-9.8514,0.8534,0.3448,0.1232,0.2033,3,19,0.69,1.04,0.24,24.509,19.18,92.2,32.3,20274.0,8927,8790,8803,8615,48.5,46.1,48.8,50.7,2.891,2.881,2.872,2.856,4.4,209.5,23.9,52.2,1011.01,-21.63,-0.13,1.91,20.7,36.2,25.6,0,no_anomaly,0.0,0,0,0,0,19.0760029,72.8776846,16.8,0.0
2024-01-07T07:07:11.200Z,MISSION_0020,112,0,transit,SITE_BOM_001,19.076002,72.8776839,16.8,334.6,3.332,0.129,1.81,-1.5072,-2.9929,334.6043,-0.97505,0.01857,0.02258,0.22005,0.0253,-0.0301,-9.8669,0.4025,-0.5222,-0.5231,0.1708,3,17,0.5,0.72,0.2,24.649,19.61,92.1,31.9,20263.0,8762,8689,8506,8655,49.2,50.7,49.8,50.2,2.774,2.614,2.766,2.735,4.48,211.0,24.3,51.3,1010.62,-30.92,0.21,1.17,18.7,36.9,24.7,0,no_anomaly,0.0,0,0,0,0,19.076002,72.8776839,16.8,0.0
2024-01-07T07:07:11.300Z,MISSION_0020,113,0,transit,SITE_BOM_001,19.0760038,72.877679,16.8,332.99,2.934,0.094,2.38,4.2198,-2.398,332.985,-0.97165,-0.03091,0.02893,0.23261,-0.0076,0.0506,-9.7839,-0.1003,-0.1178,-0.2252,0.1756,3,10,0.82,0.91,0.4,24.571,19.34,92.1,33.0,20252.0,8487,8769,9086,8763,50.1,49.9,43.8,48.9,2.975,2.616,2.772,2.906,5.05,202.6,24.6,52.2,1010.68,-33.25,0.89,1.61,22.0,30.7,25.4,0,no_anomaly,0.0,0,0,0,0,19.0760038,72.877679,16.8,0.0
2024-01-07T07:07:11.400Z,MISSION_0020,114,0,transit,SITE_BOM_001,19.0760063,72.8776787,16.8,331.88,2.872,0.027,2.48,-1.7241,-3.1381,331.8812,-0.96947,0.02124,0.02291,0.24321,-0.0535,-0.0847,-9.8162,0.5583,0.4223,0.1132,0.1808,3,12,0.69,0.69,0.21,24.569,16.82,92.0,33.6,20241.0,8604,8578,8768,8875,49.1,51.0,48.5,51.6,2.896,2.661,2.484,2.861,5.46,214.2,23.7,51.8,1010.98,-30.84,0.93,1.39,19.1,31.8,29.2,0,no_anomaly,0.0,0,0,0,0,19.0760063,72.8776787,16.8,0.0
2024-01-07T07:07:11.500Z,MISSION_0020,115,0,transit,SITE_BOM_001,19.0760091,72.8776753,16.8,331.19,2.672,0.1,2.93,1.3871,-3.5733,331.1881,-0.96811,-0.00396,0.0332,0.24829,-0.0859,0.0258,-9.8713,-0.1733,0.2343,0.063,0.2438,3,18,0.71,1.05,0.2,24.63,19.37,92.0,31.7,20230.0,8969,8847,8671,8971,52.3,47.1,49.1,49.9,2.848,2.82,2.811,2.758,5.67,209.8,24.1,50.8,1010.56,-27.85,-0.18,2.07,17.2,33.0,28.5,0,no_anomaly,0.0,0,0,0,0,19.0760091,72.8776753,16.8,0.0
2024-01-07T07:07:11.600Z,MISSION_0020,116,0,transit,SITE_BOM_001,19.0760123,72.8776778,16.8,331.24,2.183,0.043,2.83,1.0937,-5.0781,331.2372,-0.96777,0.00177,0.04528,0.24771,-0.2087,0.0385,-9.7481,0.0249,0.4856,-0.4573,0.166,3,12,0.8,1.28,0.25,24.707,17.5,91.9,32.4,20218.0,8932,8865,8714,9004,45.5,50.7,47.5,48.8,2.88,2.884,3.152,2.757,5.01,208.5,23.9,51.0,1010.96,-25.56,0.82,1.81,16.3,29.1,24.2,0,no_anomaly,0.0,0,0,0,0,19.0760123,72.8776778,16.8,0.0
2024-01-07T07:07:11.700Z,MISSION_0020,117,0,transit,SITE_BOM_001,19.0760094,72.8776805,16.8,330.71,2.578,0.091,2.41,-1.4889,-1.9715,330.7062,-0.96722,0.01692,0.01336,0.25302,-0.0346,0.0487,-9.7661,-0.3305,-0.3202,0.2226,0.1688,3,19,0.53,0.86,0.34,24.529,15.12,91.9,32.9,20207.0,8896,8783,8911,8790,50.0,49.4,46.2,47.7,2.844,2.721,2.419,2.888,4.76,207.5,24.2,51.3,1010.87,-32.55,-0.27,1.74,18.9,30.2,25.5,0,no_anomaly,0.0,0,0,0,0,19.0760094,72.8776805,16.8,0.0
2024-01-07T07:07:11.800Z,MISSION_0020,118,0,transit,SITE_BOM_001,19.0760146,72.8776866,16.8,330.86,2.298,0.113,2.21,-5.7531,-1.1455,330.857,-0.96644,0.05108,-0.00296,0.25174,0.0495,-0.0571,-9.7804,0.1231,0.5869,-0.3966,0.2331,3,18,0.71,1.09,0.32,24.639,16.47,91.8,33.0,20196.0,8786,8689,8798,8617,48.9,49.1,51.3,46.5,2.911,2.784,2.661,2.598,4.94,205.8,24.2,52.3,1010.82,-25.91,-1.9,1.0,18.5,28.2,24.2,0,no_anomaly,0.0,0,0,0,0,19.0760146,72.8776866,16.8,0.0
2024-01-07T07:07:11.900Z,MISSION_0020,119,0,transit,SITE_BOM_001,19.0760176,72.8776871,16.8,331.53,2.99,0.08,2.43,-2.3881,-1.7045,331.532,-0.96891,0.02385,0.00929,0.2461,-0.0702,0.0198,-9.8017,-0.3901,-0.0111,0.1478,0.2594,3,16,0.79,0.8,0.38,24.653,23.28,91.8,32.3,20185.0,8669,8743,8752,8811,47.5,48.9,50.9,48.0,3.03,2.871,2.683,3.036,4.84,206.9,24.1,51.2,1010.52,-32.58,0.51,1.15,19.0,32.2,27.4,0,no_anomaly,0.0,0,0,0,0,19.0760176,72.8776871,16.8,0.0
2024-01-07T07:07:12.000Z,MISSION_0020,120,0,transit,SITE_BOM_001,19.0760198,72.8776826,16.8,332.72,3.121,0.181,2.94,-1.969,-3.6767,332.7235,-0.97103,0.02425,0.02712,0.23617,-0.1002,0.0221,-9.9079,0.519,0.9674,0.1369,0.1715,3,17,0.66,0.93,0.37,24.608,17.82,91.7,32.1,20174.0,8580,8650,8722,8797,51.8,47.0,47.4,49.7,2.637,2.395,2.854,3.215,4.92,209.5,24.1,51.6,1010.2,-33.32,0.17,1.32,18.0,36.9,25.0,0,no_anomaly,0.0,0,0,0,0,19.0760198,72.8776826,16.8,0.0
2024-01-07T07:07:12.100Z,MISSION_0020,121,0,transit,SITE_BOM_001,19.0760223,72.8776823,16.8,331.79,3.138,0.091,3.17,0.2648,-0.7175,331.7865,-0.96983,-0.00071,0.00664,0.24371,-0.1764,-0.0766,-9.8095,1.1303,-0.0698,0.2466,0.187,3,14,0.7,1.02,0.28,24.523,17.31,91.6,31.9,20163.0,8880,8749,8614,8610,50.5,51.1,52.0,50.5,2.686,3.099,2.743,2.939,4.55,213.5,24.1,51.3,1010.92,-30.59,0.68,1.72,20.6,29.5,26.8,0,no_anomaly,0.0,0,0,0,0,19.0760223,72.8776823,16.8,0.0
2024-01-07T07:07:12.200Z,MISSION_0020,122,0,transit,SITE_BOM_001,19.0760243,72.8776854,16.8,331.1,2.976,0.075,3.16,-4.6178,-1.3855,331.0951,-0.96738,0.04202,0.00164,0.24983,-0.5479,-0.0025,-9.8535,-0.3961,0.0036,-0.5332,0.2508,3,12,0.6,0.6,0.25,24.653,22.28,91.6,32.3,20152.0,8712,8851,8827,8517,51.8,53.0,46.9,43.8,2.864,2.77,2.662,3.048,4.42,198.4,23.8,52.1,1010.61,-31.23,1.51,1.52,24.4,36.5,28.7,0,no_anomaly,0.0,0,0,0,0,19.0760243,72.8776854,16.8,0.0
2024-01-07T07:07:12.300Z,MISSION_0020,123,0,transit,SITE_BOM_001,19.0760231,72.8776798,16.8,331.86,3.023,0.156,3.41,5.3985,-1.7748,331.8574,-0.96898,-0.04191,0.02645,0.24212,-0.2193,-0.0607,-9.7802,0.765,-0.1071,-0.0678,0.2603,3,19,0.7,0.94,0.41,24.517,23.73,91.5,32.5,20141.0,8637,8628,8570,8849,49.1,50.6,48.3,51.2,2.712,2.656,2.661,2.933,4.75,198.3,24.2,51.2,1010.75,-27.79,-0.04,1.97,20.1,30.6,27.2,0,no_anomaly,0.0,0,0,0,0,19.0760231,72.8776798,16.8,0.0
2024-01-07T07:07:12.400Z,MISSION_0020,124,0,transit,SITE_BOM_001,19.0760186,72.8776766,16.8,336.13,3.228,0.246,3.32,2.414,-0.4317,336.126,-0.97817,-0.01983,0.00804,0.20671,-0.221,0.0462,-9.7596,-0.0651,0.8485,0.1189,0.1969,3,19,0.74,0.91,0.42,24.532,17.11,91.5,31.9,20130.0,8645,8960,8508,8773,49.7,48.5,48.6,51.8,2.728,2.599,2.745,2.998,4.38,199.7,24.1,51.8,1010.62,-31.02,-1.54,1.79,14.5,36.2,22.3,0,no_anomaly,0.0,0,0,0,0,19.0760186,72.8776766,16.8,0.0
2024-01-07T07:07:12.500Z,MISSION_0020,125,0,transit,SITE_BOM_001,19.0760153,72.8776721,16.8,335.25,3.467,0.167,3.54,-3.3491,-0.3183,335.2457,-0.97632,0.02914,-0.00355,0.21433,0.0154,0.0147,-9.748,0.2466,0.3203,-0.1939,0.2538,3,20,0.8,0.99,0.32,24.581,16.77,91.4,32.2,20119.0,8503,8805,8802,8605,53.0,49.6,49.7,49.3,2.949,2.837,2.9,2.866,4.47,205.7,24.2,51.3,1010.54,-30.36,0.2,1.76,21.6,30.0,26.0,0,no_anomaly,0.0,0,0,0,0,19.0760153,72.8776721,16.8,0.0
2024-01-07T07:07:12.600Z,MISSION_0020,126,0,transit,SITE_BOM_001,19.0760187,72.8776705,16.8,337.18,3.258,0.138,3.89,0.5356,-1.7726,337.1832,-0.98013,-0.00152,0.01609,0.1977,-0.1178,-0.0114,-9.8365,-0.8428,-1.4646,-0.2055,0.227,3,18,0.6,0.95,0.23,24.536,20.07,91.4,32.5,20107.0,8794,8736,8602,8664,47.0,51.5,48.6,49.3,2.912,3.123,2.632,3.139,5.31,210.9,24.1,52.0,1010.97,-34.61,-0.16,1.43,19.6,38.9,27.0,0,no_anomaly,0.0,0,0,0,0,19.0760187,72.8776705,16.8,0.0
2024-01-07T07:07:12.700Z,MISSION_0020,127,0,transit,SITE_BOM_001,19.0760172,72.8776685,16.8,337.47,3.559,0.152,4.0,2.3186,-0.8814,337.4713,-0.98054,-0.01834,0.01149,0.19514,0.0454,-0.075,-9.7704,0.0482,0.6207,0.3052,0.1536,3,15,0.67,0.74,0.34,24.634,26.3,91.3,32.3,20096.0,8678,8661,8625,8932,47.6,50.4,52.1,47.7,2.703,2.744,2.992,2.995,4.3,209.7,24.0,50.6,1011.07,-26.83,-1.09,1.22,14.8,28.0,26.4,0,no_anomaly,0.0,0,0,0,0,19.0760172,72.8776685,16.8,0.0
2024-01-07T07:07:12.800Z,MISSION_0020,128,0,transit,SITE_BOM_001,19.0760211,72.8776661,16.8,333.44,3.209,0.125,4.45,-0.6245,-1.5733,333.436,-0.97313,0.00846,0.01211,0.22979,0.0496,0.0964,-9.7951,-0.0838,0.1983,0.2436,0.203,3,20,0.8,0.82,0.39,24.667,17.59,91.3,32.6,20085.0,8722,8741,8827,8872,46.2,49.5,50.9,51.0,2.768,3.126,3.03,2.591,4.64,220.2,23.8,52.4,1010.79,-32.05,0.02,1.29,17.7,37.1,23.7,0,no_anomaly,0.0,0,0,0,0,19.0760211,72.8776661,16.8,0.0
2024-01-07T07:07:12.900Z,MISSION_0020,129,0,transit,SITE_BOM_001,19.0760236,72.8776664,16.8,334.49,2.857,0.112,4.57,-0.7614,-4.5542,334.4877,-0.97447,0.01525,0.03729,0.22088,0.1894,0.056,-9.8286,-0.2431,0.7509,0.0464,0.2455,3,13,0.77,0.96,0.23,24.604,15.81,91.2,32.0,20074.0,8766,8765,8859,8647,51.7,46.1,49.2,49.5,2.882,2.697,2.876,2.918,5.09,207.6,24.3,51.8,1010.95,-33.27,-1.64,1.31,18.3,34.8,25.1,0,no_anomaly,0.0,0,0,0,0,19.0760236,72.8776664,16.8,0.0
