timestamp_utc,mission_id,frame_id,waypoint_id,inspection_phase,site_id,latitude_deg,longitude_deg,altitude_m,heading_deg,ground_speed_ms,vertical_speed_ms,distance_to_tower_m,roll_deg,pitch_deg,yaw_deg,quat_w,quat_x,quat_y,quat_z,accel_x_ms2,accel_y_ms2,accel_z_ms2,gyro_x_rads,gyro_y_rads,gyro_z_rads,vibration_level,gps_fix_type,gps_satellite_count,gps_hdop,gps_vdop,position_error_m,battery_voltage_v,battery_current_a,battery_remaining_pct,battery_temp_c,battery_capacity_mah,motor_fl_rpm,motor_fr_rpm,motor_rl_rpm,motor_rr_rpm,motor_fl_temp_c,motor_fr_temp_c,motor_rl_temp_c,motor_rr_temp_c,motor_fl_thrust_n,motor_fr_thrust_n,motor_rl_thrust_n,motor_rr_thrust_n,wind_speed_ms,wind_dir_deg,air_temp_c,humidity_pct,pressure_hpa,gimbal_pitch_deg,gimbal_roll_deg,zoom_factor,ir_temp_min_c,ir_temp_max_c,ir_temp_avg_c,anomaly_detected,anomaly_class,anomaly_confidence,anomaly_bbox_x,anomaly_bbox_y,anomaly_bbox_w,anomaly_bbox_h,anomaly_gps_lat,anomaly_gps_lon,anomaly_gps_alt_m,ir_temp_delta_c
2024-03-13T10:30:00.000Z,MISSION_0050,0,0,takeoff,SITE_BOM_001,19.0760049,72.8776997,1.5,78.04,0.0,0.12,0.54,2.5462,-1.6196,78.035,0.77649,0.02616,0.00301,0.62958,0.0856,-0.0156,-9.8467,-0.3208,0.0916,0.1716,0.1446,3,13,0.61,0.86,0.34,24.773,17.56,97.4,40.7,21439.0,8033,8212,7989,7935,53.5,61.8,57.3,59.3,3.027,2.953,2.747,2.951,3.54,120.1,32.7,83.2,1006.73,-28.52,0.06,1.36,24.5,44.2,35.5,0,no_anomaly,0.0,0,0,0,0,19.0760049,72.8776997,1.5,0.0
2024-03-13T10:30:00.100Z,MISSION_0050,1,0,takeoff,SITE_BOM_001,19.0760052,72.8777004,3.0,78.1,0.0,0.163,0.58,-0.6451,-4.6445,78.1009,0.77609,0.02116,-0.03501,0.6293,0.2534,0.0132,-9.74,0.6348,-0.1721,-0.1384,0.0782,3,14,0.7,0.92,0.3,24.652,19.45,97.4,40.5,21420.0,8397,7984,8492,8289,56.0,59.7,60.9,56.7,3.214,2.601,2.805,2.982,4.35,113.4,33.0,84.0,1006.58,-27.31,-1.19,1.08,31.4,48.8,36.1,0,no_anomaly,0.0,0,0,0,0,19.0760052,72.8777004,3.0,0.0
2024-03-13T10:30:00.200Z,MISSION_0050,2,0,takeoff,SITE_BOM_001,19.0760075,72.8776957,4.5,78.54,0.079,0.137,0.97,-4.6507,-1.2244,78.5386,0.77377,-0.02465,-0.03395,0.63207,-0.1674,-0.0289,-9.8447,-0.2127,-0.4965,0.1545,0.1598,3,14,0.71,0.65,0.22,24.68,18.75,97.3,41.7,21402.0,8142,8153,8306,8179,61.8,57.7,58.1,56.6,2.767,2.751,2.924,2.694,4.62,105.8,32.7,84.6,1006.55,-28.55,-0.47,1.04,31.5,40.3,38.2,0,no_anomaly,0.0,0,0,0,0,19.0760075,72.8776957,4.5,0.0
2024-03-13T10:30:00.300Z,MISSION_0050,3,0,takeoff,SITE_BOM_001,19.0760051,72.8776957,5.0,79.38,0.0,0.094,0.74,-0.0542,-1.7887,79.3777,0.76943,0.0096,-0.01231,0.63853,0.094,0.0824,-9.8884,0.5312,0.4352,0.5098,0.1097,3,11,0.64,0.69,0.29,24.713,14.4,97.2,40.9,21384.0,8189,7883,8252,8064,57.9,56.3,58.5,58.8,2.846,2.864,2.585,2.494,4.21,115.9,32.6,83.8,1006.16,-33.69,-0.21,1.29,25.6,47.1,37.7,0,no_anomaly,0.0,0,0,0,0,19.0760051,72.8776957,5.0,0.0
2024-03-13T10:30:00.400Z,MISSION_0050,4,0,takeoff,SITE_BOM_001,19.0760044,72.877699,5.0,78.58,0.0,0.175,0.5,1.1416,-2.1345,78.5781,0.77367,0.0195,-0.00811,0.63324,0.0396,0.0435,-9.8557,0.0185,-0.3981,0.3958,0.214,3,17,0.69,0.86,0.26,24.757,17.73,97.1,41.2,21366.0,8198,8330,8146,7999,57.4,59.7,59.2,55.5,2.839,2.936,2.795,3.121,3.57,105.6,33.0,85.9,1006.59,-33.81,-0.55,1.27,29.7,46.1,37.4,0,no_anomaly,0.0,0,0,0,0,19.0760044,72.877699,5.0,0.0
2024-03-13T10:30:00.500Z,MISSION_0050,5,0,takeoff,SITE_BOM_001,19.076008,72.8776985,5.0,78.06,0.0,0.169,0.91,-3.8887,-3.0626,78.0592,0.77667,-0.00953,-0.04211,0.62843,0.1774,-0.0036,-9.823,0.0901,0.7469,0.2886,0.1256,3,17,0.65,0.93,0.4,24.798,19.61,97.0,40.5,21348.0,8445,8143,8475,8060,54.9,55.1,60.7,59.6,2.92,3.01,2.403,2.931,3.69,115.3,32.8,84.3,1006.49,-30.68,0.8,1.71,26.8,39.1,32.7,0,no_anomaly,0.0,0,0,0,0,19.076008,72.8776985,5.0,0.0
2024-03-13T10:30:00.600Z,MISSION_0050,6,0,takeoff,SITE_BOM_001,19.0760081,72.8776986,5.0,78.18,0.591,0.162,0.91,1.4372,-4.7387,78.1837,0.77508,0.03579,-0.02418,0.63038,-0.1631,-0.0332,-9.7161,-0.0653,-0.255,-0.3128,0.185,3,12,0.94,0.63,0.4,24.763,23.57,97.0,41.0,21330.0,8388,8316,7991,8178,61.0,56.1,57.6,55.6,2.787,2.742,2.789,2.732,4.69,117.2,32.8,84.2,1006.35,-30.86,-0.78,1.35,29.5,42.4,35.6,0,no_anomaly,0.0,0,0,0,0,19.0760081,72.8776986,5.0,0.0
2024-03-13T10:30:00.700Z,MISSION_0050,7,0,takeoff,SITE_BOM_001,19.0760049,72.8776986,5.0,77.04,0.612,0.074,0.56,0.2119,-2.8671,77.0395,0.78212,0.01703,-0.01842,0.62262,0.2135,-0.0718,-9.8427,-0.9062,0.0601,-0.4216,0.2475,3,14,0.71,0.89,0.38,24.63,18.4,96.9,41.2,21312.0,8248,8191,8203,8200,57.2,58.8,57.6,57.4,3.01,2.982,2.721,2.755,3.97,110.4,32.8,84.1,1006.75,-29.98,-0.99,1.37,27.6,40.7,34.5,0,no_anomaly,0.0,0,0,0,0,19.0760049,72.8776986,5.0,0.0
2024-03-13T10:30:00.800Z,MISSION_0050,8,0,takeoff,SITE_BOM_001,19.0759998,72.8776951,5.0,79.21,0.275,0.056,0.55,1.3465,-1.97,79.2149,0.77013,0.02001,-0.00575,0.63754,0.1387,0.0577,-9.8512,0.332,-0.8198,-0.0408,0.1393,3,19,0.65,0.69,0.37,24.705,20.51,96.8,40.7,21294.0,8165,8282,8390,8336,57.4,60.2,58.8,59.0,2.663,2.588,2.851,2.924,3.13,121.9,32.8,85.0,1006.26,-25.14,0.45,1.55,26.9,41.4,35.0,0,no_anomaly,0.0,0,0,0,0,19.0759998,72.8776951,5.0,0.0
2024-03-13T10:30:00.900Z,MISSION_0050,9,0,takeoff,SITE_BOM_001,19.0759995,72.8776918,5.0,81.4,0.82,0.131,0.92,-3.8266,-3.8107,81.3996,0.75802,-0.00363,-0.04695,0.65053,0.0355,-0.0117,-9.7488,0.6251,-0.6002,0.1978,0.1428,3,19,0.64,1.18,0.2,24.665,17.83,96.7,39.8,21276.0,8162,7922,8035,8264,53.5,59.6,55.7,57.5,2.664,2.649,2.766,2.907,4.31,116.3,32.7,84.1,1006.62,-26.0,-0.1,1.21,26.7,41.4,35.7,0,no_anomaly,0.0,0,0,0,0,19.0759995,72.8776918,5.0,0.0
2024-03-13T10:30:01.000Z,MISSION_0050,10,0,takeoff,SITE_BOM_001,19.0760005,72.8776934,5.0,82.55,0.947,0.086,0.74,1.2999,-1.8403,82.5536,0.75127,0.01912,-0.00459,0.65971,0.0106,0.0322,-9.75,0.1916,-0.4876,0.1382,0.1221,3,10,0.63,0.98,0.26,24.707,20.73,96.6,41.0,21258.0,8292,8104,8228,8230,58.3,58.2,56.3,56.3,2.926,2.874,3.028,2.713,3.75,113.6,32.8,85.0,1006.15,-34.85,-0.55,1.58,25.6,45.5,37.4,0,no_anomaly,0.0,0,0,0,0,19.0760005,72.8776934,5.0,0.0
2024-03-13T10:30:01.100Z,MISSION_0050,11,0,takeoff,SITE_BOM_001,19.0760096,72.877692,5.0,81.43,0.865,0.082,1.39,-2.6225,-4.7551,81.4256,0.75776,0.00972,-0.04635,0.65082,0.1485,-0.0648,-9.7478,-0.6804,-0.016,-0.4348,0.1381,3,14,0.66,1.04,0.22,24.73,18.33,96.5,41.5,21240.0,8248,7904,8196,7993,57.8,56.7,59.8,58.1,2.88,2.936,2.887,2.793,3.83,118.2,32.7,85.5,1006.16,-30.73,-1.36,1.56,29.8,40.9,35.0,0,no_anomaly,0.0,0,0,0,0,19.0760096,72.877692,5.0,0.0
2024-03-13T10:30:01.200Z,MISSION_0050,12,0,takeoff,SITE_BOM_001,19.0760136,72.8776894,5.0,81.6,1.265,0.153,1.92,1.9498,-3.5556,81.5954,0.7562,0.03314,-0.01237,0.65338,-0.0967,0.0482,-9.8195,-0.1851,-0.9568,0.0438,0.1159,3,12,0.78,0.8,0.4,24.736,12.25,96.5,40.9,21222.0,8164,8367,8289,8397,58.9,57.2,59.2,59.0,3.203,2.809,2.929,2.924,4.19,123.0,32.8,84.3,1006.72,-27.71,0.14,1.6,26.7,45.0,32.9,0,no_anomaly,0.0,0,0,0,0,19.0760136,72.8776894,5.0,0.0
2024-03-13T10:30:01.300Z,MISSION_0050,13,0,takeoff,SITE_BOM_001,19.0760144,72.8776859,5.0,81.25,1.528,0.154,2.24,-0.7539,-2.4374,81.2498,0.75889,0.00886,-0.02043,0.65084,-0.0708,-0.0368,-9.7834,0.3011,0.232,-0.5104,0.1275,3,15,0.78,0.88,0.32,24.618,21.46,96.4,40.7,21204.0,8252,8086,7987,8167,55.9,60.6,53.3,57.1,2.782,2.65,2.961,2.738,3.88,110.3,32.8,85.0,1006.48,-26.43,0.48,1.53,27.4,43.6,36.3,0,no_anomaly,0.0,0,0,0,0,19.0760144,72.8776859,5.0,0.0
2024-03-13T10:30:01.400Z,MISSION_0050,14,0,takeoff,SITE_BOM_001,19.076017,72.8776841,5.0,81.12,1.45,0.095,2.59,3.3414,-2.547,81.1167,0.75881,0.03659,0.00207,0.65028,-0.1616,0.0545,-9.738,1.1062,0.9435,0.5116,0.1586,3,18,0.76,0.68,0.24,24.676,16.89,96.3,41.0,21186.0,8090,8261,8638,8218,61.5,57.6,58.0,60.6,2.633,2.765,2.794,2.623,4.43,117.3,32.6,84.8,1006.55,-34.32,-0.6,1.8,29.6,39.2,32.2,0,no_anomaly,0.0,0,0,0,0,19.076017,72.8776841,5.0,0.0
2024-03-13T10:30:01.500Z,MISSION_0050,15,0,takeoff,SITE_BOM_001,19.0760152,72.8776868,5.0,81.45,1.364,0.133,2.23,-4.2427,-2.1336,81.4522,0.75764,-0.01591,-0.03825,0.65136,-0.0506,-0.0428,-9.877,-0.2686,-0.1131,0.1671,0.2951,3,14,0.73,0.97,0.28,24.72,12.11,96.2,40.3,21167.0,8276,8315,7977,8473,57.0,56.1,56.5,62.3,2.88,2.57,2.607,2.652,3.77,108.1,32.9,84.1,1006.71,-28.23,0.14,1.41,23.7,43.6,30.8,0,no_anomaly,0.0,0,0,0,0,19.0760152,72.8776868,5.0,0.0
2024-03-13T10:30:01.600Z,MISSION_0050,16,0,takeoff,SITE_BOM_001,19.0760177,72.8776884,5.0,79.43,1.746,0.159,2.36,0.6589,-1.6497,79.4303,0.76909,0.01362,-0.0074,0.63896,0.1143,-0.0048,-9.8302,0.1186,0.0581,0.454,0.1738,3,19,0.78,0.62,0.39,24.706,21.38,96.1,40.4,21149.0,8163,8281,8239,8220,59.4,57.9,58.7,59.3,2.668,2.703,2.746,2.751,4.77,105.0,32.7,85.0,1006.17,-33.86,-1.62,1.29,26.4,45.7,34.6,0,no_anomaly,0.0,0,0,0,0,19.0760177,72.8776884,5.0,0.0
2024-03-13T10:30:01.700Z,MISSION_0050,17,0,takeoff,SITE_BOM_001,19.07602,72.8776863,5.0,76.45,2.248,0.118,2.7,2.5726,-0.6247,76.4508,0.7853,0.02101,0.00961,0.61869,-0.0113,-0.0071,-9.7809,-0.1501,-0.7898,-0.0216,0.1229,3,20,0.7,0.95,0.27,24.704,18.46,96.1,41.9,21131.0,8251,8350,8263,8173,58.1,59.3,59.7,58.7,2.595,2.815,2.716,3.025,4.09,115.4,32.7,84.3,1006.42,-26.91,-0.94,2.02,26.2,39.8,37.7,0,no_anomaly,0.0,0,0,0,0,19.07602,72.8776863,5.0,0.0
2024-03-13T10:30:01.800Z,MISSION_0050,18,0,takeoff,SITE_BOM_001,19.0760121,72.8776858,5.0,76.77,1.79,0.137,2.07,2.9406,-0.6614,76.768,0.7835,0.0237,0.01141,0.62083,0.1379,0.0254,-9.8326,-0.338,-0.4146,0.217,0.1423,3,14,0.84,0.75,0.2,24.739,19.33,96.0,40.4,21113.0,8159,8403,8107,8239,55.1,57.2,57.1,58.7,2.709,2.799,2.86,2.903,4.17,107.4,32.7,84.9,1006.39,-31.11,1.87,1.83,28.9,48.0,37.1,0,no_anomaly,0.0,0,0,0,0,19.0760121,72.8776858,5.0,0.0
2024-03-13T10:30:01.900Z,MISSION_0050,19,0,takeoff,SITE_BOM_001,19.0760134,72.877684,5.0,77.91,1.863,0.112,2.32,2.1969,-2.2455,77.9055,0.77714,0.02722,-0.00319,0.62874,0.0847,-0.0675,-9.8868,0.0087,-0.2153,-0.1662,0.2029,3,14,0.59,1.12,0.21,24.681,20.42,95.9,40.9,21095.0,8120,8124,8018,8181,57.6,59.7,58.7,54.3,3.083,2.858,2.928,2.797,3.59,118.7,32.6,84.5,1007.07,-29.11,-0.99,1.27,31.0,39.3,37.1,0,no_anomaly,0.0,0,0,0,0,19.0760134,72.877684,5.0,0.0
2024-03-13T10:30:02.000Z,MISSION_0050,20,0,takeoff,SITE_BOM_001,19.0760127,72.8776804,5.0,79.67,1.843,0.125,2.6,1.073,-2.8137,79.6697,0.76748,0.02291,-0.01286,0.64053,-0.0249,0.0074,-9.7207,0.6229,0.1742,0.2141,0.3293,3,15,0.69,0.6,0.28,24.694,20.56,95.8,41.2,21077.0,8322,8421,8187,8218,60.4,58.4,61.2,56.0,2.77,2.806,2.57,2.565,4.21,119.7,32.9,84.3,1006.69,-32.57,1.15,1.31,26.5,38.3,37.3,0,no_anomaly,0.0,0,0,0,0,19.0760127,72.8776804,5.0,0.0
2024-03-13T10:30:02.100Z,MISSION_0050,21,0,takeoff,SITE_BOM_001,19.0760186,72.8776761,5.0,78.35,1.741,-0.016,3.37,1.1788,-3.3197,78.3521,0.77465,0.02627,-0.01596,0.63164,0.0762,0.0401,-9.8285,-0.0621,-0.3046,-0.2499,0.1762,3,12,0.65,0.91,0.36,24.643,18.38,95.7,41.2,21059.0,8142,8254,8174,8212,54.7,56.7,60.1,57.8,2.901,2.888,2.779,2.848,4.01,119.1,32.6,84.3,1006.77,-26.57,0.17,1.06,26.3,39.8,35.4,0,no_anomaly,0.0,0,0,0,0,19.0760186,72.8776761,5.0,0.0
2024-03-13T10:30:02.200Z,MISSION_0050,22,0,takeoff,SITE_BOM_001,19.0760194,72.8776713,5.0,78.05,1.219,0.073,3.85,-0.2678,-1.7747,78.0472,0.77681,0.00794,-0.0135,0.62954,-0.2215,-0.0321,-9.7935,-0.3121,-0.5145,0.0625,0.1314,3,17,0.75,0.81,0.29,24.734,22.25,95.6,40.8,21041.0,8090,7841,8107,8341,56.9,56.2,55.7,55.2,2.863,2.695,2.955,2.667,4.72,108.5,32.8,84.4,1006.21,-29.09,-0.43,1.94,26.8,45.4,37.4,0,no_anomaly,0.0,0,0,0,0,19.0760194,72.8776713,5.0,0.0
2024-03-13T10:30:02.300Z,MISSION_0050,23,0,takeoff,SITE_BOM_001,19.0760253,72.8776675,5.0,80.01,1.117,0.168,4.59,0.8915,0.5005,80.008,0.76599,0.00315,0.00835,0.64279,0.0621,-0.0805,-9.9315,-0.7534,0.3704,0.3592,0.2357,3,10,0.54,0.96,0.2,24.701,17.75,95.6,40.0,21023.0,8051,8256,8352,8342,57.5,61.2,57.6,62.2,2.788,2.574,2.731,2.816,3.84,112.3,33.0,84.9,1006.11,-28.54,-0.74,1.65,31.4,41.7,34.0,0,no_anomaly,0.0,0,0,0,0,19.0760253,72.8776675,5.0,0.0
2024-03-13T10:30:02.400Z,MISSION_0050,24,0,takeoff,SITE_BOM_001,19.0760223,72.8776649,5.0,80.09,1.429,0.128,4.63,-3.7515,0.212,80.0866,0.76511,-0.02625,-0.01964,0.64307,-0.0861,-0.022,-9.7806,-0.2629,-0.236,-0.0415,0.1281,3,15,0.54,0.93,0.2,24.63,17.8,95.5,40.7,21005.0,8321,7991,8216,8419,54.7,56.3,60.2,58.2,2.63,3.191,3.021,2.487,3.96,116.1,32.9,84.4,1006.45,-28.72,0.27,1.31,27.9,40.5,37.5,0,no_anomaly,0.0,0,0,0,0,19.0760223,72.8776649,5.0,0.0
2024-03-13T10:30:02.500Z,MISSION_0050,25,0,takeoff,SITE_BOM_001,19.0760185,72.8776646,5.0,76.55,1.095,0.102,4.44,3.5722,-4.0236,76.551,0.7835,0.04619,-0.00825,0.61962,0.0351,-0.0153,-9.8076,-0.4084,0.3047,-0.0098,0.2223,3,19,0.76,1.12,0.35,24.673,13.74,95.4,41.6,20987.0,8141,8297,8267,8460,57.7,60.6,56.5,60.1,2.932,3.11,2.598,2.868,3.58,121.0,32.6,85.1,1006.6,-29.14,0.81,1.31,28.7,44.9,32.5,0,no_anomaly,0.0,0,0,0,0,19.0760185,72.8776646,5.0,0.0
2024-03-13T10:30:02.600Z,MISSION_0050,26,0,takeoff,SITE_BOM_001,19.0760218,72.8776646,5.0,73.66,1.373,0.14,4.63,-4.14,-3.1376,73.6647,0.80016,-0.0125,-0.04354,0.59807,-0.1472,-0.0498,-9.7616,-0.3189,-0.2548,0.1886,0.1224,3,14,0.72,0.79,0.25,24.662,19.5,95.3,40.6,20969.0,7887,8343,8217,7972,61.4,57.6,55.9,53.8,2.919,2.927,2.803,2.758,3.96,112.9,32.8,85.0,1006.32,-29.52,-1.32,1.72,28.4,38.4,37.7,0,no_anomaly,0.0,0,0,0,0,19.0760218,72.8776646,5.0,0.0
2024-03-13T10:30:02.700Z,MISSION_0050,27,0,takeoff,SITE_BOM_001,19.0760172,72.8776643,5.0,75.27,1.802,0.076,4.41,-0.3906,-3.1312,75.2706,0.79167,0.01398,-0.02372,0.61033,0.1517,-0.034,-9.7893,-0.9574,0.1968,-0.3333,0.2604,3,12,0.71,0.91,0.25,24.712,17.89,95.2,40.4,20951.0,8435,8296,8303,8064,58.4,58.2,58.2,60.6,2.791,2.911,2.685,2.572,3.79,104.8,33.1,84.1,1006.43,-31.34,0.61,1.26,28.0,41.6,34.5,0,no_anomaly,0.0,0,0,0,0,19.0760172,72.8776643,5.0,0.0
2024-03-13T10:30:02.800Z,MISSION_0050,28,0,takeoff,SITE_BOM_001,19.0760252,72.8776584,5.0,72.93,2.062,0.17,5.41,-3.5423,-2.9282,72.9306,0.80404,-0.00967,-0.0389,0.59322,-0.009,-0.0322,-9.8279,0.5346,0.1874,-0.8306,0.2089,3,20,0.76,1.0,0.32,24.716,12.66,95.1,40.8,20933.0,8050,8100,8104,8256,54.1,58.9,59.0,64.9,2.455,2.423,2.731,2.991,4.08,104.9,32.6,83.6,1006.4,-26.05,1.16,1.17,31.7,43.6,36.7,0,no_anomaly,0.0,0,0,0,0,19.0760252,72.8776584,5.0,0.0
2024-03-13T10:30:02.900Z,MISSION_0050,29,0,takeoff,SITE_BOM_001,19.0760285,72.8776592,5.0,73.96,1.873,0.151,5.54,-0.6573,-2.3612,73.9646,0.79871,0.00781,-0.01991,0.60134,0.0645,0.0337,-9.8585,-0.0024,0.2243,-0.3584,0.1492,3,20,0.66,1.14,0.42,24.676,11.83,95.1,41.3,20914.0,7811,8484,8389,8178,58.7,57.6,59.8,57.5,2.872,3.007,2.82,2.86,3.26,119.1,32.7,85.2,1006.21,-30.59,1.16,1.36,25.7,47.0,36.7,0,no_anomaly,0.0,0,0,0,0,19.0760285,72.8776592,5.0,0.0
2024-03-13T10:30:03.000Z,MISSION_0050,30,0,takeoff,SITE_BOM_001,19.0760285,72.8776588,5.0,75.65,2.012,0.067,5.58,0.1121,-2.9049,75.6537,0.7896,0.01632,-0.01942,0.6131,0.062,0.0065,-9.843,0.7246,0.57,0.5402,0.1032,3,18,0.97,0.94,0.28,24.728,15.48,95.0,40.3,20896.0,8149,8317,8272,8321,56.8,57.0,57.7,55.5,2.787,2.706,2.777,3.136,3.09,109.8,32.7,84.1,1006.26,-37.14,0.62,1.77,28.0,43.8,37.2,0,no_anomaly,0.0,0,0,0,0,19.0760285,72.8776588,5.0,0.0
2024-03-13T10:30:03.100Z,MISSION_0050,31,0,takeoff,SITE_BOM_001,19.0760249,72.8776616,5.0,75.41,2.2,0.069,5.1,0.099,-1.816,75.4069,0.79108,0.01038,-0.01201,0.61151,-0.0653,-0.0469,-9.8866,0.1002,-0.6389,0.573,0.1806,3,14,0.62,0.92,0.21,24.577,17.49,94.9,40.5,20878.0,8127,8358,8069,8275,59.3,54.8,55.4,56.1,2.622,2.757,2.99,2.419,4.31,115.8,33.0,85.4,1006.54,-32.92,1.23,1.34,27.8,46.2,37.1,0,no_anomaly,0.0,0,0,0,0,19.0760249,72.8776616,5.0,0.0
2024-03-13T10:30:03.200Z,MISSION_0050,32,0,takeoff,SITE_BOM_001,19.0760257,72.8776646,5.0,76.38,1.988,0.142,4.87,6.8779,-1.6658,76.3768,0.78394,0.05611,0.02568,0.61776,0.0316,0.024,-9.7239,-0.5809,0.0738,-0.2857,0.1449,3,20,0.86,1.18,0.37,24.661,17.39,94.8,40.5,20860.0,8342,8297,8146,8264,59.2,56.9,57.0,56.9,2.985,2.901,3.126,2.992,3.76,111.3,32.9,83.7,1006.42,-33.81,-0.99,2.08,26.2,40.5,37.2,0,no_anomaly,0.0,0,0,0,0,19.0760257,72.8776646,5.0,0.0
2024-03-13T10:30:03.300Z,MISSION_0050,33,0,takeoff,SITE_BOM_001,19.0760223,72.8776697,5.0,76.96,2.078,0.14,4.19,3.7906,-0.686,76.9634,0.78224,0.02961,0.0159,0.62207,-0.1173,0.0545,-9.8351,-0.4937,-0.0686,0.1271,0.2223,3,10,0.7,0.6,0.28,24.651,15.96,94.7,41.1,20842.0,8099,8441,8255,8259,56.3,60.2,60.1,55.8,2.717,2.563,2.878,2.628,3.87,106.5,33.0,84.9,1006.35,-29.66,-1.16,1.0,30.6,47.5,37.3,0,no_anomaly,0.0,0,0,0,0,19.0760223,72.8776697,5.0,0.0
2024-03-13T10:30:03.400Z,MISSION_0050,34,0,takeoff,SITE_BOM_001,19.076019,72.8776715,5.0,78.4,1.9,0.096,3.81,-3.0241,0.2376,78.4031,0.77462,-0.02176,-0.01507,0.63187,0.1569,0.0265,-9.8648,0.7297,0.0687,0.3122,0.145,3,16,0.75,0.93,0.52,24.733,17.14,94.7,40.3,20824.0,8248,8251,8609,8285,58.1,60.8,57.3,61.4,2.677,2.898,2.623,2.751,3.63,116.9,32.5,83.9,1006.48,-30.2,1.75,1.57,32.3,43.0,39.7,0,no_anomaly,0.0,0,0,0,0,19.076019,72.8776715,5.0,0.0
2024-03-13T10:30:03.500Z,MISSION_0050,35,0,takeoff,SITE_BOM_001,19.0760224,72.8776713,5.0,78.05,2.406,0.1,4.05,1.3295,-1.4361,78.0457,0.77669,0.0169,-0.00243,0.62965,-0.2952,-0.1031,-9.699,-0.2269,0.0572,-0.0968,0.2015,3,17,0.59,0.77,0.23,24.577,18.2,94.6,41.4,20806.0,8406,8202,8057,8155,59.4,59.1,60.6,60.0,2.837,2.719,3.064,2.962,3.89,114.1,33.1,84.8,1006.41,-32.01,-0.65,2.03,29.2,37.6,36.3,0,no_anomaly,0.0,0,0,0,0,19.0760224,72.8776713,5.0,0.0
2024-03-13T10:30:03.600Z,MISSION_0050,36,0,takeoff,SITE_BOM_001,19.0760245,72.8776691,5.0,76.12,2.407,0.174,4.39,-1.8178,-4.1243,76.1171,0.78712,0.0097,-0.0381,0.61554,-0.0266,0.1078,-9.8269,0.1516,-0.1293,0.3591,0.0934,3,10,0.66,0.61,0.2,24.666,15.36,94.5,41.4,20788.0,8254,8172,8287,8039,60.1,54.0,60.1,62.0,2.8,2.879,2.961,2.781,4.88,114.2,32.6,84.6,1006.4,-30.84,-0.17,1.3,27.4,40.0,34.7,0,no_anomaly,0.0,0,0,0,0,19.0760245,72.8776691,5.0,0.0
2024-03-13T10:30:03.700Z,MISSION_0050,37,0,takeoff,SITE_BOM_001,19.0760224,72.8776716,5.0,74.27,2.057,0.057,4.02,1.1638,-4.4781,74.2721,0.79631,0.03168,-0.02502,0.60353,0.0628,0.0139,-9.7819,0.5134,-0.5287,0.3122,0.1423,3,12,0.79,0.64,0.22,24.751,22.04,94.4,40.9,20770.0,8289,8155,8349,8421,59.0,60.9,58.1,60.9,2.91,3.01,2.732,2.873,4.99,111.8,32.5,84.5,1006.53,-32.38,0.28,1.5,29.2,39.0,33.0,0,no_anomaly,0.0,0,0,0,0,19.0760224,72.8776716,5.0,0.0
2024-03-13T10:30:03.800Z,MISSION_0050,38,0,takeoff,SITE_BOM_001,19.0760272,72.8776719,5.0,74.63,2.459,0.084,4.35,3.4872,-2.2041,74.6292,0.79445,0.03585,0.00315,0.60626,0.0023,0.0188,-9.8493,-0.2887,-0.1506,0.5354,0.1257,3,12,0.82,1.02,0.29,24.648,19.74,94.3,40.0,20752.0,8099,8337,8100,8122,55.4,57.9,59.9,62.2,2.866,3.164,2.633,2.51,4.7,116.4,32.5,84.7,1006.7,-35.59,1.45,1.82,28.2,37.7,33.3,0,no_anomaly,0.0,0,0,0,0,19.0760272,72.8776719,5.0,0.0
2024-03-13T10:30:03.900Z,MISSION_0050,39,0,transit,SITE_BOM_001,19.0760275,72.8776728,5.5,75.34,2.231,0.125,4.31,5.0441,-0.0356,75.3379,0.79078,0.03502,0.02665,0.61052,-0.225,0.0317,-9.8092,0.1906,-0.5445,0.3323,0.2418,3,18,0.53,0.91,0.22,24.721,20.66,94.2,41.1,20734.0,8213,8286,8266,8370,57.9,55.6,59.9,57.1,3.063,2.804,2.757,3.084,3.64,117.3,32.6,85.0,1006.78,-23.97,-0.14,1.32,25.2,40.4,32.9,0,no_anomaly,0.0,0,0,0,0,19.0760275,72.8776728,5.5,0.0
2024-03-13T10:30:04.000Z,MISSION_0050,40,0,transit,SITE_BOM_001,19.0760221,72.8776719,6.0,73.39,1.944,0.089,3.98,0.373,-0.7985,73.3895,0.80179,0.00677,-0.00364,0.59755,-0.1097,0.0018,-9.906,-0.7035,0.411,0.3582,0.2186,3,17,0.6,1.2,0.22,24.714,21.8,94.2,41.1,20716.0,8247,8204,8340,8447,53.7,56.4,53.9,56.5,2.646,2.844,2.539,2.812,3.87,112.3,32.9,84.0,1006.38,-23.97,-0.97,1.42,25.5,46.2,33.4,0,no_anomaly,0.0,0,0,0,0,19.0760221,72.8776719,6.0,0.0
2024-03-13T10:30:04.100Z,MISSION_0050,41,0,transit,SITE_BOM_001,19.0760198,72.8776776,6.5,72.13,1.319,0.023,3.33,0.0239,-1.6126,72.134,0.80825,0.00845,-0.01125,0.58868,0.0904,-0.0701,-9.7517,0.2685,0.7133,-0.476,0.1997,3,16,0.72,0.86,0.3,24.636,17.06,94.1,40.6,20698.0,8069,8406,8199,8269,55.9,58.7,55.2,60.0,2.678,2.619,2.84,2.646,4.04,116.7,32.6,83.3,1006.39,-35.69,0.91,1.16,31.1,42.2,37.0,0,no_anomaly,0.0,0,0,0,0,19.0760198,72.8776776,6.5,0.0
2024-03-13T10:30:04.200Z,MISSION_0050,42,0,transit,SITE_BOM_001,19.0760154,72.8776769,7.0,73.18,1.402,0.047,3.09,2.8602,-1.7471,73.1834,0.80233,0.02912,0.00264,0.59616,-0.1768,0.0155,-9.8527,-0.0082,0.179,-0.1279,0.1453,3,19,0.69,1.01,0.2,24.667,20.69,94.0,40.6,20679.0,8243,8141,8120,7861,56.3,56.6,59.7,56.2,2.805,2.939,2.973,2.829,4.46,112.5,32.8,83.8,1006.66,-26.51,0.07,1.59,27.1,43.5,34.1,0,no_anomaly,0.0,0,0,0,0,19.0760154,72.8776769,7.0,0.0
2024-03-13T10:30:04.300Z,MISSION_0050,43,0,transit,SITE_BOM_001,19.0760194,72.8776761,7.5,74.9,1.171,0.017,3.43,0.3092,-3.7758,74.8959,0.79342,0.02217,-0.02451,0.60778,0.0538,-0.0365,-9.8655,0.1748,0.9102,0.1237,0.0995,3,12,0.71,1.02,0.28,24.76,19.34,93.9,39.6,20661.0,8122,8060,8206,8033,60.3,59.4,57.6,56.1,2.805,2.823,2.71,2.409,4.42,110.7,32.8,85.3,1006.4,-31.56,1.2,1.0,25.1,37.9,32.9,0,no_anomaly,0.0,0,0,0,0,19.0760194,72.8776761,7.5,0.0
2024-03-13T10:30:04.400Z,MISSION_0050,44,0,transit,SITE_BOM_001,19.0760193,72.8776779,8.0,75.8,0.899,0.073,3.26,2.4189,-0.9772,75.7963,0.78879,0.02189,0.00624,0.61424,-0.17,0.0281,-9.7061,-0.661,-0.1141,-0.2706,0.2022,3,17,0.58,1.08,0.34,24.639,21.74,93.8,40.5,20643.0,8199,8165,8003,8397,59.3,58.2,55.2,55.7,2.695,2.937,2.8,2.929,3.0,107.5,32.7,84.6,1006.69,-30.86,0.96,1.53,28.6,37.9,34.4,0,no_anomaly,0.0,0,0,0,0,19.0760193,72.8776779,8.0,0.0
2024-03-13T10:30:04.500Z,MISSION_0050,45,0,transit,SITE_BOM_001,19.0760189,72.8776763,8.5,76.23,0.911,0.143,3.37,-1.201,-2.3734,76.234,0.78667,0.00454,-0.02276,0.61693,-0.1319,-0.0511,-9.8792,-0.3847,-0.5343,0.1211,0.1925,3,18,0.53,0.94,0.2,24.694,16.34,93.8,41.7,20625.0,8206,8289,8389,8473,56.7,59.0,58.4,60.4,2.576,2.658,2.798,2.552,3.99,107.4,32.7,84.5,1007.09,-27.73,-0.63,1.21,27.7,44.9,32.5,0,no_anomaly,0.0,0,0,0,0,19.0760189,72.8776763,8.5,0.0
2024-03-13T10:30:04.600Z,MISSION_0050,46,0,transit,SITE_BOM_001,19.076018,72.8776753,9.0,77.42,0.361,0.019,3.4,1.5787,0.3013,77.4234,0.78025,0.00911,0.01067,0.62531,-0.051,-0.0662,-9.8497,-0.0233,0.0862,0.1637,0.1553,3,13,0.61,0.69,0.23,24.684,21.68,93.7,40.6,20607.0,8359,8136,8106,8251,56.6,62.5,58.3,57.8,2.669,3.051,2.542,2.945,3.81,114.2,32.7,85.2,1006.63,-25.64,0.46,2.05,28.7,40.5,37.4,0,no_anomaly,0.0,0,0,0,0,19.076018,72.8776753,9.0,0.0
2024-03-13T10:30:04.700Z,MISSION_0050,47,0,transit,SITE_BOM_001,19.0760216,72.8776795,9.5,75.62,0.528,0.134,3.32,0.7041,-2.7333,75.624,0.7897,0.01947,-0.01508,0.613,-0.1425,0.0023,-9.7871,0.4737,0.5354,-0.4033,0.2135,3,18,0.82,0.89,0.31,24.611,14.29,93.6,40.9,20589.0,8034,8309,8064,8259,57.7,59.5,54.0,60.1,2.638,2.663,2.596,3.103,4.5,111.9,32.7,84.3,1006.4,-31.95,-0.12,1.24,31.2,40.3,37.7,0,no_anomaly,0.0,0,0,0,0,19.0760216,72.8776795,9.5,0.0
2024-03-13T10:30:04.800Z,MISSION_0050,48,0,transit,SITE_BOM_001,19.0760248,72.877684,10.0,72.86,0.546,0.054,3.28,0.6634,0.7828,72.8627,0.80456,0.0006,0.00893,0.5938,0.0378,0.002,-9.7724,-0.5777,-0.9349,0.1605,0.2677,3,13,0.54,0.94,0.2,24.648,15.68,93.5,41.2,20571.0,8039,8540,8216,8079,63.3,60.1,60.6,58.1,2.656,2.542,3.035,2.869,4.69,102.6,32.8,84.5,1006.41,-31.68,-0.23,1.64,28.4,45.6,32.7,0,no_anomaly,0.0,0,0,0,0,19.0760248,72.877684,10.0,0.0
2024-03-13T10:30:04.900Z,MISSION_0050,49,0,transit,SITE_BOM_001,19.0760272,72.8776889,10.5,73.17,0.269,0.128,3.27,-0.26,-2.038,73.1706,0.80287,0.00878,-0.01563,0.59589,-0.0164,0.0411,-9.7849,0.692,0.5518,-0.1821,0.2543,3,20,0.58,1.01,0.2,24.656,17.23,93.4,41.4,20553.0,8236,8429,8237,8273,56.1,60.1,57.7,57.9,2.599,2.713,2.556,2.93,4.22,115.4,32.5,85.0,1006.71,-28.84,-0.67,1.91,28.5,39.4,36.4,0,no_anomaly,0.0,0,0,0,0,19.0760272,72.8776889,10.5,0.0
2024-03-13T10:30:05.000Z,MISSION_0050,50,0,transit,SITE_BOM_001,19.076025,72.8776878,11.0,70.9,0.297,0.067,3.1,-3.17,-2.2022,70.8974,0.81448,-0.01139,-0.03169,0.57921,-0.0295,0.0353,-9.7911,-1.0825,-0.2418,-0.293,0.2103,3,11,0.66,0.96,0.2,24.667,18.9,93.3,40.1,20535.0,8321,8384,8329,8133,57.5,57.4,60.2,59.6,2.846,3.07,2.756,2.983,4.45,109.8,32.9,84.6,1006.99,-26.1,-0.09,1.29,29.6,43.6,36.5,0,no_anomaly,0.0,0,0,0,0,19.076025,72.8776878,11.0,0.0
2024-03-13T10:30:05.100Z,MISSION_0050,51,0,transit,SITE_BOM_001,19.0760247,72.8776813,11.5,72.75,0.595,0.149,3.44,-0.9826,-0.0652,72.7483,0.80513,-0.00657,-0.00554,0.59303,-0.3901,0.0712,-9.8249,-0.7529,0.0209,-0.078,0.1685,3,16,0.75,0.85,0.35,24.713,20.87,93.3,39.8,20517.0,7974,8173,8281,8382,57.0,59.3,55.4,56.1,2.616,2.666,2.771,3.078,4.01,115.6,32.7,84.0,1006.65,-32.34,-1.36,1.5,29.6,45.2,33.9,0,no_anomaly,0.0,0,0,0,0,19.0760247,72.8776813,11.5,0.0
2024-03-13T10:30:05.200Z,MISSION_0050,52,0,transit,SITE_BOM_001,19.0760265,72.8776816,12.0,72.24,0.772,0.136,3.59,-3.4166,-2.2581,72.2399,0.80762,-0.01247,-0.03348,0.58863,0.0521,-0.0395,-9.8031,-0.0355,-0.105,0.2948,0.1519,3,19,0.67,0.82,0.29,24.655,20.15,93.2,40.3,20499.0,8143,8092,8422,8323,58.0,61.0,55.7,58.5,2.485,3.024,2.771,2.863,3.48,114.0,32.6,84.2,1006.97,-25.64,1.54,1.52,30.9,44.4,38.2,0,no_anomaly,0.0,0,0,0,0,19.0760265,72.8776816,12.0,0.0
2024-03-13T10:30:05.300Z,MISSION_0050,53,0,transit,SITE_BOM_001,19.0760257,72.8776802,12.5,74.53,1.05,0.062,3.62,2.7365,-3.4615,74.5294,0.79482,0.03728,-0.00958,0.60562,-0.1656,-0.0114,-9.8336,0.1439,0.9806,0.7103,0.2665,3,16,0.91,0.82,0.2,24.599,26.85,93.1,40.5,20481.0,8331,8181,8310,8486,57.9,60.1,58.0,60.3,2.618,2.845,2.833,2.442,3.82,118.9,32.5,83.6,1006.64,-30.83,-2.48,1.87,27.1,43.7,34.9,0,no_anomaly,0.0,0,0,0,0,19.0760257,72.8776802,12.5,0.0
2024-03-13T10:30:05.400Z,MISSION_0050,54,0,transit,SITE_BOM_001,19.0760268,72.87768,13.0,74.54,0.992,0.191,3.73,-3.974,-2.1042,74.5352,0.79559,-0.01648,-0.0356,0.60457,0.0361,0.0215,-9.7088,-0.505,-0.5049,-0.096,0.1991,3,20,0.86,0.97,0.51,24.731,15.4,93.0,41.9,20463.0,7998,8070,8088,7757,63.5,59.9,57.4,58.4,2.556,3.031,2.681,2.935,3.76,111.3,32.4,84.6,1006.34,-29.57,-2.22,1.41,28.2,47.6,36.3,0,no_anomaly,0.0,0,0,0,0,19.0760268,72.87768,13.0,0.0
2024-03-13T10:30:05.500Z,MISSION_0050,55,0,transit,SITE_BOM_001,19.0760318,72.8776815,13.5,74.62,0.727,0.196,4.1,-1.2661,-1.0015,74.6166,0.79537,-0.00349,-0.01365,0.60597,-0.0359,0.0451,-9.8406,-0.0753,-0.5085,-0.0308,0.2074,3,17,0.63,1.18,0.21,24.647,23.18,92.9,41.0,20445.0,8085,8230,8439,8458,57.9,55.6,56.3,58.5,2.829,2.67,2.779,2.625,4.88,110.1,32.7,84.1,1006.64,-27.25,-0.4,1.89,26.1,41.5,34.8,0,no_anomaly,0.0,0,0,0,0,19.0760318,72.8776815,13.5,0.0
2024-03-13T10:30:05.600Z,MISSION_0050,56,0,transit,SITE_BOM_001,19.0760303,72.8776831,14.0,76.92,0.417,0.051,3.86,-2.3863,-0.9837,76.922,0.78294,-0.01097,-0.01967,0.62168,0.063,-0.0337,-9.7796,-0.3374,0.8686,-0.1104,0.1181,3,16,0.64,1.06,0.29,24.597,21.66,92.8,42.2,20426.0,8307,8433,8237,8183,55.2,58.9,58.5,58.1,2.67,2.78,2.855,2.613,3.66,115.8,32.7,84.8,1006.68,-32.11,1.52,1.13,30.9,43.9,34.7,0,no_anomaly,0.0,0,0,0,0,19.0760303,72.8776831,14.0,0.0
2024-03-13T10:30:05.700Z,MISSION_0050,57,0,transit,SITE_BOM_001,19.0760332,72.8776807,14.5,76.52,0.356,0.114,4.28,-2.2339,0.0082,76.5163,0.78508,-0.01535,-0.01201,0.61909,0.0668,-0.03,-9.8053,-0.008,-0.5497,-0.1678,0.1716,3,12,0.61,1.0,0.23,24.641,13.55,92.8,41.1,20408.0,8184,8319,8338,8243,58.8,57.6,60.3,55.8,2.865,2.677,2.732,3.033,4.53,114.1,32.5,83.8,1006.26,-30.51,-0.51,1.52,31.4,44.1,35.7,0,no_anomaly,0.0,0,0,0,0,19.0760332,72.8776807,14.5,0.0
2024-03-13T10:30:05.800Z,MISSION_0050,58,0,transit,SITE_BOM_001,19.0760379,72.877678,15.0,79.16,0.462,0.168,4.88,-3.5854,-1.6455,79.158,0.77058,-0.01496,-0.03099,0.63642,-0.0372,0.0579,-9.8284,-0.7962,-1.0832,0.0851,0.1838,3,10,0.52,0.9,0.2,24.627,17.96,92.7,41.1,20390.0,8253,8470,8431,8446,57.8,57.4,57.1,59.5,2.839,2.752,2.771,2.724,4.56,112.0,32.7,84.6,1006.76,-25.14,1.3,1.56,28.6,45.4,36.2,0,no_anomaly,0.0,0,0,0,0,19.0760379,72.877678,15.0,0.0
2024-03-13T10:30:05.900Z,MISSION_0050,59,0,transit,SITE_BOM_001,19.0760382,72.8776815,15.5,78.63,0.141,0.061,4.73,2.1797,-1.4395,78.6263,0.77334,0.02267,0.00233,0.63358,-0.1496,0.004,-9.8147,0.203,-0.1032,-0.2029,0.1356,3,11,0.59,1.1,0.3,24.571,15.33,92.6,41.0,20372.0,8307,8147,8328,8368,58.2,57.6,61.3,61.9,2.736,2.778,2.64,2.847,4.48,114.2,32.8,85.5,1006.87,-31.26,-0.54,1.36,29.6,46.5,37.9,0,no_anomaly,0.0,0,0,0,0,19.0760382,72.8776815,15.5,0.0
2024-03-13T10:30:06.000Z,MISSION_0050,60,0,transit,SITE_BOM_001,19.0760374,72.877684,16.0,79.13,0.0,0.07,4.53,1.2293,-1.0357,79.1326,0.77075,0.01403,-0.00013,0.63698,-0.0336,-0.004,-9.8119,0.1423,0.5529,-0.7243,0.1892,3,16,0.77,0.78,0.42,24.685,17.47,92.5,41.4,20354.0,8216,8386,8274,8262,58.0,61.7,57.8,52.1,2.445,3.028,2.857,2.657,4.51,115.4,32.9,84.1,1006.2,-29.79,0.71,1.55,31.1,40.9,36.6,0,no_anomaly,0.0,0,0,0,0,19.0760374,72.877684,16.0,0.0
2024-03-13T10:30:06.100Z,MISSION_0050,61,0,transit,SITE_BOM_001,19.076034,72.877683,16.5,77.95,0.0,-0.0,4.23,-1.953,-3.2079,77.9476,0.77732,0.00436,-0.03247,0.62826,0.1734,-0.0446,-9.8761,0.2257,0.4886,0.2613,0.1954,3,17,0.57,0.86,0.2,24.556,19.54,92.4,41.3,20336.0,8249,8306,8079,8158,59.8,58.1,54.7,54.8,2.654,2.682,2.918,2.923,4.56,105.3,32.6,83.8,1006.56,-26.32,-0.01,1.34,30.9,39.4,34.5,0,no_anomaly,0.0,0,0,0,0,19.076034,72.877683,16.5,0.0
2024-03-13T10:30:06.200Z,MISSION_0050,62,0,transit,SITE_BOM_001,19.076037,72.8776856,16.8,75.49,0.0,0.051,4.42,-1.0887,-1.6856,75.4883,0.79072,0.00149,-0.01745,0.61193,0.1049,0.0545,-9.7546,-0.619,0.2545,-0.1799,0.1709,3,12,0.65,0.98,0.23,24.614,17.57,92.4,41.7,20318.0,8168,8163,8183,8268,59.7,55.8,59.5,58.4,2.774,2.768,2.882,2.902,3.75,118.8,32.8,85.2,1006.43,-27.28,-1.21,1.57,27.4,47.8,33.6,0,no_anomaly,0.0,0,0,0,0,19.076037,72.8776856,16.8,0.0
2024-03-13T10:30:06.300Z,MISSION_0050,63,0,transit,SITE_BOM_001,19.07604,72.8776865,16.8,74.42,0.0,0.098,4.69,-1.2301,-0.9695,74.4245,0.79638,-0.00343,-0.01323,0.60464,0.064,-0.0127,-9.7003,0.5957,-0.4598,-0.4418,0.169,3,18,0.52,1.07,0.2,24.542,20.43,92.3,39.8,20300.0,8093,8431,8430,8122,56.4,58.4,60.7,58.4,2.766,3.106,2.766,2.897,4.13,114.1,32.9,84.7,1006.35,-32.55,0.26,1.34,30.4,41.9,37.1,0,no_anomaly,0.0,0,0,0,0,19.07604,72.8776865,16.8,0.0
2024-03-13T10:30:06.400Z,MISSION_0050,64,0,transit,SITE_BOM_001,19.0760415,72.8776828,16.8,73.47,0.254,0.119,5.0,-4.6228,-2.1446,73.4749,0.80104,-0.02113,-0.0391,0.59695,0.079,-0.0574,-9.7716,0.2416,-1.2481,-0.5898,0.1514,3,13,0.64,0.78,0.24,24.7,22.23,92.2,41.2,20282.0,8335,8180,8464,8491,61.8,58.8,56.3,55.3,2.733,3.085,2.976,2.911,3.63,117.6,32.5,84.9,1006.26,-28.62,1.53,1.0,26.0,41.2,34.7,0,no_anomaly,0.0,0,0,0,0,19.0760415,72.8776828,16.8,0.0
2024-03-13T10:30:06.500Z,MISSION_0050,65,0,transit,SITE_BOM_001,19.076042,72.8776804,16.8,73.02,0.0,0.134,5.16,0.979,-5.2922,73.0199,0.80263,0.03433,-0.03203,0.59462,-0.1488,0.1086,-9.7562,-0.1124,-0.0347,0.2668,0.1597,3,14,0.75,0.96,0.37,24.616,19.42,92.1,41.5,20264.0,8301,8190,8144,8304,59.2,56.3,58.2,62.1,2.685,2.66,2.547,2.822,3.93,122.3,33.1,83.8,1006.23,-28.16,1.89,1.88,28.9,47.1,37.5,0,no_anomaly,0.0,0,0,0,0,19.076042,72.8776804,16.8,0.0
2024-03-13T10:30:06.600Z,MISSION_0050,66,0,transit,SITE_BOM_001,19.0760394,72.877677,16.8,73.83,0.55,0.113,5.08,3.2186,-0.5062,73.8262,0.79915,0.02511,0.01334,0.60046,0.0187,0.0527,-9.7879,0.4808,-0.4679,-0.3709,0.2062,3,11,0.63,0.62,0.28,24.613,21.24,92.0,41.2,20246.0,8400,8268,8202,8402,56.2,58.1,55.3,58.5,3.02,2.773,2.751,2.694,4.35,104.9,32.8,85.0,1006.38,-29.04,-0.15,1.18,28.8,38.1,34.3,0,no_anomaly,0.0,0,0,0,0,19.0760394,72.877677,16.8,0.0
2024-03-13T10:30:06.700Z,MISSION_0050,67,0,transit,SITE_BOM_001,19.0760413,72.8776786,16.8,74.33,0.365,0.099,5.18,-1.227,-0.7986,74.3306,0.79688,-0.00432,-0.01202,0.60401,-0.0977,0.0322,-9.7974,-0.0773,-0.8333,-0.02,0.1642,3,20,0.56,1.03,0.25,24.564,17.29,91.9,41.0,20228.0,8558,8197,8227,8131,57.1,58.8,57.4,60.4,2.73,2.889,2.582,3.077,4.6,113.4,32.5,84.2,1006.64,-30.61,1.27,1.72,26.9,43.1,34.0,0,no_anomaly,0.0,0,0,0,0,19.0760413,72.8776786,16.8,0.0
2024-03-13T10:30:06.800Z,MISSION_0050,68,0,transit,SITE_BOM_001,19.0760389,72.8776765,16.8,72.12,0.726,0.068,5.06,-1.4781,-3.8425,72.1168,0.80815,0.00931,-0.03469,0.58788,-0.1635,0.0349,-9.8206,-0.7533,-0.7555,0.0417,0.1189,3,15,0.61,0.6,0.2,24.58,12.83,91.9,41.7,20210.0,8180,8505,8473,8283,57.9,57.1,55.9,57.2,2.63,2.648,2.792,2.821,4.47,113.3,33.0,84.8,1006.65,-31.54,-0.84,1.54,25.6,39.0,34.5,0,no_anomaly,0.0,0,0,0,0,19.0760389,72.8776765,16.8,0.0
2024-03-13T10:30:06.900Z,MISSION_0050,69,0,transit,SITE_BOM_001,19.0760399,72.8776779,16.8,72.57,0.455,-0.054,5.08,3.9447,-2.4915,72.5662,0.80499,0.0406,0.00285,0.59189,-0.2301,-0.0127,-9.8333,-0.1602,-0.2585,-0.2092,0.185,3,14,0.75,1.03,0.21,24.567,17.48,91.8,40.6,20191.0,8326,8513,8341,8451,57.6,62.4,57.6,57.5,2.785,2.896,3.067,2.886,3.58,113.3,32.8,84.7,1006.62,-33.2,0.33,1.53,25.9,41.4,36.6,0,no_anomaly,0.0,0,0,0,0,19.0760399,72.8776779,16.8,0.0
2024-03-13T10:30:07.000Z,MISSION_0050,70,0,transit,SITE_BOM_001,19.0760463,72.8776803,16.8,74.41,0.105,0.103,5.6,0.5403,-1.5499,74.406,0.79638,0.01193,-0.00792,0.60463,-0.0868,0.0026,-9.8134,0.1134,0.4686,-0.0461,0.074,3,20,0.69,0.96,0.33,24.629,17.81,91.7,41.1,20173.0,8313,8423,8257,8308,60.7,58.5,55.9,58.5,2.902,2.68,2.826,2.771,3.6,123.9,32.8,84.8,1006.45,-29.83,-1.19,1.28,28.7,40.1,36.6,0,no_anomaly,0.0,0,0,0,0,19.0760463,72.8776803,16.8,0.0
2024-03-13T10:30:07.100Z,MISSION_0050,71,0,transit,SITE_BOM_001,19.076046,72.8776746,16.8,74.11,0.084,0.166,5.85,0.8244,-1.9645,74.1091,0.79785,0.01607,-0.00935,0.60257,-0.0164,-0.0056,-9.8337,0.4405,0.27,0.5517,0.201,3,14,0.66,0.73,0.35,24.568,20.52,91.6,41.6,20155.0,8296,8225,8058,8185,59.3,61.1,57.3,58.0,2.867,2.894,3.025,2.867,4.19,112.8,32.8,84.4,1006.86,-32.21,0.23,1.0,29.2,38.8,31.4,0,no_anomaly,0.0,0,0,0,0,19.076046,72.8776746,16.8,0.0
2024-03-13T10:30:07.200Z,MISSION_0050,72,0,transit,SITE_BOM_001,19.0760438,72.8776736,16.8,75.16,0.317,0.097,5.7,-3.0324,-1.2153,75.1566,0.79237,-0.0145,-0.02454,0.60937,0.0154,0.0151,-9.7402,-1.4971,1.2084,0.3047,0.1912,3,11,0.56,0.78,0.27,24.472,18.3,91.5,41.1,20137.0,8249,8161,8107,8246,55.7,61.3,58.9,59.2,2.818,2.758,2.892,2.671,4.06,116.9,32.7,83.9,1006.63,-31.66,-0.77,1.4,30.6,39.8,37.0,0,no_anomaly,0.0,0,0,0,0,19.0760438,72.8776736,16.8,0.0
2024-03-13T10:30:07.300Z,MISSION_0050,73,0,transit,SITE_BOM_001,19.0760424,72.877676,16.8,74.48,0.477,0.117,5.42,-2.1689,-0.8915,74.4756,0.79605,-0.01036,-0.01765,0.60488,0.0237,0.0971,-9.9075,0.5565,-0.5322,0.2069,0.1833,3,16,0.67,0.88,0.36,24.556,23.19,91.5,41.6,20119.0,8371,8407,8316,8128,60.2,56.0,57.7,57.1,3.12,2.867,3.102,2.913,3.59,111.8,32.6,84.0,1006.32,-31.93,-2.09,1.77,30.9,44.6,34.3,0,no_anomaly,0.0,0,0,0,0,19.0760424,72.877676,16.8,0.0
2024-03-13T10:30:07.400Z,MISSION_0050,74,0,transit,SITE_BOM_001,19.0760372,72.8776716,16.8,72.12,0.352,0.159,5.21,3.0033,-0.1503,72.125,0.80808,0.02196,0.01437,0.58849,-0.0418,-0.0393,-9.7689,0.457,-0.0936,0.4154,0.1581,3,13,0.61,1.09,0.3,24.536,17.45,91.4,41.7,20101.0,8073,8284,8203,8425,55.4,59.1,58.3,56.7,3.049,2.8,2.594,2.68,4.39,108.2,33.0,84.4,1006.67,-31.44,1.55,1.83,32.3,44.6,36.8,0,no_anomaly,0.0,0,0,0,0,19.0760372,72.8776716,16.8,0.0
2024-03-13T10:30:07.500Z,MISSION_0050,75,0,transit,SITE_BOM_001,19.0760412,72.8776687,16.8,72.93,0.114,0.165,5.76,-0.2656,-1.7347,72.9274,0.80416,0.00713,-0.01355,0.59422,0.0854,0.0549,-9.8136,0.6451,0.1748,0.2223,0.1726,3,20,0.88,0.79,0.41,24.578,23.45,91.3,40.3,20083.0,8409,8350,8356,8214,61.6,59.7,58.9,54.2,2.637,2.877,2.936,2.626,4.96,105.3,32.8,84.9,1006.49,-30.14,-1.48,2.1,26.6,38.4,35.1,0,no_anomaly,0.0,0,0,0,0,19.0760412,72.8776687,16.8,0.0
2024-03-13T10:30:07.600Z,MISSION_0050,76,0,transit,SITE_BOM_001,19.0760442,72.8776678,16.8,74.09,0.0,0.15,6.08,2.742,-2.7506,74.0854,0.79738,0.03355,-0.00474,0.60252,0.0117,0.037,-9.777,-0.6977,0.187,0.6685,0.1529,3,14,0.67,0.95,0.32,24.516,15.4,91.2,41.4,20065.0,8276,8354,8151,8229,56.3,56.4,58.1,57.2,3.198,2.86,2.815,2.756,3.61,112.9,32.8,83.6,1006.31,-28.51,-0.1,1.28,29.8,37.5,32.7,0,no_anomaly,0.0,0,0,0,0,19.0760442,72.8776678,16.8,0.0
2024-03-13T10:30:07.700Z,MISSION_0050,77,1,transit,SITE_BOM_001,19.0760384,72.8776655,16.8,75.13,0.0,0.144,5.75,2.7825,-0.9478,75.1297,0.79228,0.02429,0.00825,0.60962,0.1066,-0.0487,-9.843,0.4869,0.1808,0.3776,0.2421,3,17,0.59,1.03,0.2,24.59,19.29,91.1,40.3,20047.0,8300,8497,8204,7990,53.8,55.8,52.7,58.3,2.913,3.033,2.674,2.81,3.8,110.3,32.6,83.3,1006.66,-26.14,-1.06,1.5,28.3,44.4,37.1,0,no_anomaly,0.0,0,0,0,0,19.0760384,72.8776655,16.8,0.0
2024-03-13T10:30:07.800Z,MISSION_0050,78,1,transit,SITE_BOM_001,19.0760375,72.8776655,16.8,76.64,0.149,0.091,5.67,-0.1993,-0.0879,76.6373,0.78457,-0.00089,-0.00168,0.62003,0.0822,-0.0573,-9.7657,0.013,0.1511,-0.0124,0.1591,3,14,0.62,0.8,0.29,24.611,15.82,91.0,40.5,20029.0,8430,8134,8435,8089,56.2,56.0,56.0,55.7,2.805,2.798,2.71,2.876,3.23,119.9,32.9,84.0,1006.6,-30.09,-1.41,1.68,32.2,46.8,36.7,0,no_anomaly,0.0,0,0,0,0,19.0760375,72.8776655,16.8,0.0
2024-03-13T10:30:07.900Z,MISSION_0050,79,1,transit,SITE_BOM_001,19.0760347,72.8776693,16.8,75.99,0.311,0.141,5.16,-1.7955,-1.8595,75.9911,0.78801,-0.00236,-0.02243,0.61524,0.0775,0.0797,-9.8092,-0.0416,-0.1317,-0.2688,0.1438,3,17,0.69,0.78,0.2,24.593,15.89,91.0,41.1,20011.0,8278,8170,8152,8300,59.8,53.8,57.7,55.2,2.896,2.637,2.793,2.96,3.64,108.8,32.9,84.0,1006.9,-31.83,0.04,1.21,29.9,47.6,37.1,0,no_anomaly,0.0,0,0,0,0,19.0760347,72.8776693,16.8,0.0
2024-03-13T10:30:08.000Z,MISSION_0050,80,1,transit,SITE_BOM_001,19.0760278,72.8776728,16.8,76.19,0.344,0.153,4.32,-9.8369,-0.6985,76.1895,0.7844,-0.06373,-0.05768,0.61427,-0.1846,0.0129,-9.7673,0.6203,-0.1779,-0.4092,0.1629,3,13,0.7,1.22,0.2,24.631,12.39,90.9,41.6,19993.0,8470,8377,8339,8111,60.0,57.9,57.0,59.1,2.716,2.829,2.706,2.844,3.71,105.1,32.6,84.3,1006.79,-27.86,-0.05,1.14,26.4,44.0,34.4,0,no_anomaly,0.0,0,0,0,0,19.0760278,72.8776728,16.8,0.0
2024-03-13T10:30:08.100Z,MISSION_0050,81,1,transit,SITE_BOM_001,19.0760311,72.8776734,16.8,75.22,0.139,0.06,4.56,-0.7733,-1.3085,75.217,0.79218,0.00162,-0.01316,0.61015,0.1342,-0.0082,-9.6933,0.4785,-0.5678,-0.4939,0.191,3,19,0.58,0.83,0.2,24.589,22.57,90.8,41.3,19975.0,8158,8389,7961,8298,56.3,56.8,61.3,60.0,2.912,2.683,2.713,2.859,4.35,109.5,32.9,85.0,1006.8,-30.24,-0.08,1.89,29.5,45.5,31.9,0,no_anomaly,0.0,0,0,0,0,19.0760311,72.8776734,16.8,0.0
2024-03-13T10:30:08.200Z,MISSION_0050,82,1,transit,SITE_BOM_001,19.0760363,72.877676,16.8,73.04,0.0,0.055,4.84,2.1,-3.4137,73.0405,0.80283,0.03244,-0.01303,0.59518,0.0761,-0.0325,-9.7967,0.6559,0.415,0.3562,0.2163,3,10,0.87,0.93,0.43,24.574,13.45,90.7,40.0,19957.0,8069,8095,8564,8095,54.8,57.9,59.8,60.3,2.644,2.785,2.858,2.855,3.6,114.6,32.7,84.0,1006.36,-29.15,-0.43,1.82,28.2,43.2,31.8,0,no_anomaly,0.0,0,0,0,0,19.0760363,72.877676,16.8,0.0
2024-03-13T10:30:08.300Z,MISSION_0050,83,1,transit,SITE_BOM_001,19.076033,72.8776803,16.8,72.43,0.0,0.104,4.28,-2.441,-4.5012,72.435,0.80647,0.00603,-0.04425,0.58959,-0.0074,-0.0107,-9.7095,-0.3156,0.2171,-0.1528,0.1139,3,14,0.65,0.79,0.2,24.593,13.79,90.6,41.8,19938.0,8151,8294,8206,8353,57.8,58.2,58.9,60.4,2.915,2.886,2.967,2.82,3.6,113.9,32.9,84.8,1006.92,-29.08,-0.37,1.51,28.0,48.3,36.8,0,no_anomaly,0.0,0,0,0,0,19.076033,72.8776803,16.8,0.0
2024-03-13T10:30:08.400Z,MISSION_0050,84,1,transit,SITE_BOM_001,19.076032,72.8776794,16.8,71.31,0.0,0.074,4.24,2.9037,-2.2497,71.3137,0.81182,0.03202,-0.00118,0.58303,0.094,0.0405,-9.8251,0.3086,0.1518,0.0566,0.2362,3,19,0.74,1.02,0.27,24.6,17.36,90.5,41.4,19920.0,8061,8255,8288,8301,60.4,58.2,52.6,55.4,2.65,2.535,3.061,2.898,3.24,117.0,32.7,83.9,1006.33,-28.0,-1.11,1.25,25.9,47.0,36.0,0,no_anomaly,0.0,0,0,0,0,19.076032,72.8776794,16.8,0.0
2024-03-13T10:30:08.500Z,MISSION_0050,85,1,transit,SITE_BOM_001,19.0760326,72.8776834,16.8,70.78,0.0,0.138,4.07,-0.0721,-1.664,70.7775,0.81516,0.0079,-0.0122,0.57905,-0.1189,-0.0255,-9.8282,-0.0386,0.0535,0.3225,0.1227,3,10,0.62,0.82,0.21,24.509,23.28,90.5,41.0,19902.0,8312,7975,8323,8127,55.3,58.0,53.5,58.3,2.672,2.738,2.606,2.945,4.35,107.9,32.7,85.0,1006.88,-30.19,-0.44,1.74,28.2,42.0,38.0,0,no_anomaly,0.0,0,0,0,0,19.0760326,72.8776834,16.8,0.0
2024-03-13T10:30:08.600Z,MISSION_0050,86,1,transit,SITE_BOM_001,19.0760331,72.8776792,16.8,71.29,0.0,0.112,4.35,-2.5301,-3.122,71.2935,0.81248,-0.00206,-0.03499,0.58194,-0.014,0.0439,-9.7285,-0.4125,-0.1885,-0.1582,0.1832,3,19,0.7,0.63,0.29,24.646,18.14,90.4,40.7,19884.0,8154,8429,8300,8241,57.1,59.7,55.4,55.4,3.005,2.905,2.533,3.032,3.69,110.4,32.9,84.4,1006.14,-28.97,-0.55,1.78,32.0,42.2,37.7,0,no_anomaly,0.0,0,0,0,0,19.0760331,72.8776792,16.8,0.0
2024-03-13T10:30:08.700Z,MISSION_0050,87,1,transit,SITE_BOM_001,19.0760339,72.8776766,16.8,71.37,0.397,0.036,4.59,-1.0939,-1.1237,71.3694,0.81222,-0.00203,-0.01353,0.58319,-0.0792,-0.057,-9.7351,0.0552,0.5878,-0.1244,0.1458,3,15,0.65,0.79,0.22,24.509,19.7,90.3,41.3,19866.0,8023,8311,8380,8189,57.6,59.1,56.8,55.7,3.052,2.925,2.786,2.736,3.71,111.5,33.0,84.8,1006.43,-25.39,0.55,1.69,26.2,38.9,35.1,0,no_anomaly,0.0,0,0,0,0,19.0760339,72.8776766,16.8,0.0
2024-03-13T10:30:08.800Z,MISSION_0050,88,1,transit,SITE_BOM_001,19.0760294,72.8776728,16.8,71.46,0.416,0.174,4.46,0.0625,-1.5713,71.456,0.81172,0.00845,-0.01081,0.58389,-0.177,0.0042,-9.7833,-0.0257,-0.2871,-0.0094,0.1733,3,14,0.71,1.12,0.27,24.483,18.76,90.2,39.9,19848.0,8171,8121,8142,8294,58.5,57.5,59.7,60.1,2.895,2.88,2.956,2.808,4.8,113.7,32.7,83.6,1006.7,-25.48,-0.96,1.54,24.0,41.5,34.3,0,no_anomaly,0.0,0,0,0,0,19.0760294,72.8776728,16.8,0.0
2024-03-13T10:30:08.900Z,MISSION_0050,89,1,transit,SITE_BOM_001,19.0760324,72.8776696,16.8,71.07,0.122,0.075,4.94,-0.5391,-0.1558,71.0678,0.81377,-0.00304,-0.00384,0.58117,-0.0268,0.0215,-9.8061,-0.6061,0.0953,0.0312,0.1626,3,18,0.71,1.21,0.2,24.626,16.36,90.1,41.0,19830.0,8179,8238,8179,8349,58.2,56.3,54.4,54.6,2.908,2.782,2.784,2.841,3.41,108.4,32.4,84.7,1006.49,-29.95,-0.71,1.54,29.8,39.3,37.8,0,no_anomaly,0.0,0,0,0,0,19.0760324,72.8776696,16.8,0.0
2024-03-13T10:30:09.000Z,MISSION_0050,90,1,transit,SITE_BOM_001,19.076027,72.8776672,16.8,71.29,0.121,0.116,4.73,-0.6154,-3.611,71.2886,0.81233,0.014,-0.02873,0.58232,-0.0274,-0.0495,-9.8457,-0.3028,-1.61,0.1602,0.1726,3,11,0.74,1.03,0.2,24.557,20.72,90.1,41.0,19812.0,8386,8149,8180,8312,59.1,56.1,57.9,59.0,2.82,2.788,2.932,2.922,4.16,112.2,32.7,85.1,1006.18,-31.37,-0.58,1.35,27.6,48.1,34.7,0,no_anomaly,0.0,0,0,0,0,19.076027,72.8776672,16.8,0.0
2024-03-13T10:30:09.100Z,MISSION_0050,91,1,transit,SITE_BOM_001,19.0760247,72.877665,16.8,70.66,0.037,-0.016,4.76,-1.9889,-2.2755,70.6614,0.81574,-0.00268,-0.02623,0.57781,0.0407,0.0229,-9.8486,0.1859,-0.3245,0.0236,0.0965,3,17,0.63,0.96,0.29,24.532,23.88,90.0,41.6,19794.0,8291,8583,8252,8151,58.2,54.0,59.3,57.7,3.015,2.775,2.504,2.959,4.33,111.1,33.0,84.3,1006.22,-27.8,-0.88,1.87,26.5,37.9,32.8,0,no_anomaly,0.0,0,0,0,0,19.0760247,72.877665,16.8,0.0
2024-03-13T10:30:09.200Z,MISSION_0050,92,1,orbit_base,SITE_BOM_001,19.0759258,72.8777298,17.1,70.76,0.071,0.087,8.91,-0.2275,-2.4931,70.7602,0.81516,0.01098,-0.01889,0.57882,0.1727,0.0481,-9.7773,-0.0638,0.922,0.6542,0.1748,3,14,0.67,0.8,0.26,24.508,18.94,89.9,41.2,19776.0,8396,8250,8342,8346,59.5,56.5,58.8,60.3,3.004,2.886,2.88,2.625,3.22,113.7,32.7,85.0,1006.77,-25.32,-0.32,1.52,25.8,42.2,35.9,0,no_anomaly,0.0,0,0,0,0,19.0759258,72.8777298,17.1,0.0
2024-03-13T10:30:09.300Z,MISSION_0050,93,1,orbit_base,SITE_BOM_001,19.0759249,72.8777276,17.4,71.54,0.256,-0.001,8.91,2.9246,-1.9548,71.5415,0.81073,0.03067,0.00108,0.58462,0.0834,0.0472,-9.7774,0.6858,-0.3312,-0.1532,0.1582,3,12,0.68,0.71,0.22,24.546,13.15,89.8,41.8,19758.0,8337,8476,8401,8733,55.5,58.0,61.3,59.5,2.694,2.901,3.094,3.045,3.53,111.1,32.5,84.2,1006.5,-32.06,0.38,1.63,29.6,44.2,37.4,0,no_anomaly,0.0,0,0,0,0,19.0759249,72.8777276,17.4,0.0
2024-03-13T10:30:09.400Z,MISSION_0050,94,1,orbit_base,SITE_BOM_001,19.0759241,72.8777253,17.7,70.23,0.0,0.115,8.91,3.7595,-3.3394,70.2271,0.81668,0.04357,-0.00496,0.57543,0.1308,-0.0145,-9.8222,0.1815,-0.4484,-0.0763,0.1619,3,16,0.7,1.13,0.24,24.55,21.51,89.7,41.0,19740.0,8193,8502,8188,8001,57.1,55.1,60.2,60.6,2.926,2.84,2.812,2.824,4.23,112.8,32.6,84.8,1006.36,-29.19,-0.84,1.48,31.1,46.7,38.0,0,no_anomaly,0.0,0,0,0,0,19.0759241,72.8777253,17.7,0.0
2024-03-13T10:30:09.500Z,MISSION_0050,95,1,orbit_base,SITE_BOM_001,19.0759234,72.877723,18.0,69.81,0.421,0.055,8.91,4.6977,-3.9487,69.8074,0.81813,0.05329,-0.00479,0.57254,0.1938,0.0124,-9.8283,-0.9584,1.0248,0.5514,0.1976,3,17,0.8,0.68,0.32,24.561,23.3,89.6,40.8,19722.0,8252,8242,8146,8524,59.4,60.1,59.5,59.3,2.952,2.93,2.97,3.097,3.72,120.7,32.6,84.5,1006.35,-32.46,-1.34,1.91,24.4,40.3,28.2,0,no_anomaly,0.0,0,0,0,0,19.0759234,72.877723,18.0,0.0
2024-03-13T10:30:09.600Z,MISSION_0050,96,1,orbit_base,SITE_BOM_001,19.0759227,72.8777207,18.3,70.9,0.992,0.083,8.91,-0.8387,-0.7308,70.9021,0.8146,-0.00226,-0.00944,0.57994,0.0452,-0.0456,-9.7302,0.2923,-0.0749,0.0136,0.1973,3,20,0.65,0.68,0.33,24.578,16.39,89.6,41.3,19703.0,8317,8179,8212,8231,56.7,59.7,60.6,59.9,2.829,2.757,2.871,2.71,3.92,106.1,33.0,84.3,1006.68,-26.76,0.57,1.33,29.4,41.6,34.0,0,no_anomaly,0.0,0,0,0,0,19.0759227,72.8777207,18.3,0.0
2024-03-13T10:30:09.700Z,MISSION_0050,97,1,orbit_base,SITE_BOM_001,19.0759221,72.8777184,18.6,71.58,0.706,0.091,8.91,0.0572,-0.4617,71.5774,0.81117,0.00276,-0.00298,0.58479,0.0938,-0.063,-9.8735,-0.1561,0.104,-0.4303,0.2584,3,20,0.68,1.01,0.32,24.5,22.9,89.5,41.7,19685.0,8252,8081,8415,8495,56.6,59.1,57.3,61.7,2.782,2.728,3.068,3.131,3.39,113.6,32.5,84.2,1006.48,-26.73,2.07,1.51,23.4,40.6,32.9,0,no_anomaly,0.0,0,0,0,0,19.0759221,72.8777184,18.6,0.0
2024-03-13T10:30:09.800Z,MISSION_0050,98,1,orbit_base,SITE_BOM_001,19.0759216,72.877716,18.9,69.58,0.645,0.116,8.91,-3.5002,-1.7496,69.5846,0.82101,-0.01637,-0.02996,0.56989,-0.0539,0.0059,-9.8763,0.3675,-0.3105,-0.2265,0.1835,3,16,0.82,1.01,0.51,24.567,18.73,89.4,40.3,19667.0,8479,8393,8367,8240,57.0,60.2,57.7,61.8,2.581,2.651,2.667,2.94,4.79,110.9,32.7,84.8,1006.51,-28.13,-0.35,1.75,27.2,39.2,32.5,0,no_anomaly,0.0,0,0,0,0,19.0759216,72.877716,18.9,0.0
2024-03-13T10:30:09.900Z,MISSION_0050,99,1,orbit_base,SITE_BOM_001,19.0759212,72.8777137,19.2,69.3,0.499,0.038,8.91,-2.6911,1.1787,69.2993,0.82224,-0.02516,-0.00489,0.56857,0.0058,-0.014,-9.7985,0.7055,0.6907,-0.1851,0.2591,3,15,0.65,0.95,0.2,24.401,19.33,89.3,40.6,19649.0,8220,8270,8456,8156,56.9,57.9,58.0,54.6,2.988,2.906,2.625,2.733,4.7,103.3,32.6,84.6,1007.05,-34.36,-1.61,1.28,29.3,48.1,37.3,0,no_anomaly,0.0,0,0,0,0,19.0759212,72.8777137,19.2,0.0
2024-03-13T10:30:10.000Z,MISSION_0050,100,1,orbit_base,SITE_BOM_001,19.0759208,72.8777113,19.5,72.51,0.453,-0.026,8.91,-1.7113,-0.3352,72.5101,0.80633,-0.01031,-0.01119,0.59128,0.1002,-0.0199,-9.8158,0.1312,0.5247,0.029,0.0898,3,12,0.7,0.91,0.2,24.517,15.96,89.2,40.5,19631.0,8117,8188,8187,8523,55.7,59.5,59.6,59.1,2.489,2.728,2.858,2.776,4.9,113.9,32.7,84.0,1006.55,-30.87,-0.54,1.0,26.1,43.7,34.8,0,no_anomaly,0.0,0,0,0,0,19.0759208,72.8777113,19.5,0.0
2024-03-13T10:30:10.100Z,MISSION_0050,101,1,orbit_base,SITE_BOM_001,19.0759205,72.8777089,19.8,71.01,0.0,0.035,8.91,-0.7964,-2.7982,71.0139,0.81388,0.00853,-0.02391,0.58048,0.1479,-0.0559,-9.7561,0.2506,0.4238,-0.2534,0.2172,3,13,0.63,0.95,0.2,24.523,22.81,89.2,41.0,19613.0,8281,8203,8074,8372,57.2,60.1,55.8,64.4,2.85,2.663,2.676,2.962,3.14,107.1,32.7,84.7,1006.77,-34.23,0.58,1.41,26.7,44.9,36.0,0,no_anomaly,0.0,0,0,0,0,19.0759205,72.8777089,19.8,0.0
2024-03-13T10:30:10.200Z,MISSION_0050,102,1,orbit_base,SITE_BOM_001,19.0759203,72.8777065,20.1,72.38,0.0,0.092,8.91,2.0944,-1.4237,72.3791,0.80674,0.02208,0.00077,0.5905,-0.0147,0.0632,-9.8429,-0.752,-0.4256,-0.4007,0.061,3,15,0.71,0.98,0.21,24.593,17.54,89.1,41.7,19595.0,8373,8334,8210,8265,57.2,56.6,55.2,56.9,2.642,3.007,2.833,2.786,3.5,107.4,32.9,84.6,1006.2,-30.11,0.24,1.97,24.8,41.1,35.6,0,no_anomaly,0.0,0,0,0,0,19.0759203,72.8777065,20.1,0.0
2024-03-13T10:30:10.300Z,MISSION_0050,103,1,orbit_base,SITE_BOM_001,19.0759201,72.8777041,20.4,73.43,0.055,0.134,8.91,-2.5598,-0.8428,73.4325,0.80148,-0.01351,-0.01925,0.59756,-0.1158,0.0557,-9.794,0.2843,0.2077,-0.2777,0.1404,3,20,0.51,0.98,0.2,24.421,19.63,89.0,41.5,19577.0,8281,8103,8411,8249,56.0,57.7,58.4,53.1,2.707,2.573,2.66,2.888,3.57,113.0,32.7,85.0,1006.48,-31.67,0.46,1.4,31.1,45.8,36.4,0,no_anomaly,0.0,0,0,0,0,19.0759201,72.8777041,20.4,0.0
2024-03-13T10:30:10.400Z,MISSION_0050,104,1,orbit_base,SITE_BOM_001,19.07592,72.8777017,20.7,68.61,0.267,0.017,8.91,4.1299,-1.7806,68.6102,0.8251,0.03851,0.00748,0.56363,0.0258,-0.0765,-9.7718,0.8504,0.193,-0.843,0.1729,3,15,0.83,0.97,0.29,24.559,15.7,88.9,40.6,19559.0,8214,8359,8349,8194,52.3,53.6,58.2,64.1,2.565,2.752,2.84,2.941,3.1,110.0,32.9,84.9,1006.47,-30.35,-1.64,1.02,27.8,46.3,36.8,0,no_anomaly,0.0,0,0,0,0,19.07592,72.8777017,20.7,0.0
2024-03-13T10:30:10.500Z,MISSION_0050,105,1,orbit_base,SITE_BOM_001,19.07592,72.8776993,21.0,68.34,0.076,0.059,8.91,-3.9631,-0.6408,68.3391,0.82698,-0.02547,-0.02404,0.56114,0.3167,-0.0154,-9.7397,0.2084,0.3123,-0.2103,0.1757,3,19,0.81,0.98,0.41,24.44,19.31,88.8,40.9,19541.0,8270,8289,8016,8252,58.6,57.7,59.5,57.9,3.069,2.522,2.776,2.881,3.42,103.0,32.8,83.9,1006.48,-28.75,-1.31,1.11,29.3,40.3,34.3,0,no_anomaly,0.0,0,0,0,0,19.07592,72.8776993,21.0,0.0
2024-03-13T10:30:10.600Z,MISSION_0050,106,1,orbit_base,SITE_BOM_001,19.0759201,72.8776969,21.3,71.27,0.0,-0.011,8.91,-0.3908,-0.5234,71.2748,0.81272,-0.00011,-0.0057,0.58263,0.076,-0.0498,-9.811,-0.3659,-0.895,0.0627,0.2367,3,17,0.65,0.87,0.25,24.436,22.88,88.7,40.3,19523.0,8150,8404,8305,8003,61.3,61.1,58.0,56.2,2.94,2.904,2.725,2.609,3.18,114.2,32.8,85.4,1006.19,-28.81,0.34,1.67,26.5,40.2,36.7,0,no_anomaly,0.0,0,0,0,0,19.0759201,72.8776969,21.3,0.0
2024-03-13T10:30:10.700Z,MISSION_0050,107,1,orbit_base,SITE_BOM_001,19.0759202,72.8776945,21.6,71.83,0.419,0.194,8.91,4.0211,-3.5102,71.8344,0.80836,0.04635,-0.00422,0.58685,0.0903,0.0827,-9.7769,0.249,0.3761,-0.0895,0.2577,3,11,0.5,0.81,0.21,24.565,23.33,88.7,41.6,19505.0,8207,8415,8010,8361,61.1,57.8,59.5,54.0,2.793,2.858,3.005,2.675,3.99,114.6,33.0,84.7,1006.89,-29.26,-0.53,1.12,29.9,43.8,36.9,0,no_anomaly,0.0,0,0,0,0,19.0759202,72.8776945,21.6,0.0
2024-03-13T10:30:10.800Z,MISSION_0050,108,1,orbit_base,SITE_BOM_001,19.0759204,72.8776921,21.9,72.98,0.493,0.142,8.91,-1.7779,-3.8687,72.9771,0.80373,0.0076,-0.03635,0.59383,-0.1458,-0.0246,-9.8073,-0.3949,-0.4285,0.5799,0.2035,3,19,0.77,1.13,0.39,24.516,17.63,88.6,42.0,19487.0,8280,8704,8304,8223,59.1,61.8,59.4,59.9,2.657,2.935,2.886,2.652,4.55,118.9,32.4,84.9,1006.47,-31.46,-0.62,1.37,30.7,40.7,37.9,0,no_anomaly,0.0,0,0,0,0,19.0759204,72.8776921,21.9,0.0
2024-03-13T10:30:10.900Z,MISSION_0050,109,1,orbit_base,SITE_BOM_001,19.0759207,72.8776898,22.2,73.19,0.556,0.11,8.91,1.8174,-0.28,73.19,0.80274,0.01419,0.00749,0.59611,-0.4602,-0.0058,-9.85,-0.2312,-0.0668,0.1847,0.2117,3,20,0.76,1.3,0.33,24.571,22.22,88.5,41.2,19469.0,8454,8282,8468,8244,55.8,55.8,61.7,56.8,2.948,2.592,2.89,2.621,3.72,108.8,32.7,84.0,1006.51,-28.89,-0.95,1.69,30.8,42.5,33.8,0,no_anomaly,0.0,0,0,0,0,19.0759207,72.8776898,22.2,0.0
2024-03-13T10:30:11.000Z,MISSION_0050,110,1,orbit_base,SITE_BOM_001,19.075921,72.8776874,22.5,72.28,0.914,0.082,8.91,2.8764,-2.9445,72.2848,0.80665,0.03541,-0.00594,0.58993,0.0638,-0.0356,-9.8193,-0.4062,0.6066,1.0835,0.2263,3,20,0.61,1.02,0.2,24.436,23.0,88.4,40.9,19450.0,8277,8061,8217,8024,60.3,57.5,61.8,57.5,2.814,2.853,2.72,2.716,3.19,114.0,32.7,83.7,1006.76,-31.09,0.5,1.11,25.1,38.2,34.3,0,no_anomaly,0.0,0,0,0,0,19.075921,72.8776874,22.5,0.0
2024-03-13T10:30:11.100Z,MISSION_0050,111,1,orbit_base,SITE_BOM_001,19.0759214,72.877685,22.8,72.0,1.123,0.106,8.91,-3.5552,-3.8699,72.0017,0.80877,-0.00524,-0.04553,0.58633,0.0931,-0.0443,-9.786,0.6723,0.6021,-0.3802,0.2103,3,11,0.62,0.93,0.22,24.537,17.91,88.3,42.1,19432.0,8500,8142,8421,8284,59.7,57.6,57.3,56.2,2.679,2.836,2.938,2.751,4.16,107.1,32.7,84.0,1006.3,-28.39,0.72,1.78,26.9,41.1,37.5,0,no_anomaly,0.0,0,0,0,0,19.0759214,72.877685,22.8,0.0
2024-03-13T10:30:11.200Z,MISSION_0050,112,1,orbit_base,SITE_BOM_001,19.0759219,72.8776827,23.1,72.32,1.08,0.1,8.91,-4.564,-0.3923,72.3232,0.80679,-0.03013,-0.02626,0.58948,0.1721,-0.0273,-9.7483,-0.2221,-0.6777,-0.1556,0.107,3,17,0.64,1.12,0.2,24.646,14.78,88.2,40.7,19414.0,8183,8376,8419,7875,58.2,58.5,54.8,59.7,2.704,3.068,2.874,2.537,4.55,112.9,32.5,84.3,1006.48,-30.47,0.99,1.0,29.0,39.0,33.7,0,no_anomaly,0.0,0,0,0,0,19.0759219,72.8776827,23.1,0.0
2024-03-13T10:30:11.300Z,MISSION_0050,113,1,orbit_base,SITE_BOM_001,19.0759225,72.8776803,23.4,71.98,1.111,0.018,8.91,-0.8959,-0.3006,71.9772,0.80912,-0.00478,-0.00672,0.58759,-0.1252,-0.0205,-9.8359,-0.3423,-0.6457,0.2946,0.1987,3,11,0.52,0.78,0.2,24.413,25.17,88.2,41.6,19396.0,8085,7894,8423,8544,57.8,61.0,61.5,58.1,2.485,2.657,2.779,2.801,4.06,104.9,32.7,83.8,1006.51,-29.71,0.18,1.15,28.4,45.0,38.4,0,no_anomaly,0.0,0,0,0,0,19.0759225,72.8776803,23.4,0.0
2024-03-13T10:30:11.400Z,MISSION_0050,114,1,orbit_base,SITE_BOM_001,19.0759231,72.877678,23.7,71.36,0.869,0.112,8.91,0.9976,0.2618,71.3616,0.81226,0.00574,0.00693,0.58323,0.1042,-0.0514,-9.8597,-0.4788,0.1011,-0.105,0.2839,3,17,0.72,0.85,0.35,24.466,15.74,88.1,40.4,19378.0,8340,8359,8183,8434,58.2,58.9,60.0,61.0,2.813,2.761,2.926,2.911,3.77,108.8,32.9,84.7,1006.31,-31.5,-0.57,1.7,27.9,43.5,36.9,0,no_anomaly,0.0,0,0,0,0,19.0759231,72.877678,23.7,0.0
2024-03-13T10:30:11.500Z,MISSION_0050,115,1,orbit_base,SITE_BOM_001,19.0759238,72.8776757,24.0,69.77,0.501,0.063,8.91,-4.011,-3.6017,69.7718,0.82001,-0.01073,-0.04577,0.57041,0.0359,-0.0569,-9.7877,0.6541,0.6446,0.1779,0.1661,3,19,0.7,0.83,0.38,24.543,22.16,88.0,41.7,19360.0,8374,8313,8447,8127,56.3,61.2,58.4,57.3,2.83,2.936,2.655,2.607,3.94,115.2,33.0,84.1,1006.25,-33.05,-1.85,1.28,26.8,39.1,37.3,0,no_anomaly,0.0,0,0,0,0,19.0759238,72.8776757,24.0,0.0
2024-03-13T10:30:11.600Z,MISSION_0050,116,1,orbit_base,SITE_BOM_001,19.0759245,72.8776734,24.3,71.05,0.545,0.06,8.91,-0.7439,-2.8672,71.0541,0.81366,0.00926,-0.02413,0.58076,0.2351,0.071,-9.8541,-0.2202,0.1679,0.2317,0.197,3,19,0.85,0.67,0.36,24.489,16.96,87.9,40.4,19342.0,8386,8021,8375,8315,56.7,57.7,59.5,58.5,2.953,2.965,2.832,2.642,4.69,118.8,32.7,83.9,1006.27,-26.76,0.12,1.26,26.3,45.3,34.3,0,no_anomaly,0.0,0,0,0,0,19.0759245,72.8776734,24.3,0.0
2024-03-13T10:30:11.700Z,MISSION_0050,117,1,orbit_base,SITE_BOM_001,19.0759254,72.8776712,24.6,70.14,0.497,0.062,8.91,-0.3311,0.2566,70.1393,0.81845,-0.00365,0.00017,0.57457,0.0689,0.0152,-9.8073,0.0554,0.2985,-0.6831,0.2024,3,18,0.75,0.92,0.4,24.469,17.35,87.8,40.8,19324.0,7977,8315,8377,8287,57.0,57.4,56.4,57.6,2.868,2.891,2.745,2.895,3.37,113.2,32.3,83.7,1006.71,-33.78,-0.0,1.07,27.5,37.3,32.3,0,no_anomaly,0.0,0,0,0,0,19.0759254,72.8776712,24.6,0.0
2024-03-13T10:30:11.800Z,MISSION_0050,118,1,orbit_base,SITE_BOM_001,19.0759263,72.877669,24.9,70.18,0.047,0.111,8.91,-1.7349,-0.0404,70.1782,0.81817,-0.01219,-0.00899,0.57478,-0.0698,0.009,-9.8491,0.3686,0.0845,-0.0374,0.2395,3,13,0.55,0.73,0.31,24.547,17.13,87.8,40.5,19306.0,8205,8230,8217,8822,60.5,53.3,57.6,62.9,2.4,2.854,2.827,2.896,4.23,110.0,32.5,83.9,1006.39,-27.36,0.37,1.28,28.6,39.0,35.5,0,no_anomaly,0.0,0,0,0,0,19.0759263,72.877669,24.9,0.0
2024-03-13T10:30:11.900Z,MISSION_0050,119,1,orbit_base,SITE_BOM_001,19.0759272,72.8776668,25.2,71.32,0.0,0.01,8.91,3.0089,1.3227,71.3163,0.81235,0.0146,0.02468,0.58246,-0.0211,-0.0518,-9.8111,0.2978,0.1393,-0.0967,0.2017,3,20,0.74,1.01,0.36,24.457,17.41,87.7,40.0,19288.0,8364,8372,8268,8448,59.3,57.1,55.7,57.7,2.934,2.917,2.823,2.775,3.49,106.4,33.0,84.1,1006.85,-26.74,-0.45,1.99,27.4,41.7,33.1,0,no_anomaly,0.0,0,0,0,0,19.0759272,72.8776668,25.2,0.0
2024-03-13T10:30:12.000Z,MISSION_0050,120,1,orbit_base,SITE_BOM_001,19.0759283,72.8776646,25.5,71.15,0.442,0.197,8.91,2.906,-1.5948,71.1514,0.8128,0.02872,0.00344,0.58182,0.1276,-0.0518,-9.882,0.6867,-0.2738,0.1357,0.1628,3,16,0.7,1.06,0.24,24.439,16.61,87.6,40.9,19270.0,8586,8401,8507,8450,58.9,57.7,55.6,58.9,2.585,2.869,2.75,2.933,3.56,116.5,32.9,84.3,1006.7,-34.87,-1.36,1.6,26.6,47.0,35.3,0,no_anomaly,0.0,0,0,0,0,19.0759283,72.8776646,25.5,0.0
2024-03-13T10:30:12.100Z,MISSION_0050,121,1,orbit_base,SITE_BOM_001,19.0759294,72.8776625,25.8,74.59,0.445,0.028,8.91,-1.5102,-0.709,74.5918,0.79548,-0.00673,-0.01291,0.6058,0.0097,0.0443,-9.7704,-0.149,0.3902,-0.4211,0.1144,3,11,0.67,1.17,0.2,24.509,21.82,87.5,41.0,19252.0,8102,8385,8266,8278,56.6,60.5,54.8,60.3,2.673,2.825,2.795,2.873,4.37,102.4,32.6,83.9,1006.52,-31.58,0.11,1.66,31.1,39.1,36.6,0,no_anomaly,0.0,0,0,0,0,19.0759294,72.8776625,25.8,0.0
2024-03-13T10:30:12.200Z,MISSION_0050,122,1,orbit_base,SITE_BOM_001,19.0759305,72.8776604,26.1,77.06,0.836,0.048,8.91,-1.3608,-1.5857,77.0615,0.78225,-0.00067,-0.01822,0.6227,-0.1225,-0.0503,-9.7764,0.1477,0.6888,0.6968,0.1468,3,13,0.64,0.85,0.43,24.459,21.11,87.4,42.0,19234.0,8493,8114,8481,8422,61.5,57.8,58.4,58.4,2.932,2.772,2.628,2.646,4.01,113.7,32.8,85.3,1006.73,-29.25,-0.2,1.49,30.6,39.9,37.6,0,no_anomaly,0.0,0,0,0,0,19.0759305,72.8776604,26.1,0.0
2024-03-13T10:30:12.300Z,MISSION_0050,123,1,orbit_base,SITE_BOM_001,19.0759317,72.8776583,26.4,77.84,0.952,0.016,8.91,-1.0611,-2.3797,77.8407,0.77794,0.00584,-0.02197,0.62793,0.0023,0.0012,-9.8082,-0.8973,0.2902,0.042,0.1327,3,12,0.56,0.99,0.22,24.534,19.73,87.3,40.1,19216.0,8276,8377,7949,8383,57.0,59.7,55.7,59.4,2.743,2.848,2.776,2.877,3.61,107.5,32.6,84.5,1006.47,-24.15,-1.42,1.26,24.2,44.6,32.7,0,no_anomaly,0.0,0,0,0,0,19.0759317,72.8776583,26.4,0.0
2024-03-13T10:30:12.400Z,MISSION_0050,124,1,orbit_base,SITE_BOM_001,19.075933,72.8776563,26.7,77.8,1.435,0.12,8.91,0.9381,-0.1617,77.8026,0.77819,0.00726,0.00404,0.62797,-0.0259,0.0054,-9.8351,0.5724,-0.2505,-0.0277,0.0803,3,18,0.83,0.83,0.23,24.407,18.87,87.3,41.6,19197.0,8227,8295,8243,8349,58.8,58.2,54.8,54.3,2.733,2.486,2.675,2.994,4.03,108.7,32.8,84.9,1006.53,-32.17,-1.5,1.28,31.2,49.6,38.9,0,no_anomaly,0.0,0,0,0,0,19.075933,72.8776563,26.7,0.0
2024-03-13T10:30:12.500Z,MISSION_0050,125,1,orbit_base,SITE_BOM_001,19.0759344,72.8776543,27.0,75.67,1.491,0.034,8.91,-2.0756,-3.2903,75.6733,0.78963,0.00331,-0.03378,0.61265,0.1015,-0.0138,-9.8664,0.5791,-0.6222,0.1499,0.1978,3,10,0.73,1.25,0.29,24.556,16.07,87.2,41.5,19179.0,8168,8358,8265,8242,55.8,56.4,55.6,59.7,2.973,2.646,2.74,2.838,3.86,125.5,32.6,85.8,1006.56,-31.27,-0.53,1.35,26.9,42.1,36.3,0,no_anomaly,0.0,0,0,0,0,19.0759344,72.8776543,27.0,0.0
2024-03-13T10:30:12.600Z,MISSION_0050,126,1,orbit_base,SITE_BOM_001,19.0759358,72.8776523,27.3,75.78,1.639,0.065,8.91,5.2353,-0.7344,75.7802,0.78817,0.03997,0.023,0.61373,-0.1407,0.0718,-9.8,0.3435,0.1505,0.0971,0.2212,3,13,0.78,0.65,0.29,24.514,20.05,87.1,41.0,19161.0,8211,8151,8459,8066,56.4,59.9,61.3,58.9,2.833,2.827,2.855,2.919,4.05,112.7,32.8,85.4,1006.69,-35.12,-0.11,1.27,30.2,46.1,37.2,0,no_anomaly,0.0,0,0,0,0,19.0759358,72.8776523,27.3,0.0
2024-03-13T10:30:12.700Z,MISSION_0050,127,1,orbit_base,SITE_BOM_001,19.0759372,72.8776504,27.6,74.16,1.441,0.105,8.91,2.0153,-2.79,74.1628,0.79716,0.0287,-0.00882,0.60302,0.0538,0.0521,-9.8596,0.8017,-0.9101,0.3871,0.1834,3,13,0.61,0.72,0.2,24.559,21.7,87.0,41.1,19143.0,8476,8289,8332,8111,60.3,56.5,56.5,58.6,2.652,2.793,2.781,2.628,4.93,114.5,32.8,85.8,1006.53,-30.32,-0.66,1.94,29.5,46.5,34.4,0,no_anomaly,0.0,0,0,0,0,19.0759372,72.8776504,27.6,0.0
2024-03-13T10:30:12.800Z,MISSION_0050,128,1,orbit_base,SITE_BOM_001,19.0759387,72.8776486,27.9,70.82,1.672,0.066,8.91,4.041,-2.9269,70.8157,0.81375,0.04352,-0.00038,0.57958,-0.0217,0.0565,-9.765,0.5612,-0.5671,-0.1795,0.13,3,17,0.64,0.84,0.29,24.481,20.3,86.9,41.9,19125.0,8279,8706,8365,8386,54.8,59.2,57.9,57.3,2.992,2.628,2.788,2.774,3.82,117.4,32.6,83.9,1006.54,-25.78,-1.31,1.61,27.1,48.7,34.8,0,no_anomaly,0.0,0,0,0,0,19.0759387,72.8776486,27.9,0.0
2024-03-13T10:30:12.900Z,MISSION_0050,129,1,orbit_base,SITE_BOM_001,19.0759403,72.8776467,28.2,70.45,2.072,0.099,8.91,0.1208,-2.7829,70.4542,0.81662,0.01487,-0.01923,0.57667,0.1501,-0.0645,-9.816,-0.1987,0.0833,-0.1296,0.1493,3,20,0.75,1.07,0.33,24.506,18.06,86.9,41.3,19107.0,8345,8402,8229,8249,54.2,58.8,56.1,56.1,2.71,2.554,2.837,2.829,3.99,116.8,32.8,84.4,1006.73,-32.83,-0.75,1.6,29.1,41.0,35.8,0,no_anomaly,0.0,0,0,0,0,19.0759403,72.8776467,28.2,0.0
