timestamp_utc,mission_id,frame_id,waypoint_id,inspection_phase,site_id,latitude_deg,longitude_deg,altitude_m,heading_deg,ground_speed_ms,vertical_speed_ms,distance_to_tower_m,roll_deg,pitch_deg,yaw_deg,quat_w,quat_x,quat_y,quat_z,accel_x_ms2,accel_y_ms2,accel_z_ms2,gyro_x_rads,gyro_y_rads,gyro_z_rads,vibration_level,gps_fix_type,gps_satellite_count,gps_hdop,gps_vdop,position_error_m,battery_voltage_v,battery_current_a,battery_remaining_pct,battery_temp_c,battery_capacity_mah,motor_fl_rpm,motor_fr_rpm,motor_rl_rpm,motor_rr_rpm,motor_fl_temp_c,motor_fr_temp_c,motor_rl_temp_c,motor_rr_temp_c,motor_fl_thrust_n,motor_fr_thrust_n,motor_rl_thrust_n,motor_rr_thrust_n,wind_speed_ms,wind_dir_deg,air_temp_c,humidity_pct,pressure_hpa,gimbal_pitch_deg,gimbal_roll_deg,zoom_factor,ir_temp_min_c,ir_temp_max_c,ir_temp_avg_c,anomaly_detected,anomaly_class,anomaly_confidence,anomaly_bbox_x,anomaly_bbox_y,anomaly_bbox_w,anomaly_bbox_h,anomaly_gps_lat,anomaly_gps_lon,anomaly_gps_alt_m,ir_temp_delta_c
2024-04-13T18:53:00.000Z,MISSION_0025,0,0,takeoff,SITE_KOL_006,22.5726044,88.3638951,1.5,143.66,0.0,0.082,0.73,-6.6661,0.6046,143.6631,0.31099,-0.02313,-0.0536,0.94862,0.0054,-0.0761,-9.8266,0.3602,-0.7963,-0.3068,0.2699,3,12,0.75,0.84,0.3,24.773,16.23,97.6,38.9,21472.0,8334,7716,7913,7835,56.2,56.0,57.1,54.8,2.77,3.086,2.916,2.684,3.11,235.0,31.5,71.7,1009.34,-30.06,0.26,1.65,24.2,41.6,36.6,0,no_anomaly,0.0,0,0,0,0,22.5726044,88.3638951,1.5,0.0
2024-04-13T18:53:00.100Z,MISSION_0025,1,0,takeoff,SITE_KOL_006,22.5726037,88.3638922,3.0,142.3,0.271,0.108,0.96,2.5576,-4.3289,142.2963,0.32201,0.04294,0.0089,0.94572,-0.1121,0.0157,-9.8006,0.6004,-0.6848,0.1,0.172,3,14,0.66,1.09,0.32,24.683,17.35,97.5,39.6,21453.0,8127,7885,7987,7953,53.9,56.7,58.2,57.5,2.994,2.667,2.955,2.735,3.11,245.4,31.0,71.0,1009.54,-34.78,-0.83,1.45,28.9,46.0,35.1,0,no_anomaly,0.0,0,0,0,0,22.5726037,88.3638922,3.0,0.0
2024-04-13T18:53:00.200Z,MISSION_0025,2,0,takeoff,SITE_KOL_006,22.572605,88.3638939,4.5,142.99,0.234,0.144,0.88,1.2699,-0.7546,142.993,0.31727,0.00976,0.00842,0.94825,-0.0604,0.0655,-9.8158,-0.7383,-0.9742,-0.1677,0.222,3,11,0.53,0.87,0.2,24.745,14.73,97.4,39.8,21434.0,7790,7911,8044,8077,54.0,56.1,57.2,53.4,2.676,2.853,2.745,2.862,2.85,242.0,31.2,71.1,1009.05,-32.38,-0.57,2.11,24.5,38.5,36.8,0,no_anomaly,0.0,0,0,0,0,22.572605,88.3638939,4.5,0.0
2024-04-13T18:53:00.300Z,MISSION_0025,3,0,takeoff,SITE_KOL_006,22.5726061,88.3638899,5.0,143.36,0.552,0.151,1.32,2.5441,-2.901,143.3642,0.31358,0.031,0.01311,0.94897,-0.0881,-0.1363,-9.7508,-0.4731,-0.1196,-0.6582,0.1576,3,10,0.82,0.85,0.34,24.649,17.93,97.3,39.1,21414.0,7926,7815,7823,7869,61.2,57.8,56.3,53.6,2.546,2.887,2.844,2.722,3.8,235.4,31.4,70.9,1009.41,-32.44,-1.25,1.42,25.5,41.0,34.1,0,no_anomaly,0.0,0,0,0,0,22.5726061,88.3638899,5.0,0.0
2024-04-13T18:53:00.400Z,MISSION_0025,4,0,takeoff,SITE_KOL_006,22.5726064,88.363892,5.0,144.88,0.505,0.146,1.14,-2.3443,-1.8453,144.8751,0.30196,0.00918,-0.02436,0.95297,-0.0788,0.029,-9.7172,0.2919,-0.2519,-0.0913,0.22,3,13,0.62,0.69,0.24,24.769,18.27,97.3,39.5,21395.0,7749,7941,8036,7609,59.2,55.6,55.0,57.5,2.623,3.247,2.58,2.964,2.6,239.9,31.4,70.8,1009.44,-25.91,-0.6,1.01,27.5,43.9,34.1,0,no_anomaly,0.0,0,0,0,0,22.5726064,88.363892,5.0,0.0
2024-04-13T18:53:00.500Z,MISSION_0025,5,0,takeoff,SITE_KOL_006,22.5726113,88.3638921,5.0,145.09,0.744,0.102,1.54,-0.4766,-2.1046,145.0885,0.29999,0.01627,-0.00948,0.95376,-0.2852,-0.0878,-9.7577,-0.4437,0.8156,-0.3426,0.2264,3,19,0.66,1.04,0.24,24.64,15.25,97.2,40.0,21376.0,7900,7835,7736,7848,58.8,57.6,58.5,52.2,2.841,2.525,2.853,2.59,3.61,246.6,31.4,70.5,1009.04,-30.35,-0.67,1.86,26.9,39.0,31.9,0,no_anomaly,0.0,0,0,0,0,22.5726113,88.3638921,5.0,0.0
2024-04-13T18:53:00.600Z,MISSION_0025,6,0,takeoff,SITE_KOL_006,22.5726125,88.3638891,5.0,146.59,0.615,0.106,1.85,1.8782,-1.7543,146.5917,0.28712,0.01937,0.0113,0.95763,-0.0169,0.0045,-9.8513,-0.7746,-1.0749,0.3021,0.1015,3,11,0.62,0.89,0.26,24.799,17.95,97.1,39.3,21357.0,7739,7705,7891,7909,55.5,57.8,57.2,57.9,2.768,2.689,2.892,2.887,2.17,241.9,31.3,70.8,1009.6,-35.13,-0.41,1.49,28.7,42.1,35.7,0,no_anomaly,0.0,0,0,0,0,22.5726125,88.3638891,5.0,0.0
2024-04-13T18:53:00.700Z,MISSION_0025,7,0,takeoff,SITE_KOL_006,22.5726145,88.3638939,5.0,146.61,0.195,0.074,1.75,0.0423,-3.3536,146.6059,0.28718,0.02813,-0.00805,0.95743,0.0257,0.0026,-9.8623,-1.3874,0.5788,0.0889,0.1364,3,17,0.5,0.84,0.2,24.785,16.37,97.0,40.3,21338.0,7895,7890,7832,7934,57.5,57.0,56.7,61.1,2.923,2.618,2.671,2.796,2.88,227.7,31.2,71.0,1009.26,-26.63,0.15,1.33,25.8,40.1,31.2,0,no_anomaly,0.0,0,0,0,0,22.5726145,88.3638939,5.0,0.0
2024-04-13T18:53:00.800Z,MISSION_0025,8,0,takeoff,SITE_KOL_006,22.5726115,88.3638966,5.0,146.73,0.195,0.122,1.34,0.9281,-1.4514,146.7342,0.28611,0.01445,0.00413,0.95808,0.1335,-0.0819,-9.8401,0.3232,-0.5112,0.042,0.1523,3,18,0.69,1.07,0.28,24.751,14.83,96.9,39.2,21318.0,7511,7847,8014,7991,57.0,55.2,55.1,58.9,2.808,2.789,2.665,2.556,3.24,230.6,31.1,71.0,1009.2,-25.58,0.09,1.61,26.3,38.5,34.7,0,no_anomaly,0.0,0,0,0,0,22.5726115,88.3638966,5.0,0.0
2024-04-13T18:53:00.900Z,MISSION_0025,9,0,takeoff,SITE_KOL_006,22.5726128,88.3638993,5.0,145.61,0.394,0.159,1.43,-1.0015,1.309,145.6102,0.2955,-0.0135,-0.00497,0.95524,0.0067,0.0124,-9.7477,0.7181,0.7378,0.0465,0.1568,3,18,0.73,0.97,0.41,24.804,27.04,96.8,39.2,21299.0,7991,7679,7969,7877,55.4,57.2,55.4,56.8,2.846,3.014,2.688,2.846,2.4,258.6,30.9,70.7,1008.98,-28.84,0.13,1.0,24.1,36.6,34.7,0,no_anomaly,0.0,0,0,0,0,22.5726128,88.3638993,5.0,0.0
2024-04-13T18:53:01.000Z,MISSION_0025,10,0,takeoff,SITE_KOL_006,22.5726128,88.3639018,5.0,145.9,0.493,0.046,1.44,3.7076,-1.057,145.8984,0.29277,0.0183,0.02822,0.95559,-0.1323,0.0447,-9.7547,0.2789,-1.102,0.5516,0.1184,3,12,0.55,1.13,0.2,24.773,19.2,96.7,38.5,21280.0,8094,7849,8020,7891,57.7,58.0,57.2,53.4,2.731,2.879,2.882,2.626,4.27,239.9,31.3,70.9,1009.02,-29.84,0.46,1.41,24.5,40.4,31.2,0,no_anomaly,0.0,0,0,0,0,22.5726128,88.3639018,5.0,0.0
2024-04-13T18:53:01.100Z,MISSION_0025,11,0,takeoff,SITE_KOL_006,22.5726164,88.3639037,5.0,145.8,0.819,0.122,1.87,-1.4808,-2.2969,145.803,0.29418,0.01536,-0.01824,0.95545,-0.3692,0.0094,-9.844,-0.0097,0.3508,0.2155,0.0803,3,17,0.81,0.73,0.29,24.72,21.41,96.6,39.6,21261.0,7891,7948,7919,7811,54.9,55.7,61.1,55.9,2.941,2.865,2.739,2.908,2.39,245.0,31.5,70.0,1009.05,-35.56,0.85,1.67,28.1,41.2,35.2,0,no_anomaly,0.0,0,0,0,0,22.5726164,88.3639037,5.0,0.0
2024-04-13T18:53:01.200Z,MISSION_0025,12,0,takeoff,SITE_KOL_006,22.572616,88.3639043,5.0,149.08,0.41,0.116,1.84,-4.5443,-2.0292,149.0788,0.267,0.00649,-0.04292,0.96272,-0.026,-0.0437,-9.7767,-0.445,-0.2254,-0.0924,0.2727,3,10,0.68,0.99,0.25,24.693,18.76,96.6,38.8,21242.0,7858,7752,7753,8067,55.8,53.4,58.4,56.9,3.108,2.75,2.495,2.572,3.07,239.8,31.4,71.3,1009.23,-28.31,0.8,1.13,28.4,45.6,37.1,0,no_anomaly,0.0,0,0,0,0,22.572616,88.3639043,5.0,0.0
2024-04-13T18:53:01.300Z,MISSION_0025,13,0,takeoff,SITE_KOL_006,22.5726144,88.3639014,5.0,148.07,0.198,0.084,1.61,-2.2507,-0.441,148.0653,0.27511,-0.0017,-0.01994,0.96121,-0.0592,-0.1184,-9.7564,-0.8507,-0.7309,0.2215,0.2067,3,10,0.71,1.1,0.36,24.557,16.45,96.5,40.1,21222.0,7844,7875,8008,8250,58.3,55.6,58.7,53.7,2.672,2.566,2.772,2.905,3.34,239.3,31.2,70.2,1009.21,-30.35,-0.83,1.47,23.1,37.9,34.7,0,no_anomaly,0.0,0,0,0,0,22.5726144,88.3639014,5.0,0.0
2024-04-13T18:53:01.400Z,MISSION_0025,14,0,takeoff,SITE_KOL_006,22.5726155,88.3638962,5.0,148.75,0.124,0.066,1.78,-0.8864,-2.6778,148.7535,0.2694,0.02042,-0.01374,0.96271,0.0367,-0.0257,-9.805,-0.2318,0.1751,-0.0021,0.1773,3,15,0.66,1.0,0.28,24.732,18.8,96.4,39.2,21203.0,7782,7837,7974,7584,54.3,57.1,61.6,56.4,2.723,2.65,2.734,2.874,2.69,230.1,31.1,70.9,1009.59,-28.8,1.68,1.47,25.2,43.8,33.8,0,no_anomaly,0.0,0,0,0,0,22.5726155,88.3638962,5.0,0.0
2024-04-13T18:53:01.500Z,MISSION_0025,15,0,takeoff,SITE_KOL_006,22.572617,88.3639016,5.0,147.56,0.265,0.123,1.9,-1.0778,-1.7935,147.5634,0.27939,0.0124,-0.0134,0.96,0.0978,0.0084,-9.7973,-0.2751,0.3059,0.2009,0.0654,3,17,0.54,0.82,0.35,24.716,24.97,96.3,39.5,21184.0,8153,7967,7962,7955,54.7,55.3,57.7,57.4,2.752,2.781,2.767,2.69,3.18,235.4,31.3,70.0,1008.99,-27.56,0.81,1.57,21.8,43.4,32.5,0,no_anomaly,0.0,0,0,0,0,22.572617,88.3639016,5.0,0.0
2024-04-13T18:53:01.600Z,MISSION_0025,16,0,takeoff,SITE_KOL_006,22.5726156,88.363904,5.0,148.47,0.254,0.104,1.79,-0.3348,-0.3083,148.4732,0.27167,0.0018,-0.00354,0.96238,0.0588,0.0705,-9.7749,0.2936,-0.6074,-0.4655,0.1469,3,20,0.55,0.9,0.25,24.677,16.37,96.2,39.5,21165.0,7892,8036,7626,7851,58.3,54.7,58.7,59.8,2.568,2.947,2.986,2.935,4.85,244.2,31.1,71.1,1008.78,-28.63,-0.88,1.95,32.5,48.7,38.1,0,no_anomaly,0.0,0,0,0,0,22.5726156,88.363904,5.0,0.0
2024-04-13T18:53:01.700Z,MISSION_0025,17,0,takeoff,SITE_KOL_006,22.5726104,88.3639038,5.0,149.16,0.0,0.061,1.24,2.6973,-2.3803,149.1569,0.26532,0.02627,0.01716,0.96365,0.0837,0.0315,-9.9152,-0.0078,0.1732,-0.3386,0.1988,3,17,0.65,0.81,0.35,24.659,16.38,96.1,39.2,21146.0,7900,7877,7901,7881,55.1,58.4,53.5,55.2,2.92,2.839,2.547,2.693,2.4,237.5,30.9,70.7,1009.39,-28.1,0.22,1.42,27.8,35.6,32.3,0,no_anomaly,0.0,0,0,0,0,22.5726104,88.3639038,5.0,0.0
2024-04-13T18:53:01.800Z,MISSION_0025,18,0,takeoff,SITE_KOL_006,22.5726144,88.3639104,5.0,149.23,0.231,0.125,1.97,2.159,-4.9178,149.2293,0.26424,0.04635,0.00677,0.96332,0.2433,0.0165,-9.7984,0.2544,0.4218,0.0456,0.0817,3,17,0.74,0.93,0.34,24.675,18.77,96.0,39.8,21126.0,8130,7950,8032,8109,56.9,53.3,55.6,57.3,2.802,2.666,3.059,2.972,2.76,239.2,31.4,71.3,1009.2,-25.46,1.17,1.8,28.4,44.4,35.8,0,no_anomaly,0.0,0,0,0,0,22.5726144,88.3639104,5.0,0.0
2024-04-13T18:53:01.900Z,MISSION_0025,19,0,takeoff,SITE_KOL_006,22.5726181,88.3639125,5.0,148.61,0.403,0.099,2.45,-5.1549,-1.5975,148.614,0.27079,0.00124,-0.04706,0.96149,-0.0077,-0.0542,-9.7397,0.2093,-0.2558,0.1204,0.1713,3,19,0.81,0.73,0.22,24.715,16.09,95.9,40.0,21107.0,7755,7871,7798,7958,53.7,56.9,56.1,56.9,2.538,2.909,2.697,2.639,2.94,241.2,31.5,72.2,1009.51,-30.11,0.27,2.04,23.7,36.4,32.8,0,no_anomaly,0.0,0,0,0,0,22.5726181,88.3639125,5.0,0.0
2024-04-13T18:53:02.000Z,MISSION_0025,20,0,takeoff,SITE_KOL_006,22.5726149,88.3639133,5.0,151.73,0.629,0.157,2.22,-2.2516,-2.4934,151.7304,0.24451,0.0163,-0.02436,0.9692,-0.0647,0.0276,-9.7902,0.5722,0.5787,0.4203,0.1565,3,17,0.64,0.95,0.31,24.718,20.57,95.9,39.8,21088.0,7843,8119,7929,7829,54.2,56.2,55.7,56.9,2.625,2.819,2.824,2.628,3.16,237.8,31.5,71.0,1008.93,-27.57,0.28,1.33,28.4,44.3,35.7,0,no_anomaly,0.0,0,0,0,0,22.5726149,88.3639133,5.0,0.0
2024-04-13T18:53:02.100Z,MISSION_0025,21,0,takeoff,SITE_KOL_006,22.5726147,88.3639105,5.0,156.31,0.788,0.139,2.01,-0.2053,-1.9088,156.3066,0.20529,0.01593,-0.00517,0.97856,0.0125,0.0086,-9.8575,-0.0669,-0.8458,-0.6004,0.1619,3,18,0.85,0.97,0.2,24.663,12.33,95.8,40.0,21069.0,7679,7850,7840,8120,58.5,55.3,58.9,54.9,2.779,2.834,2.976,2.807,2.77,241.8,31.1,70.6,1009.36,-25.47,0.27,1.58,23.5,36.9,31.2,0,no_anomaly,0.0,0,0,0,0,22.5726147,88.3639105,5.0,0.0
2024-04-13T18:53:02.200Z,MISSION_0025,22,0,takeoff,SITE_KOL_006,22.5726155,88.3639086,5.0,155.64,0.336,0.159,1.98,2.9177,-2.7558,155.6431,0.21023,0.02887,0.01981,0.97702,-0.1715,-0.0778,-9.8152,0.0763,-0.2788,0.0155,0.1976,3,19,0.72,0.69,0.2,24.63,15.89,95.7,38.9,21050.0,7884,8043,8154,7624,55.2,55.7,54.0,55.9,2.782,2.889,3.255,3.094,3.01,243.0,31.3,71.0,1008.88,-21.7,0.46,1.35,29.5,40.1,34.0,0,no_anomaly,0.0,0,0,0,0,22.5726155,88.3639086,5.0,0.0
2024-04-13T18:53:02.300Z,MISSION_0025,23,0,takeoff,SITE_KOL_006,22.5726147,88.3639102,5.0,155.65,0.119,0.174,2.0,-1.7475,-3.345,155.6461,0.21125,0.02531,-0.02106,0.97688,0.0634,0.0697,-9.8083,0.3507,-1.1336,-0.3249,0.2522,3,16,0.8,0.76,0.31,24.616,15.79,95.6,38.6,21031.0,7909,7722,8067,7725,56.7,52.1,55.6,58.8,2.703,2.81,2.76,2.872,2.88,239.4,31.4,70.7,1008.9,-29.72,1.03,1.58,25.2,38.7,31.2,0,no_anomaly,0.0,0,0,0,0,22.5726147,88.3639102,5.0,0.0
2024-04-13T18:53:02.400Z,MISSION_0025,24,0,takeoff,SITE_KOL_006,22.5726173,88.3639107,5.0,152.99,0.0,0.066,2.26,1.9653,-3.0696,152.9915,0.23295,0.03004,0.01042,0.97197,-0.1343,-0.0889,-9.7938,-0.1829,0.407,-0.0377,0.1578,3,15,0.62,1.09,0.26,24.729,21.76,95.5,38.9,21011.0,7827,7792,7907,7763,58.3,54.8,58.8,55.1,2.934,2.97,2.761,2.833,3.31,233.9,31.3,70.6,1009.12,-30.66,-0.25,1.4,23.3,37.3,30.4,0,no_anomaly,0.0,0,0,0,0,22.5726173,88.3639107,5.0,0.0
2024-04-13T18:53:02.500Z,MISSION_0025,25,0,takeoff,SITE_KOL_006,22.5726182,88.3639133,5.0,153.07,0.0,0.119,2.51,-2.194,-2.9199,153.0686,0.23322,0.02032,-0.02454,0.9719,0.1785,0.0716,-9.7398,-0.6525,-0.4223,-0.426,0.171,3,15,0.59,0.78,0.2,24.692,15.02,95.4,40.1,20992.0,7745,8038,8083,8141,51.5,56.6,62.7,55.5,2.549,2.668,2.866,3.078,2.04,244.7,31.1,70.8,1009.18,-29.0,0.16,1.88,24.6,41.9,33.9,0,no_anomaly,0.0,0,0,0,0,22.5726182,88.3639133,5.0,0.0
2024-04-13T18:53:02.600Z,MISSION_0025,26,0,takeoff,SITE_KOL_006,22.5726149,88.3639088,5.0,150.29,0.47,0.098,1.92,-2.8095,-1.2929,150.2939,0.25652,0.00462,-0.02659,0.96616,-0.0151,0.0193,-9.7917,-0.3125,0.2191,-0.3436,0.1441,3,17,0.63,0.7,0.28,24.633,16.36,95.3,40.0,20973.0,7979,7967,7877,8092,54.7,57.8,55.9,59.9,2.919,3.129,2.771,2.967,3.02,237.8,31.3,70.5,1009.39,-29.15,0.1,1.46,28.8,37.2,32.2,0,no_anomaly,0.0,0,0,0,0,22.5726149,88.3639088,5.0,0.0
2024-04-13T18:53:02.700Z,MISSION_0025,27,0,takeoff,SITE_KOL_006,22.5726153,88.363904,5.0,149.03,0.575,0.018,1.75,-1.7242,-4.5087,149.025,0.26736,0.03389,-0.02499,0.96268,-0.0179,-0.0337,-9.8719,-0.5207,0.3264,0.1503,0.1021,3,16,0.61,1.12,0.28,24.726,21.89,95.2,39.7,20954.0,7991,7930,8055,7754,52.8,56.1,54.8,57.8,2.805,2.63,3.045,2.797,3.36,234.6,31.1,70.9,1009.01,-31.47,-1.21,1.33,27.7,42.4,32.8,0,no_anomaly,0.0,0,0,0,0,22.5726153,88.363904,5.0,0.0
2024-04-13T18:53:02.800Z,MISSION_0025,28,0,takeoff,SITE_KOL_006,22.5726113,88.3639041,5.0,147.2,0.0,0.112,1.33,0.3074,-4.2711,147.2022,0.28203,0.0365,-0.00795,0.95868,0.0433,0.0637,-9.8157,-0.1173,0.1918,-0.2878,0.2902,3,10,0.77,0.87,0.25,24.709,22.06,95.2,38.8,20935.0,7897,7661,7977,7880,56.0,54.1,57.0,55.1,2.63,3.029,2.765,2.546,3.35,233.4,31.1,71.4,1009.16,-30.49,-0.73,1.1,24.3,43.1,36.4,0,no_anomaly,0.0,0,0,0,0,22.5726113,88.3639041,5.0,0.0
2024-04-13T18:53:02.900Z,MISSION_0025,29,0,takeoff,SITE_KOL_006,22.5726113,88.3639003,5.0,149.83,0.0,0.084,1.26,-1.5184,0.7525,149.8294,0.26014,-0.00979,-0.01108,0.96546,0.0822,-0.0231,-9.8462,-0.2559,-0.3058,0.5826,0.0965,3,11,0.73,0.91,0.28,24.614,19.44,95.1,39.5,20915.0,7980,7889,7783,8065,54.7,56.7,58.8,51.8,2.874,2.967,2.668,3.001,2.82,246.3,31.4,71.1,1009.16,-32.46,2.95,1.6,25.3,43.9,37.1,0,no_anomaly,0.0,0,0,0,0,22.5726113,88.3639003,5.0,0.0
2024-04-13T18:53:03.000Z,MISSION_0025,30,0,takeoff,SITE_KOL_006,22.5726035,88.363902,5.0,148.78,0.0,0.065,0.45,0.952,-2.2568,148.7772,0.26889,0.0212,0.0027,0.96293,-0.0577,-0.0931,-9.827,0.1259,0.0822,-0.5666,0.2374,3,18,0.77,0.73,0.36,24.668,19.54,95.0,39.3,20896.0,7556,7821,7860,7923,60.8,56.2,56.9,55.3,2.856,2.672,2.874,2.78,3.33,244.9,31.3,70.2,1008.94,-30.29,0.01,1.32,26.1,40.1,34.4,0,no_anomaly,0.0,0,0,0,0,22.5726035,88.363902,5.0,0.0
2024-04-13T18:53:03.100Z,MISSION_0025,31,0,takeoff,SITE_KOL_006,22.5726012,88.3639008,5.0,150.51,0.0,0.07,0.16,-1.4628,-0.9923,150.5142,0.25456,0.00513,-0.01455,0.96693,-0.0761,-0.0597,-9.7301,0.089,-0.6436,0.0431,0.1833,3,10,0.83,0.83,0.29,24.624,17.68,94.9,39.3,20877.0,7956,8054,8122,7945,59.2,57.1,58.8,58.2,2.868,3.058,2.906,2.964,2.84,245.7,31.3,70.3,1008.74,-33.4,0.18,1.97,26.1,37.1,31.9,0,no_anomaly,0.0,0,0,0,0,22.5726012,88.3639008,5.0,0.0
2024-04-13T18:53:03.200Z,MISSION_0025,32,0,takeoff,SITE_KOL_006,22.5726031,88.363899,5.0,150.6,0.04,0.101,0.36,1.0133,-1.6013,150.5987,0.25362,0.01576,0.00501,0.96716,-0.0408,0.0013,-9.8376,0.0611,0.8695,-0.2192,0.1825,3,10,0.63,1.02,0.21,24.712,19.18,94.8,39.2,20858.0,8273,7744,7820,7978,57.0,53.4,56.8,59.1,2.707,2.879,2.958,2.733,2.9,237.5,31.1,70.7,1009.19,-31.69,-0.66,1.71,26.2,41.5,34.2,0,no_anomaly,0.0,0,0,0,0,22.5726031,88.363899,5.0,0.0
2024-04-13T18:53:03.300Z,MISSION_0025,33,0,takeoff,SITE_KOL_006,22.5726004,88.3638941,5.0,151.16,0.384,0.103,0.66,2.5089,-3.3269,151.1572,0.24827,0.03356,0.01397,0.96801,-0.2299,-0.0049,-9.8032,0.6851,0.1571,-0.1703,0.1763,3,14,0.73,0.81,0.34,24.62,16.3,94.7,39.1,20839.0,7922,7731,7909,7881,59.2,54.7,56.3,56.6,2.531,2.473,2.712,3.13,3.37,235.5,31.4,71.0,1008.97,-26.03,-2.34,1.8,25.2,42.4,33.9,0,no_anomaly,0.0,0,0,0,0,22.5726004,88.3638941,5.0,0.0
2024-04-13T18:53:03.400Z,MISSION_0025,34,0,takeoff,SITE_KOL_006,22.5726027,88.3638955,5.0,150.57,0.697,0.008,0.59,-3.2567,-3.146,150.57,0.25457,0.01932,-0.03444,0.96625,0.0185,-0.0082,-9.7696,-0.164,-0.405,0.0797,0.1446,3,13,0.82,0.69,0.37,24.695,16.05,94.6,39.3,20819.0,7950,7584,7999,7932,54.4,61.1,54.1,57.0,2.739,2.972,2.935,2.845,3.14,234.4,30.9,70.6,1009.5,-30.5,1.18,1.53,28.2,44.8,32.1,0,no_anomaly,0.0,0,0,0,0,22.5726027,88.3638955,5.0,0.0
2024-04-13T18:53:03.500Z,MISSION_0025,35,0,takeoff,SITE_KOL_006,22.5726004,88.3639002,5.0,149.1,0.332,0.074,0.05,-3.3763,-0.4327,149.0957,0.26642,-0.00421,-0.0294,0.9634,-0.1901,-0.0426,-9.7963,0.1382,0.0491,-0.0464,0.1613,3,16,0.61,0.99,0.3,24.741,12.74,94.5,39.2,20800.0,7883,7693,8011,7736,52.7,56.1,58.2,58.2,2.613,2.814,2.939,2.738,2.19,240.4,31.0,71.1,1009.55,-28.68,0.18,1.48,27.7,45.4,32.1,0,no_anomaly,0.0,0,0,0,0,22.5726004,88.3639002,5.0,0.0
2024-04-13T18:53:03.600Z,MISSION_0025,36,0,takeoff,SITE_KOL_006,22.5726006,88.3639053,5.0,147.06,0.024,0.095,0.59,-0.7114,-2.4201,147.0601,0.28357,0.01849,-0.01194,0.9587,-0.0666,0.0327,-9.8601,0.1242,1.1207,0.1032,0.086,3,13,0.66,1.02,0.31,24.626,18.76,94.5,39.3,20781.0,7694,7836,7941,7892,54.9,60.7,55.0,55.8,2.84,3.04,2.96,2.587,2.29,244.5,31.3,70.4,1009.18,-31.79,1.04,1.6,28.6,42.7,35.2,0,no_anomaly,0.0,0,0,0,0,22.5726006,88.3639053,5.0,0.0
2024-04-13T18:53:03.700Z,MISSION_0025,37,0,takeoff,SITE_KOL_006,22.5726,88.3639051,5.0,144.65,0.0,0.051,0.57,-1.3702,-1.825,144.654,0.3037,0.01154,-0.01623,0.95256,-0.0988,0.05,-9.8154,-0.1543,-0.2048,0.1451,0.1474,3,10,0.75,0.96,0.3,24.683,24.13,94.4,38.6,20762.0,8030,7870,7952,7765,53.1,57.3,58.6,55.0,2.658,2.948,2.594,2.868,3.18,238.1,31.5,71.5,1009.46,-26.33,0.17,1.64,30.3,44.7,34.1,0,no_anomaly,0.0,0,0,0,0,22.5726,88.3639051,5.0,0.0
2024-04-13T18:53:03.800Z,MISSION_0025,38,0,transit,SITE_KOL_006,22.5725943,88.3639019,5.5,145.03,0.28,0.141,0.67,1.2433,-2.624,145.0304,0.30012,0.0251,0.00347,0.95357,0.0776,0.0452,-9.8277,-0.3226,-0.6838,-0.3109,0.0622,3,20,0.65,0.9,0.28,24.684,21.36,94.3,39.0,20743.0,7711,7843,8014,7995,54.6,56.3,53.6,53.5,2.57,2.767,2.956,2.695,2.23,229.1,31.4,70.6,1009.25,-34.61,0.92,2.14,27.8,44.3,32.7,0,no_anomaly,0.0,0,0,0,0,22.5725943,88.3639019,5.5,0.0
2024-04-13T18:53:03.900Z,MISSION_0025,39,0,transit,SITE_KOL_006,22.5725942,88.3639038,6.0,144.89,0.347,0.08,0.77,1.1739,-1.9008,144.8867,0.30143,0.0189,0.00476,0.95329,0.1106,-0.0788,-9.8444,0.2193,0.2148,0.355,0.219,3,20,0.54,0.63,0.2,24.537,16.31,94.2,39.7,20723.0,7958,7854,7774,8097,56.2,59.4,58.1,56.3,2.86,2.909,3.004,2.664,3.42,237.9,31.6,70.8,1009.46,-28.52,0.81,1.6,22.2,36.4,33.9,0,no_anomaly,0.0,0,0,0,0,22.5725942,88.3639038,6.0,0.0
2024-04-13T18:53:04.000Z,MISSION_0025,40,0,transit,SITE_KOL_006,22.5725935,88.3639038,6.5,145.61,0.0,0.041,0.84,3.0215,-0.8313,145.6063,0.29536,0.01472,0.02304,0.95499,0.214,0.0741,-9.8906,-0.5247,-0.5849,-0.1715,0.2143,3,14,0.74,1.28,0.3,24.769,15.42,94.1,40.0,20704.0,7918,7842,7906,7893,52.8,53.9,55.3,56.9,2.757,2.912,2.903,2.832,3.2,243.8,31.1,70.4,1009.04,-26.21,0.1,1.41,26.4,41.6,31.1,0,no_anomaly,0.0,0,0,0,0,22.5725935,88.3639038,6.5,0.0
2024-04-13T18:53:04.100Z,MISSION_0025,41,0,transit,SITE_KOL_006,22.5725879,88.3639093,7.0,145.72,0.0,0.207,1.7,0.2513,-0.7925,145.7207,0.29468,0.00725,6e-05,0.95557,-0.175,0.0287,-9.8493,0.0268,-0.0258,-0.544,0.189,3,14,0.58,0.8,0.24,24.682,18.3,94.0,39.4,20685.0,8090,8024,7780,7751,55.6,58.3,56.6,54.5,2.631,2.661,2.76,2.813,3.02,232.7,31.6,71.4,1009.12,-31.3,-0.73,1.57,24.5,38.2,33.8,0,no_anomaly,0.0,0,0,0,0,22.5725879,88.3639093,7.0,0.0
2024-04-13T18:53:04.200Z,MISSION_0025,42,0,transit,SITE_KOL_006,22.5725842,88.3639092,7.5,143.83,0.0,0.043,2.03,-0.9305,-3.0712,143.8273,0.31054,0.02295,-0.01604,0.95015,-0.1149,-0.0084,-9.8057,0.6604,0.1236,-0.1225,0.1389,3,11,0.68,0.76,0.31,24.585,18.14,93.9,39.2,20666.0,7903,8199,7884,7799,56.4,54.0,56.9,53.9,3.278,2.963,3.044,2.827,3.37,241.8,31.2,70.3,1009.24,-32.42,0.48,1.77,29.4,41.8,34.0,0,no_anomaly,0.0,0,0,0,0,22.5725842,88.3639092,7.5,0.0
2024-04-13T18:53:04.300Z,MISSION_0025,43,0,transit,SITE_KOL_006,22.5725812,88.3639125,8.0,142.35,0.0,0.152,2.51,2.5382,-4.0032,142.3546,0.32163,0.04019,0.00968,0.94596,-0.201,0.0068,-9.8508,-0.8685,-0.6504,0.4446,0.1628,3,10,0.75,0.71,0.28,24.601,15.22,93.8,39.4,20647.0,7839,7615,7800,7913,56.4,58.1,53.7,53.2,2.638,3.029,2.527,2.844,2.74,237.6,31.5,70.7,1008.99,-27.4,0.53,2.01,24.5,37.2,35.5,0,no_anomaly,0.0,0,0,0,0,22.5725812,88.3639125,8.0,0.0
2024-04-13T18:53:04.400Z,MISSION_0025,44,0,transit,SITE_KOL_006,22.5725803,88.3639131,8.5,141.71,0.599,0.089,2.63,-4.0242,-3.2837,141.7132,0.32855,0.01554,-0.04255,0.9434,-0.1787,0.0635,-9.9434,-0.5769,0.0122,-0.1427,0.1641,3,16,0.73,1.18,0.31,24.604,21.41,93.8,39.9,20627.0,7931,8028,7965,7649,56.9,55.5,59.3,54.9,2.873,2.685,2.49,2.746,3.23,244.6,31.0,70.8,1009.56,-24.61,0.05,1.1,23.5,39.0,33.7,0,no_anomaly,0.0,0,0,0,0,22.5725803,88.3639131,8.5,0.0
2024-04-13T18:53:04.500Z,MISSION_0025,45,0,transit,SITE_KOL_006,22.5725764,88.3639178,9.0,143.4,0.048,0.127,3.29,2.6783,-2.2502,143.4039,0.31338,0.02597,0.01602,0.94914,0.0228,0.0758,-9.8059,-0.5209,0.1312,-0.8049,0.1886,3,10,0.76,1.17,0.27,24.651,15.66,93.7,39.2,20608.0,8063,7556,7935,8172,53.2,55.6,59.5,55.7,2.712,2.804,2.495,2.928,3.29,248.7,31.3,70.7,1008.99,-32.88,-0.33,2.01,29.9,37.4,36.2,0,no_anomaly,0.0,0,0,0,0,22.5725764,88.3639178,9.0,0.0
2024-04-13T18:53:04.600Z,MISSION_0025,46,0,transit,SITE_KOL_006,22.5725765,88.3639194,9.5,141.32,0.0,0.188,3.39,-0.4517,-3.6224,141.3232,0.3311,0.02852,-0.01418,0.94306,-0.1263,0.0001,-9.8218,0.6484,-0.9537,-0.1468,0.1493,3,16,0.76,0.94,0.29,24.58,15.79,93.6,39.8,20589.0,7940,7783,8243,7839,58.4,55.8,57.8,57.2,2.821,2.667,2.707,2.859,2.07,244.7,31.6,71.3,1009.22,-30.76,-0.27,1.13,24.4,44.3,35.1,0,no_anomaly,0.0,0,0,0,0,22.5725765,88.3639194,9.5,0.0
2024-04-13T18:53:04.700Z,MISSION_0025,47,0,transit,SITE_KOL_006,22.5725723,88.363921,10.0,140.96,0.03,0.14,3.87,-1.057,-1.7627,140.9597,0.33422,0.01142,-0.01383,0.94233,0.1457,0.075,-9.8123,0.0162,-0.1557,0.1604,0.1722,3,12,0.87,0.79,0.2,24.679,17.48,93.5,40.8,20570.0,7973,8254,7682,8048,59.4,55.3,54.1,56.6,2.704,2.863,2.913,2.708,2.5,235.7,30.9,70.6,1009.25,-32.98,-0.01,1.84,22.7,35.7,30.5,0,no_anomaly,0.0,0,0,0,0,22.5725723,88.363921,10.0,0.0
2024-04-13T18:53:04.800Z,MISSION_0025,48,0,transit,SITE_KOL_006,22.5725725,88.3639298,10.5,142.57,0.0,0.107,4.52,3.5509,-4.4686,142.5667,0.31935,0.04684,0.01682,0.94633,0.0514,-0.005,-9.7642,-0.0937,-0.4422,0.2276,0.1162,3,19,0.92,1.17,0.26,24.66,15.78,93.4,39.2,20551.0,7844,7907,7880,8160,55.9,59.0,58.3,54.2,3.017,2.741,2.745,2.779,3.44,238.3,31.3,71.3,1009.17,-32.11,-0.8,1.52,26.6,43.9,33.6,0,no_anomaly,0.0,0,0,0,0,22.5725725,88.3639298,10.5,0.0
2024-04-13T18:53:04.900Z,MISSION_0025,49,0,transit,SITE_KOL_006,22.5725739,88.3639268,11.0,145.11,0.0,0.166,4.17,-3.4246,-0.9898,145.1139,0.29986,-0.00072,-0.03109,0.95348,-0.001,0.0338,-9.8316,0.1182,-0.2249,-0.0419,0.1694,3,11,0.71,0.9,0.21,24.649,12.98,93.3,39.4,20531.0,7645,7725,8028,7919,58.2,55.5,56.8,57.3,2.715,2.791,2.907,2.711,3.05,241.6,31.2,71.1,1009.2,-33.58,-0.99,1.05,26.4,40.7,32.3,0,no_anomaly,0.0,0,0,0,0,22.5725739,88.3639268,11.0,0.0
2024-04-13T18:53:05.000Z,MISSION_0025,50,0,transit,SITE_KOL_006,22.5725656,88.3639292,11.5,145.13,0.646,0.1,5.03,2.4917,-3.5677,145.1317,0.29875,0.0362,0.01141,0.95358,-0.1348,0.0979,-9.8232,-0.3591,0.3283,-0.0009,0.1731,3,12,0.6,0.85,0.23,24.577,21.68,93.2,39.4,20512.0,7713,8108,7829,7717,57.3,55.0,54.1,58.2,2.671,2.816,2.814,2.827,2.38,237.0,30.8,70.5,1009.51,-33.7,0.91,1.85,24.0,45.0,32.2,0,no_anomaly,0.0,0,0,0,0,22.5725656,88.3639292,11.5,0.0
2024-04-13T18:53:05.100Z,MISSION_0025,51,0,transit,SITE_KOL_006,22.5725638,88.3639324,12.0,145.4,0.307,0.154,5.41,2.1596,-2.0858,145.4043,0.29691,0.02298,0.01258,0.95455,-0.0089,0.0012,-9.7932,0.6477,-0.0968,0.1463,0.1541,3,19,0.65,0.61,0.3,24.659,19.41,93.2,39.2,20493.0,7816,7865,7843,7614,53.7,57.9,54.9,56.4,2.879,2.997,2.777,2.793,2.53,243.8,31.4,71.5,1009.01,-27.93,-1.29,1.44,25.1,38.0,36.0,0,no_anomaly,0.0,0,0,0,0,22.5725638,88.3639324,12.0,0.0
2024-04-13T18:53:05.200Z,MISSION_0025,52,0,transit,SITE_KOL_006,22.572563,88.3639318,12.5,147.92,0.436,0.006,5.43,1.1611,-0.9245,147.9214,0.27619,0.01055,0.00751,0.96101,0.074,-0.0631,-9.8726,0.3598,-0.9959,-0.7432,0.2734,3,16,0.59,0.78,0.3,24.643,20.11,93.1,40.0,20474.0,8095,7715,7940,7872,54.7,56.9,59.8,57.8,2.699,2.819,3.112,2.967,2.43,239.7,31.4,71.9,1008.66,-36.62,0.18,1.6,27.3,36.8,34.9,0,no_anomaly,0.0,0,0,0,0,22.572563,88.3639318,12.5,0.0
2024-04-13T18:53:05.300Z,MISSION_0025,53,0,transit,SITE_KOL_006,22.5725618,88.3639265,13.0,147.54,0.395,0.082,5.17,-4.3045,-1.3922,147.5402,0.27971,0.00116,-0.03945,0.95927,0.1027,0.0691,-9.8271,0.4939,-0.1259,0.2532,0.1711,3,10,0.63,0.84,0.28,24.541,16.07,93.0,39.5,20455.0,8262,7734,8004,7666,55.5,54.4,53.7,56.3,2.771,2.657,2.798,2.731,2.76,241.8,30.9,70.1,1009.29,-27.09,-0.29,1.4,26.9,43.9,33.4,0,no_anomaly,0.0,0,0,0,0,22.5725618,88.3639265,13.0,0.0
2024-04-13T18:53:05.400Z,MISSION_0025,54,0,transit,SITE_KOL_006,22.5725596,88.3639256,13.5,150.73,0.508,0.107,5.33,2.1739,-2.7761,150.7262,0.25213,0.02823,0.01223,0.9672,0.0143,0.0847,-9.832,0.02,-0.233,0.3219,0.2498,3,10,0.74,1.02,0.44,24.603,18.1,92.9,40.0,20435.0,8248,7830,7892,8163,57.9,53.4,55.9,52.4,2.98,2.847,2.659,2.601,2.8,242.6,30.9,70.4,1009.23,-31.08,-0.74,1.26,24.6,43.3,33.5,0,no_anomaly,0.0,0,0,0,0,22.5725596,88.3639256,13.5,0.0
2024-04-13T18:53:05.500Z,MISSION_0025,55,0,transit,SITE_KOL_006,22.5725577,88.3639254,14.0,152.92,0.407,0.008,5.49,-0.179,-0.2465,152.9216,0.23411,0.00173,-0.00202,0.97221,-0.015,-0.0401,-9.7744,0.2459,-0.8116,-0.3256,0.2702,3,16,0.68,0.94,0.33,24.722,22.05,92.8,39.8,20416.0,7800,7891,8137,7969,57.0,60.3,57.9,54.4,3.059,2.673,3.021,2.73,2.59,243.1,31.3,70.2,1009.38,-34.71,-1.54,1.44,26.0,38.5,32.9,0,no_anomaly,0.0,0,0,0,0,22.5725577,88.3639254,14.0,0.0
2024-04-13T18:53:05.600Z,MISSION_0025,56,0,transit,SITE_KOL_006,22.5725586,88.3639248,14.5,154.89,0.445,0.115,5.37,0.1236,-1.7442,154.8863,0.21737,0.01509,-0.00226,0.97597,-0.0364,0.0449,-9.8412,-0.1613,0.1573,-0.2578,0.1408,3,17,0.89,0.89,0.3,24.731,22.75,92.7,39.7,20397.0,7672,7979,8023,7761,59.5,56.5,56.8,55.6,2.588,2.921,3.012,2.846,3.47,238.6,31.4,70.9,1009.12,-33.41,-1.08,1.88,26.0,41.9,35.7,0,no_anomaly,0.0,0,0,0,0,22.5725586,88.3639248,14.5,0.0
2024-04-13T18:53:05.700Z,MISSION_0025,57,0,transit,SITE_KOL_006,22.5725631,88.3639217,15.0,155.78,0.0,0.105,4.77,-2.1311,-0.9978,155.7775,0.20992,0.00461,-0.02001,0.9775,-0.1395,-0.0865,-9.732,0.1303,-0.9176,-0.1192,0.2025,3,16,0.76,0.86,0.34,24.658,18.9,92.6,38.8,20378.0,7952,8011,8047,7735,56.3,58.8,56.7,56.3,2.731,2.929,2.66,2.65,3.12,241.8,31.1,71.1,1009.05,-34.12,1.0,1.39,26.8,42.4,31.3,0,no_anomaly,0.0,0,0,0,0,22.5725631,88.3639217,15.0,0.0
2024-04-13T18:53:05.800Z,MISSION_0025,58,0,transit,SITE_KOL_006,22.5725679,88.3639168,15.5,154.06,0.151,0.045,4.03,-2.8362,-0.3529,154.058,0.22446,-0.00255,-0.02481,0.97416,0.3064,0.0275,-9.7937,-0.6305,-0.175,0.3445,0.1495,3,20,0.77,0.93,0.35,24.636,21.62,92.5,40.1,20359.0,7596,8054,7779,8028,51.8,59.0,58.6,57.4,2.639,3.037,2.635,3.106,2.51,239.6,31.0,69.9,1009.43,-34.05,-0.02,1.59,29.4,44.3,35.9,0,no_anomaly,0.0,0,0,0,0,22.5725679,88.3639168,15.5,0.0
2024-04-13T18:53:05.900Z,MISSION_0025,59,0,transit,SITE_KOL_006,22.5725711,88.3639105,16.0,152.81,0.066,0.046,3.42,-2.5513,-3.0404,152.8135,0.23546,0.02055,-0.02786,0.97127,-0.1708,0.0216,-9.7644,-0.6805,-0.2915,0.215,0.0763,3,20,0.67,0.97,0.28,24.587,14.21,92.5,39.7,20339.0,7951,8168,7780,8077,54.8,56.0,55.7,58.1,2.718,2.87,2.7,2.856,4.05,233.1,31.6,70.0,1009.43,-33.47,-0.22,1.67,23.3,42.5,31.9,0,no_anomaly,0.0,0,0,0,0,22.5725711,88.3639105,16.0,0.0
2024-04-13T18:53:06.000Z,MISSION_0025,60,0,transit,SITE_KOL_006,22.5725655,88.363907,16.5,151.16,0.049,0.132,3.92,-1.1483,-0.4243,151.1649,0.24901,0.00109,-0.01063,0.96844,-0.0083,-0.0363,-9.8183,-0.6659,0.1716,-0.5301,0.1695,3,14,0.5,1.05,0.2,24.641,20.53,92.4,39.6,20320.0,7867,7920,7992,7860,54.9,63.3,55.5,58.5,2.901,2.862,2.51,2.487,3.2,247.2,31.4,70.2,1009.01,-34.56,-0.92,1.87,30.8,43.0,37.4,0,no_anomaly,0.0,0,0,0,0,22.5725655,88.363907,16.5,0.0
2024-04-13T18:53:06.100Z,MISSION_0025,61,0,transit,SITE_KOL_006,22.5725641,88.3639092,17.0,149.87,0.0,0.105,4.13,0.1511,-3.9916,149.8729,0.25969,0.03397,-0.00778,0.96506,-0.0328,-0.0104,-9.7608,0.6016,-0.0431,0.2603,0.135,3,15,0.76,0.85,0.27,24.603,21.5,92.3,39.7,20301.0,7887,7912,7845,8077,57.6,55.9,56.5,57.1,2.749,2.98,2.795,2.757,2.2,236.3,31.2,71.3,1008.93,-32.63,-0.15,2.15,26.6,45.1,35.3,0,no_anomaly,0.0,0,0,0,0,22.5725641,88.3639092,17.0,0.0
2024-04-13T18:53:06.200Z,MISSION_0025,62,0,transit,SITE_KOL_006,22.5725616,88.3639068,17.5,149.38,0.0,0.107,4.35,3.0214,-4.1266,149.376,0.2629,0.04167,0.01591,0.96379,-0.346,0.0617,-9.8072,0.3059,-0.943,0.4358,0.2382,3,14,0.83,0.99,0.24,24.601,18.23,92.2,39.8,20282.0,8004,8121,7929,7780,58.4,58.3,57.5,56.2,2.81,2.942,2.714,2.739,2.53,241.6,31.2,70.9,1009.01,-27.33,-0.21,1.76,28.0,39.7,35.8,0,no_anomaly,0.0,0,0,0,0,22.5725616,88.3639068,17.5,0.0
2024-04-13T18:53:06.300Z,MISSION_0025,63,0,transit,SITE_KOL_006,22.5725596,88.3639034,18.0,149.18,0.02,0.087,4.51,-0.4843,-0.1074,149.1799,0.26573,-0.00022,-0.00432,0.96404,0.1302,-0.05,-9.8442,-0.3469,-0.2258,0.096,0.2028,3,10,0.75,0.83,0.27,24.616,25.09,92.1,39.8,20263.0,8158,7862,8005,8005,57.9,53.6,56.5,57.8,2.795,2.622,2.932,2.714,2.6,239.9,31.5,70.4,1009.59,-35.23,0.98,2.2,25.1,40.1,34.3,0,no_anomaly,0.0,0,0,0,0,22.5725596,88.3639034,18.0,0.0
2024-04-13T18:53:06.400Z,MISSION_0025,64,0,transit,SITE_KOL_006,22.5725605,88.3638986,18.5,148.63,0.13,-0.005,4.4,0.005,0.3539,148.6277,0.27037,-0.00296,0.00088,0.96275,0.0765,-0.016,-9.8478,0.8492,-0.3435,-0.1994,0.181,3,11,0.72,0.67,0.22,24.584,20.7,92.0,39.4,20243.0,7891,7912,8023,7812,57.1,57.8,55.8,56.2,2.759,2.725,2.674,2.711,3.58,239.6,31.4,70.3,1009.12,-32.06,1.29,1.19,23.9,44.9,33.8,0,no_anomaly,0.0,0,0,0,0,22.5725605,88.3638986,18.5,0.0
2024-04-13T18:53:06.500Z,MISSION_0025,65,0,transit,SITE_KOL_006,22.5725669,88.3638956,19.0,150.74,0.263,0.118,3.72,-2.0439,-7.1801,150.7443,0.25308,0.05608,-0.03303,0.96525,0.1931,0.0017,-9.7493,-0.3983,0.2432,0.4028,0.1594,3,20,0.85,0.92,0.31,24.544,16.06,91.9,39.6,20224.0,7707,7990,8135,7772,55.2,56.5,56.9,57.3,3.015,2.841,2.669,2.946,2.87,242.0,31.2,70.1,1009.19,-29.39,-0.11,1.47,28.7,39.6,36.3,0,no_anomaly,0.0,0,0,0,0,22.5725669,88.3638956,19.0,0.0
2024-04-13T18:53:06.600Z,MISSION_0025,66,0,transit,SITE_KOL_006,22.5725632,88.363896,19.2,152.0,0.0,0.083,4.12,-0.9073,-0.2956,152.0027,0.24191,0.00059,-0.00831,0.97026,-0.0469,-0.0412,-9.8132,-0.2124,0.1965,-0.254,0.2534,3,15,0.85,0.74,0.29,24.618,13.39,91.8,39.4,20205.0,8061,7722,7844,8135,54.3,57.7,54.5,55.5,3.01,2.984,2.604,2.853,2.46,236.6,30.9,70.7,1009.14,-32.19,-1.03,1.34,29.5,41.4,33.5,0,no_anomaly,0.0,0,0,0,0,22.5725632,88.363896,19.2,0.0
2024-04-13T18:53:06.700Z,MISSION_0025,67,0,transit,SITE_KOL_006,22.5725644,88.3638926,19.2,153.66,0.0,0.121,4.05,2.4144,-2.6422,153.6585,0.22727,0.02724,0.01526,0.97333,0.1559,-0.0136,-9.7646,0.1925,0.6373,-0.3911,0.2059,3,15,0.71,0.67,0.26,24.617,17.75,91.8,39.1,20186.0,7739,8045,7791,7940,53.8,55.7,54.5,57.6,2.574,2.734,2.756,2.831,3.14,240.1,31.1,70.7,1009.36,-28.36,0.82,1.68,26.7,43.4,31.6,0,no_anomaly,0.0,0,0,0,0,22.5725644,88.3638926,19.2,0.0
2024-04-13T18:53:06.800Z,MISSION_0025,68,0,transit,SITE_KOL_006,22.572568,88.3638958,19.2,154.01,0.0,0.046,3.6,2.5712,0.7759,154.0124,0.22493,-0.00155,0.02338,0.97409,-0.1757,-0.0047,-9.7783,-0.007,-0.898,0.3357,0.2044,3,13,0.59,1.04,0.24,24.532,17.92,91.7,40.2,20167.0,8033,7944,7767,8103,52.9,57.3,54.1,54.6,2.941,2.789,2.816,2.973,3.37,230.7,31.4,69.8,1009.14,-30.42,1.24,1.81,28.5,38.7,36.3,0,no_anomaly,0.0,0,0,0,0,22.572568,88.3638958,19.2,0.0
2024-04-13T18:53:06.900Z,MISSION_0025,69,0,transit,SITE_KOL_006,22.5725725,88.3638942,19.2,154.55,0.323,0.044,3.12,-1.9045,-3.6012,154.5489,0.22065,0.02699,-0.02312,0.97471,0.0142,0.0026,-9.7747,-0.703,0.1651,0.4473,0.2485,3,20,0.7,0.97,0.35,24.586,14.32,91.6,39.2,20147.0,7948,8005,7999,8014,54.1,56.0,55.3,56.1,2.476,2.779,2.615,2.777,2.67,239.8,31.3,70.4,1009.03,-25.67,-1.22,1.57,28.7,44.3,35.3,0,no_anomaly,0.0,0,0,0,0,22.5725725,88.3638942,19.2,0.0
2024-04-13T18:53:07.000Z,MISSION_0025,70,0,transit,SITE_KOL_006,22.5725753,88.363893,19.2,153.67,0.507,0.114,2.85,-1.4856,0.4868,153.6709,0.22767,-0.00709,-0.01166,0.97364,-0.0369,0.0723,-9.8832,0.6613,-0.5864,-0.0023,0.1718,3,17,0.76,0.79,0.29,24.549,15.85,91.5,40.0,20128.0,7887,7964,8176,7873,54.1,57.9,56.1,57.7,2.759,2.681,2.575,2.822,2.41,232.9,31.4,70.7,1009.49,-29.66,0.33,1.34,26.5,42.2,34.8,0,no_anomaly,0.0,0,0,0,0,22.5725753,88.363893,19.2,0.0
2024-04-13T18:53:07.100Z,MISSION_0025,71,0,transit,SITE_KOL_006,22.5725756,88.3638961,19.2,153.48,0.673,0.125,2.75,5.424,-1.6356,153.4836,0.2284,0.02473,0.04278,0.97231,0.0606,0.0244,-9.7829,0.267,0.0985,-0.6865,0.0975,3,16,0.74,0.92,0.34,24.565,17.83,91.4,39.4,20109.0,7762,7848,8085,8001,55.7,55.7,55.0,53.9,3.045,2.955,2.922,2.759,2.77,240.3,31.4,70.8,1009.07,-25.66,-0.05,2.14,24.3,43.2,31.6,0,no_anomaly,0.0,0,0,0,0,22.5725756,88.3638961,19.2,0.0
2024-04-13T18:53:07.200Z,MISSION_0025,72,0,transit,SITE_KOL_006,22.5725774,88.3638943,19.2,153.71,0.662,0.095,2.6,-4.2115,-0.5817,153.7082,0.22746,-0.00342,-0.03693,0.97308,0.0386,0.0194,-9.7074,0.7252,0.7351,0.1017,0.1481,3,12,0.65,0.79,0.2,24.653,16.57,91.3,39.1,20090.0,7940,7846,7852,7831,54.3,59.8,53.2,58.2,2.804,2.684,2.664,2.954,3.6,232.4,31.0,71.0,1009.01,-36.47,-1.11,1.76,23.8,41.8,35.0,0,no_anomaly,0.0,0,0,0,0,22.5725774,88.3638943,19.2,0.0
2024-04-13T18:53:07.300Z,MISSION_0025,73,0,transit,SITE_KOL_006,22.5725748,88.363891,19.2,151.83,0.387,0.164,2.98,1.367,-0.6244,151.8293,0.24328,0.00819,0.01024,0.96987,-0.1547,-0.0478,-9.8687,0.8755,-0.1875,-0.1642,0.1299,3,19,0.5,0.7,0.2,24.574,16.99,91.2,39.6,20071.0,8014,8017,7742,8004,55.5,56.3,59.4,55.3,2.936,2.706,2.787,2.99,3.33,244.0,31.1,71.4,1009.22,-26.17,0.35,1.14,27.9,42.0,35.5,0,no_anomaly,0.0,0,0,0,0,22.5725748,88.363891,19.2,0.0
2024-04-13T18:53:07.400Z,MISSION_0025,74,0,transit,SITE_KOL_006,22.5725769,88.3638956,19.2,150.79,0.225,0.087,2.62,-0.5444,-0.982,150.7925,0.25216,0.00709,-0.00676,0.96764,-0.1095,-0.0645,-9.8311,-0.1075,-0.0859,0.2031,0.0823,3,19,0.65,0.77,0.35,24.486,16.93,91.1,39.5,20051.0,7828,7973,7852,7926,55.8,57.2,55.1,58.5,2.79,2.768,2.739,2.555,3.14,239.2,31.1,70.2,1009.41,-27.61,1.47,1.7,23.6,40.1,36.3,0,no_anomaly,0.0,0,0,0,0,22.5725769,88.3638956,19.2,0.0
2024-04-13T18:53:07.500Z,MISSION_0025,75,1,transit,SITE_KOL_006,22.5725778,88.3638977,19.2,152.09,0.0,0.096,2.49,0.5628,-1.1496,152.0922,0.24108,0.01092,0.00235,0.97044,0.1189,0.0206,-9.8304,0.6365,-0.2372,-0.3996,0.0948,3,10,0.76,0.92,0.38,24.666,19.44,91.1,39.7,20032.0,8067,7690,7917,7862,53.7,60.1,56.9,59.1,2.741,3.05,3.008,3.0,2.86,240.7,31.4,70.9,1009.38,-31.75,0.76,1.82,25.3,43.0,36.2,0,no_anomaly,0.0,0,0,0,0,22.5725778,88.3638977,19.2,0.0
2024-04-13T18:53:07.600Z,MISSION_0025,76,1,transit,SITE_KOL_006,22.5725746,88.3638989,19.2,151.89,0.4,0.138,2.83,-0.3711,-2.3213,151.8877,0.24289,0.01886,-0.00806,0.96984,-0.0774,0.039,-9.8369,-0.68,0.902,-0.2708,0.1473,3,10,0.62,1.13,0.2,24.529,23.53,91.0,40.5,20013.0,7973,7930,8106,8183,58.0,52.9,55.4,55.9,2.71,2.891,2.595,2.686,3.85,234.6,31.3,71.4,1009.05,-27.8,0.9,1.0,26.8,41.1,32.4,0,no_anomaly,0.0,0,0,0,0,22.5725746,88.3638989,19.2,0.0
2024-04-13T18:53:07.700Z,MISSION_0025,77,1,transit,SITE_KOL_006,22.5725696,88.3639022,19.2,151.51,0.436,0.041,3.39,-0.9101,-1.5611,151.5073,0.24617,0.01125,-0.01105,0.9691,0.1698,0.0148,-9.8058,0.8391,0.3936,0.1104,0.1297,3,14,0.73,0.6,0.27,24.506,16.36,90.9,39.4,19994.0,7954,7748,7995,7834,54.9,54.4,58.2,57.2,2.496,2.925,2.823,2.712,3.78,241.3,31.7,71.9,1008.77,-29.58,-0.29,1.51,25.7,40.8,35.4,0,no_anomaly,0.0,0,0,0,0,22.5725696,88.3639022,19.2,0.0
2024-04-13T18:53:07.800Z,MISSION_0025,78,1,transit,SITE_KOL_006,22.5725677,88.3639082,19.2,149.69,0.458,0.096,3.71,-2.5051,-3.7297,149.6933,0.26189,0.02569,-0.02959,0.9643,-0.0744,-0.0774,-9.8604,-0.1823,-0.3552,-0.1904,0.151,3,13,0.58,0.84,0.24,24.642,22.93,90.8,39.4,19975.0,8070,8052,7738,7832,56.5,55.4,58.7,59.8,2.512,2.903,2.691,2.901,1.93,239.4,31.2,71.3,1009.18,-27.33,-0.81,1.26,29.0,46.0,33.6,0,no_anomaly,0.0,0,0,0,0,22.5725677,88.3639082,19.2,0.0
2024-04-13T18:53:07.900Z,MISSION_0025,79,1,transit,SITE_KOL_006,22.5725744,88.3639075,19.2,149.37,0.293,0.087,2.97,-0.9021,-1.793,149.3653,0.26424,0.01301,-0.01172,0.9643,-0.0035,0.0076,-9.8233,0.5615,-0.066,0.6547,0.1853,3,13,0.63,0.81,0.21,24.591,22.08,90.7,40.4,19956.0,7882,8074,8124,8209,57.2,57.1,57.8,60.5,2.728,2.781,2.764,2.711,3.08,241.4,31.1,70.8,1009.23,-34.93,0.47,1.48,29.3,37.5,34.9,0,no_anomaly,0.0,0,0,0,0,22.5725744,88.3639075,19.2,0.0
2024-04-13T18:53:08.000Z,MISSION_0025,80,1,transit,SITE_KOL_006,22.5725707,88.36391,19.2,146.86,0.0,0.11,3.45,-2.3939,-2.7097,146.8581,0.28553,0.0167,-0.02676,0.95785,-0.0701,0.0036,-9.7894,-0.5181,-0.1362,0.2916,0.1834,3,11,0.62,0.67,0.29,24.622,14.19,90.6,40.0,19936.0,8168,8062,7880,8007,57.5,56.2,59.5,54.2,2.753,2.778,2.894,2.848,2.4,233.8,31.2,70.2,1009.17,-32.03,-0.74,1.83,25.6,37.9,32.6,0,no_anomaly,0.0,0,0,0,0,22.5725707,88.36391,19.2,0.0
2024-04-13T18:53:08.100Z,MISSION_0025,81,1,transit,SITE_KOL_006,22.5725675,88.3639081,19.2,147.51,0.0,0.103,3.73,-1.0663,-1.6095,147.5121,0.27981,0.01088,-0.01286,0.95991,-0.1372,-0.0243,-9.7626,-0.4252,0.0103,-0.2777,0.1068,3,15,0.92,1.01,0.3,24.616,17.98,90.5,39.6,19917.0,7872,8018,7922,7896,58.9,57.1,57.8,57.2,2.314,2.891,3.135,2.852,3.26,239.7,31.3,72.3,1009.31,-33.67,-0.7,1.62,25.9,42.7,30.0,0,no_anomaly,0.0,0,0,0,0,22.5725675,88.3639081,19.2,0.0
2024-04-13T18:53:08.200Z,MISSION_0025,82,1,transit,SITE_KOL_006,22.5725652,88.3639138,19.2,149.81,0.0,0.083,4.17,-3.2561,-0.5299,149.8132,0.26041,-0.00294,-0.02863,0.96507,0.0987,0.0557,-9.7875,-0.1043,-0.3693,0.0194,0.2433,3,14,0.59,1.0,0.2,24.546,13.26,90.4,39.5,19898.0,8027,8056,7832,8146,58.0,56.8,55.5,58.0,2.765,2.8,2.713,2.67,4.11,235.5,31.2,70.8,1009.28,-26.61,-0.2,1.54,24.7,45.3,35.1,0,no_anomaly,0.0,0,0,0,0,22.5725652,88.3639138,19.2,0.0
2024-04-13T18:53:08.300Z,MISSION_0025,83,1,transit,SITE_KOL_006,22.5725671,88.3639071,19.2,150.25,0.203,0.155,3.74,-1.1538,-3.2562,150.2456,0.25691,0.02487,-0.01702,0.96597,0.0897,-0.057,-9.8151,0.1626,0.4486,0.2957,0.1531,3,18,0.71,0.98,0.39,24.541,20.85,90.4,39.8,19879.0,7964,7654,8235,7937,53.4,52.7,54.2,56.4,2.845,2.955,2.748,2.723,3.2,239.6,31.2,70.6,1008.86,-29.15,0.94,1.36,24.5,37.4,36.0,0,no_anomaly,0.0,0,0,0,0,22.5725671,88.3639071,19.2,0.0
2024-04-13T18:53:08.400Z,MISSION_0025,84,1,transit,SITE_KOL_006,22.5725646,88.3639081,19.2,150.27,0.418,0.088,4.04,-2.2604,-3.1733,150.2696,0.25693,0.0217,-0.02616,0.96583,-0.1389,-0.0401,-9.7632,-0.0103,-0.2838,-0.2366,0.1467,3,10,0.7,0.86,0.21,24.532,21.37,90.3,40.0,19860.0,7994,7972,7976,7921,58.2,56.7,57.7,57.5,2.772,2.778,2.762,2.675,2.64,238.4,31.2,70.8,1009.75,-34.66,3.03,1.95,22.5,38.9,32.7,0,no_anomaly,0.0,0,0,0,0,22.5725646,88.3639081,19.2,0.0
2024-04-13T18:53:08.500Z,MISSION_0025,85,1,transit,SITE_KOL_006,22.5725713,88.363905,19.2,148.09,0.124,0.099,3.25,-1.0613,-2.4571,148.0894,0.275,0.01807,-0.0148,0.96116,0.018,0.0226,-9.8718,-0.5546,0.4531,0.4298,0.1299,3,19,0.68,0.94,0.25,24.515,18.61,90.2,39.6,19840.0,7858,7753,8001,7723,54.9,57.4,56.3,59.1,2.753,2.759,2.993,2.64,2.85,240.4,31.2,71.8,1009.28,-27.28,1.06,2.11,24.0,44.7,31.2,0,no_anomaly,0.0,0,0,0,0,22.5725713,88.363905,19.2,0.0
2024-04-13T18:53:08.600Z,MISSION_0025,86,1,transit,SITE_KOL_006,22.5725716,88.3639067,19.2,147.17,0.0,0.063,3.25,2.6366,-5.1599,147.1738,0.28121,0.04966,0.00933,0.95832,-0.0304,0.0034,-9.8114,-0.059,-0.2929,-0.3043,0.2344,3,11,0.57,0.73,0.22,24.614,17.37,90.1,39.8,19821.0,7740,8187,7833,7731,54.6,56.4,59.7,54.3,2.636,2.586,2.83,3.113,2.99,233.4,31.2,70.3,1009.0,-29.21,1.36,1.63,29.2,43.8,34.7,0,no_anomaly,0.0,0,0,0,0,22.5725716,88.3639067,19.2,0.0
2024-04-13T18:53:08.700Z,MISSION_0025,87,1,transit,SITE_KOL_006,22.5725721,88.3639129,19.2,146.2,0.177,0.088,3.42,-3.1045,-2.3425,146.2012,0.29105,0.01168,-0.03185,0.9561,-0.072,0.0179,-9.821,0.0742,-0.0143,-0.1133,0.1202,3,16,0.85,1.07,0.31,24.5,11.3,90.0,39.5,19802.0,7974,8104,7823,7849,56.7,53.7,56.8,54.5,2.555,2.827,2.833,3.047,2.47,242.2,31.4,71.5,1009.23,-28.6,-0.78,1.54,22.9,36.0,30.8,0,no_anomaly,0.0,0,0,0,0,22.5725721,88.3639129,19.2,0.0
2024-04-13T18:53:08.800Z,MISSION_0025,88,1,transit,SITE_KOL_006,22.5725704,88.3639129,19.2,147.44,0.21,0.201,3.59,-2.6797,-1.5214,147.4372,0.28055,0.00619,-0.02616,0.95946,0.1138,-0.0296,-9.7054,-0.8844,0.8181,-0.2508,0.1865,3,13,0.71,0.98,0.35,24.539,12.27,89.9,40.3,19783.0,8246,7661,7771,8008,57.1,58.2,55.4,54.8,2.941,2.681,2.747,2.6,3.38,235.3,31.3,71.2,1009.12,-30.46,2.63,1.85,24.1,38.7,31.9,0,no_anomaly,0.0,0,0,0,0,22.5725704,88.3639129,19.2,0.0
2024-04-13T18:53:08.900Z,MISSION_0025,89,1,transit,SITE_KOL_006,22.5725731,88.3639131,19.2,147.72,0.323,0.096,3.33,-3.1729,-3.7271,147.722,0.27858,0.02353,-0.03562,0.95946,0.0545,-0.0776,-9.8213,-0.4666,0.2865,0.019,0.2016,3,19,0.74,0.8,0.26,24.641,15.31,89.8,39.0,19764.0,7976,8158,7922,7886,57.1,53.5,54.8,55.3,2.828,2.965,2.981,2.877,2.61,237.6,31.3,70.2,1009.38,-28.87,-0.12,1.52,27.8,43.8,31.9,0,no_anomaly,0.0,0,0,0,0,22.5725731,88.3639131,19.2,0.0
2024-04-13T18:53:09.000Z,MISSION_0025,90,1,orbit_base,SITE_KOL_006,22.5725277,88.3639342,19.5,146.88,0.439,0.134,8.91,-3.519,-2.4309,146.8772,0.28547,0.01157,-0.03547,0.95766,-0.1245,0.0092,-9.7303,-0.5936,-0.2764,-0.238,0.1338,3,13,0.61,0.9,0.28,24.552,17.52,89.7,39.7,19744.0,7912,8017,7786,7821,54.8,56.3,54.1,57.0,2.647,2.855,2.828,2.775,4.05,242.9,31.2,71.2,1008.93,-29.71,0.64,1.55,27.3,38.0,35.3,0,no_anomaly,0.0,0,0,0,0,22.5725277,88.3639342,19.5,0.0
2024-04-13T18:53:09.100Z,MISSION_0025,91,1,orbit_base,SITE_KOL_006,22.5725267,88.363932,19.8,146.75,0.599,-0.044,8.91,-1.5089,-2.1987,146.7484,0.28628,0.01462,-0.0181,0.95786,-0.2359,-0.0317,-9.8325,-0.0279,-0.839,0.2292,0.085,3,16,0.85,1.01,0.41,24.589,21.2,89.7,40.0,19725.0,8054,8000,8111,7802,55.0,55.5,57.1,57.4,2.883,2.871,2.935,2.855,3.66,242.4,31.4,70.5,1009.58,-28.14,-0.53,1.23,27.6,39.4,32.9,0,no_anomaly,0.0,0,0,0,0,22.5725267,88.363932,19.8,0.0
2024-04-13T18:53:09.200Z,MISSION_0025,92,1,orbit_base,SITE_KOL_006,22.5725258,88.3639298,20.1,145.33,0.521,0.079,8.91,2.9202,-1.3525,145.3302,0.29755,0.01885,0.02081,0.95429,-0.0165,-0.0033,-9.8243,0.0259,-0.4182,-0.289,0.2413,3,13,0.65,0.64,0.2,24.54,14.81,89.6,40.8,19706.0,7834,8055,8001,7840,59.7,58.9,58.4,59.6,2.937,3.015,2.794,2.752,2.7,237.9,31.1,70.6,1008.89,-33.97,0.34,1.72,29.1,37.3,36.0,0,no_anomaly,0.0,0,0,0,0,22.5725258,88.3639298,20.1,0.0
2024-04-13T18:53:09.300Z,MISSION_0025,93,1,orbit_base,SITE_KOL_006,22.5725249,88.3639276,20.4,143.51,0.792,0.061,8.91,-2.9321,-1.8523,143.5075,0.31335,0.00734,-0.02935,0.94916,0.0321,0.0009,-9.8235,0.3147,0.1944,-0.207,0.1803,3,17,0.71,1.03,0.34,24.468,20.09,89.5,39.4,19687.0,7971,7912,8125,7920,56.5,53.5,53.8,57.1,2.736,2.664,2.474,2.79,2.98,238.0,31.1,71.1,1009.09,-29.67,-0.81,1.57,26.4,45.2,31.7,0,no_anomaly,0.0,0,0,0,0,22.5725249,88.3639276,20.4,0.0
2024-04-13T18:53:09.400Z,MISSION_0025,94,1,orbit_base,SITE_KOL_006,22.5725241,88.3639253,20.7,146.39,0.913,0.034,8.91,-0.665,-2.9062,146.3909,0.28915,0.0226,-0.01288,0.95693,0.1077,0.015,-9.7344,-0.4997,0.0054,0.0867,0.1949,3,16,0.72,0.94,0.41,24.471,18.18,89.4,39.5,19668.0,7852,7962,8029,8180,53.6,58.7,61.0,58.2,2.947,2.59,2.829,2.912,3.84,243.5,31.5,70.9,1008.91,-29.34,0.56,1.04,25.5,44.5,36.0,0,no_anomaly,0.0,0,0,0,0,22.5725241,88.3639253,20.7,0.0
2024-04-13T18:53:09.500Z,MISSION_0025,95,1,orbit_base,SITE_KOL_006,22.5725234,88.363923,21.0,147.71,1.197,0.153,8.91,0.023,-3.3879,147.7076,0.27796,0.02845,-0.00803,0.96014,-0.018,-0.0673,-9.7785,0.6491,-0.7343,0.0169,0.1877,3,12,0.87,0.95,0.32,24.477,18.8,89.3,39.4,19648.0,7982,7811,7755,7908,55.4,59.3,59.8,53.8,2.754,3.048,2.676,2.531,2.61,234.3,30.9,70.4,1009.13,-33.69,1.13,1.4,25.2,44.3,34.8,0,no_anomaly,0.0,0,0,0,0,22.5725234,88.363923,21.0,0.0
2024-04-13T18:53:09.600Z,MISSION_0025,96,1,orbit_base,SITE_KOL_006,22.5725227,88.3639207,21.3,147.19,0.687,0.134,8.91,-3.6036,-2.6773,147.1909,0.28291,0.01352,-0.03675,0.95835,0.1541,0.0435,-9.8409,0.0736,0.8799,0.2082,0.1154,3,19,0.69,0.99,0.22,24.521,28.56,89.2,40.0,19629.0,7991,7876,8211,8114,57.8,57.5,56.7,55.5,2.683,2.813,2.481,2.75,2.68,239.4,31.3,70.8,1009.09,-28.31,-0.63,1.45,30.9,45.5,36.1,0,no_anomaly,0.0,0,0,0,0,22.5725227,88.3639207,21.3,0.0
2024-04-13T18:53:09.700Z,MISSION_0025,97,1,orbit_base,SITE_KOL_006,22.5725221,88.3639184,21.6,147.83,1.105,0.143,8.91,-0.4713,-2.8984,147.8276,0.27709,0.02316,-0.01096,0.9605,0.0767,-0.0279,-9.8099,-0.7429,-0.1192,0.4976,0.178,3,15,0.59,0.81,0.23,24.583,17.51,89.1,39.4,19610.0,8259,7932,8032,7835,53.3,58.2,56.9,54.9,2.721,2.92,2.783,2.847,3.05,237.5,31.3,71.2,1009.14,-30.49,-2.17,1.13,24.6,39.0,36.8,0,no_anomaly,0.0,0,0,0,0,22.5725221,88.3639184,21.6,0.0
2024-04-13T18:53:09.800Z,MISSION_0025,98,1,orbit_base,SITE_KOL_006,22.5725216,88.363916,21.9,148.17,0.776,0.081,8.91,-2.7534,-2.0002,148.169,0.2745,0.01019,-0.02789,0.96113,-0.3227,0.0526,-9.8144,0.2333,-0.3758,-0.2288,0.1814,3,15,0.6,1.11,0.31,24.586,15.33,89.0,39.8,19591.0,8035,7948,7855,7847,56.7,57.8,55.3,55.2,2.673,2.843,2.731,2.877,3.05,236.2,31.3,70.7,1009.57,-30.41,1.03,1.7,29.6,39.3,36.3,0,no_anomaly,0.0,0,0,0,0,22.5725216,88.363916,21.9,0.0
2024-04-13T18:53:09.900Z,MISSION_0025,99,1,orbit_base,SITE_KOL_006,22.5725212,88.3639137,22.2,146.36,0.645,0.128,8.91,2.8577,-3.0041,146.3608,0.28854,0.0323,0.01628,0.95678,-0.0714,-0.0071,-9.8878,1.3061,-0.152,0.0777,0.1129,3,17,0.66,1.14,0.27,24.551,22.2,89.0,39.8,19572.0,7922,8016,7839,7871,55.6,56.3,51.3,58.6,2.525,2.941,2.863,2.762,2.79,242.0,31.4,70.8,1009.22,-33.4,-1.12,1.52,27.0,38.1,35.5,0,no_anomaly,0.0,0,0,0,0,22.5725212,88.3639137,22.2,0.0
2024-04-13T18:53:10.000Z,MISSION_0025,100,1,orbit_base,SITE_KOL_006,22.5725208,88.3639113,22.5,146.92,0.425,0.158,8.91,5.7055,-2.2209,146.9229,0.28333,0.03272,0.04219,0.95754,0.1672,0.0314,-9.856,0.5077,-0.5178,-0.4068,0.0439,3,10,0.84,1.03,0.35,24.452,22.72,88.9,39.1,19552.0,8213,7892,8070,7942,56.1,54.8,55.0,55.6,2.62,3.094,2.904,2.906,2.77,236.7,31.3,71.3,1009.16,-27.14,-0.17,1.6,22.9,36.9,32.5,0,no_anomaly,0.0,0,0,0,0,22.5725208,88.3639113,22.5,0.0
2024-04-13T18:53:10.100Z,MISSION_0025,101,1,orbit_base,SITE_KOL_006,22.5725205,88.3639089,22.8,144.33,0.0,0.019,8.91,3.6954,-3.3929,144.3279,0.30509,0.03804,0.02162,0.95132,0.0545,-0.0092,-9.7557,0.118,-0.3143,0.054,0.0987,3,13,0.71,0.96,0.5,24.437,16.45,88.8,38.0,19533.0,8103,7930,8133,7988,55.2,56.1,56.2,55.7,2.805,2.859,2.679,2.856,2.64,241.3,31.5,70.7,1008.99,-30.32,0.29,1.49,25.4,38.0,35.4,0,no_anomaly,0.0,0,0,0,0,22.5725205,88.3639089,22.8,0.0
2024-04-13T18:53:10.200Z,MISSION_0025,102,1,orbit_base,SITE_KOL_006,22.5725203,88.3639065,23.1,146.75,0.0,0.017,8.91,0.2738,-1.8214,146.7478,0.28605,0.01591,-0.00226,0.95808,0.1538,0.0205,-9.7689,-0.1867,-0.3025,-0.0653,0.1863,3,13,0.69,0.87,0.28,24.507,11.82,88.7,39.3,19514.0,8055,8059,7847,8000,54.3,55.4,56.3,57.4,2.761,2.922,2.754,2.877,2.19,243.1,31.1,70.6,1009.22,-26.9,-0.05,1.29,28.8,42.0,34.0,0,no_anomaly,0.0,0,0,0,0,22.5725203,88.3639065,23.1,0.0
2024-04-13T18:53:10.300Z,MISSION_0025,103,1,orbit_base,SITE_KOL_006,22.5725201,88.3639041,23.4,147.7,0.0,0.07,8.91,1.4799,-3.634,147.698,0.27761,0.03404,0.00358,0.96008,-0.1916,-0.0677,-9.807,-0.8097,-0.1479,0.3212,0.1949,3,12,0.67,1.18,0.28,24.556,15.97,88.6,39.6,19495.0,7934,8128,8004,8416,56.5,54.0,56.7,54.0,2.783,2.778,2.803,2.845,2.47,234.7,31.1,71.1,1009.22,-31.25,0.49,1.68,26.2,43.0,30.3,0,no_anomaly,0.0,0,0,0,0,22.5725201,88.3639041,23.4,0.0
2024-04-13T18:53:10.400Z,MISSION_0025,104,1,orbit_base,SITE_KOL_006,22.57252,88.3639017,23.7,148.01,0.0,0.098,8.91,-0.7724,-2.1527,148.0097,0.27562,0.0162,-0.01165,0.96106,0.1127,0.0626,-9.765,-0.1035,0.4413,-0.4806,0.1952,3,12,0.61,0.99,0.28,24.446,17.28,88.5,39.5,19476.0,7737,8148,8015,7944,57.5,54.4,57.6,55.9,2.765,2.578,2.826,3.177,3.5,242.7,31.4,70.1,1008.87,-29.18,-0.83,1.05,25.1,42.0,31.2,0,no_anomaly,0.0,0,0,0,0,22.57252,88.3639017,23.7,0.0
2024-04-13T18:53:10.500Z,MISSION_0025,105,1,orbit_base,SITE_KOL_006,22.57252,88.3638993,24.0,146.17,0.029,0.069,8.91,2.3322,-3.044,146.1691,0.29028,0.03133,0.01174,0.95636,0.054,0.0034,-9.8349,-0.3873,0.1559,0.4759,0.1822,3,15,0.66,0.76,0.27,24.538,20.44,88.4,39.2,19456.0,7950,7877,7800,7759,56.7,56.7,57.9,53.8,2.896,2.694,2.932,2.722,2.9,232.0,31.4,71.6,1009.23,-24.23,-0.34,1.0,24.0,36.6,34.2,0,no_anomaly,0.0,0,0,0,0,22.57252,88.3638993,24.0,0.0
2024-04-13T18:53:10.600Z,MISSION_0025,106,1,orbit_base,SITE_KOL_006,22.5725201,88.3638969,24.3,144.22,0.0,0.054,8.91,0.9924,-0.2305,144.2165,0.30719,0.00457,0.00762,0.95161,-0.1526,-0.028,-9.7534,-0.7948,0.2612,-0.3856,0.1222,3,16,0.68,0.92,0.26,24.454,18.08,88.4,40.1,19437.0,8115,7965,8027,7975,57.4,59.0,54.3,57.2,2.671,3.095,2.499,2.961,2.79,243.9,31.4,71.2,1009.18,-28.44,-1.86,1.26,25.9,44.7,34.4,0,no_anomaly,0.0,0,0,0,0,22.5725201,88.3638969,24.3,0.0
2024-04-13T18:53:10.700Z,MISSION_0025,107,1,orbit_base,SITE_KOL_006,22.5725202,88.3638945,24.6,144.32,0.037,0.072,8.91,0.0205,-1.5719,144.3162,0.30636,0.01311,-0.00403,0.95182,-0.0234,-0.0217,-9.7883,-0.0363,0.1777,0.1342,0.1815,3,14,0.63,1.15,0.27,24.502,17.59,88.3,39.2,19418.0,8124,7733,7926,8068,57.7,55.4,56.3,56.0,2.614,2.691,2.541,2.676,3.09,248.5,31.2,71.2,1009.45,-29.86,-0.92,1.45,24.1,42.1,32.7,0,no_anomaly,0.0,0,0,0,0,22.5725202,88.3638945,24.6,0.0
2024-04-13T18:53:10.800Z,MISSION_0025,108,1,orbit_base,SITE_KOL_006,22.5725204,88.3638921,24.9,144.87,0.548,0.106,8.91,0.8273,-2.1949,144.8712,0.30158,0.02044,0.0011,0.95322,0.1093,0.0181,-9.8347,0.1502,-0.2263,-0.5994,0.1067,3,13,0.6,1.02,0.2,24.442,20.45,88.2,39.2,19399.0,7967,7913,7908,7872,58.5,54.8,57.0,57.1,2.521,2.801,3.064,2.607,2.67,239.4,31.5,71.7,1009.38,-28.84,-0.85,1.3,25.4,41.5,33.5,0,no_anomaly,0.0,0,0,0,0,22.5725204,88.3638921,24.9,0.0
2024-04-13T18:53:10.900Z,MISSION_0025,109,1,orbit_base,SITE_KOL_006,22.5725207,88.3638898,25.2,142.58,0.843,0.097,8.91,-0.0469,-1.3767,142.584,0.32073,0.01125,-0.00424,0.9471,-0.106,-0.0382,-9.8461,0.0692,-0.2561,-0.0331,0.1085,3,16,0.86,0.94,0.2,24.477,20.96,88.1,40.0,19380.0,7953,7952,7927,7987,60.5,55.0,54.8,55.3,2.901,2.757,2.814,2.681,3.75,245.6,31.2,71.7,1009.23,-34.26,-1.96,1.49,26.2,42.6,35.9,0,no_anomaly,0.0,0,0,0,0,22.5725207,88.3638898,25.2,0.0
2024-04-13T18:53:11.000Z,MISSION_0025,110,1,orbit_base,SITE_KOL_006,22.572521,88.3638874,25.5,144.55,0.779,-0.011,8.91,2.4838,-2.8845,144.5473,0.30378,0.03057,0.01298,0.95216,0.0408,-0.0974,-9.8265,0.4411,0.7774,0.7983,0.1896,3,16,0.76,0.82,0.45,24.476,11.63,88.0,39.9,19360.0,8053,7902,7997,7880,58.4,58.0,58.9,58.9,2.492,2.635,2.857,2.828,2.45,229.3,31.2,69.9,1008.83,-28.7,-1.69,1.0,30.0,45.9,33.6,0,no_anomaly,0.0,0,0,0,0,22.572521,88.3638874,25.5,0.0
2024-04-13T18:53:11.100Z,MISSION_0025,111,1,orbit_base,SITE_KOL_006,22.5725214,88.363885,25.8,144.73,0.864,0.254,8.91,-3.4978,-3.3294,144.7276,0.30355,0.01843,-0.03787,0.95188,0.0623,-0.028,-9.7982,0.2452,0.6991,0.3737,0.1198,3,14,0.89,0.65,0.34,24.565,16.56,87.9,39.4,19341.0,8007,8346,7786,7908,56.4,54.5,58.7,53.3,2.839,2.752,2.859,2.676,2.44,247.1,31.1,70.7,1008.8,-34.75,2.21,1.38,23.0,36.3,30.5,0,no_anomaly,0.0,0,0,0,0,22.5725214,88.363885,25.8,0.0
2024-04-13T18:53:11.200Z,MISSION_0025,112,1,orbit_base,SITE_KOL_006,22.5725219,88.3638827,26.1,144.56,0.841,0.053,8.91,-1.013,0.5364,144.5644,0.30427,-0.00715,-0.007,0.95253,0.1306,0.0349,-9.8056,-0.5685,0.6695,0.0411,0.1941,3,12,0.77,1.13,0.34,24.405,19.14,87.8,39.5,19322.0,7949,8125,7961,8102,58.5,58.2,53.8,57.6,2.689,2.782,2.633,2.671,2.91,243.2,31.3,71.0,1009.02,-30.81,-0.44,1.67,29.0,38.5,33.7,0,no_anomaly,0.0,0,0,0,0,22.5725219,88.3638827,26.1,0.0
2024-04-13T18:53:11.300Z,MISSION_0025,113,1,orbit_base,SITE_KOL_006,22.5725225,88.3638803,26.4,144.32,0.415,0.145,8.91,2.7341,-1.6958,144.3187,0.30591,0.02139,0.01818,0.95165,0.0506,-0.0731,-9.8178,-0.0215,-0.0067,-0.3603,0.1365,3,15,0.79,0.69,0.2,24.459,16.76,87.7,38.7,19303.0,8130,7931,7881,8086,57.5,60.9,58.1,54.4,2.807,2.919,2.779,2.652,3.18,239.3,31.4,71.2,1009.41,-35.77,-0.61,1.61,24.7,40.5,35.5,0,no_anomaly,0.0,0,0,0,0,22.5725225,88.3638803,26.4,0.0
2024-04-13T18:53:11.400Z,MISSION_0025,114,1,orbit_base,SITE_KOL_006,22.5725231,88.363878,26.7,140.61,0.14,0.105,8.91,0.8134,-0.8832,140.6143,0.33691,0.00965,0.00409,0.94148,0.054,-0.0057,-9.8637,0.6054,-0.1858,-0.2615,0.1373,3,14,0.5,0.7,0.3,24.435,17.07,87.7,39.6,19284.0,8088,8021,7917,7823,59.3,58.2,58.0,55.6,2.736,2.703,2.842,2.954,3.5,232.7,31.1,70.4,1009.35,-31.38,-0.02,1.65,26.6,38.4,34.4,0,no_anomaly,0.0,0,0,0,0,22.5725231,88.363878,26.7,0.0
2024-04-13T18:53:11.500Z,MISSION_0025,115,1,orbit_base,SITE_KOL_006,22.5725238,88.3638757,27.0,138.22,0.411,0.115,8.91,-1.2603,-1.0629,138.2196,0.35664,0.00474,-0.01358,0.93413,0.0919,-0.0014,-9.7752,-0.0414,0.454,0.0733,0.2564,3,12,0.69,0.92,0.22,24.533,17.19,87.6,39.8,19264.0,7908,7983,7812,7944,57.5,56.2,56.5,57.6,2.573,2.624,2.846,3.025,2.76,230.8,31.4,70.3,1009.2,-31.87,2.19,1.24,23.1,44.2,32.1,0,no_anomaly,0.0,0,0,0,0,22.5725238,88.3638757,27.0,0.0
2024-04-13T18:53:11.600Z,MISSION_0025,116,1,orbit_base,SITE_KOL_006,22.5725245,88.3638734,27.3,140.0,0.177,0.101,8.91,3.5113,-1.1593,140.0009,0.34154,0.01998,0.02533,0.93931,0.184,-0.0617,-9.8932,0.2367,0.4239,-0.4966,0.0891,3,19,0.72,1.06,0.3,24.551,19.04,87.5,40.0,19245.0,8166,8148,7971,8137,60.5,57.4,56.2,55.8,2.851,2.762,2.717,2.642,2.01,237.6,31.4,70.0,1009.21,-30.9,0.68,1.59,26.2,40.1,32.3,0,no_anomaly,0.0,0,0,0,0,22.5725245,88.3638734,27.3,0.0
2024-04-13T18:53:11.700Z,MISSION_0025,117,1,orbit_base,SITE_KOL_006,22.5725254,88.3638712,27.6,142.24,0.224,0.04,8.91,-1.284,-2.2006,142.2447,0.32367,0.01454,-0.01681,0.94591,-0.0492,0.0129,-9.7027,0.7637,0.8758,0.2307,0.2097,3,12,0.54,0.94,0.2,24.477,19.9,87.4,40.1,19226.0,7821,7695,7776,8107,56.9,55.6,56.4,55.3,2.717,2.585,2.615,2.931,2.41,240.9,31.1,70.7,1009.33,-25.29,0.05,1.7,25.0,44.7,31.5,0,no_anomaly,0.0,0,0,0,0,22.5725254,88.3638712,27.6,0.0
2024-04-13T18:53:11.800Z,MISSION_0025,118,1,orbit_base,SITE_KOL_006,22.5725263,88.363869,27.9,143.6,0.0,0.151,8.91,1.4644,-1.972,143.6,0.31205,0.02034,0.00676,0.94982,0.0,0.0426,-9.9082,0.4964,0.2047,0.1286,0.2012,3,17,0.9,0.79,0.39,24.423,18.98,87.3,40.5,19207.0,7970,7849,7712,7823,55.4,56.0,54.3,56.3,3.053,2.737,2.865,2.746,3.07,248.8,31.1,71.5,1009.1,-27.98,-0.33,1.84,29.1,39.6,34.9,0,no_anomaly,0.0,0,0,0,0,22.5725263,88.363869,27.9,0.0
2024-04-13T18:53:11.900Z,MISSION_0025,119,1,orbit_base,SITE_KOL_006,22.5725272,88.3638668,28.2,146.54,0.0,0.173,8.91,2.7989,-2.9924,146.543,0.28704,0.03203,0.01587,0.95725,-0.0095,0.0732,-9.8437,-0.5563,-0.3256,0.0766,0.1661,3,11,0.69,1.05,0.36,24.515,22.44,87.2,39.4,19188.0,7976,8035,8171,8029,55.3,54.4,56.9,58.0,2.647,3.137,2.664,2.686,2.5,236.2,31.2,69.9,1008.98,-27.83,-0.13,1.36,25.2,43.6,32.3,0,no_anomaly,0.0,0,0,0,0,22.5725272,88.3638668,28.2,0.0
2024-04-13T18:53:12.000Z,MISSION_0025,120,1,orbit_base,SITE_KOL_006,22.5725283,88.3638646,28.5,147.66,0.0,0.084,8.91,-1.0052,-1.4683,147.6585,0.27858,0.00986,-0.01199,0.96029,0.0176,-0.006,-9.8909,-0.1908,-0.6574,-0.186,0.107,3,14,0.98,0.71,0.34,24.474,19.71,87.1,39.8,19168.0,8161,7897,7910,7608,52.5,55.0,58.3,57.0,2.737,2.606,2.744,2.707,3.36,239.3,30.9,71.1,1009.19,-33.05,0.87,1.47,28.5,43.8,33.0,0,no_anomaly,0.0,0,0,0,0,22.5725283,88.3638646,28.5,0.0
2024-04-13T18:53:12.100Z,MISSION_0025,121,1,orbit_base,SITE_KOL_006,22.5725294,88.3638625,28.8,148.31,0.031,0.133,8.91,-0.4646,-2.5176,148.3094,0.27306,0.02003,-0.0099,0.96174,0.0021,-0.0467,-9.7342,-0.0593,0.7784,0.0649,0.1491,3,11,0.56,0.87,0.22,24.446,19.5,87.0,38.9,19149.0,8386,7976,8062,7728,53.8,56.1,56.5,53.0,3.051,3.014,2.945,2.838,3.2,237.0,31.5,71.2,1009.34,-26.76,-0.11,1.12,22.5,42.3,33.7,0,no_anomaly,0.0,0,0,0,0,22.5725294,88.3638625,28.8,0.0
2024-04-13T18:53:12.200Z,MISSION_0025,122,1,orbit_base,SITE_KOL_006,22.5725305,88.3638604,29.1,149.17,0.486,0.083,8.91,-1.8973,-1.4854,149.1708,0.26595,0.00809,-0.0194,0.96376,0.171,-0.0544,-9.7815,0.0135,-0.4814,0.2991,0.1254,3,14,0.75,0.64,0.36,24.448,15.8,87.0,38.9,19130.0,7843,8023,8091,8040,59.1,58.9,55.0,56.3,2.613,2.786,3.101,2.673,3.18,240.8,31.7,71.1,1009.26,-29.69,-1.2,1.13,25.1,43.2,35.8,0,no_anomaly,0.0,0,0,0,0,22.5725305,88.3638604,29.1,0.0
2024-04-13T18:53:12.300Z,MISSION_0025,123,1,orbit_base,SITE_KOL_006,22.5725317,88.3638583,29.4,148.26,0.148,0.164,8.91,-1.99,-2.0686,148.2618,0.27366,0.01261,-0.02164,0.9615,0.0648,-0.0184,-9.8449,0.2893,-0.3128,0.1958,0.1408,3,18,0.77,0.85,0.33,24.466,19.62,86.9,39.7,19111.0,7942,7888,8082,7956,52.5,59.7,53.3,55.8,2.987,2.787,2.615,2.792,2.92,246.0,31.3,71.2,1009.27,-28.36,-0.03,1.53,27.6,41.0,32.5,0,no_anomaly,0.0,0,0,0,0,22.5725317,88.3638583,29.4,0.0
2024-04-13T18:53:12.400Z,MISSION_0025,124,1,orbit_base,SITE_KOL_006,22.572533,88.3638563,29.7,148.54,0.81,-0.0,8.91,0.1099,-3.9977,148.5412,0.2709,0.03383,-0.00853,0.96198,-0.0502,0.033,-9.8446,0.3143,-0.1891,0.2516,0.1066,3,14,0.67,0.95,0.23,24.485,16.5,86.8,40.3,19092.0,8097,7953,8088,7828,55.9,57.2,56.3,57.3,3.011,2.982,2.809,2.992,3.78,229.5,31.1,71.1,1009.08,-30.59,-0.53,1.67,29.3,39.2,32.7,0,no_anomaly,0.0,0,0,0,0,22.572533,88.3638563,29.7,0.0
2024-04-13T18:53:12.500Z,MISSION_0025,125,1,orbit_base,SITE_KOL_006,22.5725344,88.3638543,30.0,148.67,1.14,0.158,8.91,-1.336,-1.5304,148.6677,0.27014,0.00971,-0.01483,0.96266,0.1194,-0.0048,-9.781,-0.4779,-0.8414,-0.3053,0.2619,3,17,0.77,1.3,0.29,24.452,17.03,86.7,39.0,19072.0,8142,7941,7855,8291,58.2,54.6,56.2,53.6,2.757,2.82,2.684,2.604,3.33,242.1,31.1,70.8,1009.03,-28.83,0.53,1.68,23.4,41.2,30.6,0,no_anomaly,0.0,0,0,0,0,22.5725344,88.3638543,30.0,0.0
2024-04-13T18:53:12.600Z,MISSION_0025,126,1,orbit_base,SITE_KOL_006,22.5725358,88.3638523,30.3,149.84,1.188,0.068,8.91,-1.0818,1.4712,149.8413,0.26001,-0.01485,-0.00577,0.96548,0.0186,-0.0849,-9.8605,0.5217,-0.7378,0.1011,0.1366,3,19,0.7,0.93,0.28,24.43,20.82,86.6,39.9,19053.0,7872,8009,7882,8152,54.4,53.1,54.7,56.3,2.555,2.879,2.917,2.819,2.05,244.5,31.5,70.8,1009.24,-24.32,1.04,1.0,25.4,40.1,34.6,0,no_anomaly,0.0,0,0,0,0,22.5725358,88.3638523,30.3,0.0
2024-04-13T18:53:12.700Z,MISSION_0025,127,1,orbit_base,SITE_KOL_006,22.5725372,88.3638504,30.6,150.46,1.239,0.08,8.91,-1.224,-1.85,150.4603,0.25506,0.01289,-0.01444,0.96673,-0.2334,-0.0403,-9.8027,0.8161,-0.5596,0.0698,0.1518,3,16,0.65,1.04,0.29,24.462,19.18,86.5,39.6,19034.0,8154,8309,7918,7886,57.7,57.5,59.3,57.5,2.702,2.814,2.601,2.761,2.22,236.6,31.2,71.9,1009.42,-32.66,-0.25,1.6,27.6,40.3,38.0,0,no_anomaly,0.0,0,0,0,0,22.5725372,88.3638504,30.6,0.0
2024-04-13T18:53:12.800Z,MISSION_0025,128,1,orbit_base,SITE_KOL_006,22.5725387,88.3638486,30.9,153.67,1.009,0.096,8.91,-4.2168,-1.478,153.6718,0.22803,0.00417,-0.03876,0.97287,0.0204,-0.0858,-9.7736,0.6292,0.2232,-0.2208,0.0438,3,17,0.86,0.73,0.47,24.479,22.97,86.4,39.9,19015.0,7936,7731,7974,7883,54.3,58.3,57.0,52.6,2.48,2.735,2.862,2.861,2.31,235.9,31.2,71.8,1008.99,-27.27,0.1,1.49,28.0,42.7,34.4,0,no_anomaly,0.0,0,0,0,0,22.5725387,88.3638486,30.9,0.0
2024-04-13T18:53:12.900Z,MISSION_0025,129,1,orbit_base,SITE_KOL_006,22.5725403,88.3638467,31.2,153.48,0.962,0.075,8.91,-1.6777,-2.2643,153.4751,0.22962,0.01587,-0.01878,0.97297,0.0216,-0.0659,-9.7244,-0.2923,0.5027,-0.0749,0.2016,3,17,0.72,0.93,0.3,24.438,16.42,86.3,38.8,18996.0,7981,7963,8053,8010,58.5,55.7,55.8,56.2,2.789,2.981,2.864,2.896,2.86,237.2,31.5,70.8,1009.2,-31.59,-0.48,1.69,24.6,42.4,35.1,0,no_anomaly,0.0,0,0,0,0,22.5725403,88.3638467,31.2,0.0
