timestamp_utc,mission_id,frame_id,waypoint_id,inspection_phase,site_id,latitude_deg,longitude_deg,altitude_m,heading_deg,ground_speed_ms,vertical_speed_ms,distance_to_tower_m,roll_deg,pitch_deg,yaw_deg,quat_w,quat_x,quat_y,quat_z,accel_x_ms2,accel_y_ms2,accel_z_ms2,gyro_x_rads,gyro_y_rads,gyro_z_rads,vibration_level,gps_fix_type,gps_satellite_count,gps_hdop,gps_vdop,position_error_m,battery_voltage_v,battery_current_a,battery_remaining_pct,battery_temp_c,battery_capacity_mah,motor_fl_rpm,motor_fr_rpm,motor_rl_rpm,motor_rr_rpm,motor_fl_temp_c,motor_fr_temp_c,motor_rl_temp_c,motor_rr_temp_c,motor_fl_thrust_n,motor_fr_thrust_n,motor_rl_thrust_n,motor_rr_thrust_n,wind_speed_ms,wind_dir_deg,air_temp_c,humidity_pct,pressure_hpa,gimbal_pitch_deg,gimbal_roll_deg,zoom_factor,ir_temp_min_c,ir_temp_max_c,ir_temp_avg_c,anomaly_detected,anomaly_class,anomaly_confidence,anomaly_bbox_x,anomaly_bbox_y,anomaly_bbox_w,anomaly_bbox_h,anomaly_gps_lat,anomaly_gps_lon,anomaly_gps_alt_m,ir_temp_delta_c
2024-05-02T11:06:00.000Z,MISSION_0062,0,0,takeoff,SITE_BLR_003,12.971596,77.5945967,1.5,29.22,0.411,0.101,0.57,5.038,-0.8161,29.2236,0.96662,0.04432,0.0042,0.25232,0.1275,0.0421,-9.7349,0.6135,-0.9694,0.2572,0.2885,3,14,0.82,0.69,0.29,24.706,11.38,95.7,47.8,21049.0,6854,6992,7196,6874,67.4,66.7,65.1,65.8,2.9,2.509,2.798,2.635,5.21,294.2,38.9,39.5,1007.04,-35.51,-0.9,1.11,34.1,45.3,38.6,0,no_anomaly,0.0,0,0,0,0,12.971596,77.5945967,1.5,0.0
2024-05-02T11:06:00.100Z,MISSION_0062,1,0,takeoff,SITE_BLR_003,12.9715912,77.594596,3.0,30.16,0.307,0.038,1.07,-3.8861,-4.5066,30.1614,0.96461,-0.02249,-0.04676,0.25854,0.0934,0.1069,-9.8165,0.1499,-0.1712,-0.0963,0.2544,3,12,0.59,1.08,0.29,24.674,14.29,95.6,48.0,21036.0,7119,7220,6823,7149,68.0,68.1,62.1,65.8,2.771,2.847,2.865,2.748,5.01,294.1,39.4,38.8,1006.8,-32.73,-0.51,1.42,31.2,48.8,40.5,0,no_anomaly,0.0,0,0,0,0,12.9715912,77.594596,3.0,0.0
2024-05-02T11:06:00.200Z,MISSION_0062,2,0,takeoff,SITE_BLR_003,12.9715904,77.5945948,4.5,34.64,0.602,0.195,1.21,-3.1635,-2.2457,34.6417,0.95427,-0.02051,-0.02692,0.29704,-0.0411,-0.0383,-9.7608,0.029,-0.3413,0.2692,0.1473,3,13,0.73,1.13,0.3,24.657,22.06,95.6,46.6,21022.0,7320,7104,7247,6985,61.2,58.5,65.8,64.0,2.652,2.961,2.852,3.124,5.63,292.2,39.3,38.5,1006.48,-30.13,-0.02,1.52,31.3,52.0,42.4,0,no_anomaly,0.0,0,0,0,0,12.9715904,77.5945948,4.5,0.0
2024-05-02T11:06:00.300Z,MISSION_0062,3,0,takeoff,SITE_BLR_003,12.9715973,77.5945925,5.0,35.28,0.714,0.082,0.89,-3.8716,0.5166,35.2771,0.95239,-0.03356,-0.00594,0.30298,-0.0212,0.061,-9.8546,-0.2529,-0.6814,-0.4265,0.1845,3,20,0.63,1.06,0.28,24.68,14.94,95.5,47.1,21008.0,7252,7003,6966,7347,64.8,62.1,66.1,65.4,2.837,2.749,3.051,2.854,5.65,297.8,39.4,38.6,1006.44,-30.77,-0.58,2.16,32.7,53.0,39.4,0,no_anomaly,0.0,0,0,0,0,12.9715973,77.5945925,5.0,0.0
2024-05-02T11:06:00.400Z,MISSION_0062,4,0,takeoff,SITE_BLR_003,12.9715965,77.5945923,5.0,35.81,0.555,0.1,0.94,3.2648,-1.642,35.81,0.95096,0.03151,-0.00487,0.30767,-0.1896,0.0479,-9.8218,-0.4254,-0.4878,0.5701,0.2401,3,16,0.68,0.82,0.26,24.623,21.5,95.4,47.6,20994.0,7154,7269,7186,7032,64.7,62.0,65.2,65.7,2.846,2.496,2.608,2.758,4.96,305.5,39.1,38.3,1006.72,-32.53,0.14,1.14,36.8,45.7,44.2,0,no_anomaly,0.0,0,0,0,0,12.9715965,77.5945923,5.0,0.0
2024-05-02T11:06:00.500Z,MISSION_0062,5,0,takeoff,SITE_BLR_003,12.9715991,77.5945897,5.0,36.72,0.551,0.023,1.15,-1.4125,-1.6336,36.7195,0.94898,-0.00721,-0.01741,0.31476,0.0767,-0.0072,-9.7216,-0.1962,-0.4931,0.4764,0.1632,3,11,0.51,1.05,0.22,24.572,21.38,95.4,47.1,20980.0,7323,7271,7094,7467,62.7,68.7,65.8,65.8,2.902,2.938,2.708,2.758,5.25,299.0,39.2,38.5,1007.04,-25.96,0.38,1.47,36.3,50.8,41.6,0,no_anomaly,0.0,0,0,0,0,12.9715991,77.5945897,5.0,0.0
2024-05-02T11:06:00.600Z,MISSION_0062,6,0,takeoff,SITE_BLR_003,12.971598,77.5945915,5.0,37.66,0.736,0.151,0.97,-5.353,-1.7644,37.6568,0.94558,-0.03923,-0.02963,0.32166,-0.0536,0.0536,-9.7766,0.6807,-0.5924,-0.0999,0.1802,3,19,0.73,0.82,0.32,24.755,20.25,95.3,47.8,20967.0,6813,7194,7238,7027,65.7,63.0,64.1,65.4,2.546,3.113,2.554,2.843,5.52,301.7,39.0,37.3,1006.81,-31.14,0.07,1.33,31.9,43.9,42.4,0,no_anomaly,0.0,0,0,0,0,12.971598,77.5945915,5.0,0.0
2024-05-02T11:06:00.700Z,MISSION_0062,7,0,takeoff,SITE_BLR_003,12.9715991,77.594595,5.0,37.07,0.746,0.072,0.57,2.5364,-1.3127,37.0702,0.94775,0.02462,-0.00382,0.31803,-0.1201,-0.0327,-9.7698,0.6674,-0.0477,0.042,0.1898,3,18,0.74,0.85,0.3,24.641,23.21,95.2,47.6,20953.0,6978,7155,7269,7241,66.3,62.9,62.6,65.0,2.895,3.051,2.731,2.683,4.21,294.7,39.4,38.9,1006.96,-28.46,0.45,1.61,32.7,52.7,42.2,0,no_anomaly,0.0,0,0,0,0,12.9715991,77.594595,5.0,0.0
2024-05-02T11:06:00.800Z,MISSION_0062,8,0,takeoff,SITE_BLR_003,12.9715975,77.5945979,5.0,37.8,0.388,0.148,0.36,-1.392,0.5813,37.7976,0.94599,-0.01314,0.00086,0.32393,0.0077,-0.0736,-9.7272,0.638,0.0119,-0.0442,0.2701,3,20,0.76,1.02,0.21,24.698,19.43,95.2,47.5,20939.0,6910,7365,7178,7308,62.7,69.0,66.3,63.3,2.723,2.593,2.773,2.724,5.9,292.6,38.8,39.0,1006.77,-34.41,-0.26,1.57,32.9,51.8,42.2,0,no_anomaly,0.0,0,0,0,0,12.9715975,77.5945979,5.0,0.0
2024-05-02T11:06:00.900Z,MISSION_0062,9,0,takeoff,SITE_BLR_003,12.9715981,77.5946015,5.0,37.49,0.331,0.072,0.27,-1.7835,-1.6549,37.4888,0.94682,-0.0101,-0.01867,0.32106,0.0189,-0.0813,-9.7522,-0.765,-0.4979,-0.0373,0.1944,3,11,0.59,0.67,0.23,24.657,16.88,95.1,47.3,20925.0,7141,7153,6923,6878,63.4,63.8,66.5,63.6,2.928,3.025,2.935,3.041,5.97,298.7,39.5,38.7,1006.96,-34.22,1.58,1.64,36.2,51.9,41.2,0,no_anomaly,0.0,0,0,0,0,12.9715981,77.5946015,5.0,0.0
2024-05-02T11:06:01.000Z,MISSION_0062,10,0,takeoff,SITE_BLR_003,12.9715949,77.5945981,5.0,36.33,0.0,0.096,0.61,3.0269,-3.9336,36.3278,0.949,0.03578,-0.02437,0.3123,-0.1715,0.0035,-9.8845,-0.5198,0.005,0.3106,0.3244,3,18,0.69,1.02,0.23,24.706,23.54,95.1,47.6,20911.0,7074,6831,6956,7102,63.2,64.5,64.0,63.3,3.012,2.746,3.011,2.84,6.3,307.0,38.9,38.6,1006.45,-28.74,0.18,1.62,31.4,53.0,40.7,0,no_anomaly,0.0,0,0,0,0,12.9715949,77.5945981,5.0,0.0
2024-05-02T11:06:01.100Z,MISSION_0062,11,0,takeoff,SITE_BLR_003,12.9715906,77.5945964,5.0,35.08,0.0,0.04,1.12,1.0627,0.3622,35.0829,0.95346,0.00789,0.00581,0.30135,0.0347,0.004,-9.8703,0.5706,-0.3413,-0.567,0.2284,3,11,0.88,0.76,0.53,24.668,16.59,95.0,48.2,20898.0,7218,7031,7245,7065,67.0,68.7,64.6,62.7,2.713,2.766,2.936,2.763,5.68,297.0,39.5,39.0,1006.34,-32.43,-0.08,1.5,34.7,53.0,40.5,0,no_anomaly,0.0,0,0,0,0,12.9715906,77.5945964,5.0,0.0
2024-05-02T11:06:01.200Z,MISSION_0062,12,0,takeoff,SITE_BLR_003,12.9715907,77.5945957,5.0,33.45,0.0,0.081,1.15,-0.1178,-1.1263,33.4521,0.95765,0.00184,-0.00971,0.28777,0.1234,-0.0924,-9.8302,0.9315,0.0212,0.2974,0.266,3,13,0.7,1.35,0.24,24.692,19.24,94.9,47.0,20884.0,7244,7304,7322,7127,64.6,62.4,68.4,65.7,2.775,2.82,3.086,3.082,4.76,301.9,39.0,39.0,1006.99,-30.91,-2.19,1.07,36.4,55.0,40.7,0,no_anomaly,0.0,0,0,0,0,12.9715907,77.5945957,5.0,0.0
2024-05-02T11:06:01.300Z,MISSION_0062,13,0,takeoff,SITE_BLR_003,12.9715855,77.5945938,5.0,32.22,0.0,0.025,1.75,-0.1428,-3.3448,32.2155,0.96034,0.0069,-0.02838,0.27729,0.0932,-0.0045,-9.8681,-0.1217,-0.2617,-0.3252,0.1208,3,18,0.65,1.04,0.2,24.74,18.95,94.9,47.4,20870.0,7210,7337,7182,7194,66.6,67.3,65.4,64.6,2.846,2.817,2.894,2.421,5.4,298.1,39.4,39.3,1006.59,-35.91,-0.93,1.71,35.4,46.4,40.2,0,no_anomaly,0.0,0,0,0,0,12.9715855,77.5945938,5.0,0.0
2024-05-02T11:06:01.400Z,MISSION_0062,14,0,takeoff,SITE_BLR_003,12.9715898,77.5945914,5.0,30.84,0.064,0.114,1.49,-1.6023,-1.2692,30.8448,0.96388,-0.01053,-0.01439,0.26574,-0.1089,-0.0373,-9.8515,-0.6576,-0.1354,-0.2926,0.2651,3,18,0.81,0.82,0.27,24.632,19.1,94.8,46.8,20856.0,7102,7344,7519,7200,66.9,62.9,65.6,61.6,2.621,2.904,2.826,2.684,5.17,296.7,39.1,38.2,1007.02,-31.13,0.58,1.23,33.2,46.9,41.2,0,no_anomaly,0.0,0,0,0,0,12.9715898,77.5945914,5.0,0.0
2024-05-02T11:06:01.500Z,MISSION_0062,15,0,takeoff,SITE_BLR_003,12.9715883,77.5945958,5.0,29.7,0.0,0.033,1.38,3.7755,-1.8326,29.6963,0.96583,0.03593,-0.00701,0.2566,0.1416,0.0032,-9.7886,0.2693,0.5826,0.6148,0.2531,3,14,0.83,0.7,0.28,24.676,21.71,94.7,47.5,20842.0,7208,7108,6998,7441,64.1,63.7,68.6,62.5,2.598,3.016,2.811,3.007,5.59,303.2,39.1,39.6,1006.99,-28.65,-0.0,1.55,34.6,48.7,42.8,0,no_anomaly,0.0,0,0,0,0,12.9715883,77.5945958,5.0,0.0
2024-05-02T11:06:01.600Z,MISSION_0062,16,0,takeoff,SITE_BLR_003,12.9715898,77.594597,5.0,26.88,0.312,0.075,1.19,5.8054,-2.6038,26.8754,0.97086,0.05451,-0.01031,0.23315,-0.0128,0.0304,-9.8196,-0.1611,0.1359,0.2337,0.1873,3,20,0.8,0.97,0.33,24.655,20.8,94.7,47.9,20829.0,7282,7060,7536,7374,63.4,63.2,64.8,66.1,2.738,2.972,2.667,2.469,6.18,297.7,39.6,38.4,1006.81,-32.65,-0.94,1.36,35.2,50.5,39.2,0,no_anomaly,0.0,0,0,0,0,12.9715898,77.594597,5.0,0.0
2024-05-02T11:06:01.700Z,MISSION_0062,17,0,takeoff,SITE_BLR_003,12.9715899,77.594594,5.0,26.07,0.0,0.081,1.31,-0.3243,-2.8214,26.0711,0.97395,0.0028,-0.02462,0.22542,-0.0093,-0.032,-9.8616,0.1505,0.1577,0.0681,0.2197,3,16,0.61,0.91,0.3,24.673,13.3,94.6,47.5,20815.0,7278,7356,7114,7395,61.0,64.4,64.5,65.0,2.821,2.529,2.808,2.746,5.18,301.9,39.5,38.1,1006.69,-34.43,-0.57,1.72,35.9,44.9,41.1,0,no_anomaly,0.0,0,0,0,0,12.9715899,77.594594,5.0,0.0
2024-05-02T11:06:01.800Z,MISSION_0062,18,0,takeoff,SITE_BLR_003,12.9715908,77.5945925,5.0,24.17,0.0,0.022,1.33,0.0308,-0.7484,24.1717,0.97781,0.00163,-0.00633,0.20937,-0.0266,0.009,-9.7757,0.2086,-0.5143,-0.4019,0.2608,3,13,0.64,1.11,0.36,24.614,12.29,94.5,47.2,20801.0,7117,7207,7078,7284,64.5,65.4,65.6,67.7,3.028,2.929,2.859,2.781,5.16,295.2,39.7,39.1,1007.19,-20.24,-1.03,1.75,35.1,48.5,43.5,0,no_anomaly,0.0,0,0,0,0,12.9715908,77.5945925,5.0,0.0
2024-05-02T11:06:01.900Z,MISSION_0062,19,0,takeoff,SITE_BLR_003,12.9715869,77.5945918,5.0,25.33,0.558,0.104,1.72,-1.7082,-1.8386,25.3263,0.97549,-0.01103,-0.01892,0.21893,-0.3343,0.034,-9.8782,0.7966,-0.4076,-0.3643,0.1434,3,18,0.68,0.85,0.32,24.571,14.65,94.5,46.9,20787.0,7095,7051,7173,6975,63.4,63.7,63.8,64.5,2.621,2.741,2.878,2.999,5.06,296.5,39.2,39.1,1006.6,-25.07,0.59,1.0,33.5,44.9,39.4,0,no_anomaly,0.0,0,0,0,0,12.9715869,77.5945918,5.0,0.0
2024-05-02T11:06:02.000Z,MISSION_0062,20,0,takeoff,SITE_BLR_003,12.9715935,77.5945894,5.0,24.75,0.32,0.048,1.38,-2.359,-0.2003,24.7546,0.97656,-0.01973,-0.00612,0.21427,-0.1729,-0.0237,-9.8407,1.1734,-0.3803,-0.5125,0.0844,3,14,0.83,0.86,0.36,24.593,14.8,94.4,47.2,20773.0,7143,7052,7032,7207,64.7,62.6,62.8,60.7,2.855,2.76,2.855,2.87,4.98,301.1,39.5,38.6,1007.08,-27.63,-0.32,1.83,30.4,53.0,38.5,0,no_anomaly,0.0,0,0,0,0,12.9715935,77.5945894,5.0,0.0
2024-05-02T11:06:02.100Z,MISSION_0062,21,0,takeoff,SITE_BLR_003,12.9715943,77.5945888,5.0,24.62,0.359,0.111,1.39,-2.8923,-4.6549,24.6175,0.97611,-0.01598,-0.04504,0.21193,-0.1567,0.0371,-9.951,0.0985,-0.5932,-0.0299,0.2548,3,14,0.58,0.98,0.2,24.703,21.58,94.4,47.9,20760.0,7284,7267,7112,7262,63.6,62.8,62.5,63.4,2.676,2.502,2.894,2.889,5.36,297.8,39.3,39.0,1006.74,-31.06,-0.71,1.55,37.5,56.0,43.9,0,no_anomaly,0.0,0,0,0,0,12.9715943,77.5945888,5.0,0.0
2024-05-02T11:06:02.200Z,MISSION_0062,22,0,takeoff,SITE_BLR_003,12.9715959,77.5945935,5.0,25.68,0.148,0.124,0.85,2.046,-0.5379,25.6806,0.97481,0.01845,-0.00061,0.22228,0.2003,-0.0628,-9.8266,0.2772,0.2111,0.1278,0.2315,3,20,0.69,0.68,0.24,24.62,18.14,94.3,47.1,20746.0,7435,7269,7079,7145,65.5,63.7,66.5,64.4,2.895,2.996,3.047,2.86,5.51,301.5,39.2,38.8,1006.47,-34.5,0.6,1.42,36.1,45.9,40.2,0,no_anomaly,0.0,0,0,0,0,12.9715959,77.5945935,5.0,0.0
2024-05-02T11:06:02.300Z,MISSION_0062,23,0,takeoff,SITE_BLR_003,12.9715954,77.5945939,5.0,25.87,0.481,0.08,0.86,3.2251,-1.7965,25.8705,0.97402,0.03093,-0.00897,0.22416,0.0718,-0.0205,-9.7305,0.0568,0.4609,-0.2051,0.1274,3,14,0.74,1.21,0.37,24.645,15.56,94.2,47.6,20732.0,7332,7128,7140,7308,66.3,62.9,66.4,62.0,2.741,2.862,2.942,2.954,5.83,302.9,39.3,39.0,1007.1,-30.45,-0.17,1.69,34.0,48.9,39.6,0,no_anomaly,0.0,0,0,0,0,12.9715954,77.5945939,5.0,0.0
2024-05-02T11:06:02.400Z,MISSION_0062,24,0,takeoff,SITE_BLR_003,12.9715944,77.5945928,5.0,27.53,0.88,0.089,1.02,4.7095,0.1157,27.5341,0.97046,0.03967,0.01076,0.23773,0.2099,-0.0427,-9.7491,0.6366,-0.243,-0.4601,0.1394,3,17,0.68,0.74,0.24,24.677,17.85,94.2,46.9,20718.0,7477,7232,6898,7147,60.5,63.0,62.1,61.5,3.018,2.635,2.773,3.116,5.6,298.8,39.4,40.6,1006.66,-30.86,-0.6,1.22,35.2,46.7,42.5,0,no_anomaly,0.0,0,0,0,0,12.9715944,77.5945928,5.0,0.0
2024-05-02T11:06:02.500Z,MISSION_0062,25,0,takeoff,SITE_BLR_003,12.9715958,77.5945952,5.0,26.69,1.179,0.132,0.71,-0.8432,0.2891,26.6913,0.97296,-0.00774,0.00076,0.23084,-0.0178,-0.0129,-9.8537,-0.1836,-0.1578,0.2562,0.2239,3,20,0.58,0.73,0.3,24.598,16.77,94.1,48.0,20704.0,7369,7271,7374,7242,65.5,66.2,62.9,64.2,2.967,2.921,2.751,2.922,5.25,295.3,39.0,38.5,1006.62,-26.71,-0.39,1.16,34.3,52.0,43.9,0,no_anomaly,0.0,0,0,0,0,12.9715958,77.5945952,5.0,0.0
2024-05-02T11:06:02.600Z,MISSION_0062,26,0,takeoff,SITE_BLR_003,12.9715986,77.5945919,5.0,26.09,0.836,0.1,0.91,-3.8076,0.4363,26.0885,0.97362,-0.03322,-0.00379,0.2257,-0.0325,0.085,-9.8327,-0.1142,-0.0074,0.1232,0.2739,3,20,0.77,0.99,0.27,24.754,16.94,94.0,47.9,20691.0,7039,6942,7275,7083,63.0,64.1,64.7,62.9,2.661,2.653,2.864,3.084,4.99,307.4,39.5,38.8,1006.92,-28.88,1.03,1.54,33.1,53.1,42.2,0,no_anomaly,0.0,0,0,0,0,12.9715986,77.5945919,5.0,0.0
2024-05-02T11:06:02.700Z,MISSION_0062,27,0,takeoff,SITE_BLR_003,12.9715907,77.594591,5.0,23.32,0.982,0.144,1.44,-0.4384,-2.0721,23.3206,0.97921,-9e-05,-0.01848,0.20201,-0.1245,0.0463,-9.7243,-0.5412,-0.6983,-0.4846,0.2106,3,16,0.69,0.78,0.25,24.702,19.33,94.0,47.6,20677.0,7268,7061,7204,7315,68.6,62.8,65.2,63.0,2.752,3.0,3.086,2.779,4.66,298.5,39.3,37.5,1006.57,-28.14,0.54,1.44,35.8,45.8,41.1,0,no_anomaly,0.0,0,0,0,0,12.9715907,77.594591,5.0,0.0
2024-05-02T11:06:02.800Z,MISSION_0062,28,0,takeoff,SITE_BLR_003,12.9715937,77.594587,5.0,22.15,1.452,0.145,1.61,-2.5269,-3.0526,22.1538,0.9809,-0.01651,-0.03037,0.19144,-0.0099,0.0205,-9.8223,0.2687,0.0424,0.0406,0.1531,3,10,0.75,0.86,0.25,24.611,15.38,93.9,47.4,20663.0,7071,7245,7368,6834,61.5,67.0,69.9,65.8,2.912,2.985,3.014,2.679,6.81,294.1,39.3,39.2,1006.98,-30.91,-0.81,1.48,35.2,47.2,43.9,0,no_anomaly,0.0,0,0,0,0,12.9715937,77.594587,5.0,0.0
2024-05-02T11:06:02.900Z,MISSION_0062,29,0,takeoff,SITE_BLR_003,12.9715951,77.5945884,5.0,22.71,1.252,-0.003,1.4,-0.1811,-4.5847,22.7142,0.97965,0.00633,-0.03953,0.1967,0.0899,0.0396,-9.8855,0.272,-0.2701,-0.3305,0.109,3,10,0.77,1.23,0.38,24.648,20.48,93.9,47.2,20649.0,7118,7204,7428,7201,68.0,62.6,59.1,64.4,2.872,2.793,2.72,2.942,6.37,294.7,39.0,39.4,1007.15,-29.74,-1.6,1.36,33.7,53.2,43.6,0,no_anomaly,0.0,0,0,0,0,12.9715951,77.5945884,5.0,0.0
2024-05-02T11:06:03.000Z,MISSION_0062,30,0,takeoff,SITE_BLR_003,12.9715955,77.5945897,5.0,23.54,1.587,0.077,1.25,5.0256,-1.5986,23.5352,0.97782,0.04576,-0.0047,0.20433,0.0273,-0.0266,-9.7686,0.0846,-0.2719,0.2617,0.2053,3,11,0.71,0.85,0.22,24.582,17.02,93.8,47.5,20635.0,7209,7207,6950,6975,60.6,64.7,63.8,62.1,2.734,2.719,2.827,2.879,6.27,301.3,39.4,37.8,1006.59,-32.16,0.39,1.09,32.9,51.6,40.7,0,no_anomaly,0.0,0,0,0,0,12.9715955,77.5945897,5.0,0.0
2024-05-02T11:06:03.100Z,MISSION_0062,31,0,takeoff,SITE_BLR_003,12.9715976,77.5945851,5.0,21.11,1.808,0.147,1.68,-3.6234,-1.4827,21.1146,0.98257,-0.02871,-0.01851,0.18271,-0.068,0.0428,-9.7802,-0.687,0.3942,-0.1979,0.3256,3,19,0.71,0.89,0.29,24.527,22.79,93.7,47.2,20622.0,7135,7515,7098,7161,62.6,62.0,66.2,65.7,3.014,2.759,2.912,3.027,6.78,299.8,39.1,38.5,1006.93,-27.99,-0.51,1.13,31.9,45.1,44.2,0,no_anomaly,0.0,0,0,0,0,12.9715976,77.5945851,5.0,0.0
2024-05-02T11:06:03.200Z,MISSION_0062,32,0,takeoff,SITE_BLR_003,12.9715991,77.5945828,5.0,21.15,1.799,0.181,1.91,1.3504,-4.844,21.1456,0.98198,0.01933,-0.03938,0.1838,-0.1472,-0.0137,-9.8382,0.4543,0.3695,0.3805,0.2761,3,14,0.58,0.64,0.28,24.605,14.43,93.7,48.4,20608.0,7124,7110,6773,7234,65.3,69.6,63.4,62.0,2.597,2.779,2.934,2.713,5.23,305.5,39.0,39.3,1006.81,-29.49,0.6,1.93,36.8,46.2,42.0,0,no_anomaly,0.0,0,0,0,0,12.9715991,77.5945828,5.0,0.0
2024-05-02T11:06:03.300Z,MISSION_0062,33,0,takeoff,SITE_BLR_003,12.9716008,77.5945868,5.0,21.55,2.219,0.122,1.48,-2.1594,-5.3975,21.5544,0.98126,-0.00969,-0.04977,0.18588,0.0422,-0.038,-9.834,0.0716,-0.3865,-0.2649,0.2791,3,11,0.66,0.9,0.2,24.547,19.37,93.6,47.4,20594.0,7200,7314,6955,7316,64.2,59.3,63.6,63.7,3.054,2.882,2.751,2.89,5.32,296.7,39.0,39.0,1006.65,-26.73,-0.18,1.85,34.7,46.4,39.4,0,no_anomaly,0.0,0,0,0,0,12.9716008,77.5945868,5.0,0.0
2024-05-02T11:06:03.400Z,MISSION_0062,34,0,takeoff,SITE_BLR_003,12.9716069,77.5945843,5.0,22.22,2.839,0.128,1.9,0.8378,-3.4007,22.2181,0.98076,0.01289,-0.02771,0.1928,0.0884,0.0251,-9.8269,0.5168,0.3382,0.2166,0.1716,3,11,0.63,0.96,0.2,24.664,22.55,93.5,47.7,20580.0,7118,7338,7215,6943,63.8,65.1,64.1,67.0,2.989,2.79,2.525,2.393,5.57,289.7,39.3,38.6,1006.79,-27.04,0.19,1.64,33.5,44.9,40.8,0,no_anomaly,0.0,0,0,0,0,12.9716069,77.5945843,5.0,0.0
2024-05-02T11:06:03.500Z,MISSION_0062,35,0,takeoff,SITE_BLR_003,12.9716106,77.5945856,5.0,24.2,3.119,0.136,1.99,-1.9734,-4.1688,24.2044,0.97711,-0.0092,-0.03917,0.20887,-0.0382,-0.0094,-9.8235,0.2489,0.7619,-0.1519,0.1699,3,12,0.5,0.87,0.2,24.698,20.87,93.5,47.7,20566.0,7025,7322,7082,7133,62.1,64.6,66.9,61.6,2.803,2.785,2.82,2.571,5.69,300.3,39.3,38.4,1006.67,-34.09,0.51,2.03,32.2,49.9,39.9,0,no_anomaly,0.0,0,0,0,0,12.9716106,77.5945856,5.0,0.0
2024-05-02T11:06:03.600Z,MISSION_0062,36,0,takeoff,SITE_BLR_003,12.9716096,77.59458,5.0,24.39,2.827,0.069,2.47,-1.5741,-0.8989,24.3872,0.97734,-0.01177,-0.01057,0.21108,-0.1038,-0.0155,-9.95,-0.0863,0.2688,-0.2742,0.1797,3,14,0.61,0.71,0.28,24.619,13.84,93.4,47.0,20553.0,6944,7180,7299,7272,63.4,66.8,64.6,65.9,2.763,2.848,2.58,2.99,5.14,302.2,39.1,38.9,1006.35,-29.61,-1.32,1.92,37.4,49.0,44.7,0,no_anomaly,0.0,0,0,0,0,12.9716096,77.59458,5.0,0.0
2024-05-02T11:06:03.700Z,MISSION_0062,37,0,takeoff,SITE_BLR_003,12.9716125,77.5945849,5.0,23.77,2.73,0.084,2.19,6.2439,-0.5342,23.7724,0.97704,0.05425,0.00666,0.20591,0.2754,0.0308,-9.7584,0.2828,-0.2184,-0.122,0.2466,3,15,0.72,0.76,0.34,24.592,21.74,93.4,47.8,20539.0,7022,7032,7039,7257,64.7,64.5,62.2,62.4,2.997,2.744,2.7,2.682,5.93,293.9,39.4,38.8,1006.82,-31.24,-1.42,1.6,33.7,50.9,40.4,0,no_anomaly,0.0,0,0,0,0,12.9716125,77.5945849,5.0,0.0
2024-05-02T11:06:03.800Z,MISSION_0062,38,0,takeoff,SITE_BLR_003,12.9716141,77.59458,5.0,25.54,2.838,0.03,2.72,0.345,-3.4996,25.5385,0.97479,0.00968,-0.02911,0.22101,-0.3293,0.0209,-9.6971,-0.8948,0.9954,0.0155,0.1353,3,13,0.5,1.01,0.23,24.61,25.82,93.3,47.3,20525.0,7457,7124,7305,6982,64.1,67.9,65.1,62.6,2.746,2.71,2.923,2.624,5.52,306.8,39.4,39.3,1007.01,-29.75,-0.67,2.02,34.6,51.0,43.9,0,no_anomaly,0.0,0,0,0,0,12.9716141,77.59458,5.0,0.0
2024-05-02T11:06:03.900Z,MISSION_0062,39,0,takeoff,SITE_BLR_003,12.9716135,77.5945858,5.0,26.57,2.982,0.011,2.18,-4.1262,-1.5954,26.565,0.97264,-0.03184,-0.02181,0.22909,0.0571,0.068,-9.7576,0.1115,-0.6298,-0.7383,0.2019,3,14,0.74,0.88,0.37,24.597,18.11,93.2,46.9,20511.0,7090,7009,7041,7169,65.1,63.0,64.6,66.1,3.022,2.807,2.794,2.873,4.98,298.0,39.2,38.6,1006.89,-29.57,-1.23,1.4,32.8,51.5,39.7,0,no_anomaly,0.0,0,0,0,0,12.9716135,77.5945858,5.0,0.0
2024-05-02T11:06:04.000Z,MISSION_0062,40,0,takeoff,SITE_BLR_003,12.971609,77.5945817,5.0,28.85,2.736,0.131,2.27,4.5889,-2.3044,28.8492,0.9673,0.04377,-0.00949,0.24964,0.2498,0.0043,-9.8259,0.3268,-0.3501,-0.0185,0.1825,3,14,0.56,0.68,0.2,24.606,18.07,93.2,46.6,20497.0,7138,7230,7200,7129,65.3,64.2,61.7,61.0,2.589,2.887,2.833,2.637,5.61,300.6,39.5,39.3,1006.16,-29.7,-0.14,1.04,31.4,46.6,40.3,0,no_anomaly,0.0,0,0,0,0,12.971609,77.5945817,5.0,0.0
2024-05-02T11:06:04.100Z,MISSION_0062,41,0,takeoff,SITE_BLR_003,12.9716075,77.5945816,5.0,27.38,2.75,0.02,2.22,1.729,-3.8892,27.3821,0.97079,0.02268,-0.0294,0.23702,-0.2807,0.0339,-9.7773,-1.0383,0.603,0.1665,0.1461,3,15,0.7,0.89,0.27,24.474,20.53,93.1,47.1,20484.0,7123,7002,7070,7378,64.6,63.4,63.1,66.2,2.694,2.834,2.701,2.887,4.59,302.3,39.0,38.9,1006.42,-30.26,-0.15,2.01,33.2,50.7,42.6,0,no_anomaly,0.0,0,0,0,0,12.9716075,77.5945816,5.0,0.0
2024-05-02T11:06:04.200Z,MISSION_0062,42,0,takeoff,SITE_BLR_003,12.9716047,77.5945777,5.0,27.98,2.772,0.159,2.54,-0.6725,1.1726,27.9817,0.97025,-0.00817,0.00851,0.24181,0.0412,-0.0044,-9.7989,0.7649,-0.7693,0.4777,0.2688,3,13,0.72,1.03,0.39,24.585,21.72,93.0,47.0,20470.0,7049,7099,7155,7007,66.6,65.9,66.4,63.4,2.693,2.795,2.747,2.814,6.15,298.5,39.3,39.0,1006.86,-29.48,1.36,1.74,33.6,51.4,44.0,0,no_anomaly,0.0,0,0,0,0,12.9716047,77.5945777,5.0,0.0
2024-05-02T11:06:04.300Z,MISSION_0062,43,0,takeoff,SITE_BLR_003,12.9716066,77.5945783,5.0,30.13,2.969,0.152,2.52,-2.0271,-3.1692,30.1253,0.96525,-0.00989,-0.03129,0.25926,-0.043,-0.0801,-9.7402,0.0002,0.2553,-0.3686,0.1499,3,18,0.65,0.78,0.29,24.656,24.45,93.0,47.8,20456.0,7142,6961,7318,7300,64.2,65.3,70.2,66.5,2.991,2.772,2.936,2.775,6.03,302.3,39.4,38.3,1006.88,-29.02,-1.96,1.0,31.9,51.2,40.0,0,no_anomaly,0.0,0,0,0,0,12.9716066,77.5945783,5.0,0.0
2024-05-02T11:06:04.400Z,MISSION_0062,44,0,takeoff,SITE_BLR_003,12.9716065,77.5945763,5.0,30.22,3.495,0.05,2.73,-1.9166,-0.9539,30.2222,0.96529,-0.01398,-0.01239,0.26051,-0.1227,-0.0281,-9.8409,-0.4016,-0.0786,-0.2742,0.1366,3,16,0.72,0.93,0.3,24.563,24.83,92.9,47.5,20442.0,7214,7196,7110,7100,66.2,66.6,66.0,63.9,2.749,2.533,2.944,2.56,5.08,298.5,39.0,38.5,1006.72,-28.53,-0.62,1.81,32.1,48.7,39.1,0,no_anomaly,0.0,0,0,0,0,12.9716065,77.5945763,5.0,0.0
2024-05-02T11:06:04.500Z,MISSION_0062,45,0,takeoff,SITE_BLR_003,12.9716132,77.5945765,5.0,32.52,3.132,0.061,3.0,4.7938,0.5586,32.5188,0.95921,0.03878,0.01638,0.27954,-0.3152,0.0311,-9.8286,-0.7553,0.1798,0.3026,0.1541,3,16,0.71,0.67,0.32,24.642,16.07,92.9,47.7,20428.0,7201,6907,7171,7062,63.4,62.4,68.1,63.2,2.612,2.736,2.763,2.546,6.09,300.6,39.5,38.5,1006.79,-34.39,-0.72,2.14,33.9,52.3,41.7,0,no_anomaly,0.0,0,0,0,0,12.9716132,77.5945765,5.0,0.0
2024-05-02T11:06:04.600Z,MISSION_0062,46,0,takeoff,SITE_BLR_003,12.9716114,77.5945794,5.0,30.63,3.277,0.132,2.62,-2.734,0.4662,30.6292,0.96418,-0.02408,-0.00238,0.26413,0.0967,-0.0673,-9.7612,0.4249,-0.3446,-0.3025,0.2693,3,18,0.71,0.86,0.37,24.621,19.48,92.8,47.8,20415.0,7417,6988,6853,7194,66.6,64.1,60.9,65.9,2.695,2.642,2.85,2.848,5.58,294.2,40.0,38.1,1006.9,-29.19,0.77,1.42,31.5,52.1,43.8,0,no_anomaly,0.0,0,0,0,0,12.9716114,77.5945794,5.0,0.0
2024-05-02T11:06:04.700Z,MISSION_0062,47,0,takeoff,SITE_BLR_003,12.971613,77.5945844,5.0,31.95,3.18,0.185,2.27,-4.8409,-4.667,31.9537,0.96019,-0.02937,-0.05072,0.27312,-0.0863,0.0488,-9.8407,-0.4344,-0.3308,-0.0349,0.2333,3,11,0.68,0.9,0.31,24.668,24.49,92.7,47.3,20401.0,7005,7280,7130,7358,67.2,65.4,65.6,65.1,2.831,2.85,2.968,2.988,5.47,295.8,39.5,39.4,1006.63,-31.47,1.74,1.78,35.4,43.7,38.4,0,no_anomaly,0.0,0,0,0,0,12.971613,77.5945844,5.0,0.0
2024-05-02T11:06:04.800Z,MISSION_0062,48,0,takeoff,SITE_BLR_003,12.9716189,77.594585,5.0,33.56,2.841,0.198,2.69,-5.7629,-0.253,33.5602,0.95624,-0.04749,-0.01662,0.28823,0.0079,0.0545,-9.7707,-0.3249,-0.7702,-0.0119,0.1014,3,14,0.61,0.95,0.33,24.601,22.7,92.7,46.8,20387.0,6995,6985,7247,7018,64.7,65.1,65.6,63.0,2.869,2.872,2.883,2.752,5.14,304.0,39.2,39.4,1006.67,-25.51,1.01,1.42,34.5,49.1,41.7,0,no_anomaly,0.0,0,0,0,0,12.9716189,77.594585,5.0,0.0
2024-05-02T11:06:04.900Z,MISSION_0062,49,0,takeoff,SITE_BLR_003,12.9716156,77.5945847,5.0,34.9,3.147,0.136,2.43,2.3523,-2.2798,34.8959,0.95348,0.02554,-0.01282,0.30011,-0.3463,0.0034,-9.9117,0.2232,0.6455,-0.1193,0.179,3,13,0.81,0.79,0.32,24.649,23.74,92.6,47.7,20373.0,7175,7370,7326,7175,65.7,61.2,65.0,69.3,2.806,2.617,2.44,2.818,5.03,300.3,39.3,39.1,1006.83,-34.08,0.07,1.51,32.2,47.9,41.4,0,no_anomaly,0.0,0,0,0,0,12.9716156,77.5945847,5.0,0.0
2024-05-02T11:06:05.000Z,MISSION_0062,50,0,takeoff,SITE_BLR_003,12.9716156,77.5945825,5.0,34.22,2.935,0.074,2.61,0.7842,-3.632,34.2222,0.95517,0.01586,-0.02827,0.29428,-0.0734,0.0151,-9.8662,1.0742,0.5159,0.2485,0.1468,3,10,0.65,1.02,0.29,24.644,18.34,92.5,47.4,20359.0,7298,7276,7113,7287,64.1,64.3,65.2,59.9,2.891,2.829,2.628,2.911,5.5,288.4,39.3,39.1,1006.64,-30.58,0.82,1.35,33.2,49.7,43.0,0,no_anomaly,0.0,0,0,0,0,12.9716156,77.5945825,5.0,0.0
2024-05-02T11:06:05.100Z,MISSION_0062,51,0,takeoff,SITE_BLR_003,12.9716115,77.5945788,5.0,35.12,2.988,0.172,2.69,5.7664,-2.3536,35.1202,0.95168,0.05413,-0.00438,0.30225,-0.159,-0.0255,-9.7418,-0.2014,0.5146,-0.1079,0.215,3,11,0.58,0.88,0.26,24.653,21.36,92.5,46.9,20346.0,7328,7129,6940,7094,65.0,67.2,62.8,63.0,2.707,2.683,2.704,2.861,5.81,296.1,39.3,38.6,1006.58,-30.55,-0.1,1.61,38.4,51.3,45.2,0,no_anomaly,0.0,0,0,0,0,12.9716115,77.5945788,5.0,0.0
2024-05-02T11:06:05.200Z,MISSION_0062,52,0,takeoff,SITE_BLR_003,12.9716098,77.5945761,5.0,35.46,3.657,0.077,2.87,1.4819,-2.1721,35.4566,0.95219,0.01809,-0.01412,0.30466,-0.086,-0.057,-9.8504,-0.1503,-0.253,0.3705,0.2502,3,17,0.51,0.6,0.2,24.581,20.65,92.4,47.2,20332.0,7067,7147,7326,7277,66.1,63.8,68.1,62.3,3.034,2.624,2.548,3.02,6.27,293.4,39.7,39.6,1007.18,-35.08,-0.11,1.83,34.4,54.9,44.1,0,no_anomaly,0.0,0,0,0,0,12.9716098,77.5945761,5.0,0.0
2024-05-02T11:06:05.300Z,MISSION_0062,53,0,transit,SITE_BLR_003,12.9716104,77.5945772,5.5,36.7,3.558,0.141,2.79,2.6804,-1.5547,36.7024,0.9487,0.02647,-0.00551,0.31503,0.1371,-0.019,-9.927,-0.0081,-0.411,0.6114,0.1639,3,15,0.83,1.0,0.34,24.611,20.3,92.4,47.0,20318.0,7271,7392,7333,7218,65.9,64.7,63.6,63.7,2.747,2.802,2.93,2.715,6.32,298.5,39.3,38.3,1006.69,-30.75,0.48,1.49,35.5,52.4,41.5,0,no_anomaly,0.0,0,0,0,0,12.9716104,77.5945772,5.5,0.0
2024-05-02T11:06:05.400Z,MISSION_0062,54,0,transit,SITE_BLR_003,12.9716087,77.594576,6.0,37.22,2.79,0.038,2.84,1.2076,-2.3277,37.2178,0.9474,0.01647,-0.01589,0.31923,0.1001,-0.1047,-9.8277,-0.339,-0.2882,-0.3485,0.1712,3,18,0.68,0.96,0.2,24.542,17.3,92.3,47.5,20304.0,7316,7055,7257,7139,62.6,66.0,64.3,65.3,3.255,3.027,2.615,2.782,6.17,293.1,39.1,39.2,1006.84,-28.33,-0.64,1.68,33.7,50.5,41.4,0,no_anomaly,0.0,0,0,0,0,12.9716087,77.594576,6.0,0.0
2024-05-02T11:06:05.500Z,MISSION_0062,55,0,transit,SITE_BLR_003,12.9716036,77.5945785,6.5,37.0,3.13,0.127,2.43,3.886,-0.777,36.9967,0.94769,0.0343,0.00433,0.31731,0.3286,-0.0299,-9.8038,-0.0284,0.3492,0.2529,0.2012,3,15,0.76,0.84,0.32,24.581,14.55,92.2,47.2,20290.0,7256,7181,7279,7318,64.5,62.2,64.6,66.2,2.835,2.83,3.151,2.714,6.1,305.6,39.2,38.3,1006.69,-29.52,-0.55,1.47,33.9,51.6,43.8,0,no_anomaly,0.0,0,0,0,0,12.9716036,77.5945785,6.5,0.0
2024-05-02T11:06:05.600Z,MISSION_0062,56,0,transit,SITE_BLR_003,12.9716002,77.5945794,7.0,35.74,3.469,0.136,2.29,3.5081,-3.6567,35.7398,0.95053,0.0389,-0.02096,0.30749,0.204,-0.0151,-9.7954,0.0159,0.1189,0.0818,0.2019,3,14,0.83,0.79,0.37,24.558,26.59,92.2,46.6,20277.0,7371,7078,7254,7164,67.0,64.7,63.2,62.7,2.742,2.646,2.83,2.935,6.04,294.0,39.3,38.3,1006.94,-34.37,0.78,1.54,33.9,47.2,44.3,0,no_anomaly,0.0,0,0,0,0,12.9716002,77.5945794,7.0,0.0
2024-05-02T11:06:05.700Z,MISSION_0062,57,0,transit,SITE_BLR_003,12.9716026,77.5945785,7.5,35.44,3.615,0.16,2.41,-2.4886,-2.0855,35.4362,0.9523,-0.01514,-0.02394,0.30384,-0.0597,0.0346,-9.8194,0.0389,1.1198,-0.3496,0.3406,3,12,0.74,1.0,0.2,24.597,17.65,92.1,47.8,20263.0,7140,7485,6876,7227,63.2,62.9,66.0,67.4,2.688,2.654,3.023,3.083,5.37,302.0,39.2,38.6,1006.68,-28.04,-1.15,2.16,32.4,43.2,39.9,0,no_anomaly,0.0,0,0,0,0,12.9716026,77.5945785,7.5,0.0
2024-05-02T11:06:05.800Z,MISSION_0062,58,0,transit,SITE_BLR_003,12.9715958,77.5945813,8.0,37.92,3.779,0.12,2.13,-0.6383,-3.3056,37.9205,0.94539,0.00411,-0.02909,0.32462,-0.1405,-0.0213,-9.836,-0.921,-0.435,0.285,0.1669,3,15,0.71,0.8,0.31,24.555,20.9,92.0,47.8,20249.0,7555,7179,7111,7322,61.5,64.1,62.9,64.2,2.73,2.714,2.856,2.917,5.27,304.1,39.7,37.8,1006.66,-32.35,0.92,1.65,37.5,49.5,41.7,0,no_anomaly,0.0,0,0,0,0,12.9715958,77.5945813,8.0,0.0
2024-05-02T11:06:05.900Z,MISSION_0062,59,0,transit,SITE_BLR_003,12.9715986,77.5945783,8.5,34.81,4.172,0.119,2.42,-0.7258,-3.9159,34.8128,0.9537,0.00418,-0.03449,0.29876,-0.0646,-0.0568,-9.8036,0.6802,0.6372,0.3418,0.2008,3,14,0.67,0.74,0.24,24.58,20.5,92.0,48.0,20235.0,7220,7099,6986,7254,66.6,63.8,67.6,67.5,3.123,3.059,2.886,3.01,5.29,301.8,39.1,38.1,1006.88,-21.82,0.8,1.4,32.9,44.0,40.3,0,no_anomaly,0.0,0,0,0,0,12.9715986,77.5945783,8.5,0.0
2024-05-02T11:06:06.000Z,MISSION_0062,60,0,transit,SITE_BLR_003,12.9716028,77.5945778,9.0,34.32,3.829,0.057,2.49,-3.153,-1.6454,34.3166,0.95515,-0.02205,-0.02183,0.29449,-0.2367,0.0554,-9.7899,0.4849,0.1028,0.0704,0.1529,3,11,0.63,1.14,0.2,24.517,21.93,91.9,47.7,20221.0,7364,6936,7382,7070,64.8,64.2,64.2,64.9,2.926,2.727,2.942,2.764,5.79,293.7,39.4,38.3,1006.82,-30.45,-0.32,1.81,36.6,49.7,43.5,0,no_anomaly,0.0,0,0,0,0,12.9716028,77.5945778,9.0,0.0
2024-05-02T11:06:06.100Z,MISSION_0062,61,0,transit,SITE_BLR_003,12.9716039,77.5945758,9.5,34.04,3.384,0.12,2.73,1.9419,-1.7096,34.0415,0.95588,0.02057,-0.0093,0.29289,-0.0672,0.0076,-9.7724,0.094,0.7639,-0.2125,0.1653,3,15,0.81,0.86,0.39,24.575,20.58,91.9,48.0,20208.0,7135,6926,7183,7050,62.6,64.5,62.7,62.8,2.88,2.582,3.209,2.973,5.77,293.1,39.3,39.1,1007.09,-31.41,0.97,1.62,39.1,53.8,44.5,0,no_anomaly,0.0,0,0,0,0,12.9716039,77.5945758,9.5,0.0
2024-05-02T11:06:06.200Z,MISSION_0062,62,0,transit,SITE_BLR_003,12.9716034,77.5945752,10.0,31.55,4.014,0.12,2.79,-5.7278,-2.4753,31.5521,0.9612,-0.04221,-0.03434,0.27044,-0.054,0.0751,-9.8533,0.3116,0.6614,-0.3062,0.1957,3,13,0.81,0.74,0.37,24.565,17.05,91.8,47.0,20194.0,7145,7260,7221,7085,63.5,62.9,66.2,64.9,2.881,3.111,2.923,3.078,5.55,304.5,39.2,38.6,1006.84,-30.14,0.47,1.3,35.4,44.7,41.0,0,no_anomaly,0.0,0,0,0,0,12.9716034,77.5945752,10.0,0.0
2024-05-02T11:06:06.300Z,MISSION_0062,63,0,transit,SITE_BLR_003,12.9716031,77.5945681,10.5,32.2,4.231,0.055,3.56,0.1728,-3.8713,32.1987,0.96022,0.01081,-0.03203,0.27719,-0.0528,0.0194,-9.8604,0.038,0.5946,-0.1849,0.277,3,18,0.72,1.08,0.35,24.626,19.71,91.7,48.2,20180.0,7168,7101,6981,6951,62.5,60.7,61.4,66.2,2.798,2.914,3.033,2.878,5.83,296.7,39.3,38.8,1006.65,-29.41,-0.2,1.73,34.0,47.9,41.0,0,no_anomaly,0.0,0,0,0,0,12.9716031,77.5945681,10.5,0.0
2024-05-02T11:06:06.400Z,MISSION_0062,64,0,transit,SITE_BLR_003,12.9716011,77.5945676,11.0,32.64,4.547,0.084,3.61,-1.5722,-0.5278,32.6369,0.95963,-0.01187,-0.00828,0.28089,0.2463,-0.0384,-9.8018,-0.295,-0.2208,-0.1339,0.1124,3,12,0.58,0.91,0.2,24.572,24.57,91.7,47.8,20166.0,7202,7095,7268,7085,61.0,66.7,64.8,64.1,2.563,2.629,2.957,2.986,5.65,296.2,39.6,39.7,1006.39,-30.09,0.43,2.01,35.7,44.9,41.8,0,no_anomaly,0.0,0,0,0,0,12.9716011,77.5945676,11.0,0.0
2024-05-02T11:06:06.500Z,MISSION_0062,65,0,transit,SITE_BLR_003,12.9716014,77.5945663,11.5,32.29,3.868,0.044,3.76,-0.4216,0.2056,32.2947,0.96054,-0.00403,0.0007,0.27811,-0.1218,0.0077,-9.8458,0.7064,0.6609,0.1335,0.2376,3,18,0.69,0.89,0.34,24.571,21.18,91.6,46.9,20152.0,7157,6820,7276,7266,62.8,65.0,64.8,63.3,2.211,2.893,2.847,2.745,5.46,305.9,39.4,39.6,1006.48,-28.82,1.11,1.83,35.3,46.5,43.1,0,no_anomaly,0.0,0,0,0,0,12.9716014,77.5945663,11.5,0.0
2024-05-02T11:06:06.600Z,MISSION_0062,66,0,transit,SITE_BLR_003,12.9716009,77.5945666,12.0,32.4,3.954,0.155,3.72,-6.5802,1.4443,32.4028,0.95843,-0.05862,-0.00393,0.27923,0.0309,0.0586,-9.8448,-1.2333,-0.0565,0.6284,0.2501,3,17,0.58,0.87,0.24,24.661,19.2,91.5,47.1,20139.0,7231,7282,7188,7117,64.0,65.9,62.5,64.5,2.833,2.867,2.707,2.886,5.61,297.3,39.1,38.9,1006.97,-32.32,-2.04,1.68,29.8,47.2,42.4,0,no_anomaly,0.0,0,0,0,0,12.9716009,77.5945666,12.0,0.0
2024-05-02T11:06:06.700Z,MISSION_0062,67,0,transit,SITE_BLR_003,12.971602,77.5945679,12.5,36.97,4.018,0.141,3.58,3.9628,-0.4389,36.9714,0.94779,0.034,0.00733,0.317,-0.0771,0.0245,-9.8854,-0.235,0.2911,-0.0711,0.1344,3,19,0.55,1.04,0.2,24.525,19.07,91.5,47.1,20125.0,7069,6980,7032,7063,66.2,60.5,67.4,61.9,3.034,3.067,2.93,2.743,6.17,297.2,39.5,38.9,1006.9,-34.3,0.68,1.12,34.7,48.4,42.5,0,no_anomaly,0.0,0,0,0,0,12.971602,77.5945679,12.5,0.0
2024-05-02T11:06:06.800Z,MISSION_0062,68,0,transit,SITE_BLR_003,12.971603,77.5945638,13.0,35.35,4.071,0.134,4.04,-0.4221,-0.846,35.3523,0.95276,-0.00127,-0.00815,0.3036,0.1347,0.0499,-9.8187,-0.1738,1.4089,-0.1005,0.1999,3,17,0.69,1.05,0.42,24.583,19.7,91.4,47.8,20111.0,7219,7184,7035,7178,63.2,67.0,62.2,59.0,2.811,2.423,2.835,2.615,5.98,298.4,39.6,39.3,1006.8,-32.98,0.85,1.45,31.4,45.9,40.8,0,no_anomaly,0.0,0,0,0,0,12.971603,77.5945638,13.0,0.0
2024-05-02T11:06:06.900Z,MISSION_0062,69,0,transit,SITE_BLR_003,12.9715997,77.5945656,13.5,36.26,4.275,0.063,3.83,-0.9351,-1.5388,36.2574,0.95028,-0.00358,-0.0153,0.31101,0.1339,-0.0719,-9.8032,0.5004,0.2295,-0.1719,0.2545,3,17,0.77,1.02,0.37,24.519,21.48,91.4,48.1,20097.0,6972,7184,7117,7316,63.9,65.3,64.8,63.7,2.632,2.928,2.649,2.439,5.96,303.0,39.3,38.9,1006.69,-29.07,0.16,1.0,31.9,49.8,40.8,0,no_anomaly,0.0,0,0,0,0,12.9715997,77.5945656,13.5,0.0
2024-05-02T11:06:07.000Z,MISSION_0062,70,0,transit,SITE_BLR_003,12.971601,77.5945659,14.0,35.56,4.315,0.044,3.8,-0.3707,-2.1274,35.5632,0.95208,0.00259,-0.01866,0.30528,0.1238,0.0925,-9.8678,0.16,0.2172,-0.3815,0.1689,3,11,0.67,0.93,0.24,24.532,20.51,91.3,47.3,20083.0,7566,6987,7295,7135,60.3,65.2,62.0,66.6,2.844,2.656,2.83,2.938,5.97,300.3,39.2,38.7,1006.57,-28.58,-0.11,1.0,36.0,45.0,41.5,0,no_anomaly,0.0,0,0,0,0,12.971601,77.5945659,14.0,0.0
2024-05-02T11:06:07.100Z,MISSION_0062,71,0,transit,SITE_BLR_003,12.9715954,77.594569,14.5,35.26,4.484,0.087,3.48,-2.299,-3.6507,35.2574,0.95256,-0.00946,-0.03642,0.30202,-0.0921,0.0295,-9.8534,0.8934,0.0078,-0.1176,0.2951,3,16,0.63,0.99,0.25,24.648,22.52,91.2,47.5,20070.0,7302,7329,7215,7275,62.7,68.0,63.6,61.9,3.019,2.893,3.039,2.81,4.74,293.7,39.1,38.3,1006.46,-28.78,-0.77,1.92,32.2,52.9,41.3,0,no_anomaly,0.0,0,0,0,0,12.9715954,77.594569,14.5,0.0
2024-05-02T11:06:07.200Z,MISSION_0062,72,0,transit,SITE_BLR_003,12.971596,77.5945734,15.0,35.41,4.729,0.2,3.0,3.805,-3.4185,35.4064,0.95139,0.04068,-0.01831,0.30473,-0.0427,-0.0601,-9.7993,-0.7626,0.8581,-0.4372,0.2511,3,18,0.88,0.84,0.38,24.526,24.92,91.2,47.8,20056.0,7238,7673,7116,7068,65.2,62.3,67.5,65.8,2.961,2.675,2.639,2.663,4.93,299.9,39.1,38.7,1006.81,-31.09,-1.05,1.62,36.7,47.9,44.8,0,no_anomaly,0.0,0,0,0,0,12.971596,77.5945734,15.0,0.0
2024-05-02T11:06:07.300Z,MISSION_0062,73,0,transit,SITE_BLR_003,12.9715977,77.5945771,15.5,36.29,4.393,0.08,2.56,-0.1723,0.5112,36.2924,0.95025,-0.00282,0.00377,0.31145,-0.2477,0.0048,-9.6755,-0.0731,-0.2106,-0.2422,0.1481,3,12,0.74,1.04,0.23,24.565,15.28,91.1,47.7,20042.0,7229,7354,7285,7063,64.2,65.1,63.6,60.8,3.028,2.773,2.792,2.644,4.99,302.5,39.4,39.4,1007.14,-34.52,0.95,1.22,35.8,51.6,39.0,0,no_anomaly,0.0,0,0,0,0,12.9715977,77.5945771,15.5,0.0
2024-05-02T11:06:07.400Z,MISSION_0062,74,0,transit,SITE_BLR_003,12.9715968,77.5945767,16.0,35.6,5.129,0.052,2.62,0.0952,1.6931,35.5978,0.95203,-0.00373,0.01432,0.30563,-0.0788,0.0231,-9.8221,0.3877,-1.1409,0.0501,0.1933,3,12,0.67,1.02,0.29,24.504,21.47,91.0,48.1,20028.0,7159,7167,7214,7089,66.7,65.2,68.9,65.0,2.892,3.003,2.532,2.892,5.45,290.5,39.1,38.6,1007.22,-33.45,-0.26,1.07,33.6,47.6,39.0,0,no_anomaly,0.0,0,0,0,0,12.9715968,77.5945767,16.0,0.0
2024-05-02T11:06:07.500Z,MISSION_0062,75,0,transit,SITE_BLR_003,12.9715964,77.5945805,16.5,37.08,4.968,0.134,2.2,-0.4282,-2.8269,37.0848,0.94782,0.0043,-0.02457,0.31782,0.1547,0.0174,-9.7906,0.4791,0.2731,-0.4203,0.1724,3,10,0.66,0.74,0.21,24.532,20.59,91.0,48.4,20015.0,7297,7281,7313,7256,66.1,60.2,64.0,63.3,2.631,2.608,2.836,2.707,4.96,296.1,39.3,38.5,1006.94,-29.05,0.1,1.81,36.5,45.0,39.6,0,no_anomaly,0.0,0,0,0,0,12.9715964,77.5945805,16.5,0.0
2024-05-02T11:06:07.600Z,MISSION_0062,76,0,transit,SITE_BLR_003,12.9715962,77.5945821,17.0,36.99,4.745,0.057,2.04,-0.7527,-0.3343,36.9865,0.94834,-0.0053,-0.00485,0.31717,0.0786,0.0504,-9.8323,-0.2069,-0.0789,-0.1718,0.2041,3,11,0.7,0.7,0.32,24.517,18.97,90.9,47.6,20001.0,7096,7013,7018,7254,63.8,65.3,64.2,65.5,2.784,2.633,3.074,2.745,5.47,299.1,38.9,38.9,1006.47,-30.18,1.04,1.73,37.0,48.4,44.9,0,no_anomaly,0.0,0,0,0,0,12.9715962,77.5945821,17.0,0.0
2024-05-02T11:06:07.700Z,MISSION_0062,77,0,transit,SITE_BLR_003,12.9715948,77.5945851,17.5,35.64,4.437,0.153,1.75,8.1742,0.6379,35.6403,0.94971,0.06615,0.0271,0.30487,0.1316,0.0634,-9.7003,0.0468,-0.0327,0.2327,0.2716,3,20,0.81,1.09,0.37,24.583,16.0,90.8,48.2,19987.0,7348,7457,7424,7553,63.2,60.9,66.9,65.4,2.906,2.63,2.776,2.878,6.52,299.4,39.7,38.2,1006.5,-30.22,-2.41,1.94,33.0,53.5,44.4,0,no_anomaly,0.0,0,0,0,0,12.9715948,77.5945851,17.5,0.0
2024-05-02T11:06:07.800Z,MISSION_0062,78,0,transit,SITE_BLR_003,12.9715983,77.5945856,18.0,33.96,4.44,0.147,1.62,4.6281,-3.6943,33.956,0.95476,0.048,-0.01902,0.29286,0.0599,-0.016,-9.8515,0.1526,0.508,-0.2838,0.3357,3,10,0.72,1.0,0.42,24.502,17.81,90.8,47.5,19973.0,7135,7189,7215,7398,62.5,63.8,66.1,62.5,2.785,2.61,2.708,2.858,5.05,297.9,39.3,39.5,1006.81,-30.45,0.85,1.72,32.4,51.1,42.9,0,no_anomaly,0.0,0,0,0,0,12.9715983,77.5945856,18.0,0.0
2024-05-02T11:06:07.900Z,MISSION_0062,79,0,transit,SITE_BLR_003,12.9716008,77.594582,18.5,33.66,4.766,0.131,2.01,-2.5678,-2.2382,33.661,0.95687,-0.01579,-0.02518,0.28899,-0.0976,0.0518,-9.8456,0.874,0.0294,-0.1808,0.2219,3,18,0.74,0.95,0.26,24.541,13.81,90.7,47.8,19959.0,7064,7344,7103,7231,63.3,63.0,64.9,61.5,3.008,3.02,2.841,2.86,4.93,286.3,39.1,38.6,1006.69,-29.82,-0.4,1.07,31.4,49.4,42.4,0,no_anomaly,0.0,0,0,0,0,12.9716008,77.594582,18.5,0.0
2024-05-02T11:06:08.000Z,MISSION_0062,80,0,transit,SITE_BLR_003,12.9716027,77.5945841,19.0,35.21,5.184,0.09,1.8,-5.975,-1.3026,35.2135,0.95198,-0.04624,-0.02658,0.30149,-0.1136,0.0448,-9.7815,0.6177,-0.5635,-0.4047,0.2283,3,16,0.55,0.82,0.29,24.488,19.36,90.7,47.5,19946.0,7226,7069,7274,7238,64.2,65.5,63.3,63.7,2.614,2.62,3.043,2.647,4.99,298.6,39.2,39.5,1006.67,-31.23,-0.12,1.46,35.0,44.8,42.3,0,no_anomaly,0.0,0,0,0,0,12.9716027,77.5945841,19.0,0.0
2024-05-02T11:06:08.100Z,MISSION_0062,81,0,transit,SITE_BLR_003,12.9716053,77.5945794,19.5,35.16,5.172,0.095,2.37,1.4274,-3.541,35.161,0.95265,0.0212,-0.02569,0.30224,-0.0576,0.0488,-9.814,-1.1638,0.268,0.2544,0.1583,3,14,0.78,0.89,0.21,24.53,20.1,90.6,47.2,19932.0,7033,6947,7149,7386,63.5,66.1,63.8,66.1,2.666,2.792,2.743,2.649,6.09,306.7,39.4,38.9,1006.6,-29.94,1.68,1.88,33.6,53.7,40.2,0,no_anomaly,0.0,0,0,0,0,12.9716053,77.5945794,19.5,0.0
2024-05-02T11:06:08.200Z,MISSION_0062,82,0,transit,SITE_BLR_003,12.9716086,77.5945772,20.0,35.49,5.466,0.085,2.71,-4.164,-0.7482,35.4885,0.95185,-0.03261,-0.01729,0.30434,0.1324,0.0254,-9.7959,0.0874,-0.0941,0.0989,0.2438,3,14,0.69,0.73,0.2,24.672,17.2,90.5,49.0,19918.0,7374,7155,7296,7314,67.0,65.8,65.8,66.1,2.91,2.802,2.931,2.72,5.27,299.4,39.4,38.6,1006.38,-29.59,0.71,1.47,36.2,52.6,43.8,0,no_anomaly,0.0,0,0,0,0,12.9716086,77.5945772,20.0,0.0
2024-05-02T11:06:08.300Z,MISSION_0062,83,0,transit,SITE_BLR_003,12.9716099,77.5945779,20.5,34.12,5.462,0.192,2.69,5.3251,-1.6982,34.1167,0.95467,0.04875,-0.00053,0.29365,-0.2244,0.0265,-9.7814,0.0699,0.152,0.6904,0.2236,3,16,0.66,0.91,0.23,24.597,21.07,90.5,47.7,19904.0,7154,7139,7116,7195,63.9,62.6,63.6,68.5,2.955,2.695,2.517,2.766,5.29,301.5,39.3,38.6,1006.61,-27.2,0.1,1.23,36.4,44.3,41.2,0,no_anomaly,0.0,0,0,0,0,12.9716099,77.5945779,20.5,0.0
2024-05-02T11:06:08.400Z,MISSION_0062,84,0,transit,SITE_BLR_003,12.9716039,77.5945806,21.0,33.96,5.766,0.165,2.2,0.3313,-0.9292,33.9566,0.95637,0.00513,-0.00691,0.29202,0.0936,0.0179,-9.8084,-0.0424,-0.3822,-0.4104,0.3255,3,14,0.86,0.97,0.2,24.633,22.77,90.4,47.2,19890.0,7418,7191,7310,7220,61.2,66.8,64.3,63.5,2.892,2.871,2.854,3.006,5.59,293.5,39.4,38.1,1006.78,-27.76,-0.82,1.71,37.5,50.0,45.2,0,no_anomaly,0.0,0,0,0,0,12.9716039,77.5945806,21.0,0.0
2024-05-02T11:06:08.500Z,MISSION_0062,85,0,transit,SITE_BLR_003,12.971601,77.5945828,21.5,33.32,5.474,0.137,1.92,4.2611,0.7631,33.3201,0.95741,0.03371,0.01703,0.28625,-0.2744,-0.0735,-9.7564,0.0763,0.1235,-0.2947,0.1879,3,15,0.74,1.06,0.23,24.618,20.88,90.3,47.3,19877.0,7289,7354,7060,7168,63.9,66.1,64.2,65.2,2.852,2.693,2.483,2.742,4.93,304.7,38.9,39.5,1006.6,-28.89,0.08,1.35,37.7,50.2,41.6,0,no_anomaly,0.0,0,0,0,0,12.971601,77.5945828,21.5,0.0
2024-05-02T11:06:08.600Z,MISSION_0062,86,0,transit,SITE_BLR_003,12.9716032,77.5945875,22.0,32.13,5.317,0.07,1.43,-2.1514,-0.8148,32.1317,0.96079,-0.01607,-0.01203,0.27656,0.0129,-0.0004,-9.8206,0.0861,0.963,-0.2906,0.2215,3,18,0.76,0.86,0.37,24.434,24.43,90.3,47.6,19863.0,7128,6868,7239,7379,61.5,66.1,63.9,63.1,3.162,2.942,2.797,2.588,5.0,305.6,38.8,38.7,1006.7,-28.84,1.95,1.11,35.0,51.4,40.0,0,no_anomaly,0.0,0,0,0,0,12.9716032,77.5945875,22.0,0.0
2024-05-02T11:06:08.700Z,MISSION_0062,87,0,transit,SITE_BLR_003,12.9716006,77.5945876,22.0,31.27,5.104,0.106,1.38,1.1898,0.9951,31.273,0.96293,0.00766,0.01116,0.26942,-0.2616,-0.0164,-9.8313,-0.2454,0.1714,-0.1753,0.2464,3,15,0.65,0.9,0.22,24.603,22.69,90.2,48.2,19849.0,7319,7476,7132,7214,64.7,63.1,64.5,65.2,2.84,2.92,3.011,2.869,5.5,298.9,38.9,39.5,1006.9,-31.87,0.43,1.31,36.4,51.7,43.4,0,no_anomaly,0.0,0,0,0,0,12.9716006,77.5945876,22.0,0.0
2024-05-02T11:06:08.800Z,MISSION_0062,88,0,transit,SITE_BLR_003,12.9715985,77.5945884,22.0,29.69,4.841,0.18,1.3,0.5342,-1.6294,29.6935,0.96649,0.00815,-0.01255,0.25627,-0.0098,-0.0367,-9.8026,0.1212,-0.8462,-0.1458,0.2357,3,17,0.79,1.04,0.43,24.602,24.03,90.2,47.1,19835.0,7292,7077,7411,7307,64.5,65.6,62.6,64.4,2.645,3.068,2.75,2.791,5.89,295.2,39.5,38.8,1007.27,-32.78,1.39,1.25,30.9,52.2,42.7,0,no_anomaly,0.0,0,0,0,0,12.9715985,77.5945884,22.0,0.0
2024-05-02T11:06:08.900Z,MISSION_0062,89,0,transit,SITE_BLR_003,12.971599,77.5945879,22.0,28.2,4.935,0.107,1.35,1.4304,-1.2341,28.2049,0.9697,0.01473,-0.0074,0.24375,0.1035,-0.0389,-9.8489,0.2205,0.5914,0.3197,0.1418,3,17,0.58,0.78,0.2,24.59,23.57,90.1,48.0,19821.0,7171,7206,7456,7177,66.8,64.8,67.0,64.0,2.796,2.549,2.855,2.967,5.96,292.4,39.4,39.1,1006.67,-31.99,-1.39,2.06,36.0,48.9,42.9,0,no_anomaly,0.0,0,0,0,0,12.971599,77.5945879,22.0,0.0
2024-05-02T11:06:09.000Z,MISSION_0062,90,0,transit,SITE_BLR_003,12.971595,77.5945915,22.0,32.15,5.654,0.071,1.1,-4.7835,0.4444,32.1496,0.96001,-0.04117,-0.00783,0.2768,-0.2368,-0.0204,-9.843,0.3574,-0.4644,0.0482,0.1646,3,13,0.7,0.99,0.37,24.579,20.87,90.0,47.5,19808.0,7069,7279,7240,7231,64.7,64.2,65.9,65.7,2.838,2.943,2.727,2.738,5.83,293.2,39.3,38.1,1006.78,-32.46,0.6,1.6,35.0,47.8,41.6,0,no_anomaly,0.0,0,0,0,0,12.971595,77.5945915,22.0,0.0
2024-05-02T11:06:09.100Z,MISSION_0062,91,0,transit,SITE_BLR_003,12.9715986,77.5945886,22.0,35.18,5.069,0.126,1.28,3.1452,-0.4692,35.1819,0.95284,0.0274,0.00439,0.30221,0.0451,-0.0486,-9.8508,0.7613,0.0267,0.3735,0.2522,3,14,0.5,1.0,0.2,24.576,19.47,90.0,48.0,19794.0,7439,7157,7261,7210,64.2,69.1,62.0,64.5,2.785,2.663,2.794,2.958,5.35,302.4,39.1,39.1,1006.94,-25.93,0.37,1.0,36.4,46.0,41.8,0,no_anomaly,0.0,0,0,0,0,12.9715986,77.5945886,22.0,0.0
2024-05-02T11:06:09.200Z,MISSION_0062,92,0,transit,SITE_BLR_003,12.971601,77.5945862,22.0,33.92,5.339,0.056,1.54,1.7658,-1.7802,33.9208,0.95621,0.01927,-0.01036,0.29187,0.1508,0.0107,-9.8906,-0.1918,0.5452,-0.0501,0.256,3,17,0.65,0.85,0.29,24.573,22.01,89.9,48.2,19780.0,6950,7341,6923,7086,63.6,64.4,66.3,65.5,2.943,3.077,2.814,2.757,5.83,299.8,39.6,38.6,1006.91,-21.88,0.77,1.38,37.7,50.0,42.6,0,no_anomaly,0.0,0,0,0,0,12.971601,77.5945862,22.0,0.0
2024-05-02T11:06:09.300Z,MISSION_0062,93,0,transit,SITE_BLR_003,12.9715989,77.5945882,22.0,32.68,5.373,0.078,1.32,-6.0486,-0.9305,32.6763,0.95837,-0.04835,-0.02262,0.28049,-0.0271,-0.0447,-9.837,-0.3596,0.0136,0.2062,0.1208,3,16,0.57,1.19,0.21,24.593,17.14,89.8,46.9,19766.0,7275,7302,7406,7568,66.2,64.0,63.8,64.2,3.007,2.585,2.794,2.655,5.33,299.5,39.1,39.9,1006.77,-35.1,-0.06,1.63,31.9,44.5,38.2,0,no_anomaly,0.0,0,0,0,0,12.9715989,77.5945882,22.0,0.0
2024-05-02T11:06:09.400Z,MISSION_0062,94,0,transit,SITE_BLR_003,12.9715951,77.5945886,22.0,32.68,5.252,0.108,1.38,0.2347,-3.2182,32.6825,0.95921,0.00987,-0.02637,0.2813,0.0238,-0.0059,-9.8653,0.0544,0.1153,0.8964,0.2396,3,17,0.82,0.6,0.2,24.577,16.84,89.8,47.5,19752.0,7264,7042,7422,7201,65.3,65.9,67.1,64.1,2.798,2.807,2.725,2.718,6.06,293.1,39.3,37.9,1007.23,-28.7,0.25,1.8,36.4,54.7,41.6,0,no_anomaly,0.0,0,0,0,0,12.9715951,77.5945886,22.0,0.0
2024-05-02T11:06:09.500Z,MISSION_0062,95,0,transit,SITE_BLR_003,12.9715978,77.5945931,22.0,32.2,5.225,0.108,0.81,-3.9734,-3.2228,32.2024,0.96009,-0.0255,-0.03661,0.27612,0.4724,0.0051,-9.8048,-0.0071,-0.4,0.1081,0.1994,3,13,0.75,0.92,0.36,24.588,25.37,89.7,48.2,19739.0,7044,7169,7146,7172,66.4,65.1,62.0,64.0,2.581,2.833,2.66,2.773,5.48,300.8,39.3,38.2,1006.83,-27.99,1.5,2.02,35.3,54.2,45.1,0,no_anomaly,0.0,0,0,0,0,12.9715978,77.5945931,22.0,0.0
2024-05-02T11:06:09.600Z,MISSION_0062,96,0,transit,SITE_BLR_003,12.9715964,77.5945944,22.0,30.65,5.41,0.079,0.74,1.7566,-4.3616,30.6503,0.96348,0.02483,-0.03265,0.26464,-0.0062,0.0181,-9.7641,0.0487,0.3469,0.1737,0.2169,3,12,0.7,0.81,0.32,24.498,21.95,89.7,47.1,19725.0,7196,7324,6991,7231,63.6,59.2,64.0,62.8,2.957,2.88,2.517,2.597,6.64,305.4,39.4,39.6,1006.82,-29.24,-0.26,1.61,35.4,46.9,40.0,0,no_anomaly,0.0,0,0,0,0,12.9715964,77.5945944,22.0,0.0
2024-05-02T11:06:09.700Z,MISSION_0062,97,0,transit,SITE_BLR_003,12.9715955,77.5945949,22.0,30.2,5.526,0.084,0.76,-1.0117,-3.449,30.2002,0.96507,-0.00068,-0.03135,0.26012,0.1746,0.057,-9.7541,-0.024,0.1852,0.1841,0.128,3,20,0.5,0.84,0.32,24.43,13.75,89.6,47.6,19711.0,7159,7139,7297,7380,59.0,63.9,65.0,64.6,2.814,2.806,2.66,2.711,5.43,299.9,39.3,38.9,1006.89,-27.05,-0.47,1.18,31.6,43.0,38.3,0,no_anomaly,0.0,0,0,0,0,12.9715955,77.5945949,22.0,0.0
2024-05-02T11:06:09.800Z,MISSION_0062,98,0,transit,SITE_BLR_003,12.9715921,77.5945947,22.0,31.06,5.646,0.082,1.06,1.6199,-2.689,31.0629,0.96303,0.0199,-0.01882,0.26799,0.1257,-0.0115,-9.8805,0.8069,-0.7412,0.3786,0.1467,3,12,0.73,0.96,0.2,24.517,24.87,89.5,47.5,19697.0,7186,7256,7433,7265,65.9,62.8,64.1,62.1,2.775,2.807,2.673,2.703,5.85,300.0,39.3,39.3,1006.81,-29.83,0.14,1.44,36.2,46.2,44.6,0,no_anomaly,0.0,0,0,0,0,12.9715921,77.5945947,22.0,0.0
2024-05-02T11:06:09.900Z,MISSION_0062,99,0,transit,SITE_BLR_003,12.9715917,77.5945994,22.0,31.24,5.392,0.156,0.92,-2.6122,-1.7139,31.2354,0.96281,-0.01792,-0.02054,0.26879,-0.0065,0.0021,-9.8097,0.5221,-0.1727,0.1941,0.1893,3,19,0.7,0.72,0.26,24.456,20.24,89.5,47.7,19683.0,7207,7259,7141,7306,66.8,61.0,65.4,63.6,2.813,2.577,2.846,2.766,5.26,301.1,39.1,38.6,1006.8,-25.12,-0.45,1.67,32.2,50.0,42.4,0,no_anomaly,0.0,0,0,0,0,12.9715917,77.5945994,22.0,0.0
2024-05-02T11:06:10.000Z,MISSION_0062,100,0,transit,SITE_BLR_003,12.9715925,77.5946002,22.0,31.51,4.927,0.178,0.84,-0.2563,-1.2657,31.5147,0.96237,0.00085,-0.01124,0.27152,0.3035,0.0098,-9.7534,0.5007,-0.6805,0.032,0.3006,3,17,0.91,1.07,0.29,24.418,18.95,89.4,48.3,19670.0,7185,7383,7232,7516,61.3,65.2,61.9,62.0,2.818,2.532,2.826,3.053,5.51,303.4,39.2,37.7,1006.62,-37.78,-0.55,1.52,32.4,52.4,41.3,0,no_anomaly,0.0,0,0,0,0,12.9715925,77.5946002,22.0,0.0
2024-05-02T11:06:10.100Z,MISSION_0062,101,0,transit,SITE_BLR_003,12.9715921,77.5945975,22.0,30.84,4.84,0.12,0.92,-0.9822,-1.9455,30.8415,0.96386,-0.00375,-0.01864,0.26572,0.1086,-0.1261,-9.7758,-0.5503,-0.539,-0.3857,0.2304,3,17,0.66,0.9,0.29,24.524,18.87,89.3,48.0,19656.0,7515,7276,7197,7274,63.5,65.3,63.1,63.3,2.71,3.029,3.016,2.68,5.22,305.5,39.5,37.7,1006.81,-32.85,-0.57,1.64,34.7,50.7,42.0,0,no_anomaly,0.0,0,0,0,0,12.9715921,77.5945975,22.0,0.0
2024-05-02T11:06:10.200Z,MISSION_0062,102,0,transit,SITE_BLR_003,12.9715913,77.5945954,22.0,32.09,4.858,0.116,1.09,1.3491,-0.8924,32.0851,0.96094,0.01347,-0.00423,0.27641,-0.0619,0.0238,-9.9074,-0.2859,0.3305,-0.2822,0.2108,3,10,0.66,0.91,0.38,24.541,16.27,89.3,47.5,19642.0,7447,7157,7320,7250,67.4,60.8,63.6,66.3,2.582,2.993,2.914,2.53,5.66,296.8,39.2,38.6,1006.64,-35.48,-0.57,1.82,34.2,47.8,39.9,0,no_anomaly,0.0,0,0,0,0,12.9715913,77.5945954,22.0,0.0
2024-05-02T11:06:10.300Z,MISSION_0062,103,0,transit,SITE_BLR_003,12.9715921,77.5945918,22.0,35.66,4.354,0.001,1.27,-5.3091,-0.6545,35.6587,0.95102,-0.04234,-0.01961,0.3056,-0.1751,0.0639,-9.8191,0.8762,-0.3163,0.2569,0.2078,3,17,0.71,1.03,0.23,24.566,22.38,89.2,47.6,19628.0,7190,7164,7102,7179,64.5,65.1,64.2,66.2,2.842,2.575,2.87,2.905,5.47,302.7,39.4,39.5,1006.73,-29.74,-1.3,1.47,33.5,48.7,44.7,0,no_anomaly,0.0,0,0,0,0,12.9715921,77.5945918,22.0,0.0
2024-05-02T11:06:10.400Z,MISSION_0062,104,0,transit,SITE_BLR_003,12.9715923,77.5945929,22.0,37.95,4.085,0.099,1.17,-1.5397,-2.0985,37.954,0.94549,-0.00675,-0.02168,0.32487,0.2162,-0.0018,-9.7557,-0.073,-0.5288,-0.1469,0.1839,3,19,0.72,0.74,0.28,24.486,18.25,89.2,47.9,19614.0,7318,7526,7105,7226,62.3,64.7,63.9,66.0,2.573,2.785,2.715,2.738,5.64,301.1,39.6,39.1,1006.6,-31.58,-0.29,1.36,32.7,48.3,43.9,0,no_anomaly,0.0,0,0,0,0,12.9715923,77.5945929,22.0,0.0
2024-05-02T11:06:10.500Z,MISSION_0062,105,1,transit,SITE_BLR_003,12.9715893,77.5945971,22.0,40.97,4.139,0.018,1.23,-0.5762,-1.9056,40.9701,0.93665,0.00111,-0.01734,0.34983,-0.1558,-0.0409,-9.8065,-0.1691,-0.9761,-0.0725,0.3227,3,20,0.81,0.78,0.3,24.509,20.56,89.1,47.1,19601.0,6922,7275,7201,7113,65.0,64.9,63.5,65.7,2.876,2.609,3.087,3.002,5.2,295.8,39.4,38.7,1006.58,-25.09,2.54,1.9,36.6,44.7,43.2,0,no_anomaly,0.0,0,0,0,0,12.9715893,77.5945971,22.0,0.0
2024-05-02T11:06:10.600Z,MISSION_0062,106,1,transit,SITE_BLR_003,12.9715927,77.5945956,22.0,39.23,4.05,0.098,0.95,-2.2471,0.9663,39.2342,0.94169,-0.0213,0.00136,0.33581,0.223,-0.0096,-9.8446,0.1074,0.2132,-0.0587,0.2467,3,19,0.53,0.95,0.2,24.497,20.33,89.0,48.3,19587.0,7193,7467,7177,7228,60.2,64.6,64.6,61.8,2.895,2.665,2.764,3.026,5.92,299.2,39.5,38.5,1006.87,-24.6,0.49,1.57,34.6,45.0,40.2,0,no_anomaly,0.0,0,0,0,0,12.9715927,77.5945956,22.0,0.0
2024-05-02T11:06:10.700Z,MISSION_0062,107,1,transit,SITE_BLR_003,12.9715953,77.5945972,22.0,40.69,4.311,0.085,0.61,-3.0688,-3.348,40.6854,0.93717,-0.01494,-0.03669,0.34663,0.137,-0.0761,-9.8461,-0.0479,-0.1938,0.2496,0.1571,3,12,0.78,0.86,0.41,24.496,17.61,89.0,47.8,19573.0,7363,7302,7086,7217,63.7,63.4,66.4,64.0,2.714,2.862,2.682,3.038,6.18,292.3,39.3,39.1,1006.76,-28.01,-0.39,1.45,33.9,52.2,40.5,0,no_anomaly,0.0,0,0,0,0,12.9715953,77.5945972,22.0,0.0
2024-05-02T11:06:10.800Z,MISSION_0062,108,1,transit,SITE_BLR_003,12.9715951,77.5945972,22.0,40.87,4.811,0.089,0.63,-3.5804,-1.3958,40.8679,0.93668,-0.02502,-0.02231,0.34857,-0.054,-0.0092,-9.8019,-0.414,0.6084,-0.379,0.2198,3,18,0.66,1.02,0.3,24.531,23.98,88.9,47.5,19559.0,6833,7075,7165,7082,63.1,65.5,68.6,62.6,2.755,2.618,2.564,2.815,5.76,301.2,39.5,39.0,1006.55,-32.2,-0.36,1.48,33.6,45.0,40.6,0,no_anomaly,0.0,0,0,0,0,12.9715951,77.5945972,22.0,0.0
2024-05-02T11:06:10.900Z,MISSION_0062,109,1,transit,SITE_BLR_003,12.9715948,77.5945998,22.0,41.13,4.582,0.1,0.58,-2.865,-2.5943,41.1288,0.93594,-0.01545,-0.02997,0.35053,-0.2025,-0.0282,-9.8935,0.2178,-0.2157,-0.3255,0.2298,3,16,0.86,1.01,0.23,24.456,20.86,88.8,48.2,19545.0,7341,7291,7263,7190,64.4,63.2,64.6,64.3,2.517,2.96,2.767,2.993,5.82,307.9,39.4,38.6,1006.86,-25.21,-0.85,1.32,36.6,45.0,42.9,0,no_anomaly,0.0,0,0,0,0,12.9715948,77.5945998,22.0,0.0
2024-05-02T11:06:11.000Z,MISSION_0062,110,1,transit,SITE_BLR_003,12.9715883,77.5946011,22.0,39.86,4.216,0.101,1.31,-2.0301,-2.1341,39.8628,0.9399,-0.0103,-0.02354,0.34047,-0.0389,-0.0789,-9.7399,-0.3947,-0.3513,-0.3991,0.1927,3,12,0.5,0.77,0.21,24.431,14.42,88.8,47.3,19532.0,7280,7170,7039,7399,64.9,66.1,62.4,64.5,2.962,2.729,2.777,2.803,4.4,298.1,39.3,38.7,1006.85,-35.0,1.79,1.25,33.0,46.3,37.8,0,no_anomaly,0.0,0,0,0,0,12.9715883,77.5946011,22.0,0.0
2024-05-02T11:06:11.100Z,MISSION_0062,111,1,transit,SITE_BLR_003,12.9715875,77.5946039,22.0,38.58,4.395,0.1,1.46,-6.0273,-5.3536,38.58,0.94234,-0.03416,-0.06137,0.32722,-0.0949,-0.0533,-9.8327,-0.2911,1.0014,-0.1327,0.1935,3,17,0.57,0.76,0.2,24.494,23.18,88.7,46.9,19518.0,7119,7296,6968,7067,64.0,67.3,63.7,61.1,2.946,2.856,2.692,2.617,5.25,302.9,39.5,38.4,1006.79,-32.51,0.9,2.02,32.2,53.1,42.8,0,no_anomaly,0.0,0,0,0,0,12.9715875,77.5946039,22.0,0.0
2024-05-02T11:06:11.200Z,MISSION_0062,112,1,transit,SITE_BLR_003,12.9715858,77.5946053,22.0,38.32,4.991,0.037,1.69,0.2652,-0.7945,38.3194,0.94458,0.00446,-0.00579,0.32821,0.1058,0.0387,-9.8241,0.2543,0.1907,0.2627,0.1157,3,17,0.71,1.13,0.31,24.476,21.21,88.7,47.5,19504.0,7333,7152,7292,7358,64.3,65.7,63.1,65.9,2.911,2.848,2.618,2.711,6.4,287.1,39.5,38.8,1006.93,-32.62,0.41,1.66,35.6,53.1,41.3,0,no_anomaly,0.0,0,0,0,0,12.9715858,77.5946053,22.0,0.0
2024-05-02T11:06:11.300Z,MISSION_0062,113,1,transit,SITE_BLR_003,12.9715821,77.5946089,22.0,38.22,4.976,0.106,2.22,-1.1926,-2.9981,38.2183,0.94461,-0.00127,-0.02812,0.32698,0.3416,0.0365,-9.7694,-0.0997,-0.196,0.108,0.2732,3,18,0.57,0.98,0.2,24.475,18.76,88.6,46.3,19490.0,7079,7132,7282,7450,65.4,66.1,63.7,64.2,2.959,2.66,2.711,2.745,5.89,299.8,39.2,38.4,1006.56,-29.34,1.22,1.0,34.9,53.7,41.4,0,no_anomaly,0.0,0,0,0,0,12.9715821,77.5946089,22.0,0.0
2024-05-02T11:06:11.400Z,MISSION_0062,114,1,transit,SITE_BLR_003,12.9715812,77.5946065,22.0,36.91,4.617,0.022,2.22,7.5837,-0.7362,36.9129,0.94633,0.06476,0.01486,0.31629,-0.152,0.0722,-9.8269,0.8163,0.5,0.3811,0.2378,3,15,0.7,0.87,0.37,24.504,20.41,88.5,48.0,19476.0,7239,7284,7017,7022,65.0,65.2,66.7,63.4,2.832,2.746,2.704,2.644,5.86,299.7,39.3,39.0,1006.52,-28.34,-1.62,1.88,32.9,52.5,42.6,0,no_anomaly,0.0,0,0,0,0,12.9715812,77.5946065,22.0,0.0
2024-05-02T11:06:11.500Z,MISSION_0062,115,1,transit,SITE_BLR_003,12.9715791,77.5946043,22.0,34.7,4.621,0.058,2.37,-1.3313,-0.6013,34.7048,0.95443,-0.00952,-0.00847,0.29817,-0.0242,0.0343,-9.8924,-0.1988,0.3378,0.2157,0.2225,3,12,0.67,1.18,0.33,24.533,20.6,88.5,46.3,19463.0,7198,7563,7429,7365,66.3,68.2,64.0,64.1,2.534,2.779,2.953,2.544,5.19,291.4,39.6,37.6,1006.53,-27.75,1.32,1.28,35.6,48.9,43.6,0,no_anomaly,0.0,0,0,0,0,12.9715791,77.5946043,22.0,0.0
2024-05-02T11:06:11.600Z,MISSION_0062,116,1,transit,SITE_BLR_003,12.9715812,77.5946051,22.0,32.06,4.783,0.134,2.17,-5.0775,-3.9359,32.0609,0.96003,-0.03307,-0.0452,0.27425,0.1711,0.0483,-9.8551,0.7758,0.3387,-0.2957,0.1639,3,20,0.83,0.76,0.5,24.451,22.51,88.4,47.7,19449.0,7268,7060,6861,6965,65.9,61.3,65.0,64.9,2.94,2.712,2.668,2.96,5.17,290.2,39.2,39.0,1006.84,-30.12,-1.85,1.45,32.1,49.2,43.4,0,no_anomaly,0.0,0,0,0,0,12.9715812,77.5946051,22.0,0.0
2024-05-02T11:06:11.700Z,MISSION_0062,117,1,transit,SITE_BLR_003,12.9715825,77.594601,22.0,33.51,4.692,0.136,1.95,0.2656,-4.1318,33.5056,0.95691,0.01261,-0.03385,0.28814,-0.0126,-0.0187,-9.8514,-0.3077,-0.5017,0.0435,0.1514,3,17,0.5,0.91,0.29,24.489,19.0,88.3,48.6,19435.0,7349,7356,7047,7215,63.7,63.2,62.6,66.3,2.828,2.713,2.945,2.842,6.15,302.9,39.0,38.1,1006.69,-30.05,0.73,1.98,32.2,49.5,40.8,0,no_anomaly,0.0,0,0,0,0,12.9715825,77.594601,22.0,0.0
2024-05-02T11:06:11.800Z,MISSION_0062,118,1,transit,SITE_BLR_003,12.9715808,77.5945991,22.0,35.89,4.313,0.22,2.13,4.4368,-2.1453,35.8897,0.95025,0.04258,-0.00587,0.30851,-0.1757,0.0451,-9.7936,-0.2946,-0.18,-0.1167,0.2106,3,13,0.8,0.77,0.35,24.564,20.52,88.3,48.4,19421.0,7077,7241,6944,7123,61.8,62.1,61.9,65.1,2.769,2.838,2.812,2.648,5.86,296.1,39.1,38.9,1006.89,-24.45,-0.28,1.62,33.0,53.9,44.9,0,no_anomaly,0.0,0,0,0,0,12.9715808,77.5945991,22.0,0.0
2024-05-02T11:06:11.900Z,MISSION_0062,119,1,transit,SITE_BLR_003,12.9715833,77.5945936,22.0,35.38,4.686,0.178,1.99,-0.2198,-3.0608,35.3795,0.95239,0.00629,-0.02603,0.3037,-0.1477,-0.0153,-9.8433,0.1632,1.3945,-0.5322,0.3162,3,10,0.57,0.68,0.2,24.548,19.91,88.2,47.5,19407.0,7233,7559,7160,7177,65.3,65.5,64.1,65.2,2.839,3.034,2.969,2.704,6.33,298.8,39.4,38.8,1006.39,-28.32,-0.26,1.0,35.6,47.8,41.7,0,no_anomaly,0.0,0,0,0,0,12.9715833,77.5945936,22.0,0.0
2024-05-02T11:06:12.000Z,MISSION_0062,120,1,transit,SITE_BLR_003,12.9715833,77.5945912,22.0,35.6,5.016,0.186,2.1,-4.3576,-0.9905,35.5955,0.95152,-0.03356,-0.01984,0.30511,0.2187,0.0025,-9.813,-0.3504,0.7019,0.0605,0.2536,3,19,0.86,0.93,0.32,24.515,18.44,88.2,47.6,19394.0,7380,7613,7603,7131,64.3,64.0,65.7,62.7,2.783,3.187,2.759,2.755,5.84,307.2,39.2,38.8,1006.91,-33.12,0.12,2.17,33.4,51.7,43.7,0,no_anomaly,0.0,0,0,0,0,12.9715833,77.5945912,22.0,0.0
2024-05-02T11:06:12.100Z,MISSION_0062,121,1,transit,SITE_BLR_003,12.9715789,77.5945971,22.0,34.48,5.565,0.039,2.37,-0.8097,-3.7281,34.4761,0.95462,0.00289,-0.03316,0.29596,-0.2187,0.0537,-9.8079,-0.2057,0.5072,-0.0302,0.1011,3,14,0.65,0.91,0.31,24.495,18.28,88.1,47.3,19380.0,7221,6911,7595,7209,62.9,62.9,64.1,62.0,2.855,2.977,2.79,2.956,6.17,289.5,39.3,38.0,1007.02,-34.4,1.06,1.21,34.3,45.0,43.6,0,no_anomaly,0.0,0,0,0,0,12.9715789,77.5945971,22.0,0.0
2024-05-02T11:06:12.200Z,MISSION_0062,122,1,transit,SITE_BLR_003,12.9715812,77.5946008,22.0,36.15,5.323,0.131,2.1,2.8227,-1.2297,36.1527,0.95022,0.02674,-0.00256,0.31042,0.1127,-0.0573,-9.6798,0.2033,-0.4978,-0.6783,0.223,3,18,0.8,0.87,0.32,24.464,20.85,88.0,47.3,19366.0,7381,7210,7427,7360,60.8,60.6,65.1,66.8,2.79,2.6,2.714,2.69,5.73,304.4,39.0,40.1,1006.78,-34.52,-1.18,1.05,33.9,48.2,44.3,0,no_anomaly,0.0,0,0,0,0,12.9715812,77.5946008,22.0,0.0
2024-05-02T11:06:12.300Z,MISSION_0062,123,1,transit,SITE_BLR_003,12.971581,77.5946037,22.0,34.64,5.272,0.142,2.15,3.9416,-2.9602,34.6425,0.9535,0.04051,-0.01441,0.2983,-0.1488,0.0098,-9.7684,-1.159,0.0516,-0.0568,0.2147,3,10,0.7,0.86,0.28,24.52,20.4,88.0,48.0,19352.0,7172,7179,7427,7425,65.8,63.8,63.8,63.1,2.849,2.87,2.72,2.73,5.96,292.2,39.1,38.9,1006.93,-26.43,-0.4,1.81,37.7,52.6,46.0,0,no_anomaly,0.0,0,0,0,0,12.971581,77.5946037,22.0,0.0
2024-05-02T11:06:12.400Z,MISSION_0062,124,1,transit,SITE_BLR_003,12.9715823,77.5946035,22.0,32.72,4.867,0.068,2.01,0.8483,-1.4697,32.7235,0.95937,0.01072,-0.01022,0.28176,-0.1275,-0.0198,-9.8217,0.82,0.2647,-0.0832,0.0774,3,20,0.61,0.86,0.2,24.521,17.86,87.9,47.0,19338.0,7335,7368,7162,7020,66.1,64.5,63.6,61.4,2.877,2.802,2.658,2.998,4.88,294.2,39.2,37.5,1006.82,-32.16,-0.05,1.61,32.7,48.9,43.9,0,no_anomaly,0.0,0,0,0,0,12.9715823,77.5946035,22.0,0.0
2024-05-02T11:06:12.500Z,MISSION_0062,125,1,transit,SITE_BLR_003,12.9715902,77.5945993,22.0,33.14,5.249,0.093,1.09,5.7477,-3.26,33.1371,0.95648,0.05614,-0.01294,0.28606,0.1388,0.0997,-9.7242,0.0084,-0.0343,0.3224,0.1975,3,10,0.71,0.6,0.33,24.509,20.37,87.8,48.2,19325.0,7181,7298,7116,7192,64.6,63.4,62.7,65.7,3.015,2.54,2.628,2.79,6.17,300.0,39.2,40.0,1006.61,-31.4,-0.16,1.0,35.9,54.6,41.9,0,no_anomaly,0.0,0,0,0,0,12.9715902,77.5945993,22.0,0.0
2024-05-02T11:06:12.600Z,MISSION_0062,126,1,orbit_base,SITE_BLR_003,12.9715358,77.5945523,22.3,31.56,5.277,0.147,8.91,0.2326,-0.0923,31.5588,0.96231,0.00217,-0.00022,0.27194,0.1575,-0.0381,-9.7987,0.016,0.2275,-0.3479,0.206,3,14,0.65,1.03,0.3,24.472,23.22,87.8,47.3,19311.0,7401,7195,7083,7196,67.2,62.3,65.4,65.0,2.642,2.992,2.842,2.741,5.73,302.0,39.4,38.6,1006.91,-26.89,-0.9,1.22,35.2,48.5,43.0,0,no_anomaly,0.0,0,0,0,0,12.9715358,77.5945523,22.3,0.0
2024-05-02T11:06:12.700Z,MISSION_0062,127,1,orbit_base,SITE_BLR_003,12.9715372,77.5945504,22.6,31.03,5.323,0.124,8.91,-1.9735,-3.8202,31.0311,0.96303,-0.00767,-0.03672,0.26676,-0.5262,0.0587,-9.7952,-0.6519,-0.1148,0.5554,0.2738,3,19,0.71,1.22,0.2,24.462,16.01,87.7,47.9,19297.0,7130,7277,7251,7293,66.9,66.7,67.0,67.4,2.904,2.869,2.842,2.799,5.2,303.6,39.3,38.8,1006.41,-31.88,-1.41,1.0,39.0,52.8,41.6,0,no_anomaly,0.0,0,0,0,0,12.9715372,77.5945504,22.6,0.0
2024-05-02T11:06:12.800Z,MISSION_0062,128,1,orbit_base,SITE_BLR_003,12.9715387,77.5945486,22.9,31.64,5.327,0.117,8.91,-4.6531,-2.493,31.6384,0.96135,-0.03312,-0.03198,0.27146,-0.0256,-0.0085,-9.8052,0.2207,-0.1497,-0.1951,0.197,3,11,0.76,1.02,0.24,24.494,21.37,87.7,47.4,19283.0,7385,7306,7117,7220,64.0,65.3,67.1,63.1,2.948,2.995,2.705,2.908,4.96,298.9,39.4,38.4,1006.77,-31.16,-0.78,1.91,35.4,49.7,43.5,0,no_anomaly,0.0,0,0,0,0,12.9715387,77.5945486,22.9,0.0
2024-05-02T11:06:12.900Z,MISSION_0062,129,1,orbit_base,SITE_BLR_003,12.9715403,77.5945467,23.2,33.2,5.416,0.136,8.91,2.2419,-2.8082,33.205,0.9577,0.02574,-0.01789,0.28605,-0.117,-0.0036,-9.8235,0.3755,-0.6795,-0.0682,0.222,3,11,0.8,0.82,0.22,24.493,22.91,87.6,47.6,19269.0,7248,7239,7554,7240,65.8,61.7,64.3,65.3,2.951,2.533,2.895,2.569,5.28,299.3,39.5,37.6,1006.83,-29.38,-0.66,1.52,33.6,47.6,41.4,0,no_anomaly,0.0,0,0,0,0,12.9715403,77.5945467,23.2,0.0
