timestamp_utc,mission_id,frame_id,waypoint_id,inspection_phase,site_id,latitude_deg,longitude_deg,altitude_m,heading_deg,ground_speed_ms,vertical_speed_ms,distance_to_tower_m,roll_deg,pitch_deg,yaw_deg,quat_w,quat_x,quat_y,quat_z,accel_x_ms2,accel_y_ms2,accel_z_ms2,gyro_x_rads,gyro_y_rads,gyro_z_rads,vibration_level,gps_fix_type,gps_satellite_count,gps_hdop,gps_vdop,position_error_m,battery_voltage_v,battery_current_a,battery_remaining_pct,battery_temp_c,battery_capacity_mah,motor_fl_rpm,motor_fr_rpm,motor_rl_rpm,motor_rr_rpm,motor_fl_temp_c,motor_fr_temp_c,motor_rl_temp_c,motor_rr_temp_c,motor_fl_thrust_n,motor_fr_thrust_n,motor_rl_thrust_n,motor_rr_thrust_n,wind_speed_ms,wind_dir_deg,air_temp_c,humidity_pct,pressure_hpa,gimbal_pitch_deg,gimbal_roll_deg,zoom_factor,ir_temp_min_c,ir_temp_max_c,ir_temp_avg_c,anomaly_detected,anomaly_class,anomaly_confidence,anomaly_bbox_x,anomaly_bbox_y,anomaly_bbox_w,anomaly_bbox_h,anomaly_gps_lat,anomaly_gps_lon,anomaly_gps_alt_m,ir_temp_delta_c
2024-12-24T14:32:00.000Z,MISSION_0033,0,0,takeoff,SITE_CHE_004,13.0827038,80.2707002,1.5,33.95,0.0,0.052,0.43,-0.4743,-3.8467,33.9532,0.95592,0.00584,-0.03331,0.29168,-0.1667,0.0274,-9.7883,-0.0468,-1.2992,0.133,0.1979,3,19,0.68,0.86,0.29,24.597,16.6,98.2,44.0,21596.0,7218,7199,7244,6781,62.1,62.4,61.2,61.3,2.784,3.01,2.798,2.692,6.59,87.8,36.0,66.3,1014.3,-28.39,0.41,1.48,32.9,48.6,38.9,0,no_anomaly,0.0,0,0,0,0,13.0827038,80.2707002,1.5,0.0
2024-12-24T14:32:00.100Z,MISSION_0033,1,0,takeoff,SITE_CHE_004,13.0827023,80.2706959,3.0,32.26,0.591,0.021,0.53,-0.6465,-2.1791,32.2647,0.96046,-0.00013,-0.01983,0.2777,0.2716,0.1231,-9.721,-0.684,-0.0404,0.5468,0.1955,3,14,0.64,0.79,0.26,24.784,11.83,98.1,43.2,21576.0,7255,6987,6909,7059,63.2,56.6,59.7,60.6,2.611,2.578,2.664,2.788,6.86,90.7,36.2,67.4,1014.43,-30.7,-2.01,1.36,30.9,41.2,38.9,0,no_anomaly,0.0,0,0,0,0,13.0827023,80.2706959,3.0,0.0
2024-12-24T14:32:00.200Z,MISSION_0033,2,0,takeoff,SITE_CHE_004,13.0827032,80.2706995,4.5,33.07,0.07,0.131,0.36,-4.9933,-0.8748,33.0685,0.95781,-0.03959,-0.01971,0.28399,-0.0183,0.0084,-9.8374,-0.6342,0.0592,-0.1961,0.2464,3,20,0.88,0.88,0.3,24.696,20.81,98.0,44.1,21556.0,7578,7092,6990,7061,60.6,61.0,61.2,59.6,2.781,2.95,2.818,3.11,6.89,81.0,36.1,66.7,1014.57,-28.12,0.08,1.0,31.1,41.6,35.6,0,no_anomaly,0.0,0,0,0,0,13.0827032,80.2706995,4.5,0.0
2024-12-24T14:32:00.300Z,MISSION_0033,3,0,takeoff,SITE_CHE_004,13.082706,80.2706962,5.0,34.88,0.256,0.065,0.79,-2.4518,-2.5337,34.8815,0.95372,-0.01378,-0.0275,0.29913,0.1184,0.0137,-9.7829,-0.0247,-0.6224,0.4111,0.1376,3,10,0.71,1.0,0.23,24.833,20.57,97.9,43.8,21536.0,7039,7332,7240,7089,62.9,59.8,60.9,59.8,3.033,3.088,3.044,2.735,6.81,88.6,36.3,66.3,1014.52,-32.17,0.9,1.22,26.3,40.2,37.3,0,no_anomaly,0.0,0,0,0,0,13.082706,80.2706962,5.0,0.0
2024-12-24T14:32:00.400Z,MISSION_0033,4,0,takeoff,SITE_CHE_004,13.0827068,80.2706977,5.0,34.39,0.192,0.131,0.8,-4.5792,-1.9272,34.3935,0.9546,-0.03319,-0.02786,0.29473,0.103,0.0064,-9.7658,0.4984,0.5353,0.2648,0.257,3,11,0.58,1.02,0.25,24.785,13.19,97.8,44.6,21517.0,7335,7119,7230,7193,64.8,60.6,59.6,64.5,2.524,2.858,2.735,2.919,6.46,77.6,36.5,66.7,1014.69,-30.59,-0.99,2.39,35.6,45.9,42.8,0,no_anomaly,0.0,0,0,0,0,13.0827068,80.2706977,5.0,0.0
2024-12-24T14:32:00.500Z,MISSION_0033,5,0,takeoff,SITE_CHE_004,13.0826997,80.2706992,5.0,31.77,0.0,0.177,0.09,-4.5799,-1.9302,31.7725,0.96109,-0.03382,-0.02712,0.27282,-0.0772,0.0596,-9.8044,-0.1124,0.1002,0.0757,0.2232,3,13,0.57,0.82,0.23,24.694,17.82,97.7,43.9,21497.0,6970,7247,6968,7251,64.4,61.3,61.1,62.6,2.453,2.872,2.74,2.709,6.49,91.2,35.9,66.6,1014.66,-28.03,-0.86,1.61,30.8,47.5,39.3,0,no_anomaly,0.0,0,0,0,0,13.0826997,80.2706992,5.0,0.0
2024-12-24T14:32:00.600Z,MISSION_0033,6,0,takeoff,SITE_CHE_004,13.0826997,80.2706991,5.0,31.11,0.0,0.089,0.11,1.7241,-0.0665,31.1109,0.96326,0.01465,0.00348,0.26815,-0.2771,0.034,-9.8158,0.4428,-0.6257,0.2499,0.2152,3,10,0.79,0.95,0.37,24.68,18.15,97.6,44.1,21477.0,6975,7172,7332,7412,62.9,57.9,63.8,58.9,3.0,2.948,2.372,3.027,7.13,90.5,36.0,66.5,1014.63,-26.87,0.63,1.82,33.6,46.7,39.4,0,no_anomaly,0.0,0,0,0,0,13.0826997,80.2706991,5.0,0.0
2024-12-24T14:32:00.700Z,MISSION_0033,7,0,takeoff,SITE_CHE_004,13.0826984,80.2706988,5.0,30.73,0.778,0.087,0.22,1.4775,-0.7103,30.7292,0.96414,0.01407,-0.00256,0.26501,-0.1289,-0.0524,-9.8877,-0.2757,-0.4617,0.0801,0.1869,3,10,0.74,0.77,0.22,24.688,17.72,97.5,43.9,21457.0,7182,7320,7094,6955,63.5,63.3,62.9,59.0,2.641,2.979,3.055,2.858,6.62,92.3,36.2,67.3,1014.46,-28.46,0.08,1.14,31.4,44.3,38.8,0,no_anomaly,0.0,0,0,0,0,13.0826984,80.2706988,5.0,0.0
2024-12-24T14:32:00.800Z,MISSION_0033,8,0,takeoff,SITE_CHE_004,13.0827005,80.2706903,5.0,31.92,0.182,0.099,1.08,2.1756,-3.1885,31.9188,0.96077,0.02589,-0.02153,0.27531,-0.0254,-0.1042,-9.8759,-0.3561,-0.5602,0.1428,0.2693,3,17,0.69,0.98,0.31,24.818,15.49,97.4,43.7,21438.0,7128,7186,7034,7158,60.7,62.0,62.0,63.3,2.901,2.74,2.674,3.148,5.6,83.1,36.1,65.8,1014.5,-23.82,2.03,1.31,32.9,46.4,38.6,0,no_anomaly,0.0,0,0,0,0,13.0827005,80.2706903,5.0,0.0
2024-12-24T14:32:00.900Z,MISSION_0033,9,0,takeoff,SITE_CHE_004,13.082705,80.2706895,5.0,32.39,0.311,0.167,1.29,-6.7157,-2.5449,32.3886,0.9588,-0.05005,-0.03762,0.2771,-0.2684,0.0894,-9.8062,-0.0305,0.0201,0.1984,0.2607,3,14,0.74,0.97,0.31,24.653,14.32,97.4,44.4,21418.0,6855,7230,7226,7211,62.4,61.1,60.8,61.8,2.853,3.089,2.97,2.972,5.81,92.4,36.1,66.2,1014.42,-29.14,1.8,1.65,34.5,43.3,37.4,0,no_anomaly,0.0,0,0,0,0,13.082705,80.2706895,5.0,0.0
2024-12-24T14:32:01.000Z,MISSION_0033,10,0,takeoff,SITE_CHE_004,13.0827016,80.2706852,5.0,31.62,0.042,0.143,1.66,-2.4342,-3.2276,31.6243,0.96172,-0.01276,-0.03288,0.27174,0.2217,0.0092,-9.8387,-0.1654,-0.6507,-0.1552,0.273,3,16,0.65,1.08,0.2,24.676,21.99,97.3,44.2,21398.0,6889,7303,7199,7421,61.7,60.9,62.0,60.6,2.962,2.989,2.796,2.894,6.19,96.1,35.9,66.2,1014.47,-24.55,-0.64,1.41,32.1,46.7,37.5,0,no_anomaly,0.0,0,0,0,0,13.0827016,80.2706852,5.0,0.0
2024-12-24T14:32:01.100Z,MISSION_0033,11,0,takeoff,SITE_CHE_004,13.0827045,80.2706894,5.0,31.26,0.164,0.099,1.28,-0.8903,-1.8283,31.2598,0.9629,-0.00318,-0.01746,0.26926,0.3298,-0.1064,-9.8051,1.3355,-0.2188,0.0116,0.1998,3,11,0.74,0.74,0.28,24.721,15.06,97.2,44.1,21378.0,6958,7144,7048,6962,58.7,60.6,63.1,62.9,2.881,3.172,2.973,2.707,7.14,91.4,35.7,66.0,1014.28,-29.44,0.24,1.0,32.8,42.9,38.2,0,no_anomaly,0.0,0,0,0,0,13.0827045,80.2706894,5.0,0.0
2024-12-24T14:32:01.200Z,MISSION_0033,12,0,takeoff,SITE_CHE_004,13.0826989,80.2706916,5.0,32.57,0.953,0.071,0.95,-3.8734,-2.5495,32.5699,0.9593,-0.0262,-0.03082,0.27946,-0.073,-0.0025,-9.8197,0.1783,-0.3366,-0.2347,0.2196,3,12,0.67,1.06,0.31,24.646,21.36,97.1,44.3,21359.0,6928,6976,7088,7112,62.1,60.0,62.6,58.7,2.552,2.891,2.87,2.622,6.65,84.7,35.9,66.4,1014.35,-29.26,1.0,1.38,33.6,46.3,38.7,0,no_anomaly,0.0,0,0,0,0,13.0826989,80.2706916,5.0,0.0
2024-12-24T14:32:01.300Z,MISSION_0033,13,0,takeoff,SITE_CHE_004,13.0827018,80.2706869,5.0,30.37,1.081,0.146,1.48,3.5907,-3.6241,30.3673,0.96388,0.0385,-0.0223,0.26261,-0.0523,-0.0177,-9.8302,-0.1286,-0.4237,0.1973,0.2346,3,18,0.76,0.89,0.22,24.721,25.96,97.0,43.7,21339.0,7037,7289,6895,6807,57.8,64.3,61.3,63.0,2.715,2.903,2.795,2.652,6.64,80.5,36.2,66.4,1014.52,-33.68,1.6,1.62,32.3,48.2,40.5,0,no_anomaly,0.0,0,0,0,0,13.0827018,80.2706869,5.0,0.0
2024-12-24T14:32:01.400Z,MISSION_0033,14,0,takeoff,SITE_CHE_004,13.0827024,80.2706856,5.0,30.03,1.066,-0.038,1.63,-0.1878,0.0902,30.0331,0.96585,-0.00179,0.00034,0.2591,0.1239,0.0343,-9.7964,0.0557,-0.1784,-0.3278,0.2679,3,12,0.68,0.96,0.35,24.733,16.15,96.9,44.2,21319.0,6991,7201,7393,6930,59.5,62.1,65.1,60.5,2.787,2.967,2.979,2.914,6.47,94.6,35.9,65.5,1014.4,-29.59,0.17,1.47,33.3,48.2,39.3,0,no_anomaly,0.0,0,0,0,0,13.0827024,80.2706856,5.0,0.0
2024-12-24T14:32:01.500Z,MISSION_0033,15,0,takeoff,SITE_CHE_004,13.0827033,80.2706884,5.0,30.11,1.337,0.099,1.35,-2.1677,-0.1042,30.1103,0.96551,-0.01803,-0.00579,0.25969,-0.2076,0.0733,-9.8671,0.4108,-0.2093,-0.0878,0.3133,3,19,0.58,0.7,0.23,24.709,13.42,96.8,43.3,21299.0,7125,6892,6927,7342,61.4,62.6,62.2,59.9,2.798,2.876,2.958,2.914,6.46,98.2,36.1,67.8,1014.6,-31.96,0.54,1.45,33.3,45.6,39.4,0,no_anomaly,0.0,0,0,0,0,13.0827033,80.2706884,5.0,0.0
2024-12-24T14:32:01.600Z,MISSION_0033,16,0,takeoff,SITE_CHE_004,13.0826974,80.2706892,5.0,31.24,0.598,0.11,1.23,4.9941,-2.6629,31.2352,0.96163,0.0482,-0.01063,0.26986,-0.1983,0.0821,-9.7873,-0.6715,-0.7772,0.1175,0.3771,3,11,0.68,0.8,0.31,24.782,19.48,96.7,44.0,21280.0,6878,6763,7201,7049,61.8,60.0,58.3,61.3,2.643,2.863,2.762,2.799,6.72,88.0,36.0,66.1,1014.78,-29.98,-1.7,1.47,31.4,49.6,43.3,0,no_anomaly,0.0,0,0,0,0,13.0826974,80.2706892,5.0,0.0
2024-12-24T14:32:01.700Z,MISSION_0033,17,0,takeoff,SITE_CHE_004,13.0826952,80.2706841,5.0,29.87,0.697,0.108,1.85,2.3409,-1.4026,29.8669,0.96589,0.02289,-0.00656,0.25787,-0.1393,0.0529,-9.765,0.4789,-0.1555,-0.2955,0.2566,3,16,0.79,0.96,0.42,24.662,25.48,96.6,44.3,21260.0,7150,7070,6987,7139,62.9,68.5,58.2,61.3,2.969,2.794,2.826,2.903,7.05,91.6,36.2,66.1,1014.52,-33.96,-0.87,1.12,28.2,42.7,38.7,0,no_anomaly,0.0,0,0,0,0,13.0826952,80.2706841,5.0,0.0
2024-12-24T14:32:01.800Z,MISSION_0033,18,0,takeoff,SITE_CHE_004,13.0826937,80.2706837,5.0,30.63,0.949,0.181,1.94,-1.0078,-2.1068,30.626,0.96434,-0.00363,-0.02005,0.26388,0.0259,-0.0969,-9.7954,-0.3344,-1.2544,-0.0347,0.2873,3,13,0.64,0.78,0.2,24.689,21.82,96.5,44.0,21240.0,7240,7212,6915,7052,59.0,62.2,59.0,60.0,2.832,2.763,2.796,2.553,5.99,88.1,36.2,65.7,1014.83,-31.04,-1.78,1.43,32.2,46.8,38.4,0,no_anomaly,0.0,0,0,0,0,13.0826937,80.2706837,5.0,0.0
2024-12-24T14:32:01.900Z,MISSION_0033,19,0,takeoff,SITE_CHE_004,13.0826901,80.2706864,5.0,30.96,0.454,0.082,1.87,-0.3169,-4.0928,30.9621,0.96313,0.00687,-0.03515,0.26665,0.0896,-0.0328,-9.9386,0.3961,0.5178,-0.2057,0.2783,3,13,0.68,0.84,0.27,24.615,16.93,96.5,43.7,21220.0,6886,7029,7369,7042,58.4,64.2,58.2,59.8,2.671,3.061,2.946,2.656,6.71,90.0,36.1,67.0,1014.98,-26.83,-0.55,1.25,30.7,44.6,37.9,0,no_anomaly,0.0,0,0,0,0,13.0826901,80.2706864,5.0,0.0
2024-12-24T14:32:02.000Z,MISSION_0033,20,0,takeoff,SITE_CHE_004,13.0826904,80.2706889,5.0,28.1,0.44,0.129,1.63,-1.4503,-2.4959,28.1006,0.96984,-0.00699,-0.0242,0.24243,-0.1718,-0.0229,-9.8172,-0.2085,-0.8676,0.095,0.2734,3,17,0.73,0.96,0.2,24.687,14.88,96.4,43.6,21200.0,7021,7015,6974,7365,63.7,63.2,60.8,62.3,2.691,2.984,2.627,2.722,5.73,95.6,36.1,67.0,1014.77,-32.92,-1.26,1.33,30.8,48.0,37.2,0,no_anomaly,0.0,0,0,0,0,13.0826904,80.2706889,5.0,0.0
2024-12-24T14:32:02.100Z,MISSION_0033,21,0,takeoff,SITE_CHE_004,13.0826888,80.2706896,5.0,26.8,0.094,0.063,1.71,4.7498,-0.0547,26.8026,0.97193,0.04042,0.00914,0.23159,-0.2688,-0.0099,-9.77,-0.0971,-0.0611,0.1157,0.1318,3,18,0.66,1.02,0.28,24.725,22.78,96.3,43.7,21181.0,7078,7293,7288,7108,61.5,64.0,59.2,63.4,2.715,2.861,2.889,2.744,6.59,82.1,36.0,67.0,1014.52,-32.42,-0.75,1.64,28.2,48.9,38.7,0,no_anomaly,0.0,0,0,0,0,13.0826888,80.2706896,5.0,0.0
2024-12-24T14:32:02.200Z,MISSION_0033,22,0,takeoff,SITE_CHE_004,13.0826903,80.2706895,5.0,28.31,0.351,0.03,1.59,4.229,-3.7937,28.3088,0.96815,0.04385,-0.02306,0.24542,0.081,-0.0175,-9.8223,-0.0005,0.4566,-0.2119,0.1997,3,13,0.58,1.12,0.2,24.708,16.12,96.2,44.3,21161.0,7145,7038,7106,7228,62.7,61.4,60.1,59.5,2.985,2.882,2.796,2.752,6.19,102.8,36.8,65.7,1014.33,-33.59,0.17,1.88,29.3,46.7,38.0,0,no_anomaly,0.0,0,0,0,0,13.0826903,80.2706895,5.0,0.0
2024-12-24T14:32:02.300Z,MISSION_0033,23,0,takeoff,SITE_CHE_004,13.0826949,80.2706886,5.0,28.06,0.361,0.008,1.39,-4.9727,-1.3257,28.0563,0.96932,-0.03928,-0.02173,0.24167,0.0254,-0.0024,-9.8609,0.088,0.5026,-0.2343,0.2556,3,18,0.64,0.79,0.32,24.716,19.05,96.1,44.4,21141.0,7201,7215,7064,7290,62.4,61.9,63.9,60.4,2.759,2.583,2.855,2.872,6.84,96.3,35.9,65.5,1014.38,-28.96,0.29,1.38,29.4,48.3,35.4,0,no_anomaly,0.0,0,0,0,0,13.0826949,80.2706886,5.0,0.0
2024-12-24T14:32:02.400Z,MISSION_0033,24,0,takeoff,SITE_CHE_004,13.0826929,80.2706826,5.0,26.7,0.346,0.113,2.09,-0.7414,-1.0519,26.6973,0.97294,-0.00418,-0.01042,0.2308,-0.1997,-0.0262,-9.7691,0.1636,-0.0993,0.0804,0.2515,3,14,0.66,1.17,0.4,24.731,16.28,96.0,43.8,21121.0,6866,7251,7390,7155,62.2,57.9,61.3,58.9,2.76,2.847,2.96,2.802,6.19,89.1,36.3,66.7,1014.54,-28.25,0.01,1.7,29.5,46.8,39.4,0,no_anomaly,0.0,0,0,0,0,13.0826929,80.2706826,5.0,0.0
2024-12-24T14:32:02.500Z,MISSION_0033,25,0,takeoff,SITE_CHE_004,13.0826946,80.2706814,5.0,28.56,0.568,0.08,2.16,-3.9465,-0.1953,28.5576,0.96855,-0.03295,-0.01014,0.24644,0.3288,-0.0572,-9.7627,0.5156,0.1879,-0.415,0.3281,3,18,0.62,1.0,0.35,24.666,21.68,95.9,44.5,21102.0,7084,6860,7291,7261,60.4,60.9,63.2,61.4,2.969,2.802,3.068,2.917,6.24,80.4,36.0,67.2,1014.18,-32.98,0.27,1.47,30.8,45.7,42.9,0,no_anomaly,0.0,0,0,0,0,13.0826946,80.2706814,5.0,0.0
2024-12-24T14:32:02.600Z,MISSION_0033,26,0,takeoff,SITE_CHE_004,13.0826938,80.2706875,5.0,27.17,0.052,0.103,1.55,1.7616,-0.2278,27.1707,0.9719,0.01541,0.00168,0.2349,-0.0032,0.0264,-9.8849,0.2542,-0.1101,-0.6087,0.2151,3,18,0.66,1.0,0.22,24.729,22.24,95.8,43.5,21082.0,7173,7125,6968,7244,60.1,60.9,61.6,62.2,2.768,2.762,2.785,2.702,6.21,87.3,35.9,66.5,1014.38,-28.19,1.61,2.17,31.9,49.2,35.6,0,no_anomaly,0.0,0,0,0,0,13.0826938,80.2706875,5.0,0.0
2024-12-24T14:32:02.700Z,MISSION_0033,27,0,takeoff,SITE_CHE_004,13.082693,80.27069,5.0,28.62,0.0,0.083,1.36,0.5433,-1.6553,28.6157,0.96885,0.00816,-0.01283,0.24717,0.1451,0.0492,-9.8018,-0.0783,-0.8298,-0.0382,0.1693,3,19,0.77,0.89,0.3,24.672,14.96,95.7,44.7,21062.0,6979,6827,7152,7070,62.9,61.7,60.0,62.5,2.774,2.87,2.878,2.742,6.45,89.4,36.3,65.8,1014.48,-28.17,1.47,1.77,32.7,42.4,39.4,0,no_anomaly,0.0,0,0,0,0,13.082693,80.27069,5.0,0.0
2024-12-24T14:32:02.800Z,MISSION_0033,28,0,takeoff,SITE_CHE_004,13.0826969,80.2706937,5.0,29.3,0.0,0.145,0.78,1.0474,-3.1481,29.3027,0.96701,0.01579,-0.02426,0.25307,0.0453,-0.0241,-9.7284,0.0882,0.5246,-0.2442,0.0956,3,13,0.77,1.13,0.29,24.735,19.08,95.6,44.7,21042.0,7103,7011,7226,7400,59.7,63.6,59.0,60.5,2.728,2.805,3.0,2.788,6.12,92.0,36.1,65.6,1014.44,-37.17,-0.86,1.67,30.8,47.0,37.4,0,no_anomaly,0.0,0,0,0,0,13.0826969,80.2706937,5.0,0.0
2024-12-24T14:32:02.900Z,MISSION_0033,29,0,takeoff,SITE_CHE_004,13.0826907,80.2706931,5.0,31.75,0.124,0.026,1.29,5.9166,-2.0374,31.7492,0.96018,0.05449,-0.00296,0.27401,0.0205,0.046,-9.8157,0.5374,-0.1658,-0.0168,0.2704,3,16,0.64,0.79,0.2,24.583,21.66,95.6,44.5,21023.0,7208,7053,7343,7107,60.6,60.3,63.3,60.0,2.917,2.949,2.735,2.845,6.4,84.1,36.0,66.6,1014.46,-32.59,-1.49,1.6,33.1,43.7,37.4,0,no_anomaly,0.0,0,0,0,0,13.0826907,80.2706931,5.0,0.0
2024-12-24T14:32:03.000Z,MISSION_0033,30,0,takeoff,SITE_CHE_004,13.0826924,80.2706953,5.0,32.04,0.204,0.057,0.99,0.3017,-1.1814,32.0396,0.9611,0.00538,-0.00918,0.27598,-0.1698,-0.0174,-9.8234,1.0147,-0.3946,-0.4892,0.253,3,16,0.63,0.77,0.29,24.717,18.55,95.5,43.8,21003.0,7163,7336,7007,7128,59.0,59.2,60.0,63.1,2.695,2.806,2.864,2.703,6.05,90.4,35.8,66.3,1014.69,-31.96,-0.48,1.36,29.7,42.8,41.6,0,no_anomaly,0.0,0,0,0,0,13.0826924,80.2706953,5.0,0.0
2024-12-24T14:32:03.100Z,MISSION_0033,31,0,takeoff,SITE_CHE_004,13.0826912,80.2706959,5.0,32.65,0.603,0.255,1.09,-5.6358,-0.8457,32.6512,0.9586,-0.04511,-0.02089,0.2804,0.1109,-0.0202,-9.8041,-0.0697,0.7069,0.1551,0.1845,3,11,0.68,1.09,0.3,24.659,22.9,95.4,44.9,20983.0,7124,7321,7019,7312,61.7,60.5,62.8,62.2,2.772,2.771,2.937,2.859,5.8,86.1,36.1,66.1,1014.61,-32.63,1.17,1.61,33.8,46.6,35.9,0,no_anomaly,0.0,0,0,0,0,13.0826912,80.2706959,5.0,0.0
2024-12-24T14:32:03.200Z,MISSION_0033,32,0,takeoff,SITE_CHE_004,13.0826942,80.2706941,5.0,30.29,0.786,0.119,0.92,2.6376,-4.2674,30.2893,0.96412,0.03193,-0.02992,0.26183,0.006,-0.0474,-9.7945,-0.3983,0.0707,-0.0319,0.3111,3,12,0.73,0.64,0.23,24.758,23.19,95.3,44.9,20963.0,7103,6925,6978,7119,60.2,61.7,60.9,62.3,2.83,2.858,2.842,2.965,5.3,95.0,36.4,66.3,1014.99,-30.24,0.3,1.77,33.1,45.7,37.3,0,no_anomaly,0.0,0,0,0,0,13.0826942,80.2706941,5.0,0.0
2024-12-24T14:32:03.300Z,MISSION_0033,33,0,takeoff,SITE_CHE_004,13.0826913,80.2706945,5.0,30.18,1.007,0.006,1.14,-2.8227,-2.0276,30.176,0.9652,-0.01917,-0.02349,0.25976,0.0824,-0.0758,-9.8707,-0.4148,0.3949,-0.0704,0.21,3,18,0.7,1.09,0.32,24.644,21.2,95.2,44.2,20944.0,7010,7275,7159,7146,63.1,61.0,64.6,63.3,2.743,3.102,2.739,2.761,6.32,86.7,35.7,66.6,1014.81,-25.78,-0.75,2.01,30.1,47.0,38.6,0,no_anomaly,0.0,0,0,0,0,13.0826913,80.2706945,5.0,0.0
2024-12-24T14:32:03.400Z,MISSION_0033,34,0,takeoff,SITE_CHE_004,13.0826908,80.2706937,5.0,30.58,0.423,0.081,1.24,3.5173,-3.4517,30.5754,0.96348,0.03753,-0.02095,0.26431,0.0896,0.0106,-9.8359,1.0514,0.0598,0.077,0.2062,3,18,0.69,0.85,0.28,24.615,16.73,95.1,43.9,20924.0,7260,7049,6892,6987,62.9,64.9,59.3,62.1,2.948,2.887,2.895,2.96,6.24,94.1,36.0,66.0,1014.47,-31.21,1.67,1.34,30.6,41.3,37.0,0,no_anomaly,0.0,0,0,0,0,13.0826908,80.2706937,5.0,0.0
2024-12-24T14:32:03.500Z,MISSION_0033,35,0,takeoff,SITE_CHE_004,13.0826901,80.2706928,5.0,28.2,0.347,0.171,1.36,5.6811,-3.8319,28.2005,0.96773,0.05617,-0.02032,0.24479,0.2256,0.012,-9.7884,0.1428,-0.3002,-0.2446,0.284,3,14,0.78,0.78,0.45,24.707,22.11,95.0,44.2,20904.0,7079,7041,7162,6840,59.7,60.1,60.2,63.3,2.869,2.911,2.979,2.822,6.72,86.0,36.0,66.9,1014.76,-30.99,-0.61,1.76,27.6,48.3,40.1,0,no_anomaly,0.0,0,0,0,0,13.0826901,80.2706928,5.0,0.0
2024-12-24T14:32:03.600Z,MISSION_0033,36,0,takeoff,SITE_CHE_004,13.0826902,80.270693,5.0,30.32,0.354,0.026,1.34,-2.9272,-3.81,30.3235,0.96457,-0.01595,-0.03875,0.2605,-0.1527,0.0224,-9.8295,-0.219,0.6188,0.182,0.2746,3,18,0.5,0.9,0.2,24.678,15.32,94.9,44.9,20884.0,7156,7089,6994,6989,64.5,63.7,61.9,61.3,2.936,2.745,2.752,2.73,6.66,84.5,36.3,65.8,1014.5,-27.44,-0.7,1.51,30.8,48.5,37.9,0,no_anomaly,0.0,0,0,0,0,13.0826902,80.270693,5.0,0.0
2024-12-24T14:32:03.700Z,MISSION_0033,37,0,takeoff,SITE_CHE_004,13.0826914,80.2706913,5.0,28.69,0.107,0.182,1.36,1.0035,-4.1309,28.6945,0.96807,0.01741,-0.03275,0.24793,-0.0899,0.0278,-9.7983,0.0476,0.0573,-0.0261,0.2577,3,20,0.68,1.07,0.24,24.593,22.09,94.8,44.1,20865.0,7096,7034,6996,7022,62.7,60.4,63.1,63.6,2.711,2.933,2.874,2.859,5.45,94.1,36.5,66.7,1014.25,-28.32,-0.55,1.68,31.6,48.3,38.8,0,no_anomaly,0.0,0,0,0,0,13.0826914,80.2706913,5.0,0.0
2024-12-24T14:32:03.800Z,MISSION_0033,38,0,takeoff,SITE_CHE_004,13.0826949,80.2706948,5.0,24.98,0.0,0.061,0.81,4.7324,1.906,24.9759,0.97552,0.03671,0.02515,0.21535,-0.1562,-0.0077,-9.833,0.299,0.4571,0.3206,0.2701,3,11,0.62,0.8,0.21,24.628,18.16,94.7,44.3,20845.0,7105,7094,7224,7289,61.8,58.3,62.7,61.1,2.73,3.004,2.786,2.732,5.98,81.1,36.5,65.7,1014.46,-28.49,-0.46,1.81,27.3,47.8,38.5,0,no_anomaly,0.0,0,0,0,0,13.0826949,80.2706948,5.0,0.0
2024-12-24T14:32:03.900Z,MISSION_0033,39,0,takeoff,SITE_CHE_004,13.0826957,80.2706945,5.0,24.67,0.0,0.036,0.77,0.9502,-0.0306,24.6731,0.97688,0.00816,0.00151,0.21365,0.2956,0.0311,-9.8118,-0.288,-0.2879,0.2562,0.2372,3,16,0.68,0.86,0.23,24.598,25.0,94.7,44.7,20825.0,7202,7056,7174,7017,58.8,59.6,56.5,55.7,2.713,2.884,2.859,2.932,6.88,92.4,35.7,66.4,1014.45,-28.36,-0.38,1.4,33.0,44.4,41.8,0,no_anomaly,0.0,0,0,0,0,13.0826957,80.2706945,5.0,0.0
2024-12-24T14:32:04.000Z,MISSION_0033,40,0,takeoff,SITE_CHE_004,13.0826956,80.2706963,5.0,27.36,0.457,0.087,0.64,0.5739,-0.25,27.3582,0.97162,0.00538,-0.00094,0.23649,-0.2973,-0.0701,-9.7332,-0.048,0.3573,-0.0404,0.1899,3,10,0.62,0.91,0.3,24.729,18.56,94.6,43.5,20805.0,7016,7002,6946,7056,58.9,58.4,62.0,58.3,2.864,2.417,2.853,2.645,5.79,79.8,36.1,65.9,1014.43,-32.81,-0.31,1.65,29.5,50.8,40.5,0,no_anomaly,0.0,0,0,0,0,13.0826956,80.2706963,5.0,0.0
2024-12-24T14:32:04.100Z,MISSION_0033,41,0,takeoff,SITE_CHE_004,13.0826989,80.2707017,5.0,26.87,0.043,0.183,0.23,-2.9519,-1.8151,26.8741,0.97228,-0.02137,-0.02139,0.23187,0.0661,-0.0376,-9.866,-0.1325,0.9983,0.2306,0.2171,3,11,0.76,0.97,0.3,24.634,14.83,94.5,43.1,20785.0,6980,7046,6965,7365,60.1,56.4,62.0,64.9,2.645,2.842,2.795,2.744,6.6,90.7,35.9,66.9,1014.58,-39.23,-0.23,1.2,31.1,43.6,39.2,0,no_anomaly,0.0,0,0,0,0,13.0826989,80.2707017,5.0,0.0
2024-12-24T14:32:04.200Z,MISSION_0033,42,0,takeoff,SITE_CHE_004,13.0827007,80.2707085,5.0,26.03,0.211,0.051,0.95,1.5991,-0.1403,26.0318,0.97421,0.01387,0.00195,0.22522,-0.1705,0.0436,-9.7735,-0.3242,-0.8551,0.4496,0.1678,3,19,0.83,0.66,0.24,24.645,22.76,94.4,45.3,20766.0,7113,7330,6982,7249,58.6,62.0,60.9,60.5,3.007,2.714,3.238,2.998,5.67,93.2,36.1,66.9,1014.93,-29.48,-1.04,2.09,30.3,44.1,41.4,0,no_anomaly,0.0,0,0,0,0,13.0827007,80.2707085,5.0,0.0
2024-12-24T14:32:04.300Z,MISSION_0033,43,0,takeoff,SITE_CHE_004,13.0827018,80.2707073,5.0,28.86,0.0,0.192,0.84,2.8236,-2.9969,28.8567,0.96767,0.03037,-0.01918,0.24963,-0.0463,-0.0284,-9.8277,0.2783,0.3989,0.0609,0.1903,3,10,0.83,1.04,0.3,24.533,19.2,94.3,44.2,20746.0,7075,7271,7163,7070,62.8,65.2,63.1,62.1,3.03,2.882,2.897,2.948,5.3,92.3,36.1,66.4,1014.72,-28.13,1.34,1.07,31.4,40.9,37.7,0,no_anomaly,0.0,0,0,0,0,13.0827018,80.2707073,5.0,0.0
2024-12-24T14:32:04.400Z,MISSION_0033,44,0,takeoff,SITE_CHE_004,13.0826983,80.2707109,5.0,27.23,0.078,0.118,1.22,-2.937,-0.5608,27.2342,0.97159,-0.02375,-0.01079,0.23523,0.2299,0.0203,-9.7513,0.2859,-0.7447,0.0385,0.2175,3,15,0.61,0.85,0.24,24.659,13.25,94.2,45.2,20726.0,7128,7076,7034,7184,60.6,62.3,61.6,58.6,3.142,2.892,2.968,2.769,7.19,90.9,36.0,66.4,1014.76,-34.86,-1.08,1.38,28.9,44.6,39.0,0,no_anomaly,0.0,0,0,0,0,13.0826983,80.2707109,5.0,0.0
2024-12-24T14:32:04.500Z,MISSION_0033,45,0,takeoff,SITE_CHE_004,13.0826951,80.2707131,5.0,27.99,0.0,0.068,1.56,-2.8877,-3.3486,27.9881,0.96978,-0.01738,-0.03443,0.24093,0.1149,-0.0436,-9.8343,-0.4065,0.3788,-0.137,0.3174,3,13,0.66,0.91,0.29,24.668,17.93,94.1,43.8,20706.0,7176,7188,7109,6957,61.3,62.0,61.9,58.2,2.658,2.767,2.792,2.798,6.42,86.5,36.1,67.0,1014.24,-28.1,-0.8,1.17,31.8,43.0,40.6,0,no_anomaly,0.0,0,0,0,0,13.0826951,80.2707131,5.0,0.0
2024-12-24T14:32:04.600Z,MISSION_0033,46,0,takeoff,SITE_CHE_004,13.0826918,80.2707128,5.0,26.85,0.0,0.215,1.7,-2.0365,-4.2274,26.8509,0.97201,-0.00871,-0.03999,0.23135,-0.0871,-0.0356,-9.732,-0.0195,0.4336,0.3393,0.2098,3,17,0.7,0.67,0.2,24.64,22.25,94.0,44.5,20687.0,6952,7085,7135,7102,59.5,63.6,57.3,63.4,2.617,2.832,2.704,2.923,6.17,85.6,36.2,66.4,1014.38,-32.05,-1.31,1.74,29.1,42.5,41.0,0,no_anomaly,0.0,0,0,0,0,13.0826918,80.2707128,5.0,0.0
2024-12-24T14:32:04.700Z,MISSION_0033,47,0,takeoff,SITE_CHE_004,13.0826952,80.2707131,5.0,25.88,0.0,0.115,1.55,1.2061,-2.4883,25.8839,0.97426,0.01512,-0.0188,0.22412,-0.0338,0.0261,-9.7549,0.7502,0.0441,0.0246,0.2667,3,17,0.7,0.74,0.33,24.577,23.11,93.9,44.5,20667.0,7151,7128,7045,7211,59.2,59.1,60.4,63.8,2.731,2.763,2.829,2.744,6.61,91.3,36.3,66.6,1014.59,-26.32,1.27,1.68,33.0,48.3,39.8,0,no_anomaly,0.0,0,0,0,0,13.0826952,80.2707131,5.0,0.0
2024-12-24T14:32:04.800Z,MISSION_0033,48,0,takeoff,SITE_CHE_004,13.0826939,80.2707117,5.0,25.35,0.336,0.068,1.47,-6.4062,0.4942,25.3511,0.97404,-0.05546,-0.00806,0.21932,-0.1781,-0.0712,-9.7773,-0.4296,0.5275,-0.5013,0.2612,3,12,0.59,0.83,0.2,24.652,20.19,93.9,44.1,20647.0,7118,6858,7150,6910,63.5,61.0,61.5,62.2,2.634,2.494,2.852,2.631,6.75,78.3,36.0,65.5,1014.73,-31.95,0.91,1.58,29.9,49.7,37.4,0,no_anomaly,0.0,0,0,0,0,13.0826939,80.2707117,5.0,0.0
2024-12-24T14:32:04.900Z,MISSION_0033,49,0,takeoff,SITE_CHE_004,13.0826964,80.2707108,5.0,27.45,0.125,0.24,1.26,1.0297,-2.5654,27.454,0.97111,0.01404,-0.01961,0.23742,-0.2439,0.044,-9.9336,0.0348,-0.1112,-0.0547,0.2589,3,12,0.85,1.16,0.36,24.594,16.21,93.8,44.5,20627.0,7101,6751,7197,7218,65.3,59.0,57.9,58.7,3.319,2.612,2.478,2.803,7.1,90.8,35.9,65.6,1014.66,-32.33,0.61,1.79,32.8,52.0,41.1,0,no_anomaly,0.0,0,0,0,0,13.0826964,80.2707108,5.0,0.0
2024-12-24T14:32:05.000Z,MISSION_0033,50,0,takeoff,SITE_CHE_004,13.0826969,80.2707091,5.0,26.98,0.242,-0.011,1.07,2.0896,-4.3254,26.9816,0.97139,0.02652,-0.03244,0.23375,0.3709,-0.0508,-9.8739,0.4578,-0.0225,0.6552,0.1803,3,17,0.67,1.05,0.31,24.618,19.07,93.7,43.8,20608.0,6816,6929,7112,7148,59.0,62.6,60.3,59.3,2.87,2.866,2.647,2.63,6.29,80.4,36.2,66.1,1014.51,-32.7,0.57,1.24,32.0,50.0,38.7,0,no_anomaly,0.0,0,0,0,0,13.0826969,80.2707091,5.0,0.0
2024-12-24T14:32:05.100Z,MISSION_0033,51,0,takeoff,SITE_CHE_004,13.0826994,80.2707081,5.0,25.05,0.206,0.167,0.91,4.8307,-3.2067,25.0513,0.97469,0.04719,-0.01815,0.21775,0.1005,0.0774,-9.8824,-0.434,-1.052,0.0109,0.2778,3,16,0.8,1.16,0.27,24.582,17.89,93.6,44.3,20588.0,7164,7058,7048,7041,62.7,59.6,62.1,59.0,2.715,2.674,2.639,2.937,6.06,84.3,36.2,66.1,1014.69,-31.04,0.34,1.58,32.6,45.5,39.6,0,no_anomaly,0.0,0,0,0,0,13.0826994,80.2707081,5.0,0.0
2024-12-24T14:32:05.200Z,MISSION_0033,52,0,takeoff,SITE_CHE_004,13.0827004,80.270708,5.0,24.16,0.219,0.123,0.89,6.0403,-1.7812,24.1575,0.97621,0.05476,-0.00415,0.20974,-0.4946,-0.0675,-9.7459,0.0264,0.1827,-0.3052,0.2103,3,13,0.58,0.79,0.27,24.584,21.04,93.5,43.9,20568.0,6998,7251,7208,7218,62.5,59.3,61.3,60.4,2.93,2.782,2.743,2.72,6.25,85.6,36.3,66.6,1014.59,-23.91,-0.21,1.5,28.7,44.1,36.3,0,no_anomaly,0.0,0,0,0,0,13.0827004,80.270708,5.0,0.0
2024-12-24T14:32:05.300Z,MISSION_0033,53,0,takeoff,SITE_CHE_004,13.0827063,80.270709,5.0,22.82,0.39,0.144,1.23,-2.9515,-3.669,22.8199,0.97957,-0.0189,-0.03646,0.19685,0.0263,-0.0256,-9.6866,-0.2023,-0.0258,0.0416,0.1921,3,11,0.64,0.73,0.22,24.661,20.76,93.4,43.6,20548.0,7153,7226,7324,7282,57.8,59.7,63.6,57.6,2.802,2.656,2.674,2.829,6.86,80.4,36.2,65.9,1014.59,-32.71,0.11,1.0,29.3,42.2,37.4,0,no_anomaly,0.0,0,0,0,0,13.0827063,80.270709,5.0,0.0
2024-12-24T14:32:05.400Z,MISSION_0033,54,0,takeoff,SITE_CHE_004,13.0827035,80.2707089,5.0,25.51,0.777,0.07,1.06,3.1829,-3.386,25.5114,0.97434,0.0336,-0.02267,0.22141,-0.3301,-0.0958,-9.7951,0.7115,1.1841,-0.5914,0.2845,3,13,0.8,0.83,0.32,24.558,21.42,93.3,44.3,20529.0,6918,7022,7388,7355,58.6,57.4,60.4,64.6,2.66,2.428,2.81,2.746,7.13,84.1,36.1,66.2,1014.81,-27.56,-0.83,1.47,30.6,46.6,40.0,0,no_anomaly,0.0,0,0,0,0,13.0827035,80.2707089,5.0,0.0
2024-12-24T14:32:05.500Z,MISSION_0033,55,0,takeoff,SITE_CHE_004,13.0827027,80.2707109,5.0,25.23,0.931,0.084,1.25,-7.9924,-1.8406,25.2344,0.9736,-0.0645,-0.03086,0.21678,-0.1995,-0.0259,-9.8446,0.1792,0.4731,-0.1652,0.3287,3,10,0.76,0.85,0.2,24.601,19.17,93.2,44.8,20509.0,7224,6673,7545,7354,64.2,59.3,62.0,61.7,2.759,2.755,2.78,2.795,5.81,90.5,36.1,67.4,1014.53,-35.18,-0.26,1.59,33.0,42.4,38.0,0,no_anomaly,0.0,0,0,0,0,13.0827027,80.2707109,5.0,0.0
2024-12-24T14:32:05.600Z,MISSION_0033,56,0,takeoff,SITE_CHE_004,13.0827072,80.2707181,5.0,24.52,0.577,0.169,2.17,-3.624,-2.9742,24.5191,0.97655,-0.02538,-0.03206,0.21136,-0.2703,0.0356,-9.8207,0.4069,-0.5789,-0.5817,0.2735,3,12,0.72,1.07,0.3,24.619,23.79,93.1,44.2,20489.0,7065,7007,7045,7114,59.8,55.8,60.1,61.5,2.799,3.049,2.385,3.105,6.94,92.9,36.0,65.6,1014.52,-26.36,0.13,1.29,26.1,44.4,33.6,0,no_anomaly,0.0,0,0,0,0,13.0827072,80.2707181,5.0,0.0
2024-12-24T14:32:05.700Z,MISSION_0033,57,0,takeoff,SITE_CHE_004,13.0827051,80.2707168,5.0,25.93,0.437,0.161,1.95,1.6349,-0.5606,25.927,0.97439,0.015,-0.00157,0.22437,-0.0881,-0.0447,-9.8432,-0.8432,0.3143,0.2603,0.2692,3,12,0.63,0.96,0.25,24.728,14.38,93.0,43.8,20469.0,7051,7215,7049,7060,60.9,58.7,64.1,62.5,2.99,2.934,2.501,2.875,6.19,92.0,35.8,67.3,1014.42,-33.33,-0.46,1.87,29.4,43.9,39.3,0,no_anomaly,0.0,0,0,0,0,13.0827051,80.2707168,5.0,0.0
2024-12-24T14:32:05.800Z,MISSION_0033,58,0,takeoff,SITE_CHE_004,13.0827065,80.2707163,5.0,27.66,0.505,0.088,1.95,3.8469,-1.1517,27.6621,0.97033,0.03499,-0.00173,0.23924,-0.0001,0.0157,-9.836,0.1596,0.3772,-0.1742,0.1604,3,10,0.7,1.09,0.28,24.616,23.25,93.0,43.4,20450.0,6950,6823,7061,7182,58.3,63.6,58.4,63.7,2.869,2.748,2.834,2.585,5.72,95.9,36.3,66.6,1014.48,-30.1,0.36,1.7,33.2,43.4,38.0,0,no_anomaly,0.0,0,0,0,0,13.0827065,80.2707163,5.0,0.0
2024-12-24T14:32:05.900Z,MISSION_0033,59,0,takeoff,SITE_CHE_004,13.0827036,80.2707146,5.0,25.36,0.402,0.102,1.67,-0.4803,-0.8944,25.3563,0.97559,-0.00238,-0.00853,0.21943,0.1221,0.0575,-9.8705,-0.3596,0.1267,0.0318,0.2813,3,20,0.63,0.73,0.28,24.603,22.65,92.9,44.7,20430.0,7045,6933,7021,6951,62.6,61.2,62.4,60.4,2.762,2.672,2.696,2.874,5.99,91.2,36.4,66.8,1014.71,-31.79,0.41,1.25,28.9,42.0,37.0,0,no_anomaly,0.0,0,0,0,0,13.0827036,80.2707146,5.0,0.0
2024-12-24T14:32:06.000Z,MISSION_0033,60,0,takeoff,SITE_CHE_004,13.0827065,80.270715,5.0,26.45,0.346,0.074,1.82,-7.6197,-0.0127,26.4514,0.97133,-0.06466,-0.01531,0.22827,-0.0831,0.0136,-9.7933,0.1559,0.2748,-0.5274,0.3021,3,20,0.76,1.03,0.35,24.664,15.92,92.8,43.6,20410.0,7163,7296,7308,7231,59.4,64.7,62.9,56.6,2.789,2.844,2.672,2.581,6.51,95.2,36.1,66.5,1014.87,-33.92,-1.23,1.09,33.2,44.8,38.8,0,no_anomaly,0.0,0,0,0,0,13.0827065,80.270715,5.0,0.0
2024-12-24T14:32:06.100Z,MISSION_0033,61,0,takeoff,SITE_CHE_004,13.0827051,80.2707097,5.0,26.29,0.174,0.195,1.22,0.5748,-4.8453,26.2899,0.97287,0.01449,-0.04002,0.22742,0.2167,-0.0503,-9.8103,0.4903,-0.5957,-0.1696,0.1837,3,16,0.56,1.03,0.25,24.577,13.57,92.7,42.8,20390.0,7325,7112,7255,7009,62.4,62.4,64.2,63.6,2.708,2.816,2.684,2.87,6.42,86.2,36.2,66.6,1014.2,-28.01,0.28,1.6,30.7,46.6,40.8,0,no_anomaly,0.0,0,0,0,0,13.0827051,80.2707097,5.0,0.0
2024-12-24T14:32:06.200Z,MISSION_0033,62,0,takeoff,SITE_CHE_004,13.0827117,80.2707068,5.0,25.93,0.394,0.006,1.51,-3.7939,-2.4136,25.9298,0.97391,-0.02753,-0.02794,0.2235,0.1459,0.0757,-9.766,0.1724,0.0388,-0.2976,0.2241,3,16,0.72,1.32,0.28,24.605,18.81,92.6,44.1,20370.0,6955,7187,7269,7204,61.7,62.8,61.8,65.2,2.685,2.761,2.677,2.892,6.71,98.5,35.9,66.7,1014.58,-32.56,-0.66,1.43,29.8,47.3,40.0,0,no_anomaly,0.0,0,0,0,0,13.0827117,80.2707068,5.0,0.0
2024-12-24T14:32:06.300Z,MISSION_0033,63,0,takeoff,SITE_CHE_004,13.0827154,80.27071,5.0,27.13,0.399,0.092,2.04,0.8509,-2.2817,27.1332,0.97184,0.01189,-0.01761,0.23467,-0.0867,0.044,-9.7286,-1.0671,-0.1744,0.0387,0.1971,3,15,0.74,0.99,0.27,24.588,17.78,92.5,45.0,20351.0,7032,7074,7168,7380,61.6,59.3,61.1,61.2,2.949,3.023,2.642,2.774,5.79,104.9,35.9,67.3,1014.35,-28.21,-0.18,1.71,31.2,51.1,37.4,0,no_anomaly,0.0,0,0,0,0,13.0827154,80.27071,5.0,0.0
2024-12-24T14:32:06.400Z,MISSION_0033,64,0,takeoff,SITE_CHE_004,13.0827133,80.2707086,5.0,27.94,0.212,0.054,1.76,1.5609,0.1305,27.939,0.97034,0.01294,0.00439,0.24137,-0.1835,0.034,-9.8533,-0.0383,-0.0958,0.0213,0.241,3,11,0.81,1.11,0.39,24.636,19.54,92.4,44.6,20331.0,7275,7290,6819,6950,55.4,64.1,61.8,62.3,2.952,2.838,2.925,2.773,6.62,86.3,35.8,66.0,1014.45,-30.49,-0.67,1.48,29.2,45.0,37.2,0,no_anomaly,0.0,0,0,0,0,13.0827133,80.2707086,5.0,0.0
2024-12-24T14:32:06.500Z,MISSION_0033,65,0,takeoff,SITE_CHE_004,13.0827168,80.2707069,5.0,27.13,0.0,0.131,2.02,2.3213,-0.1719,27.1315,0.97189,0.02004,0.00329,0.23454,0.0758,-0.0337,-9.7893,-0.3602,-0.3006,-0.0029,0.1965,3,16,0.61,1.1,0.2,24.561,15.65,92.3,44.8,20311.0,6950,7235,7111,6884,64.5,62.8,58.7,60.9,2.874,2.978,2.886,3.045,5.6,81.5,36.0,65.9,1014.46,-33.43,1.0,1.68,32.6,46.2,36.1,0,no_anomaly,0.0,0,0,0,0,13.0827168,80.2707069,5.0,0.0
2024-12-24T14:32:06.600Z,MISSION_0033,66,0,takeoff,SITE_CHE_004,13.0827146,80.2707044,5.0,30.31,0.067,0.155,1.7,1.3034,-1.1341,30.3121,0.96508,0.01357,-0.00658,0.26153,0.0392,-0.0298,-9.7821,0.242,0.953,-0.4345,0.2357,3,15,0.74,0.62,0.25,24.671,17.79,92.2,44.3,20291.0,7192,7105,7051,7140,64.6,64.5,64.1,59.8,2.833,2.707,2.584,2.462,6.13,82.5,36.0,66.0,1014.85,-30.65,-1.2,1.43,31.8,47.2,38.0,0,no_anomaly,0.0,0,0,0,0,13.0827146,80.2707044,5.0,0.0
2024-12-24T14:32:06.700Z,MISSION_0033,67,0,takeoff,SITE_CHE_004,13.0827157,80.2707075,5.0,32.26,0.127,0.125,1.94,-4.2102,-3.8775,32.2598,0.95978,-0.02587,-0.04268,0.27628,0.0447,0.0399,-9.7744,-0.27,-0.8213,0.1257,0.2283,3,20,0.55,0.87,0.26,24.607,18.8,92.1,44.6,20272.0,6985,7082,7063,7010,64.2,63.3,59.0,65.3,2.764,2.94,2.685,2.431,6.12,82.6,35.9,66.0,1014.34,-32.12,1.18,1.2,29.6,45.6,40.0,0,no_anomaly,0.0,0,0,0,0,13.0827157,80.2707075,5.0,0.0
2024-12-24T14:32:06.800Z,MISSION_0033,68,0,takeoff,SITE_CHE_004,13.0827169,80.2707051,5.0,31.46,0.0,0.039,1.97,5.0248,-4.906,31.4553,0.96025,0.05375,-0.02929,0.27236,-0.1921,-0.0261,-9.8442,0.037,0.5673,0.0984,0.1506,3,13,0.64,0.86,0.26,24.572,20.31,92.1,44.7,20252.0,7251,7168,7163,7118,61.2,58.9,59.9,62.0,2.715,2.583,2.794,2.894,6.29,89.3,36.4,66.2,1014.43,-33.27,0.49,1.6,33.2,45.8,36.9,0,no_anomaly,0.0,0,0,0,0,13.0827169,80.2707051,5.0,0.0
2024-12-24T14:32:06.900Z,MISSION_0033,69,0,takeoff,SITE_CHE_004,13.0827149,80.2707043,5.0,30.28,0.049,0.191,1.73,-3.3978,-1.7828,30.2833,0.96486,-0.02455,-0.02275,0.26061,0.1711,0.0596,-9.7863,0.8371,-0.7886,0.2713,0.219,3,20,0.66,0.85,0.23,24.652,14.98,92.0,44.8,20232.0,7117,7039,7149,7189,60.3,61.3,62.5,61.4,2.63,2.636,2.816,2.904,4.99,95.4,36.2,65.8,1014.46,-27.12,0.46,1.73,35.2,42.7,37.4,0,no_anomaly,0.0,0,0,0,0,13.0827149,80.2707043,5.0,0.0
2024-12-24T14:32:07.000Z,MISSION_0033,70,0,takeoff,SITE_CHE_004,13.0827177,80.2707015,5.0,34.12,0.055,0.053,1.98,-0.3319,1.1225,34.1163,0.95595,-0.00564,0.00852,0.29335,0.1672,-0.0031,-9.7826,0.1821,-0.1564,-0.0247,0.2224,3,18,0.64,1.04,0.32,24.526,22.27,91.9,44.5,20212.0,7041,7158,7120,7103,57.9,61.7,60.9,60.2,2.657,2.88,2.955,2.878,6.62,81.8,36.2,66.3,1014.56,-27.42,-1.03,1.51,32.4,44.9,39.4,0,no_anomaly,0.0,0,0,0,0,13.0827177,80.2707015,5.0,0.0
2024-12-24T14:32:07.100Z,MISSION_0033,71,0,takeoff,SITE_CHE_004,13.0827147,80.2707007,5.0,33.62,0.209,0.147,1.64,2.3064,-2.1735,33.621,0.95679,0.02475,-0.01233,0.28946,-0.0693,0.0976,-9.7821,-0.7459,0.2361,-0.0633,0.2296,3,12,0.87,0.65,0.27,24.488,21.29,91.8,44.1,20193.0,7155,6965,6933,7246,57.7,60.5,63.7,61.3,2.596,2.689,2.742,2.847,6.4,83.1,36.2,66.9,1014.65,-27.93,-0.74,1.68,34.1,48.5,39.9,0,no_anomaly,0.0,0,0,0,0,13.0827147,80.2707007,5.0,0.0
2024-12-24T14:32:07.200Z,MISSION_0033,72,0,takeoff,SITE_CHE_004,13.0827121,80.270701,5.0,33.86,0.0,0.194,1.35,-7.668,-1.1185,33.8604,0.95466,-0.06113,-0.02879,0.28992,-0.0057,0.0082,-9.7776,-0.411,-0.104,0.1684,0.1912,3,11,0.72,0.95,0.29,24.506,8.93,91.7,44.7,20173.0,7206,7036,6905,7259,61.5,60.5,59.7,63.6,2.724,2.727,2.676,2.885,6.88,88.6,36.3,66.0,1014.46,-25.49,-0.26,1.12,30.1,47.6,40.1,0,no_anomaly,0.0,0,0,0,0,13.0827121,80.270701,5.0,0.0
2024-12-24T14:32:07.300Z,MISSION_0033,73,0,takeoff,SITE_CHE_004,13.0827163,80.2706987,5.0,34.13,0.0,0.231,1.82,6.3369,-0.0096,34.1292,0.95451,0.05286,0.01614,0.29301,-0.2009,0.0267,-9.8091,-0.4165,0.6021,-0.1318,0.2339,3,18,0.78,0.94,0.32,24.513,21.82,91.6,44.4,20153.0,6976,7131,7097,6984,57.3,58.5,63.3,57.6,2.848,2.901,2.856,2.757,6.39,90.3,36.0,66.8,1014.44,-28.78,-1.66,1.73,29.7,44.2,35.9,0,no_anomaly,0.0,0,0,0,0,13.0827163,80.2706987,5.0,0.0
2024-12-24T14:32:07.400Z,MISSION_0033,74,0,takeoff,SITE_CHE_004,13.0827108,80.2707037,5.0,33.56,0.066,0.103,1.27,-2.8548,-2.7707,33.5596,0.95702,-0.01687,-0.03033,0.28794,-0.0249,0.0346,-9.858,0.3454,-0.0074,0.2161,0.2774,3,14,0.67,0.93,0.27,24.549,18.81,91.5,44.4,20133.0,7006,7107,7177,7220,62.5,58.7,60.4,64.3,2.851,2.756,2.52,2.804,6.38,91.7,35.9,66.6,1014.57,-28.44,-0.82,1.33,28.0,45.1,39.4,0,no_anomaly,0.0,0,0,0,0,13.0827108,80.2707037,5.0,0.0
2024-12-24T14:32:07.500Z,MISSION_0033,75,0,takeoff,SITE_CHE_004,13.0827088,80.2707066,5.0,36.26,0.066,0.12,1.23,0.2541,-2.532,36.263,0.9501,0.00898,-0.02031,0.31117,-0.3859,-0.0281,-9.8653,-0.1358,1.1518,0.0641,0.2102,3,16,0.71,0.89,0.23,24.639,14.24,91.4,44.0,20114.0,7302,6956,7147,7264,61.6,59.5,63.3,60.0,2.688,2.88,2.751,3.104,6.34,92.7,35.8,67.0,1014.56,-34.98,0.43,1.45,29.3,49.4,42.0,0,no_anomaly,0.0,0,0,0,0,13.0827088,80.2707066,5.0,0.0
2024-12-24T14:32:07.600Z,MISSION_0033,76,0,takeoff,SITE_CHE_004,13.0827036,80.2707112,5.0,37.0,0.0,0.224,1.31,-4.5183,-4.4867,36.9964,0.94736,-0.02494,-0.04959,0.31532,0.3811,0.0323,-9.8354,0.3566,-0.2439,-0.1108,0.0855,3,20,0.86,1.04,0.44,24.597,12.83,91.3,43.1,20094.0,6936,6892,6909,6882,61.5,61.4,59.9,61.5,2.748,2.942,2.924,3.028,6.72,93.2,36.0,66.5,1014.35,-27.44,0.3,1.55,32.6,44.1,37.1,0,no_anomaly,0.0,0,0,0,0,13.0827036,80.2707112,5.0,0.0
2024-12-24T14:32:07.700Z,MISSION_0033,77,0,takeoff,SITE_CHE_004,13.0827078,80.2707122,5.0,38.5,0.186,0.135,1.61,-2.6912,-3.1802,38.4995,0.94368,-0.01302,-0.03393,0.32885,0.2157,-0.0072,-9.7405,-0.5965,0.4553,0.271,0.3718,3,13,0.74,0.97,0.25,24.67,19.81,91.2,44.1,20074.0,7157,6985,7014,7039,59.6,62.6,60.3,63.0,2.766,2.845,2.996,2.705,6.73,93.5,36.3,66.3,1014.47,-27.11,1.73,1.55,34.1,46.9,38.7,0,no_anomaly,0.0,0,0,0,0,13.0827078,80.2707122,5.0,0.0
2024-12-24T14:32:07.800Z,MISSION_0033,78,0,takeoff,SITE_CHE_004,13.0827114,80.2707108,5.0,39.48,0.032,0.207,1.75,-5.6569,-2.2494,39.4768,0.94024,-0.03982,-0.03512,0.33634,-0.3159,-0.0104,-9.7974,-0.2311,0.8204,-0.6059,0.2019,3,20,0.64,0.96,0.28,24.56,16.62,91.2,44.1,20054.0,7120,7170,7174,7046,61.5,61.0,61.2,60.5,2.579,2.929,2.678,2.869,6.42,92.6,36.3,66.0,1014.3,-33.08,0.04,1.94,31.5,45.8,37.0,0,no_anomaly,0.0,0,0,0,0,13.0827114,80.2707108,5.0,0.0
2024-12-24T14:32:07.900Z,MISSION_0033,79,0,takeoff,SITE_CHE_004,13.0827132,80.2707113,5.0,38.69,0.024,0.126,1.94,-6.2379,-1.4692,38.685,0.94231,-0.04709,-0.0301,0.33004,-0.1411,-0.0136,-9.7783,0.2359,-0.4623,-0.2311,0.2431,3,13,0.76,0.91,0.24,24.485,15.12,91.1,44.0,20035.0,6825,7275,7019,7040,59.8,62.0,61.3,60.9,2.948,2.874,2.897,2.6,6.73,90.1,36.1,66.3,1014.59,-29.79,0.6,1.59,30.4,42.2,38.7,0,no_anomaly,0.0,0,0,0,0,13.0827132,80.2707113,5.0,0.0
2024-12-24T14:32:08.000Z,MISSION_0033,80,0,transit,SITE_CHE_004,13.0827073,80.2707166,5.5,35.48,0.0,0.094,2.02,-1.7534,-2.1583,35.4752,0.95227,-0.00883,-0.0226,0.30429,0.1259,-0.0382,-9.7847,0.2411,0.665,-0.1809,0.3016,3,20,0.78,0.99,0.41,24.541,17.72,91.0,44.0,20015.0,7088,6962,6946,6981,62.0,61.7,63.1,61.1,2.692,2.773,2.847,2.731,6.33,93.8,36.3,66.3,1014.93,-28.29,1.02,1.29,31.4,43.7,38.1,0,no_anomaly,0.0,0,0,0,0,13.0827073,80.2707166,5.5,0.0
2024-12-24T14:32:08.100Z,MISSION_0033,81,0,transit,SITE_CHE_004,13.0827034,80.2707153,6.0,33.31,0.0,0.122,1.74,-2.9785,-0.8419,33.3139,0.95774,-0.02279,-0.01449,0.28635,-0.0238,-0.0875,-9.8145,0.1608,-0.7217,0.5397,0.2291,3,14,0.8,0.96,0.21,24.593,11.88,90.9,44.9,19995.0,7339,7238,7305,7156,62.3,59.2,60.9,59.6,2.707,2.905,3.004,2.785,6.06,84.1,36.1,66.3,1014.35,-33.47,1.3,1.49,32.2,41.6,38.4,0,no_anomaly,0.0,0,0,0,0,13.0827034,80.2707153,6.0,0.0
2024-12-24T14:32:08.200Z,MISSION_0033,82,0,transit,SITE_CHE_004,13.0827029,80.2707153,6.5,33.88,0.041,0.148,1.73,-3.7266,0.3331,33.8797,0.95607,-0.03195,-0.00669,0.2913,0.1857,0.0382,-9.8348,-0.8299,0.1463,0.3284,0.2453,3,11,0.57,0.78,0.26,24.539,18.95,90.8,44.3,19975.0,6903,7002,6901,7052,60.3,62.9,62.1,62.3,2.537,2.634,2.808,2.607,7.02,89.4,36.1,66.1,1014.63,-31.18,0.48,1.65,32.0,48.2,37.6,0,no_anomaly,0.0,0,0,0,0,13.0827029,80.2707153,6.5,0.0
2024-12-24T14:32:08.300Z,MISSION_0033,83,0,transit,SITE_CHE_004,13.082704,80.2707115,7.0,32.84,0.0,0.082,1.35,1.8945,-1.133,32.8393,0.95899,0.01865,-0.00481,0.28278,-0.1139,0.0271,-9.8373,-0.2503,0.0054,0.5653,0.1938,3,10,0.79,0.93,0.33,24.457,19.49,90.7,44.1,19956.0,7157,7226,7306,7194,63.5,60.3,63.0,57.8,2.795,2.759,2.648,2.918,5.77,91.9,36.2,66.4,1014.44,-32.34,0.4,1.76,30.0,50.6,39.1,0,no_anomaly,0.0,0,0,0,0,13.082704,80.2707115,7.0,0.0
2024-12-24T14:32:08.400Z,MISSION_0033,84,0,transit,SITE_CHE_004,13.0827064,80.2707127,7.5,33.45,0.146,-0.028,1.58,-0.1483,-1.9898,33.4478,0.95756,0.00376,-0.017,0.2877,-0.0143,-0.0259,-9.7766,0.2966,-0.6197,-0.0911,0.2264,3,20,0.62,0.86,0.22,24.575,17.7,90.6,44.1,19936.0,7302,7021,7244,7141,65.2,61.4,62.9,59.3,2.756,2.815,3.203,2.776,7.68,94.8,35.9,67.4,1015.02,-34.49,0.04,1.71,31.0,41.7,38.1,0,no_anomaly,0.0,0,0,0,0,13.0827064,80.2707127,7.5,0.0
2024-12-24T14:32:08.500Z,MISSION_0033,85,0,transit,SITE_CHE_004,13.0827063,80.2707121,8.0,31.38,0.711,0.204,1.52,-2.6485,-3.6898,31.3806,0.96218,-0.01353,-0.03723,0.26951,-0.2096,-0.0174,-9.7897,-0.6115,-0.0286,-0.2522,0.1408,3,20,0.7,0.84,0.35,24.536,21.84,90.5,44.6,19916.0,7164,7188,7200,7388,61.8,66.3,64.2,59.2,2.835,2.75,2.829,2.859,6.86,84.2,35.9,66.7,1014.29,-31.91,-1.19,1.49,31.5,49.0,37.7,0,no_anomaly,0.0,0,0,0,0,13.0827063,80.2707121,8.0,0.0
2024-12-24T14:32:08.600Z,MISSION_0033,86,0,transit,SITE_CHE_004,13.0827037,80.2707137,8.5,30.61,0.533,-0.002,1.58,0.7314,-1.4466,30.6145,0.96441,0.00949,-0.01049,0.26405,0.1191,0.0464,-9.8587,-0.1091,-0.2721,0.0963,0.2715,3,11,0.76,1.21,0.26,24.638,21.2,90.4,45.5,19896.0,7136,7281,7200,7162,63.0,58.7,62.3,60.7,2.851,2.853,2.946,2.725,6.41,85.6,36.3,66.6,1014.26,-31.08,0.86,1.6,27.5,46.3,36.6,0,no_anomaly,0.0,0,0,0,0,13.0827037,80.2707137,8.5,0.0
2024-12-24T14:32:08.700Z,MISSION_0033,87,0,transit,SITE_CHE_004,13.0827039,80.2707133,9.0,31.76,0.713,0.035,1.54,1.5716,-1.7939,31.7647,0.96156,0.01747,-0.0113,0.27381,-0.3008,-0.0586,-9.7619,0.0204,-0.096,-0.7244,0.2776,3,11,0.85,1.37,0.36,24.475,17.61,90.3,44.2,19876.0,7181,7034,7212,7143,64.2,61.7,62.7,63.6,2.72,2.767,2.882,2.806,5.79,86.3,36.0,66.6,1014.58,-32.22,-0.62,1.66,33.7,48.8,40.5,0,no_anomaly,0.0,0,0,0,0,13.0827039,80.2707133,9.0,0.0
2024-12-24T14:32:08.800Z,MISSION_0033,88,0,transit,SITE_CHE_004,13.0826988,80.2707149,9.5,28.21,0.529,0.092,1.66,-3.3055,-3.6726,28.2139,0.96917,-0.02015,-0.03809,0.24261,-0.024,0.1022,-9.8012,0.2263,0.482,-0.0425,0.2153,3,17,0.6,0.99,0.24,24.605,20.94,90.3,44.2,19857.0,7260,6925,7043,7194,61.5,62.9,64.9,61.2,2.723,2.87,2.92,2.898,6.4,77.9,36.2,67.2,1014.24,-28.04,-0.86,2.01,28.7,48.6,37.1,0,no_anomaly,0.0,0,0,0,0,13.0826988,80.2707149,9.5,0.0
2024-12-24T14:32:08.900Z,MISSION_0033,89,0,transit,SITE_CHE_004,13.0827036,80.2707168,10.0,27.67,0.751,0.104,1.91,4.1406,-3.0797,27.6708,0.96977,0.04149,-0.01744,0.23983,-0.2056,-0.0373,-9.7801,0.1733,-0.0167,-0.0941,0.3082,3,11,0.73,0.9,0.31,24.587,14.97,90.2,45.0,19837.0,7125,7260,7338,6915,58.1,59.6,61.8,59.9,2.658,3.116,2.549,2.897,5.7,83.1,36.2,66.7,1014.53,-28.06,-2.51,1.0,31.3,42.8,39.7,0,no_anomaly,0.0,0,0,0,0,13.0827036,80.2707168,10.0,0.0
2024-12-24T14:32:09.000Z,MISSION_0033,90,0,transit,SITE_CHE_004,13.0827004,80.2707113,10.5,29.68,0.941,0.134,1.26,2.9422,-2.5265,29.6754,0.96596,0.03045,-0.01473,0.25648,-0.0829,0.0164,-9.8797,0.5657,-0.3889,-0.3878,0.2718,3,14,0.74,0.84,0.2,24.533,17.39,90.1,44.5,19817.0,7181,6946,7170,6925,64.4,61.1,59.9,59.5,2.932,2.846,2.722,2.969,6.57,87.3,36.2,66.4,1014.68,-32.48,-1.88,1.72,31.2,51.6,37.3,0,no_anomaly,0.0,0,0,0,0,13.0827004,80.2707113,10.5,0.0
2024-12-24T14:32:09.100Z,MISSION_0033,91,0,transit,SITE_CHE_004,13.0827031,80.2707141,11.0,29.66,0.685,0.131,1.61,3.5632,-0.6419,29.6613,0.96616,0.03149,0.00255,0.256,-0.0675,0.0921,-9.8353,-0.2801,-1.0278,0.4459,0.1666,3,14,0.8,0.74,0.21,24.537,14.58,90.0,43.6,19797.0,7216,7173,7025,7350,61.5,59.9,59.9,61.1,2.815,2.752,2.649,3.118,6.99,86.4,36.3,67.3,1014.64,-37.02,1.44,1.76,32.7,51.6,37.6,0,no_anomaly,0.0,0,0,0,0,13.0827031,80.2707141,11.0,0.0
2024-12-24T14:32:09.200Z,MISSION_0033,92,0,transit,SITE_CHE_004,13.0827047,80.2707178,11.5,30.71,1.036,0.131,2.05,-2.0646,-4.3038,30.709,0.96365,-0.00742,-0.04097,0.26391,0.2021,0.0184,-9.8145,0.3623,-0.7993,0.2181,0.222,3,19,0.71,0.77,0.27,24.414,15.97,89.9,44.3,19778.0,7049,7202,7149,7133,63.0,62.1,61.1,61.0,3.091,2.898,2.754,2.915,6.61,92.3,36.1,66.1,1014.12,-27.77,-0.57,1.19,30.9,45.6,39.6,0,no_anomaly,0.0,0,0,0,0,13.0827047,80.2707178,11.5,0.0
2024-12-24T14:32:09.300Z,MISSION_0033,93,0,transit,SITE_CHE_004,13.0827062,80.2707169,12.0,32.07,0.92,0.105,2.01,0.7488,-2.411,32.073,0.96081,0.01209,-0.01841,0.27632,-0.1072,-0.0345,-9.7668,-0.2418,0.48,0.4035,0.269,3,16,0.9,0.85,0.42,24.612,14.26,89.8,44.7,19758.0,7218,7192,7229,7083,62.5,58.5,60.9,59.9,2.891,2.991,2.658,2.584,5.92,91.2,36.5,66.1,1014.48,-27.44,0.01,1.26,34.6,46.6,37.9,0,no_anomaly,0.0,0,0,0,0,13.0827062,80.2707169,12.0,0.0
2024-12-24T14:32:09.400Z,MISSION_0033,94,0,transit,SITE_CHE_004,13.0827082,80.2707194,12.5,33.07,0.85,0.08,2.34,5.0131,0.1556,33.0665,0.95775,0.04154,0.01375,0.28424,0.1226,0.0653,-9.8172,-0.2938,0.2879,0.0218,0.3175,3,18,0.72,0.9,0.39,24.57,23.67,89.7,45.0,19738.0,7140,7326,7134,7324,60.1,65.4,59.7,59.7,2.739,2.718,2.787,2.785,6.13,89.9,36.1,66.1,1014.4,-28.0,-0.33,1.28,31.3,43.8,39.4,0,no_anomaly,0.0,0,0,0,0,13.0827082,80.2707194,12.5,0.0
2024-12-24T14:32:09.500Z,MISSION_0033,95,0,transit,SITE_CHE_004,13.0827102,80.2707237,13.0,32.56,1.282,0.054,2.88,2.5627,-3.1767,32.5573,0.95913,0.02923,-0.02033,0.28073,0.0843,-0.0537,-9.8282,1.017,-0.6292,0.5636,0.0858,3,19,0.82,0.95,0.36,24.421,15.93,89.6,45.0,19718.0,7045,7281,7082,7246,60.9,56.7,62.0,64.0,2.883,2.747,2.861,2.834,6.7,93.0,36.1,66.6,1014.36,-30.18,0.36,1.52,30.1,42.0,40.4,0,no_anomaly,0.0,0,0,0,0,13.0827102,80.2707237,13.0,0.0
2024-12-24T14:32:09.600Z,MISSION_0033,96,0,transit,SITE_CHE_004,13.0827111,80.2707224,13.5,31.11,0.783,0.044,2.79,2.5551,-2.2162,31.1072,0.96284,0.02666,-0.01265,0.26844,-0.013,0.0155,-9.7841,-0.1819,0.1389,0.356,0.2437,3,20,0.84,1.0,0.34,24.638,20.44,89.5,44.7,19699.0,7216,7139,7353,7412,60.9,61.0,62.9,67.0,2.961,3.203,2.627,2.655,6.55,90.5,35.7,66.7,1014.57,-29.25,0.48,1.67,31.7,41.6,36.1,0,no_anomaly,0.0,0,0,0,0,13.0827111,80.2707224,13.5,0.0
2024-12-24T14:32:09.700Z,MISSION_0033,97,0,transit,SITE_CHE_004,13.0827121,80.2707222,14.0,31.31,1.295,0.075,2.81,0.5687,-2.9963,31.3112,0.96253,0.01183,-0.02384,0.26988,0.0612,-0.0383,-9.7512,-0.1018,-0.1044,0.1812,0.2488,3,20,0.72,0.97,0.39,24.641,17.31,89.4,44.1,19679.0,7192,7302,6997,7396,59.6,61.5,58.3,64.9,2.72,2.76,2.905,2.706,6.22,86.7,36.3,65.7,1014.36,-25.67,-0.58,1.47,33.4,51.3,36.7,0,no_anomaly,0.0,0,0,0,0,13.0827121,80.2707222,14.0,0.0
2024-12-24T14:32:09.800Z,MISSION_0033,98,0,transit,SITE_CHE_004,13.0827113,80.2707242,14.5,33.69,0.851,0.059,2.98,-2.5757,-0.9952,33.6853,0.95688,-0.01899,-0.01482,0.28947,0.2639,0.0767,-9.8428,0.8594,0.2012,0.2814,0.1939,3,10,0.55,0.92,0.2,24.546,21.81,89.4,44.0,19659.0,7098,7072,7407,7081,62.5,61.1,61.6,62.4,2.901,2.575,2.743,2.796,6.53,87.0,36.0,67.0,1014.51,-32.41,0.64,1.1,33.2,43.1,38.5,0,no_anomaly,0.0,0,0,0,0,13.0827113,80.2707242,14.5,0.0
2024-12-24T14:32:09.900Z,MISSION_0033,99,0,transit,SITE_CHE_004,13.0827117,80.2707248,15.0,35.27,1.129,0.059,3.05,-2.9225,-0.7244,35.2697,0.95273,-0.02239,-0.01375,0.30269,-0.0682,-0.0609,-9.8622,1.3031,-0.2227,-0.6182,0.2544,3,16,0.77,0.96,0.2,24.558,19.27,89.3,43.6,19639.0,7383,7314,7495,7287,60.7,61.3,61.7,62.4,3.01,2.68,3.071,3.053,6.26,83.6,36.4,67.1,1014.51,-34.14,-0.46,1.46,31.1,43.7,37.0,0,no_anomaly,0.0,0,0,0,0,13.0827117,80.2707248,15.0,0.0
2024-12-24T14:32:10.000Z,MISSION_0033,100,0,transit,SITE_CHE_004,13.082715,80.2707276,15.2,38.19,1.206,0.057,3.5,0.7377,-0.4427,38.1906,0.94494,0.00735,-0.00154,0.32716,0.0021,-0.0645,-9.8761,-0.675,0.2873,-0.0416,0.2761,3,10,0.63,1.17,0.2,24.533,20.81,89.2,44.7,19620.0,7196,7012,7173,7209,58.5,61.4,65.3,60.1,2.762,2.529,2.721,2.769,6.37,81.3,35.8,67.5,1014.35,-31.8,1.26,1.17,29.2,41.6,38.7,0,no_anomaly,0.0,0,0,0,0,13.082715,80.2707276,15.2,0.0
2024-12-24T14:32:10.100Z,MISSION_0033,101,0,transit,SITE_CHE_004,13.0827157,80.2707323,15.2,35.39,0.615,0.127,3.99,1.8595,1.8036,35.393,0.95251,0.01067,0.01992,0.30365,0.0487,0.0269,-9.8271,0.0887,-0.383,-0.1277,0.1879,3,16,0.65,0.95,0.31,24.617,20.4,89.1,44.4,19600.0,7066,7314,7246,7058,64.1,63.2,63.2,59.3,2.883,2.82,2.743,2.493,7.41,96.3,36.0,66.2,1014.76,-32.59,-0.99,1.86,28.0,46.1,35.3,0,no_anomaly,0.0,0,0,0,0,13.0827157,80.2707323,15.2,0.0
2024-12-24T14:32:10.200Z,MISSION_0033,102,0,transit,SITE_CHE_004,13.0827128,80.2707343,15.2,36.09,0.252,0.113,4.07,-4.7795,-3.546,36.0876,0.94994,-0.03005,-0.0423,0.3081,-0.2168,0.028,-9.8114,0.6477,-0.3921,0.2186,0.2506,3,12,0.52,1.14,0.24,24.518,18.04,89.0,45.1,19580.0,7261,7412,7396,7128,58.6,62.1,65.5,61.6,2.848,3.006,2.792,3.088,6.37,88.2,36.1,66.5,1014.67,-29.89,-1.89,1.0,32.1,50.9,41.1,0,no_anomaly,0.0,0,0,0,0,13.0827128,80.2707343,15.2,0.0
2024-12-24T14:32:10.300Z,MISSION_0033,103,0,transit,SITE_CHE_004,13.0827166,80.2707357,15.2,37.16,0.321,0.065,4.39,2.6607,-2.172,37.16,0.94731,0.02804,-0.01056,0.3189,-0.0745,0.0463,-9.8124,0.9526,-0.134,0.161,0.2159,3,15,0.7,0.64,0.31,24.402,20.43,88.9,43.9,19560.0,7045,7258,7225,7310,60.9,61.2,58.2,61.3,2.896,2.74,2.882,2.836,7.47,87.7,36.1,66.0,1014.56,-28.45,-2.01,1.29,28.1,41.6,39.0,0,no_anomaly,0.0,0,0,0,0,13.0827166,80.2707357,15.2,0.0
2024-12-24T14:32:10.400Z,MISSION_0033,104,0,transit,SITE_CHE_004,13.0827104,80.2707383,15.2,37.87,0.586,0.022,4.42,-1.0369,-6.1891,37.8689,0.94463,0.00897,-0.05399,0.32354,0.0761,0.063,-9.8066,0.6486,0.3803,-0.4474,0.2778,3,10,0.67,1.17,0.32,24.537,13.61,88.8,44.4,19541.0,7123,7058,7292,7319,62.2,62.7,62.1,62.0,2.908,2.596,3.146,3.064,6.32,87.6,36.2,66.6,1014.31,-25.63,-0.37,1.79,30.5,49.8,39.7,0,no_anomaly,0.0,0,0,0,0,13.0827104,80.2707383,15.2,0.0
2024-12-24T14:32:10.500Z,MISSION_0033,105,0,transit,SITE_CHE_004,13.0827109,80.2707413,15.2,40.68,1.054,0.12,4.76,-1.1059,-3.1463,40.6789,0.93734,0.0005,-0.02909,0.34719,-0.1893,-0.0943,-9.7986,-0.2822,0.197,0.3299,0.2339,3,16,0.65,0.85,0.21,24.523,15.13,88.7,44.2,19521.0,7425,6942,7103,7367,56.6,63.6,62.1,63.5,2.858,2.755,2.71,2.723,6.33,90.1,36.0,66.0,1014.37,-33.43,1.58,1.6,31.1,42.8,39.5,0,no_anomaly,0.0,0,0,0,0,13.0827109,80.2707413,15.2,0.0
2024-12-24T14:32:10.600Z,MISSION_0033,106,0,transit,SITE_CHE_004,13.0827145,80.2707426,15.2,42.29,1.245,0.112,5.02,0.8385,-1.8416,42.2878,0.93249,0.01262,-0.01235,0.36077,0.1081,0.0263,-9.7855,0.7393,0.208,-0.0004,0.2518,3,14,0.79,0.77,0.35,24.507,20.11,88.6,45.5,19501.0,7103,6998,7145,7074,65.3,61.3,60.8,63.7,2.748,3.059,2.817,2.766,6.63,93.7,36.3,66.3,1014.49,-26.01,1.86,1.81,28.4,48.7,40.1,0,no_anomaly,0.0,0,0,0,0,13.0827145,80.2707426,15.2,0.0
2024-12-24T14:32:10.700Z,MISSION_0033,107,0,transit,SITE_CHE_004,13.0827111,80.2707382,15.2,42.66,1.242,0.067,4.42,5.119,-1.0534,42.6609,0.93038,0.04494,0.00769,0.36375,-0.0147,-0.0463,-9.8889,-0.9272,0.1749,0.0984,0.2996,3,10,0.53,0.77,0.24,24.548,19.22,88.6,44.8,19481.0,7241,7004,7187,7079,61.1,59.0,62.7,63.2,2.776,2.881,2.599,2.528,6.95,95.4,36.3,66.4,1014.76,-31.1,0.29,1.39,28.4,45.2,40.1,0,no_anomaly,0.0,0,0,0,0,13.0827111,80.2707382,15.2,0.0
2024-12-24T14:32:10.800Z,MISSION_0033,108,0,transit,SITE_CHE_004,13.0827059,80.2707331,15.2,43.58,1.206,0.059,3.74,-1.4129,-2.634,43.582,0.92833,-0.00291,-0.02592,0.37083,0.0384,0.0881,-9.7144,-0.5407,0.0696,-0.4468,0.1856,3,14,0.79,1.06,0.2,24.561,20.39,88.5,43.2,19461.0,7265,7435,7071,7048,62.1,58.2,61.3,59.0,3.078,3.074,2.871,2.771,6.46,100.2,36.2,66.5,1014.14,-29.28,1.87,1.56,26.9,42.8,38.3,0,no_anomaly,0.0,0,0,0,0,13.0827059,80.2707331,15.2,0.0
2024-12-24T14:32:10.900Z,MISSION_0033,109,0,transit,SITE_CHE_004,13.0827071,80.2707323,15.2,45.23,1.545,0.053,3.68,2.0314,-4.4857,45.2307,0.92199,0.0314,-0.02931,0.38483,0.3801,-0.0444,-9.7635,-0.6318,-0.0364,-0.0332,0.2299,3,10,0.64,0.87,0.23,24.428,15.16,88.4,44.2,19442.0,6980,7146,6993,7240,62.2,61.7,55.5,65.3,2.8,2.765,3.016,2.801,5.89,93.1,36.3,66.7,1014.17,-36.2,-0.66,1.67,32.0,49.6,41.1,0,no_anomaly,0.0,0,0,0,0,13.0827071,80.2707323,15.2,0.0
2024-12-24T14:32:11.000Z,MISSION_0033,110,0,transit,SITE_CHE_004,13.0827095,80.2707303,15.2,44.34,1.573,0.125,3.54,-0.879,-3.8821,44.3423,0.9256,0.00568,-0.03426,0.37691,-0.0273,0.0008,-9.8004,-0.2222,-0.0704,-0.386,0.1909,3,20,0.66,0.86,0.34,24.492,19.36,88.3,44.2,19422.0,7366,6862,7321,7109,62.0,60.7,61.0,58.3,2.415,2.752,2.721,2.902,6.42,87.5,36.2,65.7,1014.55,-32.42,0.79,1.32,34.5,47.3,37.4,0,no_anomaly,0.0,0,0,0,0,13.0827095,80.2707303,15.2,0.0
2024-12-24T14:32:11.100Z,MISSION_0033,111,0,transit,SITE_CHE_004,13.0827098,80.2707324,15.2,45.23,1.718,0.144,3.77,0.0783,-1.3543,45.2336,0.92303,0.00518,-0.01065,0.38455,-0.0197,-0.0246,-9.8258,0.5913,-0.4037,-0.0268,0.2067,3,16,0.61,0.84,0.2,24.436,18.26,88.2,44.3,19402.0,7065,7100,7266,6990,61.0,60.5,59.2,65.9,2.994,2.753,2.942,2.877,6.45,87.5,36.6,67.1,1014.47,-27.54,0.28,1.02,30.5,43.0,37.1,0,no_anomaly,0.0,0,0,0,0,13.0827098,80.2707324,15.2,0.0
2024-12-24T14:32:11.200Z,MISSION_0033,112,0,transit,SITE_CHE_004,13.0827068,80.2707327,15.2,44.17,1.145,0.152,3.71,-1.5493,-2.0177,44.1734,0.92648,-0.00591,-0.0214,0.3757,-0.0743,-0.0056,-9.775,-0.2095,-0.5006,-0.8118,0.1527,3,17,0.73,0.92,0.33,24.464,16.58,88.1,44.7,19382.0,7062,6938,6803,6955,64.6,59.6,60.1,60.4,2.757,2.67,2.893,2.852,6.28,84.2,36.2,66.3,1014.53,-28.96,0.81,1.0,33.7,44.1,37.4,0,no_anomaly,0.0,0,0,0,0,13.0827068,80.2707327,15.2,0.0
2024-12-24T14:32:11.300Z,MISSION_0033,113,0,transit,SITE_CHE_004,13.0827013,80.2707349,15.2,44.08,0.524,0.129,3.89,-2.4655,-1.8273,44.0816,0.92671,-0.01396,-0.02285,0.37481,0.2884,0.0387,-9.8258,0.5986,0.7203,-0.0642,0.2426,3,20,0.78,0.89,0.36,24.449,13.34,88.0,44.6,19363.0,7067,7032,7212,7057,63.0,63.9,61.6,61.4,3.082,2.979,2.866,2.763,6.27,93.1,36.2,65.9,1014.5,-28.34,0.61,1.56,32.3,42.3,40.5,0,no_anomaly,0.0,0,0,0,0,13.0827013,80.2707349,15.2,0.0
2024-12-24T14:32:11.400Z,MISSION_0033,114,0,transit,SITE_CHE_004,13.0826978,80.2707355,15.2,43.51,0.456,0.154,3.96,1.8573,-2.4574,43.5121,0.92831,0.023,-0.01391,0.37084,0.111,0.0586,-9.834,-0.5574,-0.4256,-0.0666,0.3261,3,15,0.58,0.85,0.2,24.45,23.67,87.9,43.7,19343.0,7046,7443,7171,7085,60.5,58.2,63.6,58.6,2.744,2.727,3.082,2.953,5.98,94.9,35.8,66.1,1014.53,-29.34,0.24,2.08,29.4,40.8,37.7,0,no_anomaly,0.0,0,0,0,0,13.0826978,80.2707355,15.2,0.0
2024-12-24T14:32:11.500Z,MISSION_0033,115,0,transit,SITE_CHE_004,13.0826988,80.2707287,15.2,44.5,0.0,0.063,3.2,-1.5862,-2.2762,44.4965,0.92538,-0.00529,-0.02362,0.37826,0.1626,-0.0208,-9.8619,0.0108,-0.7237,0.2446,0.2811,3,13,0.7,0.9,0.31,24.452,21.06,87.8,44.7,19323.0,7081,7062,7459,7289,60.5,60.4,64.8,59.6,2.749,2.991,2.915,2.714,6.79,85.7,36.0,66.4,1014.46,-29.39,-0.52,1.32,32.3,41.4,38.2,0,no_anomaly,0.0,0,0,0,0,13.0826988,80.2707287,15.2,0.0
2024-12-24T14:32:11.600Z,MISSION_0033,116,0,transit,SITE_CHE_004,13.0827038,80.2707251,15.2,43.75,0.394,0.17,2.83,4.4418,-3.2908,43.7483,0.92651,0.04664,-0.01219,0.37317,0.2206,0.0287,-9.8325,0.0401,0.0055,0.3192,0.237,3,11,0.68,1.05,0.25,24.491,13.91,87.7,44.2,19303.0,6937,7366,7237,7244,57.5,60.6,66.4,58.6,2.825,3.049,2.839,2.61,6.58,88.8,36.0,66.2,1014.47,-30.83,0.1,1.17,32.0,42.4,40.4,0,no_anomaly,0.0,0,0,0,0,13.0827038,80.2707251,15.2,0.0
2024-12-24T14:32:11.700Z,MISSION_0033,117,0,transit,SITE_CHE_004,13.0827026,80.2707209,15.2,47.55,0.721,0.095,2.34,1.429,-0.5696,47.5476,0.91504,0.01342,0.00048,0.40315,-0.2575,-0.0665,-9.7606,-0.3493,0.1783,0.1553,0.2121,3,14,0.82,1.19,0.21,24.539,14.55,87.7,45.3,19284.0,7086,7409,7090,7225,63.0,60.6,61.9,61.5,2.933,2.819,2.861,2.745,6.7,89.6,36.3,66.4,1014.43,-30.35,-0.99,1.52,32.5,46.6,38.5,0,no_anomaly,0.0,0,0,0,0,13.0827026,80.2707209,15.2,0.0
2024-12-24T14:32:11.800Z,MISSION_0033,118,0,transit,SITE_CHE_004,13.0827038,80.2707192,15.2,50.72,0.838,0.031,2.18,2.3935,-3.0728,50.7242,0.90286,0.03035,-0.01528,0.4286,0.3533,0.1177,-9.8414,0.3127,-0.3596,-0.1584,0.2183,3,11,0.65,0.85,0.28,24.436,11.93,87.6,44.3,19264.0,7474,7259,7017,7161,58.8,61.8,63.4,61.4,2.836,2.753,2.711,2.73,7.88,81.1,36.3,66.6,1014.19,-27.87,-1.45,1.46,30.6,44.9,39.0,0,no_anomaly,0.0,0,0,0,0,13.0827038,80.2707192,15.2,0.0
2024-12-24T14:32:11.900Z,MISSION_0033,119,0,transit,SITE_CHE_004,13.0827021,80.2707184,15.2,50.63,0.484,0.021,2.06,2.8857,-1.0409,50.6277,0.90356,0.02664,0.00256,0.42763,0.0397,-0.0796,-9.8709,0.946,-1.1401,0.2453,0.2536,3,13,0.5,0.96,0.22,24.469,16.53,87.5,44.0,19244.0,7090,6945,7097,6945,61.0,60.0,63.2,62.3,2.813,2.695,2.522,2.558,6.81,89.1,36.3,67.1,1014.71,-29.25,0.36,1.56,32.8,44.6,37.0,0,no_anomaly,0.0,0,0,0,0,13.0827021,80.2707184,15.2,0.0
2024-12-24T14:32:12.000Z,MISSION_0033,120,0,transit,SITE_CHE_004,13.0827063,80.2707149,15.2,53.07,1.075,0.118,1.8,-5.104,-2.5838,53.0729,0.89398,-0.02976,-0.04004,0.44531,-0.335,-0.0641,-9.7645,0.4188,-0.5968,0.2375,0.2852,3,18,0.8,0.92,0.34,24.428,19.3,87.4,44.7,19224.0,7222,6990,7060,7117,63.8,61.9,61.6,57.2,2.872,3.02,3.06,2.746,6.81,84.0,36.1,66.3,1014.56,-29.32,-0.67,1.31,33.5,45.6,39.8,0,no_anomaly,0.0,0,0,0,0,13.0827063,80.2707149,15.2,0.0
2024-12-24T14:32:12.100Z,MISSION_0033,121,0,transit,SITE_CHE_004,13.082708,80.2707186,15.2,54.51,0.565,0.084,2.25,-3.4183,-0.5852,54.5061,0.88866,-0.02418,-0.0182,0.45758,-0.1047,0.0275,-9.8749,0.1517,0.0868,0.0154,0.2248,3,11,0.91,1.01,0.43,24.494,21.72,87.3,43.9,19205.0,7176,7196,7099,7040,61.0,61.1,59.5,63.7,2.864,2.916,2.601,2.682,6.73,93.1,36.3,66.1,1014.47,-34.59,-0.25,1.69,28.7,40.9,39.0,0,no_anomaly,0.0,0,0,0,0,13.082708,80.2707186,15.2,0.0
2024-12-24T14:32:12.200Z,MISSION_0033,122,0,transit,SITE_CHE_004,13.0827018,80.2707219,15.2,54.5,0.494,0.12,2.45,3.5723,-1.3139,54.5046,0.88834,0.03296,0.00408,0.45797,-0.0135,0.0833,-9.8052,0.1274,0.231,0.301,0.1977,3,18,0.72,1.03,0.35,24.505,20.16,87.2,44.7,19185.0,7267,7241,7322,7195,64.4,61.3,62.1,59.5,2.678,2.798,2.884,2.76,6.25,96.8,36.1,66.6,1014.41,-30.92,1.24,1.5,29.2,45.7,39.6,0,no_anomaly,0.0,0,0,0,0,13.0827018,80.2707219,15.2,0.0
2024-12-24T14:32:12.300Z,MISSION_0033,123,0,transit,SITE_CHE_004,13.0827089,80.2707202,15.2,54.47,0.507,0.137,2.46,2.6719,-0.5918,54.4742,0.88881,0.02309,0.00608,0.45765,0.0247,0.0525,-9.8502,-0.0605,-0.4708,0.2101,0.3589,3,10,0.54,0.7,0.2,24.511,19.36,87.1,45.7,19165.0,7455,7190,7194,7007,59.8,63.1,63.1,60.4,2.819,2.867,2.605,3.116,7.67,94.6,36.4,66.0,1014.57,-35.15,-0.49,1.31,27.9,45.1,39.9,0,no_anomaly,0.0,0,0,0,0,13.0827089,80.2707202,15.2,0.0
2024-12-24T14:32:12.400Z,MISSION_0033,124,0,transit,SITE_CHE_004,13.0827122,80.2707169,15.2,53.89,0.686,0.108,2.33,0.0125,-0.4076,53.8876,0.89145,0.00171,-0.00312,0.45311,-0.2516,0.0638,-9.9071,0.0921,0.3259,-0.27,0.2102,3,11,0.7,1.15,0.27,24.507,18.06,87.0,45.3,19145.0,7404,7163,7028,7165,58.6,63.1,59.4,60.7,2.808,3.149,2.741,2.921,5.88,93.9,36.4,65.4,1014.71,-35.77,-2.26,1.68,32.4,44.1,41.6,0,no_anomaly,0.0,0,0,0,0,13.0827122,80.2707169,15.2,0.0
2024-12-24T14:32:12.500Z,MISSION_0033,125,0,transit,SITE_CHE_004,13.0827169,80.2707206,15.2,55.3,1.161,0.149,2.97,-0.4863,-0.0328,55.3033,0.88578,-0.00363,-0.00222,0.46409,-0.328,-0.021,-9.807,-0.7112,-0.4821,0.0948,0.1671,3,14,0.9,0.6,0.2,24.437,18.13,86.9,45.1,19126.0,7182,7291,7394,6913,57.4,60.5,59.4,61.9,2.7,2.639,2.803,2.791,6.09,80.8,36.2,66.4,1014.72,-31.27,0.06,1.45,35.8,46.0,42.2,0,no_anomaly,0.0,0,0,0,0,13.0827169,80.2707206,15.2,0.0
2024-12-24T14:32:12.600Z,MISSION_0033,126,0,transit,SITE_CHE_004,13.082713,80.2707171,15.2,55.32,1.61,0.079,2.39,-2.762,-1.886,55.3219,0.88552,-0.01371,-0.02576,0.46369,0.2546,0.0554,-9.6854,-1.1238,-0.0377,0.0976,0.3906,3,11,0.75,0.77,0.32,24.413,21.5,86.8,44.3,19106.0,7260,7213,6842,7084,64.2,59.8,60.5,62.2,3.21,2.893,2.698,2.969,5.54,96.8,36.1,67.2,1014.38,-28.02,-0.03,1.8,29.8,39.2,36.8,0,no_anomaly,0.0,0,0,0,0,13.082713,80.2707171,15.2,0.0
2024-12-24T14:32:12.700Z,MISSION_0033,127,0,transit,SITE_CHE_004,13.0827109,80.2707153,15.2,56.89,1.713,0.18,2.09,-1.0598,-1.3362,56.8882,0.87924,-0.00258,-0.01466,0.47615,0.4946,0.0188,-9.7926,-0.2637,-0.4466,-0.2313,0.0852,3,12,0.63,0.79,0.22,24.483,15.14,86.8,44.3,19086.0,7189,7094,7052,7034,65.7,65.1,62.9,60.7,2.635,2.645,2.515,2.71,6.12,86.5,36.2,66.4,1014.36,-29.58,-0.31,1.35,34.9,50.5,37.7,0,no_anomaly,0.0,0,0,0,0,13.0827109,80.2707153,15.2,0.0
2024-12-24T14:32:12.800Z,MISSION_0033,128,0,transit,SITE_CHE_004,13.0827142,80.2707106,15.2,55.4,1.119,0.117,1.97,1.7544,-4.3498,55.398,0.88439,0.03118,-0.02649,0.46495,-0.3046,-0.0153,-9.8135,0.1386,0.7491,0.044,0.1796,3,18,0.75,0.74,0.22,24.456,17.41,86.7,44.1,19066.0,7102,7094,7349,7236,60.1,58.0,66.2,61.2,2.432,2.634,2.866,2.886,5.88,82.9,36.1,66.2,1014.8,-28.79,-1.23,2.0,28.2,40.5,36.5,0,no_anomaly,0.0,0,0,0,0,13.0827142,80.2707106,15.2,0.0
2024-12-24T14:32:12.900Z,MISSION_0033,129,0,transit,SITE_CHE_004,13.0827097,80.2707131,15.2,57.29,1.255,0.081,1.81,3.9566,-1.6448,57.292,0.87675,0.03717,0.00396,0.4795,0.3472,-0.0282,-9.795,0.0717,0.792,-0.1445,0.2253,3,16,0.69,1.06,0.47,24.451,17.26,86.6,45.3,19046.0,7289,7479,7189,7142,61.8,63.1,63.5,60.8,2.897,2.615,2.634,2.764,6.47,85.4,36.5,66.7,1014.73,-29.26,0.2,1.36,31.4,46.8,37.3,0,no_anomaly,0.0,0,0,0,0,13.0827097,80.2707131,15.2,0.0
2024-12-24T14:32:13.000Z,MISSION_0033,130,0,transit,SITE_CHE_004,13.0827092,80.2707123,15.2,56.47,1.738,0.179,1.71,1.3802,0.2358,56.4655,0.88098,0.00964,0.00751,0.473,-0.143,0.1151,-9.8334,0.8494,-0.1546,0.0626,0.2664,3,20,0.67,0.82,0.3,24.525,14.79,86.5,44.2,19027.0,7283,7194,7225,7040,64.2,60.0,64.4,62.2,2.759,2.553,2.589,2.938,6.57,95.2,36.1,66.1,1014.58,-32.07,-1.47,1.94,32.7,45.6,38.5,0,no_anomaly,0.0,0,0,0,0,13.0827092,80.2707123,15.2,0.0
