timestamp_utc,mission_id,frame_id,waypoint_id,inspection_phase,site_id,latitude_deg,longitude_deg,altitude_m,heading_deg,ground_speed_ms,vertical_speed_ms,distance_to_tower_m,roll_deg,pitch_deg,yaw_deg,quat_w,quat_x,quat_y,quat_z,accel_x_ms2,accel_y_ms2,accel_z_ms2,gyro_x_rads,gyro_y_rads,gyro_z_rads,vibration_level,gps_fix_type,gps_satellite_count,gps_hdop,gps_vdop,position_error_m,battery_voltage_v,battery_current_a,battery_remaining_pct,battery_temp_c,battery_capacity_mah,motor_fl_rpm,motor_fr_rpm,motor_rl_rpm,motor_rr_rpm,motor_fl_temp_c,motor_fr_temp_c,motor_rl_temp_c,motor_rr_temp_c,motor_fl_thrust_n,motor_fr_thrust_n,motor_rl_thrust_n,motor_rr_thrust_n,wind_speed_ms,wind_dir_deg,air_temp_c,humidity_pct,pressure_hpa,gimbal_pitch_deg,gimbal_roll_deg,zoom_factor,ir_temp_min_c,ir_temp_max_c,ir_temp_avg_c,anomaly_detected,anomaly_class,anomaly_confidence,anomaly_bbox_x,anomaly_bbox_y,anomaly_bbox_w,anomaly_bbox_h,anomaly_gps_lat,anomaly_gps_lon,anomaly_gps_alt_m,ir_temp_delta_c
2024-05-03T14:18:00.000Z,MISSION_0015,0,0,takeoff,SITE_KOL_006,22.5725996,88.3638992,1.5,150.76,0.0,0.121,0.1,-1.0764,-0.3272,150.7627,0.2524,0.00039,-0.00981,0.96757,0.0071,-0.0527,-9.774,-0.5357,-0.3234,0.2791,0.2304,3,15,0.65,0.71,0.31,24.636,16.13,95.5,36.1,21013.0,8691,8875,8839,9162,55.5,55.1,53.5,54.5,2.619,2.641,2.806,2.906,2.81,290.4,27.8,79.1,1019.35,-33.45,-1.94,1.71,21.3,42.0,29.3,0,no_anomaly,0.0,0,0,0,0,22.5725996,88.3638992,1.5,0.0
2024-05-03T14:18:00.100Z,MISSION_0015,1,0,takeoff,SITE_KOL_006,22.5725984,88.3638938,3.0,149.96,0.31,0.09,0.72,-0.9354,-1.0331,149.9626,0.25919,0.00659,-0.01022,0.96575,-0.1558,-0.0364,-9.8279,0.2395,0.3606,-0.3577,0.0924,3,20,0.62,0.93,0.2,24.674,13.19,95.4,35.1,20993.0,8928,8729,9080,8661,53.8,48.5,54.5,50.0,2.646,2.815,2.741,2.535,3.01,288.3,27.9,79.1,1019.56,-29.35,1.64,1.7,23.9,41.8,31.6,0,no_anomaly,0.0,0,0,0,0,22.5725984,88.3638938,3.0,0.0
2024-05-03T14:18:00.200Z,MISSION_0015,2,0,takeoff,SITE_KOL_006,22.5725978,88.3638953,4.5,151.5,0.0,0.07,0.58,1.5481,-2.7435,151.4997,0.24575,0.02652,0.0072,0.96894,-0.0243,-0.0151,-9.8308,0.0234,-0.3178,-0.238,0.1172,3,17,0.83,1.05,0.37,24.661,20.4,95.3,35.4,20972.0,8751,8700,8939,8801,52.9,53.4,54.8,57.1,2.826,2.736,2.651,2.783,3.05,287.0,28.1,79.6,1019.26,-28.66,1.48,1.18,20.9,36.3,31.6,0,no_anomaly,0.0,0,0,0,0,22.5725978,88.3638953,4.5,0.0
2024-05-03T14:18:00.300Z,MISSION_0015,3,0,takeoff,SITE_KOL_006,22.5725999,88.3638919,5.0,148.56,0.216,0.177,0.91,-4.6357,-3.7002,148.5645,0.27179,0.0201,-0.04765,0.96097,0.0359,-0.0224,-9.7873,-0.4861,0.1333,-0.1552,0.2017,3,20,0.77,0.98,0.33,24.662,18.81,95.2,36.4,20951.0,8686,8756,8863,8790,52.6,53.1,49.1,53.2,2.599,2.769,2.893,2.809,3.31,297.0,28.0,78.8,1019.48,-27.98,0.69,1.2,21.9,35.9,31.4,0,no_anomaly,0.0,0,0,0,0,22.5725999,88.3638919,5.0,0.0
2024-05-03T14:18:00.400Z,MISSION_0015,4,0,takeoff,SITE_KOL_006,22.5726,88.3638918,5.0,146.7,0.759,0.072,0.91,0.3566,-3.581,146.7026,0.28627,0.03083,-0.00597,0.95763,0.0824,-0.0491,-9.8192,-0.5412,0.6284,0.1119,0.1179,3,12,0.54,0.79,0.2,24.668,20.53,95.1,36.1,20930.0,9067,8887,8834,9012,50.6,55.1,53.4,49.5,2.486,2.931,2.864,2.895,3.43,296.8,27.4,78.9,1019.06,-30.45,-0.51,1.08,23.2,42.4,31.9,0,no_anomaly,0.0,0,0,0,0,22.5726,88.3638918,5.0,0.0
2024-05-03T14:18:00.500Z,MISSION_0015,5,0,takeoff,SITE_KOL_006,22.5725977,88.3638907,5.0,147.37,0.784,0.109,1.07,-0.0124,-2.2503,147.3684,0.28088,0.01882,-0.00562,0.95954,0.112,0.0272,-9.9163,-0.7431,0.0304,-0.23,0.1785,3,18,0.97,0.92,0.37,24.75,22.48,95.0,36.1,20909.0,9035,8884,8843,8747,53.3,52.3,49.9,56.1,2.506,2.834,2.901,2.958,3.36,296.1,27.8,78.7,1019.21,-29.92,-0.78,1.33,21.7,37.1,32.4,0,no_anomaly,0.0,0,0,0,0,22.5725977,88.3638907,5.0,0.0
2024-05-03T14:18:00.600Z,MISSION_0015,6,0,takeoff,SITE_KOL_006,22.5726005,88.3638897,5.0,148.01,0.757,0.053,1.14,-0.6572,-3.5562,148.0051,0.27563,0.02825,-0.01406,0.96075,0.0428,-0.0632,-9.8415,0.1363,-0.2074,0.2257,0.1729,3,17,0.65,0.6,0.31,24.601,19.98,94.9,36.0,20888.0,9054,9015,9069,8787,53.0,52.0,52.6,54.1,2.765,2.965,2.849,2.754,2.92,295.6,28.1,78.3,1019.21,-29.39,-1.27,1.0,26.5,40.9,30.9,0,no_anomaly,0.0,0,0,0,0,22.5726005,88.3638897,5.0,0.0
2024-05-03T14:18:00.700Z,MISSION_0015,7,0,takeoff,SITE_KOL_006,22.5726033,88.3638887,5.0,148.04,0.95,0.058,1.32,-0.8794,-1.1521,148.0355,0.27539,0.00755,-0.01015,0.96125,-0.0877,0.0362,-9.8706,0.2172,-0.5851,0.156,0.2147,3,18,0.69,0.74,0.2,24.634,14.95,94.9,34.9,20867.0,8929,9098,8851,8750,54.0,56.3,55.1,51.9,2.902,3.078,2.935,2.725,3.86,298.9,27.8,79.0,1019.71,-28.14,-0.05,1.36,24.0,43.8,33.2,0,no_anomaly,0.0,0,0,0,0,22.5726033,88.3638887,5.0,0.0
2024-05-03T14:18:00.800Z,MISSION_0015,8,0,takeoff,SITE_KOL_006,22.5726059,88.3638905,5.0,146.87,1.074,0.054,1.25,-1.0346,-1.124,146.8725,0.28514,0.00683,-0.01145,0.95839,0.0744,-0.041,-9.7797,-0.5973,0.6001,-0.1579,0.1734,3,10,0.65,0.74,0.29,24.67,15.32,94.8,36.2,20847.0,8829,8701,8897,9239,50.8,52.1,53.2,55.1,2.93,2.817,2.845,2.616,2.43,292.4,27.8,79.6,1019.24,-33.89,-1.03,1.34,21.0,39.9,28.9,0,no_anomaly,0.0,0,0,0,0,22.5726059,88.3638905,5.0,0.0
2024-05-03T14:18:00.900Z,MISSION_0015,9,0,takeoff,SITE_KOL_006,22.5726067,88.3638916,5.0,146.5,0.907,0.036,1.2,-5.6942,0.2812,146.5,0.28772,-0.01666,-0.04686,0.95642,-0.1615,-0.0211,-9.7923,-0.6657,-0.6126,0.0352,0.1897,3,12,0.74,0.88,0.22,24.713,22.72,94.7,36.2,20826.0,8939,8864,8675,8849,52.8,51.9,54.5,51.0,3.141,2.732,2.811,2.682,2.66,295.4,28.0,78.8,1019.28,-26.14,-0.34,1.14,28.3,38.9,32.5,0,no_anomaly,0.0,0,0,0,0,22.5726067,88.3638916,5.0,0.0
2024-05-03T14:18:01.000Z,MISSION_0015,10,0,takeoff,SITE_KOL_006,22.5726102,88.3638921,5.0,145.02,1.023,0.153,1.44,-1.1785,-3.2034,145.0206,0.30067,0.02357,-0.0182,0.95326,-0.193,-0.0282,-9.8326,-0.6377,1.0468,0.0156,0.1435,3,13,0.73,0.64,0.28,24.663,19.18,94.6,35.9,20805.0,8698,8801,9106,8725,51.8,52.2,51.4,50.8,3.047,2.828,2.656,2.956,3.6,300.7,27.6,78.9,1019.62,-31.05,-0.02,1.0,23.1,35.4,27.8,0,no_anomaly,0.0,0,0,0,0,22.5726102,88.3638921,5.0,0.0
2024-05-03T14:18:01.100Z,MISSION_0015,11,0,takeoff,SITE_KOL_006,22.5726187,88.3638918,5.0,142.98,0.928,0.128,2.27,-0.1282,-0.3991,142.9811,0.31746,0.00295,-0.00217,0.94826,0.0938,0.0102,-9.8736,-0.1099,-0.1597,-0.1676,0.1863,3,19,0.66,1.02,0.2,24.624,17.62,94.5,35.8,20784.0,9048,8791,8952,8874,51.4,54.7,53.8,53.6,2.787,2.832,2.883,3.021,3.47,292.7,27.9,79.9,1019.43,-27.02,0.83,1.07,22.7,33.9,30.2,0,no_anomaly,0.0,0,0,0,0,22.5726187,88.3638918,5.0,0.0
2024-05-03T14:18:01.200Z,MISSION_0015,12,0,takeoff,SITE_KOL_006,22.5726165,88.3638862,5.0,140.95,0.959,0.171,2.39,-1.2766,-3.3446,140.9453,0.3344,0.02378,-0.02025,0.94191,-0.0606,-0.0141,-9.7934,-0.0766,-0.7443,-0.1701,0.1682,3,12,0.77,0.98,0.29,24.597,18.0,94.4,35.5,20763.0,8785,8968,8776,8822,51.5,51.5,52.2,53.6,2.965,2.757,2.517,3.013,3.95,299.9,27.6,78.8,1019.45,-26.19,-0.16,1.36,22.4,41.3,27.9,0,no_anomaly,0.0,0,0,0,0,22.5726165,88.3638862,5.0,0.0
2024-05-03T14:18:01.300Z,MISSION_0015,13,0,takeoff,SITE_KOL_006,22.5726234,88.3638862,5.0,140.08,1.157,0.013,3.03,-4.3466,0.2075,140.0844,0.34102,-0.01464,-0.03503,0.93929,-0.0236,0.075,-9.9041,0.2142,-0.2326,-0.6433,0.2029,3,18,0.72,0.9,0.22,24.615,17.35,94.3,35.5,20742.0,8808,9019,8875,8930,47.1,55.8,55.0,52.3,2.925,2.903,2.624,2.794,2.45,292.1,27.8,79.5,1019.45,-23.54,0.13,1.36,23.4,43.0,32.9,0,no_anomaly,0.0,0,0,0,0,22.5726234,88.3638862,5.0,0.0
2024-05-03T14:18:01.400Z,MISSION_0015,14,0,takeoff,SITE_KOL_006,22.5726253,88.3638866,5.0,141.25,1.462,0.073,3.19,4.0307,-2.8884,141.2493,0.33061,0.03542,0.02481,0.94278,-0.0046,-0.0669,-9.7569,0.2884,0.0228,0.0343,0.212,3,16,0.69,1.08,0.3,24.609,15.38,94.2,35.8,20721.0,8773,8793,9074,8787,53.7,53.6,54.0,53.3,2.797,2.743,3.037,2.765,2.27,292.6,27.7,79.0,1019.5,-31.82,-1.65,1.59,25.0,33.7,31.3,0,no_anomaly,0.0,0,0,0,0,22.5726253,88.3638866,5.0,0.0
2024-05-03T14:18:01.500Z,MISSION_0015,15,0,takeoff,SITE_KOL_006,22.5726202,88.3638858,5.0,141.61,1.023,0.097,2.75,1.9061,-2.6965,141.6063,0.32831,0.02769,0.00797,0.94413,0.0111,-0.034,-9.7244,0.117,0.1877,0.1218,0.0986,3,18,0.69,0.85,0.23,24.56,19.82,94.1,35.7,20701.0,9009,9174,8639,8878,55.3,53.3,55.1,52.0,2.785,2.943,2.968,2.971,3.31,297.6,27.8,78.9,1019.67,-34.04,1.56,1.3,23.8,35.3,33.3,0,no_anomaly,0.0,0,0,0,0,22.5726202,88.3638858,5.0,0.0
2024-05-03T14:18:01.600Z,MISSION_0015,16,0,takeoff,SITE_KOL_006,22.5726252,88.3638873,5.0,143.58,0.691,0.098,3.14,2.0655,-1.5669,143.5763,0.31222,0.01862,0.01285,0.94974,-0.051,0.0354,-9.8072,-0.3833,0.4247,-0.1487,0.1663,3,14,0.7,0.89,0.22,24.595,15.91,94.0,35.7,20680.0,9147,8528,8910,9030,54.8,52.7,51.0,52.1,2.703,2.814,2.615,2.686,3.6,298.8,28.2,78.9,1019.12,-30.76,-0.05,1.48,25.8,38.1,31.8,0,no_anomaly,0.0,0,0,0,0,22.5726252,88.3638873,5.0,0.0
2024-05-03T14:18:01.700Z,MISSION_0015,17,0,takeoff,SITE_KOL_006,22.5726267,88.3638839,5.0,143.37,0.831,0.061,3.47,1.6531,-2.5893,143.3676,0.31384,0.02598,0.00659,0.9491,-0.1076,-0.0135,-9.8086,0.4305,0.2194,-0.151,0.1894,3,18,0.77,1.05,0.26,24.69,15.27,93.9,35.9,20659.0,9049,8723,9170,8941,55.5,52.9,52.0,54.0,2.75,2.954,2.95,2.756,2.12,291.7,27.7,79.5,1019.41,-29.48,0.1,1.52,20.1,42.5,31.3,0,no_anomaly,0.0,0,0,0,0,22.5726267,88.3638839,5.0,0.0
2024-05-03T14:18:01.800Z,MISSION_0015,18,0,takeoff,SITE_KOL_006,22.5726286,88.3638857,5.0,144.21,0.359,0.073,3.55,-1.1624,-5.1375,144.2061,0.30741,0.03953,-0.02342,0.95047,-0.0892,-0.0366,-9.8414,0.0446,0.8857,-0.19,0.1432,3,11,0.89,0.73,0.22,24.751,13.64,93.8,35.7,20638.0,8870,9134,8825,8769,52.6,49.1,52.0,49.6,2.655,2.713,2.773,2.932,3.64,295.3,28.1,79.2,1019.38,-34.16,-1.04,1.13,21.2,42.9,31.0,0,no_anomaly,0.0,0,0,0,0,22.5726286,88.3638857,5.0,0.0
2024-05-03T14:18:01.900Z,MISSION_0015,19,0,takeoff,SITE_KOL_006,22.5726238,88.3638822,5.0,143.14,0.459,0.01,3.31,-2.995,-1.1582,143.1383,0.31629,0.00132,-0.02799,0.94825,-0.2833,-0.0282,-9.8465,0.3753,-0.4939,-0.019,0.1495,3,18,0.75,0.78,0.27,24.62,19.9,93.7,35.4,20617.0,8907,8646,9012,8630,56.7,54.3,51.2,54.9,2.622,2.812,2.819,2.621,2.64,303.5,27.6,79.4,1019.41,-26.49,-0.45,1.49,25.0,33.0,29.0,0,no_anomaly,0.0,0,0,0,0,22.5726238,88.3638822,5.0,0.0
2024-05-03T14:18:02.000Z,MISSION_0015,20,0,takeoff,SITE_KOL_006,22.5726229,88.3638832,5.0,144.03,0.048,0.168,3.17,-0.071,-2.3679,144.0329,0.30869,0.01946,-0.00697,0.95094,-0.0348,0.0436,-9.8613,0.5979,-0.0512,0.0153,0.1774,3,18,0.82,0.82,0.33,24.614,20.19,93.6,35.3,20596.0,8764,8888,8876,8979,49.5,52.4,50.7,53.6,2.844,2.66,2.592,2.847,2.43,290.5,28.2,78.6,1019.63,-24.47,0.99,1.89,25.6,43.2,30.6,0,no_anomaly,0.0,0,0,0,0,22.5726229,88.3638832,5.0,0.0
2024-05-03T14:18:02.100Z,MISSION_0015,21,0,takeoff,SITE_KOL_006,22.5726261,88.3638846,5.0,145.15,0.213,0.086,3.37,-5.0687,-1.673,145.1486,0.29976,0.00067,-0.04655,0.95288,0.0614,-0.0069,-9.7857,0.5807,0.2842,-0.5563,0.1508,3,11,0.58,0.8,0.24,24.58,20.92,93.5,35.9,20575.0,8765,9166,8943,8806,53.9,54.7,51.3,48.2,2.522,2.836,2.621,2.786,2.42,291.7,27.8,79.3,1019.38,-33.68,-1.46,1.43,22.4,41.5,30.4,0,no_anomaly,0.0,0,0,0,0,22.5726261,88.3638846,5.0,0.0
2024-05-03T14:18:02.200Z,MISSION_0015,22,0,takeoff,SITE_KOL_006,22.5726282,88.3638809,5.0,146.16,0.205,0.123,3.79,-2.0746,-0.5608,146.1591,0.29108,-0.00059,-0.01874,0.95652,-0.1402,0.0601,-9.7548,0.5687,-0.2673,-0.3643,0.1721,3,12,0.62,0.97,0.22,24.561,18.92,93.4,36.3,20554.0,9043,8589,8856,8693,51.9,56.7,54.4,50.0,2.904,2.727,2.998,2.837,2.52,295.7,28.0,79.0,1019.81,-35.07,-1.35,1.6,21.1,37.5,32.0,0,no_anomaly,0.0,0,0,0,0,22.5726282,88.3638809,5.0,0.0
2024-05-03T14:18:02.300Z,MISSION_0015,23,0,takeoff,SITE_KOL_006,22.5726253,88.3638808,5.0,146.74,0.652,0.101,3.54,-0.6776,-3.2927,146.7418,0.28622,0.02584,-0.01389,0.95772,0.0571,-0.0647,-9.8115,0.3968,-0.319,-0.2943,0.2083,3,14,0.96,0.83,0.37,24.672,15.85,93.3,35.7,20534.0,8875,8887,8906,9144,52.1,54.0,51.8,53.4,2.747,2.719,2.552,2.59,2.9,295.6,27.8,79.2,1019.46,-28.86,-0.7,1.08,21.9,35.5,27.8,0,no_anomaly,0.0,0,0,0,0,22.5726253,88.3638808,5.0,0.0
2024-05-03T14:18:02.400Z,MISSION_0015,24,0,takeoff,SITE_KOL_006,22.5726263,88.3638805,5.0,147.04,0.648,-0.018,3.64,-0.7098,-2.2398,147.0421,0.28372,0.01698,-0.01148,0.95869,0.0972,0.0044,-9.87,0.1939,-0.0426,-0.4814,0.1694,3,12,0.7,1.19,0.37,24.654,22.11,93.2,36.2,20513.0,8845,8741,8931,8844,53.6,53.3,51.0,50.1,2.93,2.847,2.779,2.965,4.31,299.2,28.1,77.7,1019.5,-35.89,-0.72,1.39,24.1,37.3,30.2,0,no_anomaly,0.0,0,0,0,0,22.5726263,88.3638805,5.0,0.0
2024-05-03T14:18:02.500Z,MISSION_0015,25,0,takeoff,SITE_KOL_006,22.5726288,88.3638827,5.0,147.72,0.391,0.021,3.74,-1.7805,-5.6305,147.7207,0.27834,0.04286,-0.02856,0.9591,0.0007,-0.0769,-9.9246,0.7745,0.4546,-0.0116,0.2102,3,11,0.58,1.09,0.2,24.614,18.72,93.1,35.0,20492.0,8741,8739,8781,8817,53.2,50.7,52.8,52.2,2.853,2.641,2.714,2.785,3.5,297.5,27.9,78.0,1019.55,-23.62,-1.73,1.81,23.6,39.2,28.9,0,no_anomaly,0.0,0,0,0,0,22.5726288,88.3638827,5.0,0.0
2024-05-03T14:18:02.600Z,MISSION_0015,26,0,takeoff,SITE_KOL_006,22.5726275,88.3638834,5.0,149.54,0.464,0.099,3.58,-0.0403,-5.1027,149.5438,0.26242,0.04286,-0.01203,0.96393,-0.1238,-0.0014,-9.7157,-0.2401,-0.1014,-0.4474,0.1861,3,10,0.71,0.87,0.3,24.613,14.05,93.1,35.5,20471.0,9132,8881,9050,9050,54.0,50.0,52.1,55.1,2.851,2.568,2.801,2.875,2.08,287.9,27.5,79.9,1019.26,-27.9,0.78,1.86,20.7,37.5,31.2,0,no_anomaly,0.0,0,0,0,0,22.5726275,88.3638834,5.0,0.0
2024-05-03T14:18:02.700Z,MISSION_0015,27,0,takeoff,SITE_KOL_006,22.5726264,88.3638852,5.0,148.66,0.21,-0.021,3.36,1.1508,-2.2942,148.6619,0.26982,0.02199,0.00426,0.96265,0.0813,-0.0721,-9.8587,0.419,-0.9442,-0.143,0.2265,3,19,0.63,0.98,0.27,24.695,17.89,93.0,36.5,20450.0,8899,8888,9095,8991,50.7,52.0,52.6,53.3,2.838,2.834,2.888,3.107,3.76,303.1,27.6,79.1,1019.55,-32.4,-0.93,1.0,21.8,34.8,29.8,0,no_anomaly,0.0,0,0,0,0,22.5726264,88.3638852,5.0,0.0
2024-05-03T14:18:02.800Z,MISSION_0015,28,0,takeoff,SITE_KOL_006,22.572623,88.363887,5.0,147.66,0.141,0.076,2.94,-2.3653,-1.7607,147.6648,0.27866,0.00901,-0.0241,0.96005,0.0007,0.0634,-9.8042,0.643,-0.1055,-0.1115,0.1054,3,14,0.68,0.61,0.29,24.649,17.87,92.9,36.0,20429.0,8814,8761,8735,8836,52.6,52.0,53.7,52.8,2.603,2.987,2.72,2.757,4.02,293.7,28.1,79.0,1019.69,-33.81,-1.75,1.76,21.7,35.1,30.8,0,no_anomaly,0.0,0,0,0,0,22.572623,88.363887,5.0,0.0
2024-05-03T14:18:02.900Z,MISSION_0015,29,0,takeoff,SITE_KOL_006,22.5726239,88.3638868,5.0,145.92,0.0,0.189,3.04,-1.8597,-4.1018,145.9198,0.29337,0.02946,-0.02599,0.95519,-0.0326,0.0153,-9.7786,0.7867,-0.7183,-0.1029,0.231,3,14,0.85,0.94,0.38,24.63,21.93,92.8,35.6,20408.0,8883,8750,9034,9048,51.1,52.4,52.7,53.9,2.769,2.837,2.697,2.941,3.78,293.8,27.9,79.0,1019.37,-30.86,-1.08,1.47,22.9,38.8,32.7,0,no_anomaly,0.0,0,0,0,0,22.5726239,88.3638868,5.0,0.0
2024-05-03T14:18:03.000Z,MISSION_0015,30,0,takeoff,SITE_KOL_006,22.5726248,88.3638831,5.0,147.5,0.047,0.097,3.34,-4.4983,-0.1656,147.5018,0.27965,-0.00959,-0.03808,0.9593,-0.0284,0.0496,-9.753,-1.0682,0.4596,0.0738,0.1951,3,15,0.82,0.95,0.42,24.604,19.6,92.7,36.5,20388.0,8798,9173,8612,8788,53.3,53.2,56.7,50.6,3.028,2.845,2.687,3.005,3.8,292.0,28.1,79.1,1019.55,-31.26,0.58,1.2,25.2,36.1,30.8,0,no_anomaly,0.0,0,0,0,0,22.5726248,88.3638831,5.0,0.0
2024-05-03T14:18:03.100Z,MISSION_0015,31,0,takeoff,SITE_KOL_006,22.5726291,88.3638803,5.0,145.31,0.504,0.141,3.91,-0.5668,0.3067,145.3114,0.2981,-0.00403,-0.00392,0.95452,-0.0309,0.0094,-9.8061,-0.4588,0.4379,0.0649,0.1968,3,20,0.77,1.04,0.24,24.593,21.4,92.6,35.2,20367.0,8782,8763,8782,8810,53.6,54.3,56.3,51.4,2.753,2.907,2.679,2.657,2.17,299.2,27.7,79.1,1019.4,-31.27,0.15,1.4,23.9,36.8,32.4,0,no_anomaly,0.0,0,0,0,0,22.5726291,88.3638803,5.0,0.0
2024-05-03T14:18:03.200Z,MISSION_0015,32,0,takeoff,SITE_KOL_006,22.5726319,88.3638818,5.0,144.91,0.305,0.099,4.09,-3.694,-2.5671,144.9095,0.30192,0.01163,-0.03747,0.95253,-0.0339,0.013,-9.7586,0.5474,-0.5085,-0.3233,0.142,3,14,0.6,0.87,0.2,24.61,12.5,92.5,36.0,20346.0,8637,8792,8889,8940,49.0,52.2,54.8,53.4,2.829,2.959,2.756,2.843,3.14,305.6,28.0,79.3,1019.7,-31.51,-1.57,1.43,22.1,39.4,28.7,0,no_anomaly,0.0,0,0,0,0,22.5726319,88.3638818,5.0,0.0
2024-05-03T14:18:03.300Z,MISSION_0015,33,0,takeoff,SITE_KOL_006,22.5726338,88.3638827,5.0,145.65,0.592,0.031,4.23,-0.1709,-4.1277,145.6473,0.29517,0.03397,-0.01206,0.95476,-0.0398,-0.0377,-9.7873,-0.2931,1.2176,-0.0794,0.2397,3,19,0.87,0.94,0.42,24.572,21.19,92.4,35.8,20325.0,8986,8681,8699,8890,50.2,52.9,56.0,50.5,2.631,2.77,2.958,2.572,2.62,291.3,27.6,78.9,1019.55,-32.48,0.7,1.58,25.1,34.9,33.5,0,no_anomaly,0.0,0,0,0,0,22.5726338,88.3638827,5.0,0.0
2024-05-03T14:18:03.400Z,MISSION_0015,34,0,takeoff,SITE_KOL_006,22.5726346,88.363884,5.0,147.87,1.031,0.197,4.24,1.3345,-2.0329,147.8711,0.27646,0.02027,0.00628,0.96079,-0.0174,-0.0521,-9.8305,0.215,-0.0061,-0.0699,0.1936,3,11,0.71,0.87,0.27,24.579,20.49,92.3,36.4,20304.0,9307,8870,9054,9035,53.2,55.4,55.3,50.5,2.565,2.954,2.902,3.021,2.54,297.9,28.1,78.8,1019.45,-33.11,0.07,1.89,22.2,37.8,32.2,0,no_anomaly,0.0,0,0,0,0,22.5726346,88.363884,5.0,0.0
2024-05-03T14:18:03.500Z,MISSION_0015,35,0,takeoff,SITE_KOL_006,22.572634,88.3638832,5.0,146.29,0.706,0.138,4.22,-5.3094,-0.7249,146.2878,0.28993,-0.00738,-0.04616,0.9559,0.0606,0.0466,-9.7865,-0.1741,-0.0014,-0.6114,0.1565,3,10,0.71,0.89,0.21,24.56,13.35,92.2,35.8,20283.0,8882,9239,8686,8840,50.5,53.0,55.0,53.5,2.68,2.8,2.863,2.976,3.53,296.6,28.2,78.5,1019.54,-29.74,0.98,1.26,22.0,33.8,31.5,0,no_anomaly,0.0,0,0,0,0,22.572634,88.3638832,5.0,0.0
2024-05-03T14:18:03.600Z,MISSION_0015,36,0,takeoff,SITE_KOL_006,22.5726335,88.3638808,5.0,146.55,0.93,-0.002,4.3,-0.6036,-5.1672,146.5484,0.28772,0.04166,-0.01801,0.95664,0.1701,-0.0078,-9.7715,0.0388,-0.6956,0.2735,0.0909,3,18,0.62,0.96,0.37,24.633,18.58,92.1,35.5,20262.0,9036,8948,9136,8799,54.7,50.5,53.8,51.5,2.721,2.875,2.713,2.612,2.65,302.3,27.7,78.9,1019.4,-29.2,1.56,1.44,24.5,34.9,28.3,0,no_anomaly,0.0,0,0,0,0,22.5726335,88.3638808,5.0,0.0
2024-05-03T14:18:03.700Z,MISSION_0015,37,0,takeoff,SITE_KOL_006,22.5726305,88.3638785,5.0,147.39,0.85,0.12,4.16,3.6655,-2.1923,147.3864,0.28,0.02733,0.02532,0.95928,0.0327,-0.0885,-9.8154,0.3936,-0.0016,-0.2839,0.0823,3,14,0.68,0.73,0.21,24.622,18.99,92.0,35.6,20242.0,8867,8638,8878,8695,50.7,53.2,54.2,55.9,2.805,2.753,2.951,2.878,3.84,294.9,27.8,79.4,1019.58,-35.57,-1.47,2.3,21.0,36.2,28.2,0,no_anomaly,0.0,0,0,0,0,22.5726305,88.3638785,5.0,0.0
2024-05-03T14:18:03.800Z,MISSION_0015,38,0,takeoff,SITE_KOL_006,22.5726275,88.3638791,5.0,149.17,0.743,0.12,3.84,-3.2754,-3.2784,149.1652,0.26642,0.01997,-0.03514,0.96301,-0.2153,0.0359,-9.8267,-0.8874,0.8521,0.009,0.0617,3,20,0.67,0.79,0.2,24.535,19.13,91.9,35.8,20221.0,9000,8851,9023,8915,54.2,53.6,55.2,52.5,2.836,2.716,3.065,2.855,3.47,297.1,27.9,79.5,1019.57,-31.61,-1.36,1.95,22.7,41.4,29.7,0,no_anomaly,0.0,0,0,0,0,22.5726275,88.3638791,5.0,0.0
2024-05-03T14:18:03.900Z,MISSION_0015,39,0,takeoff,SITE_KOL_006,22.5726363,88.3638813,5.0,150.33,0.895,0.07,4.54,-3.7541,-3.4225,150.3339,0.2567,0.02047,-0.03929,0.96548,-0.1233,0.0211,-9.8214,0.2542,0.3668,-0.4773,0.2514,3,16,0.67,1.33,0.44,24.543,9.67,91.8,35.5,20200.0,8897,8817,8892,9032,57.6,54.0,53.3,53.1,2.397,2.788,2.683,2.513,3.08,298.3,27.7,79.1,1019.2,-26.59,0.71,1.55,21.6,36.7,28.1,0,no_anomaly,0.0,0,0,0,0,22.5726363,88.3638813,5.0,0.0
2024-05-03T14:18:04.000Z,MISSION_0015,40,0,takeoff,SITE_KOL_006,22.5726365,88.363885,5.0,149.84,1.268,0.138,4.4,-0.483,-1.7176,149.8362,0.26023,0.01338,-0.00797,0.96542,-0.0078,-0.079,-9.8213,-0.1479,0.5154,0.2295,0.1477,3,18,0.54,0.79,0.2,24.513,20.24,91.7,34.8,20179.0,9021,9268,8685,9028,50.8,51.2,53.9,54.0,2.858,2.907,2.874,2.988,3.41,296.5,27.6,79.8,1019.38,-27.04,1.1,1.32,21.0,36.5,31.0,0,no_anomaly,0.0,0,0,0,0,22.5726365,88.363885,5.0,0.0
2024-05-03T14:18:04.100Z,MISSION_0015,41,0,takeoff,SITE_KOL_006,22.5726359,88.3638851,5.0,150.29,0.955,0.127,4.33,-0.5197,-2.2766,150.2875,0.25643,0.01804,-0.00948,0.96635,0.0815,0.0111,-9.8123,-0.0072,0.6511,-0.314,0.0672,3,20,0.65,0.84,0.3,24.47,16.83,91.6,36.2,20158.0,9178,8787,8840,8959,52.2,54.7,49.4,50.3,3.268,2.473,2.869,2.892,2.32,304.5,27.8,78.7,1019.65,-30.33,-0.54,1.89,22.6,37.8,32.2,0,no_anomaly,0.0,0,0,0,0,22.5726359,88.3638851,5.0,0.0
2024-05-03T14:18:04.200Z,MISSION_0015,42,0,takeoff,SITE_KOL_006,22.5726339,88.3638909,5.0,151.18,0.998,0.067,3.9,-1.6954,-1.5641,151.1842,0.24897,0.00954,-0.01772,0.9683,0.0865,0.0539,-9.8492,0.422,0.3083,0.5002,0.1071,3,11,0.61,0.88,0.21,24.613,26.5,91.5,36.1,20137.0,8871,8780,8612,8838,55.8,53.5,49.4,54.2,2.954,2.935,2.771,2.653,3.41,291.1,27.6,79.0,1019.45,-27.98,0.4,1.75,24.0,39.0,31.7,0,no_anomaly,0.0,0,0,0,0,22.5726339,88.3638909,5.0,0.0
2024-05-03T14:18:04.300Z,MISSION_0015,43,0,takeoff,SITE_KOL_006,22.5726394,88.3638914,5.0,151.48,1.239,0.155,4.49,-3.1645,-3.2806,151.485,0.24685,0.02094,-0.0338,0.96824,-0.0068,-0.0061,-9.762,0.3606,-0.576,0.0495,0.2051,3,13,0.76,0.68,0.41,24.51,18.88,91.4,35.8,20116.0,8972,8998,9009,8836,50.4,53.4,51.5,52.4,2.983,2.779,2.759,2.554,3.84,303.5,28.2,80.3,1019.48,-30.14,-1.08,1.57,24.0,36.2,33.7,0,no_anomaly,0.0,0,0,0,0,22.5726394,88.3638914,5.0,0.0
2024-05-03T14:18:04.400Z,MISSION_0015,44,0,takeoff,SITE_KOL_006,22.5726368,88.363896,5.0,149.35,1.531,0.123,4.12,-1.1833,-0.6446,149.354,0.2643,0.0027,-0.01144,0.96437,-0.0421,0.0216,-9.8548,-0.6125,-0.3624,-0.0499,0.2291,3,11,0.52,0.6,0.2,24.513,19.15,91.3,35.5,20096.0,8887,8785,8849,9015,53.2,54.2,56.5,51.8,2.618,2.67,2.738,2.891,2.93,294.6,27.9,79.5,1019.32,-31.03,0.36,1.32,22.1,40.9,30.3,0,no_anomaly,0.0,0,0,0,0,22.5726368,88.363896,5.0,0.0
2024-05-03T14:18:04.500Z,MISSION_0015,45,0,takeoff,SITE_KOL_006,22.5726296,88.3638908,5.0,145.76,1.188,0.158,3.45,-2.7317,-0.6197,145.7601,0.29441,-0.00185,-0.02437,0.95537,-0.0571,0.0001,-9.814,0.1291,-0.1901,-0.0901,0.1584,3,16,0.67,0.82,0.22,24.571,19.57,91.2,36.4,20075.0,9003,8909,8870,9194,54.3,55.0,54.6,55.1,2.807,2.876,2.529,2.786,3.43,299.8,27.7,79.5,1019.2,-32.55,-1.35,1.81,21.8,37.3,31.1,0,no_anomaly,0.0,0,0,0,0,22.5726296,88.3638908,5.0,0.0
2024-05-03T14:18:04.600Z,MISSION_0015,46,0,takeoff,SITE_KOL_006,22.5726319,88.3638915,5.0,145.21,1.501,0.007,3.67,1.1323,-3.1589,145.2084,0.29858,0.02925,0.00119,0.95393,-0.0121,-0.0104,-9.7651,-0.2442,0.5099,0.0944,0.1753,3,13,0.77,0.66,0.2,24.514,22.33,91.2,35.7,20054.0,8609,8772,8970,8929,57.1,52.9,51.9,53.8,2.775,2.939,2.932,2.631,2.04,291.2,28.1,79.1,1019.67,-30.0,0.45,1.54,19.4,35.3,28.6,0,no_anomaly,0.0,0,0,0,0,22.5726319,88.3638915,5.0,0.0
2024-05-03T14:18:04.700Z,MISSION_0015,47,0,takeoff,SITE_KOL_006,22.5726285,88.3638943,5.0,143.34,1.362,0.068,3.23,-2.31,-2.1086,143.3411,0.31472,0.01112,-0.02492,0.94879,0.1812,-0.0198,-9.7679,-0.506,-0.0125,-0.1625,0.1228,3,18,0.67,0.73,0.34,24.514,18.51,91.1,36.5,20033.0,8870,8891,8923,9117,54.1,52.8,55.7,51.0,2.859,2.767,2.763,2.817,3.34,296.4,27.8,78.7,1019.28,-28.16,-0.44,1.54,23.3,42.4,32.2,0,no_anomaly,0.0,0,0,0,0,22.5726285,88.3638943,5.0,0.0
2024-05-03T14:18:04.800Z,MISSION_0015,48,0,takeoff,SITE_KOL_006,22.5726269,88.3639004,5.0,144.87,1.018,0.038,3.0,0.6968,-1.3465,144.8694,0.3017,0.01304,0.00225,0.95331,-0.0017,-0.0215,-9.847,0.1958,0.0456,0.3733,0.119,3,18,0.71,0.8,0.3,24.557,17.96,91.0,36.0,20012.0,8645,9217,8860,8579,53.9,49.4,53.6,52.3,3.123,3.029,2.723,2.699,3.35,297.9,27.7,79.2,1019.67,-28.24,1.93,1.91,24.6,37.1,32.6,0,no_anomaly,0.0,0,0,0,0,22.5726269,88.3639004,5.0,0.0
2024-05-03T14:18:04.900Z,MISSION_0015,49,0,takeoff,SITE_KOL_006,22.5726266,88.3638984,5.0,146.4,0.751,0.074,2.97,3.2516,-0.8446,146.3992,0.28871,0.01525,0.02503,0.95697,0.0378,-0.0184,-9.8248,0.7726,-0.497,0.1993,0.1501,3,20,0.7,0.7,0.2,24.461,18.29,90.9,35.3,19991.0,8960,8759,8928,8857,48.7,51.9,56.0,52.3,2.734,2.487,2.657,2.646,3.08,304.3,27.8,80.0,1019.6,-32.51,-0.64,1.5,20.6,38.7,30.3,0,no_anomaly,0.0,0,0,0,0,22.5726266,88.3638984,5.0,0.0
2024-05-03T14:18:05.000Z,MISSION_0015,50,0,takeoff,SITE_KOL_006,22.5726296,88.3639032,5.0,147.05,0.736,0.16,3.31,-4.1191,-0.9245,147.0547,0.28364,-0.00246,-0.03675,0.95822,-0.0849,-0.0521,-9.786,0.4456,0.2082,-0.1643,0.1946,3,17,0.72,0.81,0.21,24.568,15.61,90.8,36.1,19970.0,8905,9150,9026,8734,58.1,49.9,52.0,49.4,2.621,2.94,2.761,2.769,2.55,291.0,28.3,79.2,1019.26,-30.25,1.12,1.93,23.8,34.1,32.8,0,no_anomaly,0.0,0,0,0,0,22.5726296,88.3639032,5.0,0.0
2024-05-03T14:18:05.100Z,MISSION_0015,51,0,takeoff,SITE_KOL_006,22.5726293,88.363902,5.0,148.46,0.609,0.126,3.27,-1.0653,-2.9651,148.4629,0.27188,0.02237,-0.01597,0.96194,0.0797,-0.0729,-9.8159,-0.8874,0.1571,0.2703,0.2684,3,12,0.62,1.0,0.2,24.597,24.28,90.7,37.3,19950.0,8690,9049,8536,8954,55.3,54.0,51.7,50.8,2.719,2.743,2.697,2.876,3.41,299.9,27.7,79.7,1019.71,-29.23,1.38,1.64,22.2,37.8,32.2,0,no_anomaly,0.0,0,0,0,0,22.5726293,88.363902,5.0,0.0
2024-05-03T14:18:05.200Z,MISSION_0015,52,0,takeoff,SITE_KOL_006,22.5726331,88.3639037,5.0,149.42,0.296,0.101,3.7,-0.2523,-1.9957,149.4179,0.26372,0.01622,-0.00672,0.96444,0.1061,0.0009,-9.7944,-0.3898,-0.0881,0.4108,0.2041,3,17,0.64,1.02,0.2,24.684,19.64,90.6,35.3,19929.0,8898,8665,8757,9016,55.2,51.9,56.2,56.3,2.705,2.886,2.794,2.72,2.97,292.9,27.9,79.0,1019.39,-27.88,-0.72,1.65,20.6,33.0,28.3,0,no_anomaly,0.0,0,0,0,0,22.5726331,88.3639037,5.0,0.0
2024-05-03T14:18:05.300Z,MISSION_0015,53,0,takeoff,SITE_KOL_006,22.5726348,88.3639061,5.0,148.1,0.595,0.101,3.93,2.1081,-2.0508,148.0966,0.27442,0.02226,0.01277,0.96127,0.0714,0.1064,-9.8178,0.885,0.0202,0.1769,0.1348,3,16,0.52,0.9,0.2,24.449,23.35,90.5,36.0,19908.0,8987,8685,8947,8763,54.0,54.0,53.1,53.6,2.874,2.896,2.925,2.576,2.77,299.0,27.8,79.2,1019.62,-31.33,0.47,1.45,22.5,39.5,31.3,0,no_anomaly,0.0,0,0,0,0,22.5726348,88.3639061,5.0,0.0
2024-05-03T14:18:05.400Z,MISSION_0015,54,0,takeoff,SITE_KOL_006,22.5726311,88.3639073,5.0,147.17,0.661,0.077,3.56,-2.0799,-0.9269,147.1709,0.28267,0.00263,-0.01969,0.95901,-0.144,-0.0614,-9.8073,-0.461,-0.0611,0.6204,0.1597,3,14,0.63,1.03,0.32,24.614,20.66,90.4,35.8,19887.0,8828,8801,8881,8786,50.8,53.3,52.8,53.6,2.933,2.531,2.974,2.538,1.59,296.5,27.8,79.6,1019.05,-28.13,0.53,1.29,18.6,38.7,27.7,0,no_anomaly,0.0,0,0,0,0,22.5726311,88.3639073,5.0,0.0
2024-05-03T14:18:05.500Z,MISSION_0015,55,0,takeoff,SITE_KOL_006,22.5726304,88.363905,5.0,149.49,0.65,-0.008,3.43,1.4025,-2.8329,149.489,0.26273,0.02707,0.0053,0.96447,0.2945,-0.0293,-9.7228,0.1599,-0.7356,0.0824,0.1887,3,13,0.54,0.6,0.2,24.558,21.19,90.3,35.6,19866.0,8851,8662,8839,8844,51.6,52.3,51.9,52.5,2.793,2.64,2.958,2.726,2.93,290.6,27.6,78.5,1019.43,-27.25,0.28,1.0,25.1,33.1,32.4,0,no_anomaly,0.0,0,0,0,0,22.5726304,88.363905,5.0,0.0
2024-05-03T14:18:05.600Z,MISSION_0015,56,0,takeoff,SITE_KOL_006,22.5726243,88.3639058,5.0,149.28,0.927,0.079,2.78,3.4579,-2.9487,149.2804,0.26392,0.03279,0.02227,0.96373,-0.1239,-0.06,-9.7493,0.1002,0.2264,-0.0511,0.1757,3,15,0.86,0.7,0.43,24.603,18.62,90.2,35.7,19845.0,8918,8959,9213,8940,51.0,51.4,51.9,55.6,2.77,2.868,2.845,2.97,3.19,307.8,27.7,78.9,1019.72,-28.57,1.08,1.83,22.2,37.8,29.7,0,no_anomaly,0.0,0,0,0,0,22.5726243,88.3639058,5.0,0.0
2024-05-03T14:18:05.700Z,MISSION_0015,57,0,takeoff,SITE_KOL_006,22.5726234,88.3639051,5.0,152.69,1.009,0.053,2.67,1.7021,-3.1277,152.6906,0.23556,0.03002,0.00799,0.97136,0.2469,-0.0028,-9.814,-0.4507,-1.1104,0.0094,0.1999,3,14,0.5,1.0,0.24,24.575,21.11,90.1,36.6,19824.0,8868,9013,8812,8781,51.5,51.0,56.0,51.5,2.536,2.973,2.793,2.559,3.4,303.5,28.0,78.7,1019.34,-27.07,0.41,2.33,19.9,39.7,30.6,0,no_anomaly,0.0,0,0,0,0,22.5726234,88.3639051,5.0,0.0
2024-05-03T14:18:05.800Z,MISSION_0015,58,0,takeoff,SITE_KOL_006,22.572628,88.3638989,5.0,153.14,0.703,0.123,3.11,-1.384,-1.87,153.1417,0.23239,0.01307,-0.01554,0.97241,0.0704,0.0349,-9.7542,0.3368,0.3605,0.2641,0.1844,3,12,0.72,0.82,0.29,24.579,14.75,90.0,35.8,19804.0,8856,8836,8889,8614,50.5,48.7,55.2,56.6,2.823,2.874,2.923,2.723,3.14,292.9,27.7,79.1,1019.46,-28.66,-0.56,1.43,21.8,38.0,30.9,0,no_anomaly,0.0,0,0,0,0,22.572628,88.3638989,5.0,0.0
2024-05-03T14:18:05.900Z,MISSION_0015,59,0,transit,SITE_KOL_006,22.5726289,88.3639026,5.5,154.77,0.796,0.153,3.23,2.0281,-0.5369,154.7705,0.21828,0.00844,0.01625,0.97572,0.1234,0.0509,-9.793,0.209,0.7124,-0.0614,0.163,3,16,0.64,0.7,0.24,24.454,17.87,89.9,36.1,19783.0,8881,8912,8739,8749,53.7,51.6,54.9,52.0,2.797,2.775,2.929,3.045,2.43,300.5,27.9,79.7,1019.42,-31.85,-0.05,1.76,21.4,34.3,30.7,0,no_anomaly,0.0,0,0,0,0,22.5726289,88.3639026,5.5,0.0
2024-05-03T14:18:06.000Z,MISSION_0015,60,0,transit,SITE_KOL_006,22.5726295,88.3639025,6.0,157.19,0.943,0.079,3.29,0.2967,-1.9643,157.1947,0.19763,0.01731,-0.00085,0.98012,-0.0683,0.0566,-9.7993,0.2569,-0.5369,0.4317,0.1834,3,14,0.66,0.76,0.2,24.606,17.65,89.8,35.8,19762.0,8878,8890,8882,9273,52.1,52.2,52.8,56.6,2.775,2.957,2.944,2.986,3.69,297.6,27.8,79.7,1019.38,-32.91,0.76,1.47,21.5,41.3,31.2,0,no_anomaly,0.0,0,0,0,0,22.5726295,88.3639025,6.0,0.0
2024-05-03T14:18:06.100Z,MISSION_0015,61,0,transit,SITE_KOL_006,22.5726283,88.3639005,6.5,155.6,1.669,0.109,3.15,3.3504,-2.0605,155.6031,0.21066,0.02374,0.02477,0.97696,-0.0149,-0.0094,-9.7447,0.2054,0.9365,-0.4915,0.1788,3,14,0.8,1.08,0.56,24.651,14.75,89.7,36.0,19741.0,8852,9057,9037,8958,51.5,50.9,55.2,59.2,2.937,2.931,2.984,2.894,2.99,297.7,27.5,80.5,1019.22,-28.76,0.55,1.58,20.9,42.4,31.1,0,no_anomaly,0.0,0,0,0,0,22.5726283,88.3639005,6.5,0.0
2024-05-03T14:18:06.200Z,MISSION_0015,62,0,transit,SITE_KOL_006,22.572624,88.3638967,7.0,155.29,2.057,0.049,2.7,-5.3456,-0.5398,155.2904,0.21394,-0.00538,-0.04656,0.97572,0.0972,0.0184,-9.7601,0.8534,-0.3919,0.0819,0.1656,3,20,0.92,0.97,0.23,24.503,18.74,89.6,35.9,19720.0,8804,8962,9067,9117,51.8,51.5,54.2,50.2,2.767,2.549,2.51,2.767,3.76,299.4,27.7,79.0,1019.28,-23.88,2.18,1.52,24.5,34.4,31.0,0,no_anomaly,0.0,0,0,0,0,22.572624,88.3638967,7.0,0.0
2024-05-03T14:18:06.300Z,MISSION_0015,63,0,transit,SITE_KOL_006,22.5726159,88.363904,7.5,153.06,1.869,0.128,1.82,1.4557,-2.1736,153.0598,0.23264,0.0214,0.00793,0.97229,-0.0708,-0.0164,-9.8522,0.0058,0.1242,0.1918,0.1488,3,18,0.94,1.05,0.56,24.506,14.96,89.5,34.8,19699.0,8955,9253,8781,9028,55.4,51.4,51.6,55.7,2.898,2.633,2.831,3.023,3.51,307.1,27.8,78.5,1019.27,-32.37,1.42,1.32,24.6,33.8,27.9,0,no_anomaly,0.0,0,0,0,0,22.5726159,88.363904,7.5,0.0
2024-05-03T14:18:06.400Z,MISSION_0015,64,0,transit,SITE_KOL_006,22.5726142,88.3639013,8.0,151.69,1.983,0.06,1.59,-1.9641,-2.8148,151.6901,0.24484,0.01962,-0.02262,0.9691,0.118,0.0024,-9.7901,-0.6048,-0.2274,-0.4928,0.1648,3,13,0.84,1.22,0.34,24.486,21.52,89.4,36.5,19678.0,8749,8816,8930,9027,53.8,55.8,52.5,48.2,2.61,2.672,3.009,2.816,2.43,301.1,28.1,78.6,1019.4,-29.97,-1.19,1.15,25.6,39.4,31.3,0,no_anomaly,0.0,0,0,0,0,22.5726142,88.3639013,8.0,0.0
2024-05-03T14:18:06.500Z,MISSION_0015,65,0,transit,SITE_KOL_006,22.5726136,88.3639066,8.5,153.17,1.586,0.152,1.68,-2.4215,-2.4662,153.1703,0.23234,0.01603,-0.02554,0.97217,-0.1575,-0.0499,-9.8264,0.391,0.3748,-1.1747,0.2017,3,11,0.74,0.82,0.34,24.451,18.36,89.4,36.9,19657.0,8918,8919,9067,9034,54.8,49.8,54.4,55.3,2.865,2.643,2.864,2.884,3.12,284.5,27.7,78.4,1019.15,-34.27,0.73,1.15,20.5,38.9,29.2,0,no_anomaly,0.0,0,0,0,0,22.5726136,88.3639066,8.5,0.0
2024-05-03T14:18:06.600Z,MISSION_0015,66,0,transit,SITE_KOL_006,22.5726112,88.363906,9.0,154.43,0.954,0.018,1.42,0.8542,-2.8848,154.4293,0.22104,0.0262,0.0017,0.97491,0.1209,0.0025,-9.8488,0.5523,-0.384,0.4764,0.144,3,19,0.65,0.81,0.39,24.561,17.45,89.3,35.6,19637.0,8898,8893,8779,8737,51.1,51.5,51.1,55.5,2.614,2.688,2.804,2.573,3.74,288.0,27.8,77.9,1019.38,-28.07,0.18,1.36,19.2,32.5,28.4,0,no_anomaly,0.0,0,0,0,0,22.5726112,88.363906,9.0,0.0
2024-05-03T14:18:06.700Z,MISSION_0015,67,0,transit,SITE_KOL_006,22.5726089,88.3639078,9.5,155.16,1.716,0.195,1.31,-2.1038,-2.6397,155.1606,0.21539,0.01854,-0.02288,0.97608,-0.1165,-0.0219,-9.8641,1.4023,0.7535,-0.5194,0.0771,3,19,0.83,1.25,0.33,24.495,20.34,89.2,35.9,19616.0,9134,8988,9102,8947,52.5,53.0,54.5,52.9,2.723,3.017,2.555,2.646,3.7,305.6,27.6,80.3,1019.75,-31.38,-0.05,1.3,24.0,41.5,29.7,0,no_anomaly,0.0,0,0,0,0,22.5726089,88.3639078,9.5,0.0
2024-05-03T14:18:06.800Z,MISSION_0015,68,0,transit,SITE_KOL_006,22.5726044,88.3639079,10.0,157.22,1.64,0.126,1.01,-2.2684,-2.3397,157.22,0.1978,0.0161,-0.02343,0.97983,-0.0239,0.0672,-9.8543,0.0762,0.4478,-0.0845,0.1408,3,14,0.78,0.84,0.4,24.501,21.36,89.1,36.5,19595.0,9085,8871,8877,8868,50.6,53.1,53.2,51.3,2.836,2.815,2.795,2.769,4.33,292.2,28.1,78.8,1019.39,-30.88,0.87,1.53,21.1,35.8,31.2,0,no_anomaly,0.0,0,0,0,0,22.5726044,88.3639079,10.0,0.0
2024-05-03T14:18:06.900Z,MISSION_0015,69,0,transit,SITE_KOL_006,22.5726042,88.3639118,10.5,159.67,1.466,0.056,1.4,-2.105,-1.4953,159.6661,0.17671,0.0096,-0.02038,0.98401,0.1321,-0.0734,-9.8237,-0.2322,-0.5793,0.0353,0.1915,3,17,0.83,0.72,0.47,24.454,18.81,89.0,35.9,19574.0,9058,8687,9073,8962,50.1,49.9,53.0,52.8,2.723,2.732,2.55,2.914,3.86,295.9,28.1,79.1,1019.33,-32.64,-0.89,1.52,20.3,32.2,30.1,0,no_anomaly,0.0,0,0,0,0,22.5726042,88.3639118,10.5,0.0
2024-05-03T14:18:07.000Z,MISSION_0015,70,0,transit,SITE_KOL_006,22.5726013,88.3639125,11.0,159.67,1.195,0.168,1.4,-1.7644,-1.9445,159.6708,0.17669,0.01398,-0.01815,0.984,0.1134,0.002,-9.8898,-0.4271,0.6745,-0.1449,0.1496,3,10,0.86,1.01,0.25,24.505,18.93,88.9,36.6,19553.0,9247,8988,8881,9045,55.4,55.4,50.2,53.1,2.663,2.752,2.744,2.659,1.93,294.5,28.3,78.9,1019.6,-28.49,-1.27,1.3,22.9,37.0,29.7,0,no_anomaly,0.0,0,0,0,0,22.5726013,88.3639125,11.0,0.0
2024-05-03T14:18:07.100Z,MISSION_0015,71,0,transit,SITE_KOL_006,22.5726051,88.363917,11.5,161.31,1.549,0.177,1.97,3.2625,-2.2719,161.3094,0.16173,0.02418,0.02487,0.98623,-0.0666,0.0382,-9.7761,0.3719,-0.958,-0.0262,0.1021,3,13,0.82,1.05,0.38,24.482,16.76,88.8,35.6,19532.0,9251,8722,8730,8802,50.6,52.7,54.5,55.0,3.096,2.801,2.49,2.786,2.6,304.5,27.9,79.6,1019.61,-32.08,-1.98,1.32,21.8,33.0,30.4,0,no_anomaly,0.0,0,0,0,0,22.5726051,88.363917,11.5,0.0
2024-05-03T14:18:07.200Z,MISSION_0015,72,0,transit,SITE_KOL_006,22.572606,88.3639164,12.0,164.36,2.173,0.177,1.95,1.4224,-1.8611,164.3634,0.1358,0.01778,0.01009,0.99052,0.1683,-0.0208,-9.7715,-0.281,0.36,0.2618,0.1637,3,18,0.65,0.89,0.32,24.528,22.47,88.7,36.0,19511.0,8934,8913,8949,8985,51.6,52.2,53.5,52.7,2.765,2.801,2.901,2.856,3.13,294.2,27.8,80.1,1019.6,-29.38,-0.77,1.56,23.4,35.9,28.2,0,no_anomaly,0.0,0,0,0,0,22.572606,88.3639164,12.0,0.0
2024-05-03T14:18:07.300Z,MISSION_0015,73,0,transit,SITE_KOL_006,22.5726037,88.3639186,12.5,165.3,2.15,0.05,2.12,-1.0865,-3.8175,165.2971,0.12819,0.03182,-0.01366,0.99114,0.0602,0.0134,-9.8915,0.2256,-0.144,-0.4051,0.1894,3,20,0.68,0.82,0.28,24.514,22.57,88.6,35.8,19491.0,9192,9117,9205,9054,51.6,52.2,53.7,54.1,2.706,3.038,2.798,2.94,3.51,303.2,28.0,79.6,1019.14,-25.05,-0.55,1.85,27.4,39.3,34.6,0,no_anomaly,0.0,0,0,0,0,22.5726037,88.3639186,12.5,0.0
2024-05-03T14:18:07.400Z,MISSION_0015,74,0,transit,SITE_KOL_006,22.572605,88.3639215,13.0,167.19,2.222,0.103,2.45,1.4272,-0.9626,167.1901,0.11144,0.00974,0.01144,0.99366,0.0397,0.0395,-9.9092,1.0656,0.3218,0.2553,0.2467,3,15,0.68,0.84,0.31,24.512,15.05,88.5,36.0,19470.0,8825,8989,8884,8925,51.5,53.3,51.3,49.6,2.488,2.669,2.981,2.895,3.17,302.8,27.8,79.6,1019.48,-30.63,0.24,1.33,25.4,33.7,30.4,0,no_anomaly,0.0,0,0,0,0,22.572605,88.3639215,13.0,0.0
2024-05-03T14:18:07.500Z,MISSION_0015,75,0,transit,SITE_KOL_006,22.5726063,88.3639184,13.5,169.13,2.033,0.107,2.16,0.4188,-3.268,169.1314,0.09456,0.02873,0.00094,0.9951,-0.0377,0.012,-9.7706,0.3865,0.3542,0.0892,0.107,3,18,0.56,0.6,0.24,24.486,22.97,88.4,36.1,19449.0,8942,8975,8882,9015,54.6,50.3,53.1,52.5,2.997,2.945,2.834,3.001,3.26,295.4,27.9,79.4,1019.31,-27.36,0.59,1.18,25.1,35.9,30.8,0,no_anomaly,0.0,0,0,0,0,22.5726063,88.3639184,13.5,0.0
2024-05-03T14:18:07.600Z,MISSION_0015,76,0,transit,SITE_KOL_006,22.5726049,88.3639128,14.0,166.77,1.959,-0.004,1.53,-3.7268,-1.9496,166.7671,0.11569,0.01314,-0.03425,0.99261,-0.0015,-0.0013,-9.8286,0.5586,0.5414,0.0063,0.1502,3,19,0.76,0.95,0.48,24.408,15.62,88.3,35.5,19428.0,8944,9101,8979,8864,54.3,54.0,47.7,55.9,2.86,2.843,2.754,2.738,2.98,294.8,27.6,78.6,1019.39,-27.53,-0.13,1.27,23.6,41.5,32.1,0,no_anomaly,0.0,0,0,0,0,22.5726049,88.3639128,14.0,0.0
2024-05-03T14:18:07.700Z,MISSION_0015,77,0,transit,SITE_KOL_006,22.5726051,88.363911,14.5,167.42,1.82,0.018,1.34,3.2213,-0.6292,167.4217,0.10935,0.00853,0.02734,0.99359,-0.2084,0.0602,-9.8701,-0.4813,0.7594,0.064,0.1238,3,11,0.52,0.94,0.2,24.489,18.47,88.2,36.3,19407.0,8824,8899,8765,9049,53.6,50.3,51.8,53.8,2.9,2.973,2.797,2.906,3.37,295.1,28.2,79.2,1019.7,-28.9,-2.06,1.35,23.7,38.2,31.6,0,no_anomaly,0.0,0,0,0,0,22.5726051,88.363911,14.5,0.0
2024-05-03T14:18:07.800Z,MISSION_0015,78,0,transit,SITE_KOL_006,22.5726041,88.3639127,15.0,168.6,2.178,0.072,1.48,-3.8528,-2.3322,168.6004,0.09992,0.0169,-0.03546,0.99422,-0.1699,0.0221,-9.802,0.3664,0.5622,0.0353,0.0777,3,19,0.73,0.64,0.38,24.45,20.79,88.1,35.9,19386.0,9118,8693,8718,8861,54.8,51.9,54.2,57.7,2.687,2.874,2.984,2.762,2.46,296.3,27.7,78.4,1019.53,-33.89,0.56,1.47,23.7,42.6,31.2,0,no_anomaly,0.0,0,0,0,0,22.5726041,88.3639127,15.0,0.0
2024-05-03T14:18:07.900Z,MISSION_0015,79,0,transit,SITE_KOL_006,22.5726056,88.3639119,15.5,167.71,2.198,0.048,1.47,1.2758,-2.6523,167.7081,0.10677,0.0242,0.00859,0.99395,0.1876,-0.065,-9.7812,-0.4213,-0.0859,-0.037,0.128,3,13,0.89,0.64,0.31,24.447,16.88,88.0,36.3,19365.0,9048,9258,8932,8891,53.7,47.5,51.0,55.5,2.644,2.742,2.621,2.884,3.24,297.7,28.2,80.2,1019.68,-32.63,-0.21,1.68,21.1,35.2,31.4,0,no_anomaly,0.0,0,0,0,0,22.5726056,88.3639119,15.5,0.0
2024-05-03T14:18:08.000Z,MISSION_0015,80,0,transit,SITE_KOL_006,22.5726057,88.3639069,16.0,166.36,2.352,0.117,1.0,-0.9408,-2.0421,166.3648,0.11883,0.01672,-0.01027,0.99272,0.0016,-0.0031,-9.8262,0.3714,-1.041,-0.369,0.1496,3,17,0.62,0.81,0.2,24.439,16.7,87.9,35.1,19345.0,9177,9039,8811,9170,52.4,53.3,52.4,50.7,2.755,2.729,2.894,2.976,3.31,289.6,27.9,78.8,1019.45,-28.87,0.8,1.2,25.5,36.1,30.2,0,no_anomaly,0.0,0,0,0,0,22.5726057,88.3639069,16.0,0.0
2024-05-03T14:18:08.100Z,MISSION_0015,81,0,transit,SITE_KOL_006,22.5726052,88.3639089,16.5,167.12,2.175,0.115,1.15,-3.1142,-0.3265,167.1206,0.11219,-0.00022,-0.02732,0.99331,-0.0782,0.0093,-9.8323,0.4227,0.9684,-0.3631,0.1479,3,20,0.78,0.75,0.25,24.451,20.64,87.8,36.7,19324.0,9205,9007,9030,8885,52.0,55.6,51.1,54.4,2.585,2.716,2.608,2.788,2.74,303.7,27.8,78.7,1019.53,-30.38,-1.35,1.71,25.0,36.1,31.1,0,no_anomaly,0.0,0,0,0,0,22.5726052,88.3639089,16.5,0.0
2024-05-03T14:18:08.200Z,MISSION_0015,82,0,transit,SITE_KOL_006,22.5726078,88.3639086,17.0,168.34,1.928,0.096,1.29,-1.0702,1.1282,168.3367,0.1015,-0.01074,-0.00829,0.99474,0.1012,-0.0844,-9.7322,1.2761,-0.1739,-0.1531,0.2024,3,10,0.82,0.93,0.31,24.504,25.13,87.7,36.9,19303.0,9246,8988,8997,8987,55.7,49.1,51.6,52.6,2.671,2.903,2.822,2.591,3.13,286.1,27.7,79.6,1019.33,-33.56,0.64,1.0,23.3,38.2,32.6,0,no_anomaly,0.0,0,0,0,0,22.5726078,88.3639086,17.0,0.0
2024-05-03T14:18:08.300Z,MISSION_0015,83,0,transit,SITE_KOL_006,22.5726076,88.3639122,17.5,167.37,1.797,0.117,1.6,0.602,-3.3959,167.3686,0.1098,0.03003,0.00196,0.9935,0.0186,-0.1025,-9.8232,0.9599,-0.3248,-0.3363,0.2238,3,20,0.6,1.01,0.23,24.579,20.65,87.6,35.0,19282.0,8892,8900,8861,9000,53.8,47.0,54.2,54.5,2.636,2.894,2.824,2.595,3.97,297.4,28.1,79.1,1019.63,-32.68,0.34,2.05,20.0,35.7,29.5,0,no_anomaly,0.0,0,0,0,0,22.5726076,88.3639122,17.5,0.0
2024-05-03T14:18:08.400Z,MISSION_0015,84,0,transit,SITE_KOL_006,22.5726105,88.3639117,18.0,170.41,1.619,0.067,1.75,-0.3147,-3.9964,170.4073,0.08366,0.03452,-0.00565,0.99588,-0.0593,0.0286,-9.8242,-0.0142,0.264,0.2653,0.172,3,20,0.67,0.77,0.33,24.424,16.36,87.6,35.5,19261.0,9093,9025,9038,8886,52.0,50.8,55.2,57.6,3.029,2.845,2.749,2.677,3.25,293.6,28.0,79.0,1019.41,-30.05,-1.11,1.56,26.0,33.2,31.2,0,no_anomaly,0.0,0,0,0,0,22.5726105,88.3639117,18.0,0.0
2024-05-03T14:18:08.500Z,MISSION_0015,85,0,transit,SITE_KOL_006,22.5726198,88.363916,18.5,170.08,1.881,0.091,2.84,-1.7149,-2.6941,170.0847,0.08674,0.02212,-0.01694,0.99584,0.0121,-0.0262,-9.8135,-0.1006,-0.4156,0.2516,0.1588,3,14,0.61,0.88,0.26,24.547,18.25,87.5,35.7,19240.0,8749,8844,9031,9074,52.4,54.2,52.2,51.7,2.801,2.973,2.841,2.88,3.2,301.0,27.7,80.0,1019.74,-25.51,-1.29,1.52,21.5,38.0,29.5,0,no_anomaly,0.0,0,0,0,0,22.5726198,88.363916,18.5,0.0
2024-05-03T14:18:08.600Z,MISSION_0015,86,0,transit,SITE_KOL_006,22.5726136,88.3639151,19.0,169.55,1.858,0.069,2.26,4.8359,-0.9684,169.5546,0.09059,0.01225,0.04124,0.99496,0.0312,-0.0749,-9.7587,-0.3837,-0.4749,-0.0909,0.0856,3,16,0.7,0.86,0.3,24.526,19.25,87.4,35.9,19219.0,8996,8978,8906,9169,56.5,54.8,52.1,53.5,3.035,2.724,3.148,2.783,3.8,289.0,27.8,79.1,1019.39,-31.75,2.16,1.35,23.3,42.0,30.6,0,no_anomaly,0.0,0,0,0,0,22.5726136,88.3639151,19.0,0.0
2024-05-03T14:18:08.700Z,MISSION_0015,87,0,transit,SITE_KOL_006,22.5726111,88.3639171,19.2,169.93,1.795,0.056,2.27,-1.4481,1.5028,169.9347,0.08754,-0.01417,-0.01144,0.99599,0.1343,-0.0191,-9.731,0.1731,-0.8017,-0.2477,0.2282,3,15,0.55,0.69,0.2,24.454,18.9,87.3,36.9,19199.0,8959,8906,8949,9112,48.8,48.2,56.5,54.9,2.727,2.685,2.826,2.654,3.35,308.2,27.6,79.5,1019.35,-22.39,1.6,1.31,24.3,35.0,34.5,0,no_anomaly,0.0,0,0,0,0,22.5726111,88.3639171,19.2,0.0
2024-05-03T14:18:08.800Z,MISSION_0015,88,0,transit,SITE_KOL_006,22.5726063,88.3639189,19.2,169.8,1.349,0.035,2.22,0.1827,-2.1349,169.8047,0.08881,0.0187,-7e-05,0.99587,0.0392,-0.0813,-9.8928,-0.3636,-0.2723,-0.2039,0.1602,3,12,0.58,0.88,0.27,24.522,18.12,87.2,36.5,19178.0,8865,9028,9061,8977,57.3,54.0,55.7,52.9,2.625,2.57,2.811,2.835,3.27,294.7,27.6,79.0,1019.34,-31.69,-0.24,1.77,23.9,41.9,31.7,0,no_anomaly,0.0,0,0,0,0,22.5726063,88.3639189,19.2,0.0
2024-05-03T14:18:08.900Z,MISSION_0015,89,0,transit,SITE_KOL_006,22.572606,88.3639093,19.2,171.04,1.381,0.158,1.23,-4.5748,1.1017,171.039,0.07767,-0.0127,-0.03904,0.99613,0.0864,0.0165,-9.7999,-0.5226,-0.6237,0.4104,0.128,3,18,0.7,0.89,0.23,24.553,16.94,87.1,37.3,19157.0,8952,9001,8913,8736,50.9,52.6,52.1,53.7,2.865,2.713,2.976,2.906,3.63,299.0,28.1,79.1,1019.68,-31.54,0.57,1.58,20.0,39.6,29.8,0,no_anomaly,0.0,0,0,0,0,22.572606,88.3639093,19.2,0.0
2024-05-03T14:18:09.000Z,MISSION_0015,90,0,transit,SITE_KOL_006,22.5726049,88.363906,19.2,170.24,1.563,0.057,0.87,1.3813,-2.1562,170.2425,0.0848,0.01977,0.01041,0.99615,0.0007,-0.0376,-9.788,-0.4578,-0.6945,0.3858,0.2376,3,12,0.52,0.92,0.21,24.471,18.34,87.0,36.5,19136.0,8760,8955,9054,8824,51.7,50.9,49.7,51.6,2.821,2.885,2.793,2.832,3.06,302.4,27.7,79.5,1019.19,-30.88,1.67,1.17,20.3,40.2,29.3,0,no_anomaly,0.0,0,0,0,0,22.5726049,88.363906,19.2,0.0
2024-05-03T14:18:09.100Z,MISSION_0015,91,0,transit,SITE_KOL_006,22.5726045,88.3639065,19.2,168.65,1.571,0.078,0.88,3.6612,-4.1705,168.648,0.09763,0.03935,0.02817,0.99405,-0.1493,0.0071,-9.7214,-0.7771,0.2044,-0.3469,0.1903,3,12,0.62,0.96,0.24,24.497,21.09,86.9,35.8,19115.0,9018,9027,9082,9108,52.1,54.3,51.9,49.2,2.691,2.903,2.867,2.586,2.88,287.8,27.3,78.8,1019.57,-37.36,0.98,1.08,26.3,37.4,31.7,0,no_anomaly,0.0,0,0,0,0,22.5726045,88.3639065,19.2,0.0
2024-05-03T14:18:09.200Z,MISSION_0015,92,0,transit,SITE_KOL_006,22.5726023,88.3639107,19.2,169.68,1.28,0.081,1.22,2.3443,-2.0261,169.6777,0.08956,0.01944,0.01878,0.99561,-0.099,0.0153,-9.7105,0.1705,-0.1815,-0.1348,0.2538,3,18,0.8,1.0,0.31,24.476,19.6,86.8,35.7,19094.0,8676,9212,8819,8959,51.9,52.3,51.4,52.8,2.965,2.97,2.789,2.865,2.75,301.3,27.8,78.6,1019.35,-28.95,-2.53,1.82,23.4,40.4,30.7,0,no_anomaly,0.0,0,0,0,0,22.5726023,88.3639107,19.2,0.0
2024-05-03T14:18:09.300Z,MISSION_0015,93,0,transit,SITE_KOL_006,22.5726012,88.3639121,19.2,169.25,0.979,0.131,1.36,1.6156,-1.1635,169.2464,0.09355,0.01143,0.01308,0.99546,0.1223,0.0058,-9.7782,-0.3709,-0.6526,0.358,0.1096,3,18,0.85,1.03,0.35,24.381,12.02,86.7,37.1,19073.0,9175,9073,8954,8904,58.3,52.9,48.4,50.3,2.863,2.836,2.576,2.491,3.27,301.0,28.0,78.4,1019.45,-31.35,-0.6,1.48,21.9,32.8,30.2,0,no_anomaly,0.0,0,0,0,0,22.5726012,88.3639121,19.2,0.0
2024-05-03T14:18:09.400Z,MISSION_0015,94,0,transit,SITE_KOL_006,22.5726047,88.3639086,19.2,170.27,0.992,0.075,1.09,1.0102,-3.4913,170.2666,0.08453,0.0311,0.0062,0.99592,-0.1467,0.0003,-9.8308,0.3352,0.2305,0.0323,0.1957,3,14,0.6,0.84,0.25,24.397,22.24,86.6,36.1,19053.0,9153,8871,9081,9041,50.1,52.0,56.2,53.4,2.754,2.837,2.614,2.901,1.92,289.4,28.0,78.7,1019.83,-31.49,-0.48,1.84,21.1,34.3,27.4,0,no_anomaly,0.0,0,0,0,0,22.5726047,88.3639086,19.2,0.0
2024-05-03T14:18:09.500Z,MISSION_0015,95,0,transit,SITE_KOL_006,22.5726065,88.3639079,19.2,171.01,1.3,0.075,1.14,0.9167,0.0675,171.0105,0.07837,4e-05,0.00802,0.99689,-0.0851,-0.0414,-9.8161,-0.1109,0.6881,-0.2465,0.1356,3,14,0.57,0.7,0.2,24.51,17.74,86.5,36.1,19032.0,9075,8990,8733,9147,55.5,56.1,52.7,54.2,2.838,2.522,2.941,2.688,2.97,304.2,27.8,78.6,1019.82,-30.87,-0.14,1.89,20.8,35.3,29.7,0,no_anomaly,0.0,0,0,0,0,22.5726065,88.3639079,19.2,0.0
2024-05-03T14:18:09.600Z,MISSION_0015,96,0,transit,SITE_KOL_006,22.5726047,88.3639083,19.2,169.57,1.201,-0.016,1.06,-5.2805,-2.3251,169.5674,0.09173,0.016,-0.04771,0.99451,-0.0288,0.0624,-9.776,0.459,0.5068,-0.3301,0.1393,3,16,0.76,0.78,0.26,24.417,21.22,86.4,35.8,19011.0,8915,8987,9171,9082,51.3,48.7,54.5,56.2,2.995,2.831,2.796,2.769,1.42,301.1,27.7,79.5,1019.64,-30.67,-0.59,1.78,24.3,35.7,26.9,0,no_anomaly,0.0,0,0,0,0,22.5726047,88.3639083,19.2,0.0
2024-05-03T14:18:09.700Z,MISSION_0015,97,0,transit,SITE_KOL_006,22.5726043,88.36391,19.2,169.72,1.224,0.087,1.21,5.429,-4.6409,169.7223,0.08749,0.04452,0.04351,0.99422,0.0357,0.0519,-9.7748,0.0379,-0.2469,-0.1357,0.1989,3,10,0.63,0.79,0.2,24.455,16.34,86.3,35.5,18990.0,8871,9255,9177,9034,50.1,49.6,55.6,51.8,2.595,2.853,2.867,2.606,2.97,294.2,27.8,79.4,1019.81,-26.38,-0.65,1.67,22.4,36.9,31.0,0,no_anomaly,0.0,0,0,0,0,22.5726043,88.36391,19.2,0.0
2024-05-03T14:18:09.800Z,MISSION_0015,98,0,transit,SITE_KOL_006,22.5726055,88.363916,19.2,170.05,1.359,0.004,1.88,-0.7152,-2.139,170.0546,0.08678,0.01805,-0.00783,0.99603,0.1646,0.026,-9.8883,-0.2674,-0.6423,-0.1032,0.1448,3,19,0.55,0.76,0.2,24.311,17.84,86.2,36.3,18969.0,8887,8826,8871,9012,52.9,54.5,51.4,54.3,2.678,2.528,2.999,2.977,3.01,302.1,27.6,79.6,1019.23,-31.86,1.2,1.44,22.9,40.4,32.4,0,no_anomaly,0.0,0,0,0,0,22.5726055,88.363916,19.2,0.0
2024-05-03T14:18:09.900Z,MISSION_0015,99,0,transit,SITE_KOL_006,22.5726068,88.3639134,19.2,168.71,1.256,0.079,1.67,-1.1923,-2.3443,168.7146,0.09851,0.01933,-0.01236,0.99487,0.0242,-0.0579,-9.7943,0.3117,0.08,0.3696,0.2262,3,12,0.79,1.21,0.47,24.473,15.46,86.1,35.6,18948.0,8975,8947,9395,8731,52.9,52.9,53.9,54.2,2.784,2.692,2.683,2.913,3.28,300.0,27.6,79.2,1019.62,-24.86,-0.39,1.12,21.0,37.4,27.9,0,no_anomaly,0.0,0,0,0,0,22.5726068,88.3639134,19.2,0.0
2024-05-03T14:18:10.000Z,MISSION_0015,100,0,transit,SITE_KOL_006,22.5726052,88.363916,19.2,169.54,1.33,0.135,1.87,2.3049,-2.9776,169.5362,0.09062,0.0277,0.01765,0.99534,-0.1185,-0.0245,-9.8673,-0.5647,0.0463,-0.1963,0.1495,3,16,0.75,0.77,0.32,24.32,18.29,86.0,35.8,18927.0,8909,9085,8755,8894,57.5,57.5,54.0,54.3,2.995,3.116,2.8,2.6,2.77,297.2,28.0,78.6,1019.12,-27.06,0.14,1.87,23.6,41.9,32.8,0,no_anomaly,0.0,0,0,0,0,22.5726052,88.363916,19.2,0.0
2024-05-03T14:18:10.100Z,MISSION_0015,101,0,transit,SITE_KOL_006,22.5726089,88.3639122,19.2,169.13,1.429,0.007,1.67,-3.7822,-1.2378,169.1327,0.09499,0.00762,-0.03387,0.99487,0.0885,0.0342,-9.8642,-0.3735,0.312,0.2507,0.1547,3,11,0.5,0.75,0.2,24.421,19.44,85.9,35.5,18907.0,9065,8949,9249,9115,52.9,52.7,51.7,50.4,2.819,2.705,2.825,3.102,2.76,289.9,27.9,78.8,1019.42,-30.43,-0.24,1.47,21.8,41.7,26.9,0,no_anomaly,0.0,0,0,0,0,22.5726089,88.3639122,19.2,0.0
2024-05-03T14:18:10.200Z,MISSION_0015,102,0,transit,SITE_KOL_006,22.5726075,88.3639117,19.2,170.06,1.389,0.144,1.55,-2.0662,-2.4062,170.0578,0.087,0.01935,-0.01978,0.99582,0.1883,0.0305,-9.8339,-0.3169,-1.0727,0.2904,0.162,3,20,0.68,1.02,0.23,24.376,22.48,85.8,36.0,18886.0,8999,9104,8718,9097,55.8,52.3,54.3,48.3,2.869,2.573,2.858,2.927,2.73,289.7,28.3,78.6,1019.43,-26.22,-0.34,1.36,28.0,37.5,33.8,0,no_anomaly,0.0,0,0,0,0,22.5726075,88.3639117,19.2,0.0
2024-05-03T14:18:10.300Z,MISSION_0015,103,0,transit,SITE_KOL_006,22.5726145,88.3639151,19.2,169.33,2.026,0.075,2.33,-1.5442,-0.5812,169.3295,0.09304,0.0038,-0.01389,0.99556,0.2918,0.0348,-9.7929,-0.1708,-0.3679,0.6579,0.2013,3,16,0.64,1.12,0.25,24.454,15.77,85.7,36.0,18865.0,8917,9090,8606,9341,54.4,51.9,52.8,52.0,2.873,2.878,2.752,2.566,2.89,300.8,27.7,78.8,1019.21,-27.18,-1.05,1.65,23.6,43.1,29.2,0,no_anomaly,0.0,0,0,0,0,22.5726145,88.3639151,19.2,0.0
2024-05-03T14:18:10.400Z,MISSION_0015,104,0,transit,SITE_KOL_006,22.5726121,88.3639237,19.2,168.32,1.966,0.027,2.96,2.2329,-3.7317,168.3198,0.10105,0.03437,0.01606,0.99416,-0.06,0.0192,-9.7837,0.3654,0.4524,-0.0131,0.2117,3,16,0.82,0.86,0.31,24.402,18.51,85.7,36.1,18844.0,9136,9150,9116,9114,53.6,54.8,52.3,56.4,2.762,2.787,2.741,3.068,2.89,295.8,27.9,79.4,1019.51,-30.02,1.05,1.54,20.3,42.5,32.3,0,no_anomaly,0.0,0,0,0,0,22.5726121,88.3639237,19.2,0.0
2024-05-03T14:18:10.500Z,MISSION_0015,105,0,transit,SITE_KOL_006,22.572614,88.3639237,19.2,166.74,1.979,0.006,3.06,2.5847,-0.2599,166.7406,0.11537,0.00486,0.02214,0.99306,-0.0455,-0.0288,-9.7863,-0.482,0.1558,0.2188,0.2234,3,16,0.7,0.93,0.22,24.483,19.89,85.6,35.2,18823.0,8895,8973,9056,8867,52.1,55.1,50.0,49.8,2.631,3.041,2.918,2.683,3.6,305.0,27.9,79.5,1019.64,-35.52,1.0,1.53,26.5,42.6,29.5,0,no_anomaly,0.0,0,0,0,0,22.572614,88.3639237,19.2,0.0
2024-05-03T14:18:10.600Z,MISSION_0015,106,0,transit,SITE_KOL_006,22.5726156,88.363925,19.2,168.16,2.011,0.045,3.28,0.309,-2.2948,168.1606,0.10306,0.0202,0.00062,0.99447,-0.0389,-0.0978,-9.812,-0.6901,0.0775,-0.2648,0.2071,3,13,0.66,0.85,0.31,24.517,18.42,85.5,36.3,18802.0,8913,8870,9106,8879,52.0,54.5,53.6,51.1,2.551,2.886,2.832,2.995,3.78,305.9,27.9,79.0,1019.64,-25.87,1.46,1.48,22.5,40.3,30.8,0,no_anomaly,0.0,0,0,0,0,22.5726156,88.363925,19.2,0.0
2024-05-03T14:18:10.700Z,MISSION_0015,107,0,transit,SITE_KOL_006,22.5726205,88.3639282,19.2,167.02,2.331,0.063,3.88,0.0891,-0.3917,167.0222,0.11301,0.00348,0.00039,0.99359,0.1457,-0.0114,-9.7989,0.3497,0.1027,0.1143,0.1499,3,16,0.59,0.86,0.28,24.531,22.32,85.4,35.7,18781.0,8926,8852,8957,9323,53.0,52.6,49.3,52.2,2.885,2.756,2.776,3.017,3.12,290.9,27.7,78.8,1019.73,-32.44,0.12,1.78,23.8,34.6,28.7,0,no_anomaly,0.0,0,0,0,0,22.5726205,88.3639282,19.2,0.0
2024-05-03T14:18:10.800Z,MISSION_0015,108,0,transit,SITE_KOL_006,22.5726218,88.3639348,19.2,168.92,2.611,0.108,4.57,-5.1498,-0.8977,168.9211,0.09678,0.00345,-0.04547,0.99426,-0.1283,0.0116,-9.8094,-0.3207,0.4144,0.247,0.1084,3,17,0.71,0.76,0.28,24.44,18.07,85.3,36.2,18761.0,8909,8837,9106,8947,52.8,55.2,54.7,54.0,2.771,2.347,2.811,2.787,2.68,304.7,27.9,78.4,1019.5,-28.14,0.76,1.32,21.3,34.4,31.9,0,no_anomaly,0.0,0,0,0,0,22.5726218,88.3639348,19.2,0.0
2024-05-03T14:18:10.900Z,MISSION_0015,109,0,transit,SITE_KOL_006,22.5726188,88.3639356,19.2,169.66,2.884,0.181,4.48,-2.8657,-2.6752,169.6615,0.09063,0.02099,-0.027,0.9953,-0.0584,-0.0708,-9.8361,0.4711,0.0314,0.2741,0.1081,3,14,0.71,0.81,0.2,24.337,24.3,85.2,36.5,18740.0,8781,8740,9045,9358,54.1,55.8,53.5,58.6,2.708,2.877,2.968,2.812,2.6,294.7,28.0,79.0,1019.08,-28.24,-1.63,1.04,21.5,39.8,31.8,0,no_anomaly,0.0,0,0,0,0,22.5726188,88.3639356,19.2,0.0
2024-05-03T14:18:11.000Z,MISSION_0015,110,0,transit,SITE_KOL_006,22.5726185,88.3639373,19.2,165.17,3.165,0.087,4.64,-0.1751,-4.7958,165.1654,0.12905,0.04129,-0.00692,0.99075,0.0532,-0.0085,-9.778,0.0202,0.185,-0.1059,0.1844,3,16,0.66,0.81,0.21,24.469,22.4,85.1,35.8,18719.0,8948,8724,8988,8938,54.9,47.3,55.5,57.1,3.012,2.491,2.561,2.849,3.61,293.6,27.8,79.0,1019.17,-34.87,-0.72,1.34,25.7,41.7,30.0,0,no_anomaly,0.0,0,0,0,0,22.5726185,88.3639373,19.2,0.0
2024-05-03T14:18:11.100Z,MISSION_0015,111,0,transit,SITE_KOL_006,22.5726168,88.3639381,19.2,166.29,2.472,0.086,4.63,1.0622,-1.7359,166.2901,0.1192,0.01615,0.00739,0.99271,0.2723,0.0305,-9.8395,-0.6912,0.4643,-0.2375,0.161,3,10,0.73,1.07,0.33,24.406,14.44,85.0,35.4,18698.0,8914,9173,8768,9055,53.5,51.3,53.4,53.2,2.608,2.565,2.785,2.737,2.73,299.6,28.1,80.0,1018.94,-31.08,0.32,1.64,23.8,39.9,29.2,0,no_anomaly,0.0,0,0,0,0,22.5726168,88.3639381,19.2,0.0
2024-05-03T14:18:11.200Z,MISSION_0015,112,0,transit,SITE_KOL_006,22.5726134,88.3639384,19.2,163.93,2.363,0.08,4.52,0.3305,-1.6385,163.9268,0.13975,0.01456,0.00086,0.99008,0.0881,-0.0522,-9.7797,-0.4828,0.7242,0.1734,0.1861,3,19,0.69,0.91,0.2,24.434,20.19,84.9,36.0,18677.0,8848,8824,8883,9020,50.9,51.4,56.0,49.7,3.121,2.565,3.059,2.608,3.46,289.0,27.9,79.4,1019.21,-30.9,-0.8,1.2,24.4,33.8,30.3,0,no_anomaly,0.0,0,0,0,0,22.5726134,88.3639384,19.2,0.0
2024-05-03T14:18:11.300Z,MISSION_0015,113,0,transit,SITE_KOL_006,22.5726183,88.3639363,19.2,162.6,1.962,0.072,4.52,1.825,-0.6966,162.596,0.15118,0.00842,0.01482,0.98836,0.1162,-0.0765,-9.8521,-0.5246,0.5668,0.2825,0.1841,3,20,0.77,0.81,0.37,24.461,24.57,84.8,35.6,18656.0,9208,9179,9040,9244,55.1,54.2,52.8,52.5,2.699,2.578,2.774,2.811,2.27,291.2,28.1,78.8,1019.77,-28.27,0.09,1.36,24.8,43.5,31.8,0,no_anomaly,0.0,0,0,0,0,22.5726183,88.3639363,19.2,0.0
2024-05-03T14:18:11.400Z,MISSION_0015,114,0,transit,SITE_KOL_006,22.5726235,88.3639388,19.2,163.34,2.226,0.084,5.05,-2.3596,-1.3465,163.3392,0.14508,0.00864,-0.02207,0.98914,0.1118,-0.0183,-9.788,0.3536,0.4268,-0.2456,0.1649,3,14,0.51,0.81,0.2,24.46,20.91,84.7,36.9,18635.0,8910,8877,8782,8979,54.2,51.7,52.8,50.9,2.707,2.715,2.752,2.889,3.05,296.4,28.0,78.5,1019.08,-35.19,1.02,1.65,24.9,33.6,32.0,0,no_anomaly,0.0,0,0,0,0,22.5726235,88.3639388,19.2,0.0
2024-05-03T14:18:11.500Z,MISSION_0015,115,0,transit,SITE_KOL_006,22.5726279,88.3639326,19.2,160.33,1.781,0.222,4.77,2.8494,-1.4834,160.3272,0.17045,0.017,0.02228,0.98497,0.0666,0.0529,-9.8936,0.2745,0.5531,-0.1931,0.1936,3,10,0.63,0.98,0.31,24.365,18.24,84.6,36.3,18614.0,8928,9038,8918,8920,50.6,57.3,51.7,54.2,2.758,2.893,2.959,3.254,2.28,296.8,28.0,79.1,1019.54,-32.78,-1.31,1.22,23.0,38.2,29.5,0,no_anomaly,0.0,0,0,0,0,22.5726279,88.3639326,19.2,0.0
2024-05-03T14:18:11.600Z,MISSION_0015,116,0,transit,SITE_KOL_006,22.5726277,88.3639374,19.2,157.17,1.823,0.129,5.18,-0.2204,-3.4702,157.1711,0.19787,0.0293,-0.00788,0.97976,-0.1666,0.026,-9.8094,-0.3579,-1.0596,-0.0903,0.088,3,11,0.72,0.96,0.41,24.408,18.42,84.5,35.8,18594.0,8843,9149,8947,9015,51.8,53.9,54.3,52.8,2.767,2.52,2.894,2.984,3.01,301.3,27.8,78.6,1019.47,-33.41,0.62,1.55,25.6,40.1,29.6,0,no_anomaly,0.0,0,0,0,0,22.5726277,88.3639374,19.2,0.0
2024-05-03T14:18:11.700Z,MISSION_0015,117,0,transit,SITE_KOL_006,22.5726256,88.3639312,19.2,156.38,1.901,0.071,4.49,2.6414,-5.1525,156.3785,0.2034,0.0487,0.01334,0.97779,0.1026,-0.003,-9.8183,-0.4801,0.6808,0.2833,0.0908,3,13,0.82,0.79,0.26,24.47,18.02,84.4,36.6,18573.0,8832,9155,8723,8670,55.6,53.2,53.0,54.9,2.763,2.785,2.918,2.806,2.49,294.2,28.2,79.3,1019.75,-27.78,-0.92,2.03,20.6,33.7,27.4,0,no_anomaly,0.0,0,0,0,0,22.5726256,88.3639312,19.2,0.0
2024-05-03T14:18:11.800Z,MISSION_0015,118,1,transit,SITE_KOL_006,22.572624,88.3639308,19.2,154.8,2.15,0.111,4.35,-0.7573,-1.2613,154.7983,0.21821,0.0093,-0.00885,0.97582,0.1127,-0.0635,-9.7241,0.2517,-0.3688,0.5316,0.1686,3,20,0.83,1.04,0.52,24.41,10.6,84.3,35.6,18552.0,9039,8867,9089,8833,53.3,51.0,49.2,56.4,2.771,2.802,2.877,2.513,1.97,293.1,28.0,78.8,1019.49,-34.7,0.35,1.44,25.6,38.1,32.6,0,no_anomaly,0.0,0,0,0,0,22.572624,88.3639308,19.2,0.0
2024-05-03T14:18:11.900Z,MISSION_0015,119,1,transit,SITE_KOL_006,22.5726244,88.3639307,19.2,153.64,2.361,0.141,4.36,0.7146,-0.0117,153.6396,0.22801,0.00152,0.00605,0.97364,0.107,-0.1003,-9.7897,-0.0386,0.9821,-0.4387,0.1335,3,10,0.71,1.05,0.32,24.397,15.66,84.2,36.5,18531.0,9031,9045,8886,8832,54.3,52.3,57.0,54.0,2.809,2.859,2.848,2.891,2.01,298.6,27.9,78.4,1019.56,-27.09,-0.01,1.12,21.2,41.2,29.0,0,no_anomaly,0.0,0,0,0,0,22.5726244,88.3639307,19.2,0.0
2024-05-03T14:18:12.000Z,MISSION_0015,120,1,transit,SITE_KOL_006,22.5726264,88.3639299,19.2,151.93,2.092,0.14,4.44,-0.7908,0.572,151.9264,0.2425,-0.00652,-0.00548,0.97011,-0.0356,-0.0223,-9.8282,0.5627,-0.0312,0.1387,0.1883,3,14,0.55,0.8,0.2,24.32,19.19,84.1,36.7,18510.0,9051,8808,8974,9269,52.8,52.8,53.8,54.9,2.745,2.577,2.818,2.892,3.39,298.9,27.7,79.4,1019.52,-28.12,0.68,1.6,25.1,42.5,30.3,0,no_anomaly,0.0,0,0,0,0,22.5726264,88.3639299,19.2,0.0
2024-05-03T14:18:12.100Z,MISSION_0015,121,1,transit,SITE_KOL_006,22.5726275,88.3639299,19.2,150.9,2.029,0.127,4.52,-1.1945,-1.697,150.9047,0.25129,0.01172,-0.01381,0.96774,0.1405,0.0002,-9.9134,-0.4458,0.2904,-0.2732,0.1727,3,19,0.68,0.85,0.24,24.339,21.69,84.0,36.7,18489.0,9051,8798,8807,8823,52.3,51.8,54.6,51.1,2.691,2.779,2.961,2.897,3.22,295.7,27.9,79.4,1019.12,-28.59,-0.11,1.0,23.4,42.0,30.7,0,no_anomaly,0.0,0,0,0,0,22.5726275,88.3639299,19.2,0.0
2024-05-03T14:18:12.200Z,MISSION_0015,122,1,transit,SITE_KOL_006,22.5726315,88.3639328,19.2,149.89,1.994,0.131,5.06,-1.0727,-1.2249,149.8869,0.25984,0.00789,-0.01182,0.96555,0.0156,-0.0683,-9.7736,0.2291,0.1621,0.508,0.1246,3,16,0.67,0.88,0.35,24.419,20.35,83.9,37.0,18468.0,9060,8786,8931,8708,50.0,47.4,53.0,54.2,2.856,2.566,2.727,2.889,2.85,305.1,27.8,79.7,1019.66,-30.53,0.44,1.66,24.7,37.4,32.1,0,no_anomaly,0.0,0,0,0,0,22.5726315,88.3639328,19.2,0.0
2024-05-03T14:18:12.300Z,MISSION_0015,123,1,transit,SITE_KOL_006,22.5726303,88.3639338,19.2,148.42,1.691,0.006,5.05,-2.7349,-1.0893,148.4183,0.27226,0.00265,-0.02555,0.96188,-0.0866,0.0243,-9.8211,0.6425,0.8029,0.059,0.1302,3,15,0.59,0.83,0.3,24.439,22.85,83.9,36.7,18448.0,8826,9037,9059,8981,49.8,53.0,55.8,54.0,2.777,2.763,2.871,2.918,2.76,299.7,27.9,79.6,1019.55,-29.24,0.45,1.27,23.7,40.2,31.9,0,no_anomaly,0.0,0,0,0,0,22.5726303,88.3639338,19.2,0.0
2024-05-03T14:18:12.400Z,MISSION_0015,124,1,transit,SITE_KOL_006,22.5726316,88.3639357,19.2,148.14,1.83,0.072,5.31,1.6135,-0.0322,148.1447,0.27439,0.00413,0.01346,0.96151,-0.0948,-0.0612,-9.728,-0.3125,0.4967,0.0849,0.2041,3,10,0.89,0.81,0.27,24.37,20.56,83.8,36.9,18427.0,8981,8948,9080,8901,54.1,50.0,54.0,50.7,2.902,2.658,2.733,2.96,3.82,286.6,27.7,79.1,1019.29,-32.6,0.48,1.91,24.6,39.3,31.6,0,no_anomaly,0.0,0,0,0,0,22.5726316,88.3639357,19.2,0.0
2024-05-03T14:18:12.500Z,MISSION_0015,125,1,transit,SITE_KOL_006,22.5726338,88.3639366,19.2,147.62,1.756,0.042,5.55,-1.4214,-3.7191,147.616,0.27908,0.0277,-0.02095,0.95964,0.0667,-0.0327,-9.8215,-0.3099,0.2187,0.1412,0.1549,3,12,0.62,0.99,0.26,24.481,16.91,83.7,36.6,18406.0,8838,8996,9063,8914,52.1,53.0,55.9,53.5,2.822,2.874,2.952,2.803,2.77,290.9,27.8,78.5,1019.38,-29.17,-0.12,2.02,23.2,39.3,31.1,0,no_anomaly,0.0,0,0,0,0,22.5726338,88.3639366,19.2,0.0
2024-05-03T14:18:12.600Z,MISSION_0015,126,1,transit,SITE_KOL_006,22.572639,88.3639334,19.2,151.4,1.449,0.048,5.72,1.7538,-3.3394,151.4039,0.2464,0.03201,0.00763,0.96861,0.0466,-0.0038,-9.7893,-0.335,-0.3008,0.1284,0.1612,3,14,0.8,0.86,0.24,24.35,13.44,83.6,35.9,18385.0,9087,8792,8971,9159,56.8,55.5,51.7,53.9,2.847,2.992,3.003,2.848,3.61,304.2,28.3,78.9,1019.21,-32.3,1.3,1.23,23.2,37.0,29.7,0,no_anomaly,0.0,0,0,0,0,22.572639,88.3639334,19.2,0.0
2024-05-03T14:18:12.700Z,MISSION_0015,127,1,transit,SITE_KOL_006,22.5726408,88.363935,19.2,148.21,1.097,0.148,5.99,3.7753,-1.2012,148.2125,0.27336,0.0191,0.02881,0.96129,0.0083,-0.1192,-9.8284,-0.0003,-0.0901,-0.0578,0.1275,3,17,0.85,1.01,0.31,24.406,26.21,83.5,35.1,18364.0,9147,9025,8860,9133,54.3,51.9,54.1,54.0,2.831,2.757,2.877,2.733,2.94,303.0,27.7,79.1,1019.44,-27.34,-0.27,1.99,21.0,40.2,28.8,0,no_anomaly,0.0,0,0,0,0,22.5726408,88.363935,19.2,0.0
2024-05-03T14:18:12.800Z,MISSION_0015,128,1,transit,SITE_KOL_006,22.5726428,88.3639376,19.2,149.97,1.122,0.121,6.34,2.5547,-0.2897,149.9673,0.25897,0.00822,0.02088,0.96562,-0.1881,0.0562,-9.7549,0.7894,0.1255,0.0101,0.0631,3,13,0.63,0.87,0.34,24.467,19.91,83.4,36.4,18343.0,8864,9095,9106,8822,51.0,51.4,51.7,51.8,2.99,2.648,2.913,2.671,2.93,295.4,27.8,78.9,1019.45,-25.14,-0.24,1.0,25.5,41.8,28.5,0,no_anomaly,0.0,0,0,0,0,22.5726428,88.3639376,19.2,0.0
2024-05-03T14:18:12.900Z,MISSION_0015,129,1,transit,SITE_KOL_006,22.5726475,88.36394,19.2,149.28,1.359,0.138,6.91,0.884,0.2643,149.2779,0.26491,-0.00018,0.00805,0.96424,-0.1041,-0.0221,-9.7511,-0.9945,-0.7463,-0.4243,0.2002,3,16,0.56,0.96,0.22,24.392,19.47,83.3,36.5,18322.0,9075,9058,9197,8905,52.0,52.8,52.4,51.3,2.725,2.814,2.8,2.76,3.81,291.6,28.0,78.7,1019.8,-31.77,-1.08,1.8,21.4,41.7,28.1,0,no_anomaly,0.0,0,0,0,0,22.5726475,88.36394,19.2,0.0
