timestamp_utc,mission_id,frame_id,waypoint_id,inspection_phase,site_id,latitude_deg,longitude_deg,altitude_m,heading_deg,ground_speed_ms,vertical_speed_ms,distance_to_tower_m,roll_deg,pitch_deg,yaw_deg,quat_w,quat_x,quat_y,quat_z,accel_x_ms2,accel_y_ms2,accel_z_ms2,gyro_x_rads,gyro_y_rads,gyro_z_rads,vibration_level,gps_fix_type,gps_satellite_count,gps_hdop,gps_vdop,position_error_m,battery_voltage_v,battery_current_a,battery_remaining_pct,battery_temp_c,battery_capacity_mah,motor_fl_rpm,motor_fr_rpm,motor_rl_rpm,motor_rr_rpm,motor_fl_temp_c,motor_fr_temp_c,motor_rl_temp_c,motor_rr_temp_c,motor_fl_thrust_n,motor_fr_thrust_n,motor_rl_thrust_n,motor_rr_thrust_n,wind_speed_ms,wind_dir_deg,air_temp_c,humidity_pct,pressure_hpa,gimbal_pitch_deg,gimbal_roll_deg,zoom_factor,ir_temp_min_c,ir_temp_max_c,ir_temp_avg_c,anomaly_detected,anomaly_class,anomaly_confidence,anomaly_bbox_x,anomaly_bbox_y,anomaly_bbox_w,anomaly_bbox_h,anomaly_gps_lat,anomaly_gps_lon,anomaly_gps_alt_m,ir_temp_delta_c
2024-06-11T14:55:00.000Z,MISSION_0035,0,0,takeoff,SITE_KOL_006,22.5726008,88.3639011,1.5,224.28,0.0,0.074,0.16,-1.2842,-1.8898,224.2816,-0.37664,0.0195,-0.00416,0.92615,-0.1589,0.0182,-9.8003,-0.0677,0.5352,-0.3327,0.2569,3,18,0.64,0.91,0.27,24.716,16.02,97.5,46.2,21458.0,7614,7677,7455,7613,62.7,61.4,58.9,61.4,2.827,2.672,2.796,2.66,7.84,45.0,39.0,51.2,1007.36,-27.04,-0.21,1.23,32.7,47.2,41.2,0,no_anomaly,0.0,0,0,0,0,22.5726008,88.3639011,1.5,0.0
2024-06-11T14:55:00.100Z,MISSION_0035,1,0,takeoff,SITE_KOL_006,22.5726007,88.3639043,3.0,223.17,0.011,0.061,0.48,-1.5872,-2.3771,223.1736,-0.36753,0.02438,-0.00525,0.92968,0.4406,-0.0374,-9.9146,-0.1944,0.1523,-0.0152,0.2944,3,14,0.82,0.89,0.23,24.737,19.66,97.5,46.3,21446.0,7612,7531,7638,7875,62.5,62.4,62.9,66.8,2.675,2.786,3.034,2.846,7.63,56.2,38.6,50.8,1006.88,-28.66,0.02,1.9,32.2,48.4,41.2,0,no_anomaly,0.0,0,0,0,0,22.5726007,88.3639043,3.0,0.0
2024-06-11T14:55:00.200Z,MISSION_0035,2,0,takeoff,SITE_KOL_006,22.5726016,88.3639075,4.5,225.87,0.0,0.084,0.85,1.7942,-2.3419,225.866,-0.38982,0.01272,0.02238,0.92053,0.3544,0.0395,-9.8014,0.7488,0.2614,-0.8698,0.2215,3,17,0.71,1.0,0.2,24.744,18.89,97.4,47.0,21434.0,7409,7636,7612,7726,66.4,65.3,61.9,64.9,2.44,2.856,2.588,2.912,8.19,48.5,38.9,50.7,1006.81,-30.39,-1.52,1.74,33.2,42.5,38.9,0,no_anomaly,0.0,0,0,0,0,22.5726016,88.3639075,4.5,0.0
2024-06-11T14:55:00.300Z,MISSION_0035,3,0,takeoff,SITE_KOL_006,22.5726062,88.3639015,5.0,226.34,0.12,0.137,0.71,-5.5806,-3.1728,226.3361,-0.39157,0.04457,-0.03386,0.91844,0.0748,0.0315,-9.8764,0.8256,0.9579,0.0747,0.3093,3,20,0.78,0.9,0.39,24.803,17.71,97.4,46.0,21422.0,7651,7804,8034,7623,64.4,63.9,64.2,59.2,2.933,2.651,2.877,2.626,6.86,52.9,38.8,51.4,1006.88,-33.04,0.19,1.69,34.5,50.6,40.0,0,no_anomaly,0.0,0,0,0,0,22.5726062,88.3639015,5.0,0.0
2024-06-11T14:55:00.400Z,MISSION_0035,4,0,takeoff,SITE_KOL_006,22.5726048,88.3638997,5.0,222.69,0.181,0.07,0.54,2.7519,-2.8329,222.6917,-0.36433,0.01428,0.03135,0.93063,-0.2013,0.0595,-9.8416,-0.1364,0.6875,-0.323,0.2214,3,16,0.78,0.79,0.28,24.778,20.42,97.3,46.5,21410.0,7728,7642,7613,7643,65.7,63.0,62.8,64.2,2.769,2.909,2.813,2.506,7.12,43.8,39.1,51.7,1007.04,-35.88,-1.43,1.43,32.0,46.8,43.4,0,no_anomaly,0.0,0,0,0,0,22.5726048,88.3638997,5.0,0.0
2024-06-11T14:55:00.500Z,MISSION_0035,5,0,takeoff,SITE_KOL_006,22.5726035,88.3639003,5.0,221.95,0.0,0.08,0.39,1.9973,-0.4162,221.9532,-0.35799,-0.00285,0.01757,0.93356,0.1891,0.0569,-9.8099,0.345,-0.1608,0.1566,0.3239,3,20,0.72,0.86,0.29,24.751,16.91,97.3,47.4,21398.0,7827,7678,7540,7766,62.5,63.9,65.2,62.2,2.821,2.713,2.893,2.802,6.93,55.2,38.3,52.4,1007.02,-29.14,-0.34,1.26,34.1,48.0,41.2,0,no_anomaly,0.0,0,0,0,0,22.5726035,88.3639003,5.0,0.0
2024-06-11T14:55:00.600Z,MISSION_0035,6,0,takeoff,SITE_KOL_006,22.5725976,88.3639065,5.0,222.04,0.517,0.226,0.78,7.0326,-2.5751,222.0446,-0.35925,-0.00106,0.06528,0.93095,0.2622,-0.0361,-9.8376,-0.1026,-0.4141,-0.2922,0.2956,3,20,0.67,1.06,0.38,24.771,15.69,97.2,46.8,21385.0,7530,7556,7668,7428,60.4,63.9,64.1,66.0,3.077,2.556,2.569,2.76,7.62,50.5,39.0,50.4,1007.52,-36.1,-0.75,1.58,32.1,52.8,38.7,0,no_anomaly,0.0,0,0,0,0,22.5725976,88.3639065,5.0,0.0
2024-06-11T14:55:00.700Z,MISSION_0035,7,0,takeoff,SITE_KOL_006,22.5725955,88.3639021,5.0,222.06,0.296,-0.007,0.56,1.3839,-2.4099,222.064,-0.35902,0.01529,0.01882,0.93301,-0.2159,-0.0354,-9.7499,-0.3219,0.9254,0.0846,0.2462,3,15,0.7,1.07,0.2,24.792,18.32,97.2,47.0,21373.0,7783,8030,7555,7683,67.9,62.5,65.7,67.8,2.84,2.744,2.742,2.875,7.36,45.0,38.9,51.0,1006.55,-26.81,0.55,1.36,36.4,45.4,41.1,0,no_anomaly,0.0,0,0,0,0,22.5725955,88.3639021,5.0,0.0
2024-06-11T14:55:00.800Z,MISSION_0035,8,0,takeoff,SITE_KOL_006,22.5725985,88.3638992,5.0,221.18,0.399,0.128,0.19,-2.4084,-2.0418,221.1769,-0.35117,0.02406,-0.01341,0.93591,0.2917,0.1198,-9.8114,-0.368,-0.9072,-0.1144,0.2567,3,18,0.68,1.1,0.37,24.715,18.97,97.1,47.8,21361.0,7617,7770,7814,7627,64.2,63.1,65.3,58.9,2.855,2.583,2.996,3.038,7.09,45.9,38.7,49.9,1007.24,-29.61,1.28,1.0,33.8,52.1,43.2,0,no_anomaly,0.0,0,0,0,0,22.5725985,88.3638992,5.0,0.0
2024-06-11T14:55:00.900Z,MISSION_0035,9,0,takeoff,SITE_KOL_006,22.5725999,88.3639002,5.0,220.26,0.198,0.137,0.02,1.1942,-3.5542,220.257,-0.34425,0.02553,0.02045,0.93831,-0.0994,-0.0031,-9.7191,0.7159,-0.2226,0.799,0.1857,3,10,0.64,1.03,0.27,24.724,17.46,97.0,46.6,21349.0,7755,7439,7595,7562,65.1,67.0,60.3,63.9,2.872,2.794,2.857,2.608,6.24,52.6,39.1,51.2,1007.17,-33.34,-0.51,1.2,30.4,44.0,39.3,0,no_anomaly,0.0,0,0,0,0,22.5725999,88.3639002,5.0,0.0
2024-06-11T14:55:01.000Z,MISSION_0035,10,0,takeoff,SITE_KOL_006,22.5725982,88.3639029,5.0,224.26,0.0,0.085,0.37,3.879,-4.3837,224.2559,-0.37738,0.02267,0.04573,0.92465,0.3033,0.0512,-9.8096,-1.0614,-0.0906,0.1237,0.2707,3,19,0.68,0.67,0.26,24.685,16.91,97.0,46.8,21337.0,7543,7733,7822,7881,65.1,64.5,64.0,58.5,2.849,2.822,2.958,2.863,7.06,61.7,39.1,50.1,1006.99,-29.11,1.8,1.31,33.6,50.9,38.9,0,no_anomaly,0.0,0,0,0,0,22.5725982,88.3639029,5.0,0.0
2024-06-11T14:55:01.100Z,MISSION_0035,11,0,takeoff,SITE_KOL_006,22.5725969,88.3639033,5.0,226.08,0.37,0.115,0.5,-0.3631,-1.9179,226.0818,-0.39128,0.01664,0.00364,0.92011,-0.0565,0.0156,-9.7569,1.5205,-0.3235,-0.1128,0.2653,3,14,0.51,0.92,0.2,24.7,17.3,96.9,46.1,21325.0,7476,7620,7495,7511,59.7,67.4,64.6,64.0,2.659,2.766,2.886,2.849,7.4,54.1,38.7,51.2,1006.81,-28.22,0.24,1.72,35.9,48.3,42.3,0,no_anomaly,0.0,0,0,0,0,22.5725969,88.3639033,5.0,0.0
2024-06-11T14:55:01.200Z,MISSION_0035,12,0,takeoff,SITE_KOL_006,22.5725976,88.3639031,5.0,225.61,0.668,0.107,0.43,-5.4563,-1.195,225.6069,-0.38665,0.02805,-0.03984,0.92094,-0.009,-0.0074,-9.757,0.2405,0.1099,0.2464,0.1941,3,13,0.91,1.18,0.34,24.698,21.21,96.9,46.9,21312.0,7655,7526,7622,7678,64.2,64.1,64.4,63.7,3.145,2.669,2.64,2.868,7.75,44.6,38.9,51.6,1007.43,-30.22,-0.59,2.06,35.2,50.4,42.9,0,no_anomaly,0.0,0,0,0,0,22.5725976,88.3639031,5.0,0.0
2024-06-11T14:55:01.300Z,MISSION_0035,13,0,takeoff,SITE_KOL_006,22.5725988,88.3639007,5.0,229.0,0.453,0.177,0.15,1.05,1.3975,228.9951,-0.4145,-0.0149,0.00328,0.90992,0.4024,-0.0205,-9.7598,-0.7184,-0.0699,0.2636,0.3119,3,11,0.65,1.0,0.34,24.678,20.55,96.8,46.3,21300.0,7756,7629,7670,7590,65.2,62.5,64.6,61.9,2.772,2.76,2.679,2.929,7.27,47.5,38.8,50.9,1006.93,-32.01,-2.34,1.23,36.2,47.9,39.2,0,no_anomaly,0.0,0,0,0,0,22.5725988,88.3639007,5.0,0.0
2024-06-11T14:55:01.400Z,MISSION_0035,14,0,takeoff,SITE_KOL_006,22.5725995,88.3639006,5.0,227.46,0.589,0.045,0.09,1.9842,-3.5594,227.458,-0.40265,0.02146,0.02834,0.91466,0.3414,0.0477,-9.8659,0.6708,-0.5205,-0.4845,0.219,3,12,0.7,0.95,0.32,24.713,20.83,96.8,47.2,21288.0,7537,7845,7706,7401,62.5,63.9,67.7,66.4,2.706,2.924,2.735,2.902,7.08,62.1,38.8,51.0,1006.79,-29.6,-0.16,1.84,36.2,45.1,40.1,0,no_anomaly,0.0,0,0,0,0,22.5725995,88.3639006,5.0,0.0
2024-06-11T14:55:01.500Z,MISSION_0035,15,0,takeoff,SITE_KOL_006,22.5725988,88.3638989,5.0,227.12,0.637,0.071,0.18,-9.9401,-0.8213,227.1157,-0.39759,0.04117,-0.07656,0.91344,0.2639,0.0532,-9.8492,0.5336,0.0158,0.1048,0.3571,3,20,0.82,0.97,0.33,24.769,20.66,96.7,47.2,21276.0,7568,7376,7460,7669,63.8,64.6,64.9,67.0,2.775,2.76,2.481,2.895,7.48,54.2,39.2,50.5,1006.95,-29.22,-0.2,1.4,34.5,47.7,43.2,0,no_anomaly,0.0,0,0,0,0,22.5725988,88.3638989,5.0,0.0
2024-06-11T14:55:01.600Z,MISSION_0035,16,0,takeoff,SITE_KOL_006,22.5725937,88.3638965,5.0,225.46,0.975,0.131,0.8,3.626,-2.9822,225.4557,-0.38679,0.01177,0.03922,0.92126,-0.0891,-0.1002,-9.6799,-0.0222,0.0536,-0.0447,0.3108,3,10,0.7,0.74,0.22,24.718,16.87,96.7,46.6,21264.0,7727,7726,7526,7811,67.0,64.5,63.8,61.5,2.877,2.725,2.997,2.887,6.89,48.1,38.8,51.7,1007.3,-34.71,0.83,1.44,32.1,44.3,39.3,0,no_anomaly,0.0,0,0,0,0,22.5725937,88.3638965,5.0,0.0
2024-06-11T14:55:01.700Z,MISSION_0035,17,0,takeoff,SITE_KOL_006,22.5725929,88.3638919,5.0,228.48,0.674,0.001,1.2,2.3237,0.0224,228.4839,-0.4105,-0.0085,0.01841,0.91163,-0.2004,0.0048,-9.8175,-0.2002,0.2502,0.3386,0.299,3,10,0.75,1.04,0.29,24.726,22.75,96.6,47.2,21252.0,7796,7881,7587,7473,65.2,63.6,60.3,63.0,2.876,2.757,2.755,2.772,6.66,53.7,38.6,51.2,1006.8,-30.44,-0.93,1.65,34.4,44.0,39.9,0,no_anomaly,0.0,0,0,0,0,22.5725929,88.3638919,5.0,0.0
2024-06-11T14:55:01.800Z,MISSION_0035,18,0,takeoff,SITE_KOL_006,22.5725933,88.363897,5.0,229.42,1.257,0.057,0.82,5.6563,1.551,229.4154,-0.41683,-0.0329,0.03917,0.90754,0.1144,-0.0726,-9.848,-0.336,-0.5512,-0.4367,0.3209,3,12,0.61,0.91,0.2,24.665,17.02,96.5,46.5,21239.0,7713,7431,7855,7452,66.1,64.0,64.9,64.8,2.874,2.81,2.996,2.532,7.38,58.7,38.6,50.9,1006.75,-27.33,0.63,1.3,35.0,48.7,44.1,0,no_anomaly,0.0,0,0,0,0,22.5725933,88.363897,5.0,0.0
2024-06-11T14:55:01.900Z,MISSION_0035,19,0,takeoff,SITE_KOL_006,22.5725912,88.3638986,5.0,230.97,0.994,0.003,1.0,-2.4168,0.3629,230.9725,-0.43026,0.00622,-0.0204,0.90245,-0.1466,0.025,-9.8918,-0.274,-0.5303,0.0513,0.2322,3,18,0.73,1.23,0.34,24.703,18.74,96.5,46.5,21227.0,7704,7605,7761,7623,62.2,67.5,62.6,66.1,2.757,2.668,2.646,2.774,7.27,49.7,38.7,51.4,1006.78,-33.09,-1.42,1.56,35.3,50.9,41.8,0,no_anomaly,0.0,0,0,0,0,22.5725912,88.3638986,5.0,0.0
2024-06-11T14:55:02.000Z,MISSION_0035,20,0,takeoff,SITE_KOL_006,22.5725909,88.3639025,5.0,230.09,0.845,0.151,1.05,-4.6082,-1.2124,230.0949,-0.42262,0.0266,-0.03194,0.90535,-0.1475,0.0143,-9.8358,0.4563,0.4532,-0.0279,0.185,3,19,0.66,0.95,0.26,24.664,19.22,96.4,46.8,21215.0,7536,7597,7364,7541,64.1,64.5,62.7,64.1,2.835,2.703,2.633,3.052,7.55,47.1,39.0,51.8,1006.95,-25.1,-2.27,1.6,31.7,47.1,41.2,0,no_anomaly,0.0,0,0,0,0,22.5725909,88.3639025,5.0,0.0
2024-06-11T14:55:02.100Z,MISSION_0035,21,0,takeoff,SITE_KOL_006,22.5725859,88.3639006,5.0,231.08,0.846,0.135,1.57,-5.6058,-2.6626,231.0839,-0.42951,0.04202,-0.0341,0.90144,0.0746,-0.0632,-9.7878,-0.6164,-0.8697,-0.565,0.2817,3,12,0.7,0.67,0.34,24.659,15.89,96.4,46.8,21203.0,7654,7561,7593,7374,61.4,65.1,63.0,62.5,2.673,2.921,2.522,2.857,6.62,51.1,38.5,50.7,1006.91,-31.22,1.81,1.04,33.3,54.3,40.9,0,no_anomaly,0.0,0,0,0,0,22.5725859,88.3639006,5.0,0.0
2024-06-11T14:55:02.200Z,MISSION_0035,22,0,takeoff,SITE_KOL_006,22.5725832,88.3639005,5.0,232.74,0.853,0.072,1.87,2.7656,-2.3613,232.7358,-0.44436,0.00774,0.03077,0.89529,0.0179,0.0343,-9.7667,0.1473,0.2774,0.0845,0.1785,3,19,0.61,0.74,0.2,24.739,18.21,96.3,47.0,21191.0,7916,7630,7382,7778,62.0,60.5,65.5,59.7,2.519,2.659,2.674,2.625,7.49,51.2,38.4,51.0,1007.07,-31.04,0.17,1.73,36.4,48.8,39.9,0,no_anomaly,0.0,0,0,0,0,22.5725832,88.3639005,5.0,0.0
2024-06-11T14:55:02.300Z,MISSION_0035,23,0,takeoff,SITE_KOL_006,22.5725854,88.363901,5.0,231.52,0.932,0.068,1.63,-5.9145,-0.8893,231.5157,-0.43362,0.0294,-0.0431,0.89959,0.1308,-0.0514,-9.7717,0.8419,0.6342,0.253,0.2766,3,15,0.5,0.94,0.2,24.744,12.7,96.3,46.8,21179.0,7453,7589,7565,7511,60.9,62.4,64.1,64.3,2.838,2.847,2.507,2.736,6.33,44.9,38.9,51.7,1006.96,-31.01,-0.94,1.62,36.1,49.2,41.5,0,no_anomaly,0.0,0,0,0,0,22.5725854,88.363901,5.0,0.0
2024-06-11T14:55:02.400Z,MISSION_0035,24,0,takeoff,SITE_KOL_006,22.5725771,88.3639031,5.0,231.62,0.822,0.093,2.58,1.4138,-2.7246,231.6197,-0.43549,0.01603,0.02145,0.89979,-0.0456,-0.0735,-9.753,-0.3264,0.5913,-0.1662,0.229,3,12,0.7,0.79,0.29,24.695,17.49,96.2,46.0,21167.0,7583,7621,7773,7668,66.3,62.8,60.8,61.5,2.878,3.031,2.945,2.762,7.4,44.9,38.8,51.7,1007.13,-28.1,-0.19,1.07,32.8,47.7,44.3,0,no_anomaly,0.0,0,0,0,0,22.5725771,88.3639031,5.0,0.0
2024-06-11T14:55:02.500Z,MISSION_0035,25,0,takeoff,SITE_KOL_006,22.5725794,88.363905,5.0,231.67,0.931,0.097,2.36,-1.6706,-2.9145,231.6687,-0.43525,0.02924,-0.00204,0.89983,0.2199,-0.0311,-9.782,0.3829,0.2001,0.0397,0.1994,3,17,0.79,1.01,0.2,24.667,16.81,96.2,47.1,21154.0,7732,7738,7847,7963,62.4,67.6,64.5,65.3,2.922,2.905,2.762,2.716,7.59,44.5,38.7,51.0,1007.13,-31.76,0.4,1.31,35.2,46.7,40.9,0,no_anomaly,0.0,0,0,0,0,22.5725794,88.363905,5.0,0.0
2024-06-11T14:55:02.600Z,MISSION_0035,26,0,takeoff,SITE_KOL_006,22.5725841,88.3639072,5.0,233.79,1.463,0.132,1.94,2.3852,-1.7692,233.7888,-0.45248,0.00435,0.02554,0.8914,-0.0518,0.0344,-9.8185,0.0752,-0.138,-0.444,0.1474,3,11,0.5,0.87,0.26,24.69,21.96,96.1,47.1,21142.0,7477,7657,7782,7838,63.4,62.8,62.5,65.3,3.032,2.718,2.897,3.086,6.48,55.4,38.7,50.4,1006.75,-28.2,-1.02,2.02,31.9,43.6,40.4,0,no_anomaly,0.0,0,0,0,0,22.5725841,88.3639072,5.0,0.0
2024-06-11T14:55:02.700Z,MISSION_0035,27,0,takeoff,SITE_KOL_006,22.572588,88.3639093,5.0,232.79,1.255,0.128,1.69,-1.1859,-1.5994,232.7892,-0.44435,0.0171,-0.00307,0.89568,-0.0741,0.043,-9.8331,-0.9145,-0.2779,-0.0505,0.3204,3,16,0.71,0.84,0.29,24.646,21.76,96.0,47.1,21130.0,7681,7894,7656,7712,60.8,66.7,63.0,64.7,2.835,2.793,2.736,2.871,6.22,45.6,38.8,51.0,1007.16,-28.51,1.82,1.09,33.5,51.1,43.1,0,no_anomaly,0.0,0,0,0,0,22.572588,88.3639093,5.0,0.0
2024-06-11T14:55:02.800Z,MISSION_0035,28,0,takeoff,SITE_KOL_006,22.5725892,88.3639057,5.0,232.94,1.467,0.091,1.36,-3.2463,-1.863,232.9433,-0.44511,0.02717,-0.01811,0.89488,0.1741,-0.0556,-9.8663,0.5196,0.269,-0.3764,0.3172,3,14,0.78,0.67,0.36,24.739,16.56,96.0,47.6,21118.0,7633,7645,7525,7864,66.3,61.1,64.9,61.8,2.947,2.753,2.793,2.656,8.0,47.1,38.8,50.8,1006.92,-29.66,-1.13,1.69,35.8,45.6,43.9,0,no_anomaly,0.0,0,0,0,0,22.5725892,88.3639057,5.0,0.0
2024-06-11T14:55:02.900Z,MISSION_0035,29,0,takeoff,SITE_KOL_006,22.5725865,88.3639066,5.0,232.66,1.422,0.155,1.67,2.655,1.6013,232.6598,-0.44309,-0.0228,0.01457,0.89607,0.2188,-0.0169,-9.7123,-0.2309,0.2931,-0.0641,0.1725,3,15,0.58,1.1,0.29,24.73,15.31,95.9,46.8,21106.0,7720,7696,7712,7509,63.0,64.7,64.7,65.9,2.582,2.634,2.671,2.802,6.99,46.4,38.7,50.8,1006.89,-31.6,-1.05,1.87,31.8,48.9,40.8,0,no_anomaly,0.0,0,0,0,0,22.5725865,88.3639066,5.0,0.0
2024-06-11T14:55:03.000Z,MISSION_0035,30,0,takeoff,SITE_KOL_006,22.5725818,88.3639077,5.0,232.28,1.307,0.025,2.2,-2.4852,-2.6766,232.2818,-0.4399,0.03051,-0.00917,0.89748,0.2044,-0.0395,-9.8426,0.4752,-0.0115,-0.5271,0.1339,3,14,0.66,0.79,0.2,24.644,16.97,95.9,46.9,21094.0,7448,7664,7626,7610,65.4,64.3,64.3,64.1,2.912,2.867,3.013,2.757,7.35,54.1,39.0,50.7,1007.12,-32.23,0.03,1.34,31.6,50.8,38.8,0,no_anomaly,0.0,0,0,0,0,22.5725818,88.3639077,5.0,0.0
2024-06-11T14:55:03.100Z,MISSION_0035,31,0,takeoff,SITE_KOL_006,22.5725851,88.3639073,5.0,232.35,1.4,0.026,1.85,-0.8593,-2.2695,232.3513,-0.44089,0.02108,0.00201,0.89731,-0.0556,0.003,-9.7668,-0.8829,-0.385,0.5299,0.2217,3,12,0.73,0.74,0.31,24.692,21.1,95.8,46.1,21081.0,7785,7706,7755,7865,64.3,61.9,64.8,64.7,2.8,2.884,2.893,2.764,7.46,48.0,38.8,51.0,1007.0,-30.29,-1.62,1.81,34.6,45.7,40.9,0,no_anomaly,0.0,0,0,0,0,22.5725851,88.3639073,5.0,0.0
2024-06-11T14:55:03.200Z,MISSION_0035,32,0,takeoff,SITE_KOL_006,22.5725861,88.3639153,5.0,230.53,1.334,0.15,2.3,-1.5844,-4.7045,230.5277,-0.42587,0.04301,0.00502,0.90375,0.0342,-0.0356,-9.8059,-0.4598,-0.0601,-0.0625,0.2166,3,16,0.61,0.78,0.22,24.684,21.1,95.8,46.5,21069.0,7726,7589,7638,7476,63.7,61.7,64.1,65.3,2.837,3.072,2.544,2.757,6.79,47.5,38.9,50.8,1007.14,-36.57,0.04,1.87,30.9,42.6,38.2,0,no_anomaly,0.0,0,0,0,0,22.5725861,88.3639153,5.0,0.0
2024-06-11T14:55:03.300Z,MISSION_0035,33,0,takeoff,SITE_KOL_006,22.572587,88.3639173,5.0,230.41,1.508,0.051,2.41,-1.9042,-4.8111,230.409,-0.42479,0.04504,0.00285,0.90417,0.1808,-0.0222,-9.746,-0.1559,-0.3871,-0.2279,0.2127,3,12,0.71,1.03,0.2,24.665,15.45,95.7,46.2,21057.0,7576,7522,7640,7602,63.4,63.4,62.5,65.1,2.922,2.456,2.921,3.089,6.46,47.4,39.0,50.5,1006.88,-27.04,0.63,1.6,31.9,51.3,40.4,0,no_anomaly,0.0,0,0,0,0,22.572587,88.3639173,5.0,0.0
2024-06-11T14:55:03.400Z,MISSION_0035,34,0,takeoff,SITE_KOL_006,22.5725921,88.363915,5.0,228.28,0.7,0.132,1.89,-0.7086,1.809,228.2827,-0.40902,-0.01188,-0.0121,0.91237,0.112,-0.0138,-9.8074,0.6527,-0.6393,-0.1912,0.1713,3,10,0.54,0.61,0.28,24.673,22.55,95.7,46.5,21045.0,7706,7765,7600,7514,63.4,64.6,61.8,63.0,2.824,2.593,2.745,2.604,6.72,48.8,38.9,51.2,1006.63,-30.37,0.94,1.76,34.8,47.8,42.9,0,no_anomaly,0.0,0,0,0,0,22.5725921,88.363915,5.0,0.0
2024-06-11T14:55:03.500Z,MISSION_0035,35,0,takeoff,SITE_KOL_006,22.5725966,88.3639191,5.0,228.72,0.446,0.201,2.16,-3.563,-4.24,228.7179,-0.41092,0.0465,-0.01305,0.91039,-0.0225,-0.0942,-9.7946,0.28,-0.2134,0.1118,0.2259,3,15,0.67,0.88,0.28,24.624,16.59,95.6,47.3,21033.0,7688,7561,7684,7779,62.7,66.7,60.7,64.2,2.955,2.555,2.841,2.898,7.42,47.4,38.9,51.5,1007.23,-32.22,-0.43,1.96,33.7,52.7,43.9,0,no_anomaly,0.0,0,0,0,0,22.5725966,88.3639191,5.0,0.0
2024-06-11T14:55:03.600Z,MISSION_0035,36,0,takeoff,SITE_KOL_006,22.5725928,88.3639225,5.0,229.95,1.055,0.073,2.63,-0.5101,-2.3231,229.9494,-0.42205,0.02025,0.00452,0.90634,0.034,-0.0131,-9.8522,-0.5037,0.0841,-0.0397,0.2739,3,14,0.68,0.85,0.34,24.679,21.47,95.5,47.0,21021.0,7552,7804,7572,7607,65.0,63.6,63.6,61.9,2.634,2.659,2.859,2.793,7.41,45.8,38.8,51.7,1006.59,-35.88,0.0,1.15,31.9,44.7,43.6,0,no_anomaly,0.0,0,0,0,0,22.5725928,88.3639225,5.0,0.0
2024-06-11T14:55:03.700Z,MISSION_0035,37,0,takeoff,SITE_KOL_006,22.5725982,88.3639265,5.0,229.24,0.879,0.077,2.95,-4.2148,-2.1764,229.2395,-0.4156,0.03257,-0.02552,0.9086,-0.341,-0.0295,-9.8235,0.3739,0.6784,0.3652,0.2689,3,16,0.64,0.98,0.26,24.648,17.15,95.5,47.4,21008.0,7812,7557,7718,7970,61.4,66.8,64.1,60.7,2.923,2.448,2.884,2.816,6.6,52.4,38.8,51.2,1007.01,-25.07,2.6,2.1,36.3,46.8,43.9,0,no_anomaly,0.0,0,0,0,0,22.5725982,88.3639265,5.0,0.0
2024-06-11T14:55:03.800Z,MISSION_0035,38,0,takeoff,SITE_KOL_006,22.5726052,88.3639258,5.0,227.1,1.148,0.095,2.93,-1.7466,-3.5161,227.0977,-0.39887,0.03421,-0.00171,0.91637,0.006,-0.026,-9.8294,0.8279,0.6177,-0.1383,0.2747,3,15,0.63,0.71,0.29,24.67,15.84,95.4,46.7,20996.0,7513,7837,7732,7654,66.4,64.2,66.9,66.0,2.896,2.815,2.802,2.748,6.66,48.6,39.0,51.6,1006.8,-35.41,0.79,1.1,33.7,45.5,40.9,0,no_anomaly,0.0,0,0,0,0,22.5726052,88.3639258,5.0,0.0
2024-06-11T14:55:03.900Z,MISSION_0035,39,0,takeoff,SITE_KOL_006,22.5726089,88.3639278,5.0,230.39,1.46,0.123,3.25,3.8058,-1.8702,230.3944,-0.42593,0.00062,0.03699,0.904,-0.2899,0.074,-9.8465,-0.0614,0.3844,-0.046,0.2531,3,18,0.6,0.88,0.23,24.655,16.95,95.4,46.0,20984.0,7537,7847,7705,7556,59.1,64.7,62.5,61.0,2.677,2.83,2.852,2.825,6.78,49.9,39.0,51.1,1007.32,-29.42,0.68,1.37,31.9,53.4,41.3,0,no_anomaly,0.0,0,0,0,0,22.5726089,88.3639278,5.0,0.0
2024-06-11T14:55:04.000Z,MISSION_0035,40,0,takeoff,SITE_KOL_006,22.5726063,88.3639278,5.0,231.49,1.574,0.1,3.17,3.827,-1.8264,231.4865,-0.43452,-0.00015,0.03699,0.8999,-0.0282,0.071,-9.842,-0.3741,0.1917,0.436,0.2019,3,15,0.54,0.92,0.2,24.692,19.14,95.3,46.9,20972.0,7661,7808,8017,7437,63.4,62.2,62.4,63.0,2.775,2.769,2.995,2.56,7.18,47.5,39.0,50.3,1007.03,-30.11,1.36,1.58,36.5,49.2,41.7,0,no_anomaly,0.0,0,0,0,0,22.5726063,88.3639278,5.0,0.0
2024-06-11T14:55:04.100Z,MISSION_0035,41,0,takeoff,SITE_KOL_006,22.5726056,88.3639337,5.0,230.67,1.168,0.083,3.8,4.0591,-2.1797,230.6711,-0.42818,0.00203,0.04014,0.9028,0.0062,-0.0363,-9.8381,0.1176,-0.3654,0.0367,0.2672,3,20,0.59,1.01,0.26,24.686,17.43,95.3,46.6,20960.0,7440,7623,7705,7769,65.5,67.5,64.1,64.8,2.689,2.792,2.783,2.57,7.18,53.2,39.1,51.4,1006.82,-29.36,-0.48,1.53,33.1,51.4,40.1,0,no_anomaly,0.0,0,0,0,0,22.5726056,88.3639337,5.0,0.0
2024-06-11T14:55:04.200Z,MISSION_0035,42,0,takeoff,SITE_KOL_006,22.572609,88.3639334,5.0,232.16,1.001,0.123,3.85,7.286,-1.604,232.1618,-0.43951,-0.01539,0.06321,0.89588,0.3731,0.0566,-9.7968,0.3112,-0.1205,0.3066,0.2867,3,10,0.67,0.93,0.2,24.655,19.34,95.2,47.0,20948.0,7625,7581,7969,7504,61.8,63.8,68.5,63.0,2.76,2.742,2.463,2.746,7.69,54.1,38.8,51.1,1006.72,-30.11,1.76,1.44,30.6,46.5,36.6,0,no_anomaly,0.0,0,0,0,0,22.572609,88.3639334,5.0,0.0
2024-06-11T14:55:04.300Z,MISSION_0035,43,0,takeoff,SITE_KOL_006,22.5726127,88.3639319,5.0,231.04,0.876,0.076,3.82,-2.7905,-2.2389,231.0418,-0.4302,0.02811,-0.01356,0.90219,-0.3363,0.0058,-9.806,0.3848,-0.526,-0.0129,0.285,3,12,0.62,1.06,0.26,24.658,16.05,95.2,46.8,20936.0,7611,7537,7330,7520,62.1,61.8,63.4,62.4,2.729,3.064,2.914,2.87,6.63,49.7,39.1,50.8,1006.78,-29.44,0.29,2.51,36.6,47.2,44.2,0,no_anomaly,0.0,0,0,0,0,22.5726127,88.3639319,5.0,0.0
2024-06-11T14:55:04.400Z,MISSION_0035,44,0,takeoff,SITE_KOL_006,22.5726099,88.3639347,5.0,231.55,0.945,0.14,4.02,-3.3561,-2.5181,231.5524,-0.43399,0.03251,-0.01681,0.90018,0.1656,-0.0513,-9.7643,-0.3525,-0.2171,-0.407,0.2786,3,14,0.52,0.88,0.23,24.713,16.83,95.1,46.9,20923.0,7732,7808,7699,7753,62.8,60.9,61.1,69.4,2.758,3.013,2.928,2.666,7.42,43.6,38.9,51.2,1006.85,-26.18,-1.07,1.66,31.4,47.1,42.4,0,no_anomaly,0.0,0,0,0,0,22.5726099,88.3639347,5.0,0.0
2024-06-11T14:55:04.500Z,MISSION_0035,45,0,takeoff,SITE_KOL_006,22.5726125,88.3639385,5.0,231.21,1.251,0.187,4.5,0.6069,-1.0971,231.2102,-0.43219,0.00634,0.00891,0.90172,-0.1104,-0.0144,-9.8,0.7296,0.5172,-0.0376,0.261,3,17,0.55,1.06,0.24,24.659,27.22,95.1,46.8,20911.0,7582,7711,7533,7682,62.3,61.0,62.0,60.1,2.854,2.751,2.909,2.904,6.89,46.8,39.1,51.5,1007.1,-29.66,0.08,1.4,36.8,45.8,43.4,0,no_anomaly,0.0,0,0,0,0,22.5726125,88.3639385,5.0,0.0
2024-06-11T14:55:04.600Z,MISSION_0035,46,0,takeoff,SITE_KOL_006,22.5726132,88.3639344,5.0,233.11,1.34,0.186,4.1,-1.4794,-3.3403,233.1067,-0.44647,0.03184,0.00148,0.89423,-0.0305,-0.0289,-9.8091,0.0639,0.3221,-0.2256,0.2299,3,12,0.83,1.26,0.3,24.683,13.5,95.0,47.9,20899.0,7290,7338,7641,7915,63.8,60.7,63.1,64.0,2.962,2.767,2.962,2.809,7.39,46.9,38.7,51.7,1006.93,-29.58,-0.71,1.0,33.3,44.0,39.9,0,no_anomaly,0.0,0,0,0,0,22.5726132,88.3639344,5.0,0.0
2024-06-11T14:55:04.700Z,MISSION_0035,47,0,takeoff,SITE_KOL_006,22.5726078,88.3639322,5.0,233.02,1.457,0.148,3.69,7.3178,-2.8281,233.0206,-0.44672,-0.00644,0.06808,0.89206,-0.0554,0.0391,-9.8132,-0.7801,0.2461,-0.054,0.1937,3,19,0.65,1.11,0.2,24.8,17.19,94.9,46.5,20887.0,7702,7789,7305,7717,64.2,64.8,62.6,62.8,2.819,2.861,2.835,3.058,6.54,55.7,38.9,50.5,1007.18,-32.1,-0.29,1.44,30.9,51.6,38.2,0,no_anomaly,0.0,0,0,0,0,22.5726078,88.3639322,5.0,0.0
2024-06-11T14:55:04.800Z,MISSION_0035,48,0,takeoff,SITE_KOL_006,22.5726062,88.3639352,5.0,236.15,1.533,0.119,3.97,0.7507,-3.4047,236.1469,-0.47056,0.02313,0.01976,0.88185,0.0436,-0.0029,-9.7981,0.0305,0.6696,0.0034,0.2436,3,10,0.58,0.95,0.25,24.668,21.42,94.9,47.9,20875.0,7376,7723,7558,7764,63.1,63.5,67.1,63.8,2.643,3.107,2.831,2.707,6.35,48.4,38.7,50.7,1006.9,-31.75,-0.55,1.69,31.3,49.4,41.7,0,no_anomaly,0.0,0,0,0,0,22.5726062,88.3639352,5.0,0.0
2024-06-11T14:55:04.900Z,MISSION_0035,49,0,takeoff,SITE_KOL_006,22.5726074,88.3639282,5.0,239.26,1.364,0.112,3.25,-4.4415,-2.384,239.2647,-0.49325,0.03722,-0.0234,0.86877,-0.0078,0.072,-9.7568,-0.1845,-0.1539,-0.1011,0.2604,3,16,0.77,1.15,0.44,24.638,18.73,94.8,47.0,20863.0,7696,7592,7494,7716,63.8,59.9,63.7,64.3,2.515,2.548,2.826,2.791,6.57,44.7,38.7,50.9,1007.14,-28.58,-0.69,1.36,31.9,52.4,44.1,0,no_anomaly,0.0,0,0,0,0,22.5726074,88.3639282,5.0,0.0
2024-06-11T14:55:05.000Z,MISSION_0035,50,0,takeoff,SITE_KOL_006,22.572608,88.3639272,5.0,239.42,1.524,0.013,3.16,-4.7188,-1.9381,239.4179,-0.4945,0.03508,-0.02738,0.86804,0.2913,0.0013,-9.8264,1.2277,-1.1171,-0.1543,0.1858,3,12,0.83,0.77,0.2,24.667,16.76,94.8,46.7,20850.0,7752,7467,7451,7809,62.4,63.1,63.9,61.6,2.812,3.012,2.924,2.57,7.6,42.5,38.9,51.4,1006.83,-26.48,-2.56,1.0,34.2,52.3,39.7,0,no_anomaly,0.0,0,0,0,0,22.572608,88.3639272,5.0,0.0
2024-06-11T14:55:05.100Z,MISSION_0035,51,0,takeoff,SITE_KOL_006,22.5726048,88.3639257,5.0,238.77,1.176,0.087,2.91,-3.7597,-1.7588,238.7677,-0.4899,0.02946,-0.02105,0.87103,0.2027,-0.0685,-9.7914,-0.1284,-0.2075,0.1799,0.2185,3,20,0.81,0.96,0.37,24.779,17.74,94.7,46.8,20838.0,7717,7539,7490,7662,65.6,64.0,62.6,66.5,2.744,2.998,2.981,2.886,7.02,58.9,39.0,50.4,1007.03,-31.1,-1.4,1.27,35.8,53.5,41.3,0,no_anomaly,0.0,0,0,0,0,22.5726048,88.3639257,5.0,0.0
2024-06-11T14:55:05.200Z,MISSION_0035,52,0,takeoff,SITE_KOL_006,22.5726045,88.3639288,5.0,238.67,1.502,0.029,3.25,0.9444,-1.7075,238.6699,-0.48995,0.00895,0.01448,0.87158,-0.0133,0.0346,-9.8197,-0.4534,0.4302,-0.0355,0.2322,3,14,0.7,1.03,0.31,24.704,19.32,94.7,47.1,20826.0,7610,7515,7436,7607,64.5,67.2,65.5,61.7,3.167,2.799,2.766,2.59,6.79,45.2,38.5,50.6,1007.17,-28.48,0.21,1.66,36.3,52.6,44.5,0,no_anomaly,0.0,0,0,0,0,22.5726045,88.3639288,5.0,0.0
2024-06-11T14:55:05.300Z,MISSION_0035,53,0,takeoff,SITE_KOL_006,22.572613,88.3639265,5.0,239.29,1.458,0.085,3.29,-5.662,-4.534,239.288,-0.49192,0.05875,-0.02335,0.86834,0.0438,0.0365,-9.8357,-0.8359,0.2731,-0.0196,0.2385,3,20,0.6,0.98,0.46,24.583,20.9,94.6,47.4,20814.0,7277,7765,7625,7837,65.7,63.0,61.0,70.3,3.171,2.84,2.797,2.56,7.53,49.7,38.7,51.7,1006.66,-30.95,-1.03,1.37,30.4,46.1,42.3,0,no_anomaly,0.0,0,0,0,0,22.572613,88.3639265,5.0,0.0
2024-06-11T14:55:05.400Z,MISSION_0035,54,0,takeoff,SITE_KOL_006,22.572615,88.3639276,5.0,239.96,1.699,0.07,3.49,-2.5745,-3.5536,239.9592,-0.49872,0.03807,-0.00396,0.86592,-0.0621,0.0039,-9.7736,-0.5135,0.3902,-0.1054,0.2088,3,15,0.67,1.06,0.26,24.669,21.43,94.6,47.4,20802.0,7671,7637,7453,7772,66.6,63.9,66.5,63.5,2.634,2.888,2.855,2.788,6.77,49.1,39.0,51.3,1007.03,-30.98,-0.49,1.67,32.7,47.1,44.7,0,no_anomaly,0.0,0,0,0,0,22.572615,88.3639276,5.0,0.0
2024-06-11T14:55:05.500Z,MISSION_0035,55,0,takeoff,SITE_KOL_006,22.5726149,88.3639195,5.0,242.61,1.868,0.127,2.74,4.3023,-3.3969,242.6078,-0.51993,0.00581,0.04745,0.85287,-0.0361,-0.0799,-9.7747,-0.0879,0.1465,-0.1524,0.2666,3,20,0.65,0.98,0.27,24.579,21.36,94.5,46.3,20790.0,7655,7972,7926,7613,66.5,65.9,63.2,62.9,2.573,2.644,2.812,2.935,7.79,53.1,38.8,50.8,1007.07,-29.53,-0.28,1.18,30.9,49.9,42.0,0,no_anomaly,0.0,0,0,0,0,22.5726149,88.3639195,5.0,0.0
2024-06-11T14:55:05.600Z,MISSION_0035,56,0,takeoff,SITE_KOL_006,22.5726161,88.363919,5.0,243.95,2.119,0.258,2.77,6.5211,0.6593,243.9534,-0.52843,-0.03499,0.0452,0.84705,0.3235,-0.034,-9.8351,0.8283,0.3256,-0.5988,0.3437,3,13,0.75,1.14,0.28,24.723,25.29,94.4,46.1,20777.0,7788,7648,7998,7626,61.4,66.9,64.4,63.6,2.975,2.803,2.911,2.973,7.92,47.7,38.6,50.8,1006.97,-29.43,-1.57,1.06,30.5,45.8,37.5,0,no_anomaly,0.0,0,0,0,0,22.5726161,88.363919,5.0,0.0
2024-06-11T14:55:05.700Z,MISSION_0035,57,0,takeoff,SITE_KOL_006,22.572614,88.3639164,5.0,245.33,2.152,0.108,2.4,-0.2044,-1.9226,245.3342,-0.53965,0.01509,0.00755,0.84172,0.2355,-0.0747,-9.7787,-0.2029,0.7783,0.2551,0.2417,3,11,0.74,0.95,0.32,24.681,18.76,94.4,47.2,20765.0,7562,7452,7600,7194,62.2,64.8,64.2,64.7,2.733,2.959,2.505,2.587,7.23,48.5,38.7,50.8,1007.05,-31.72,-0.31,1.25,36.7,51.0,40.5,0,no_anomaly,0.0,0,0,0,0,22.572614,88.3639164,5.0,0.0
2024-06-11T14:55:05.800Z,MISSION_0035,58,0,takeoff,SITE_KOL_006,22.5726163,88.3639128,5.0,245.29,2.145,0.067,2.31,1.4918,-1.901,245.2861,-0.53947,0.00695,0.01991,0.84174,0.2403,-0.0095,-9.804,-0.5735,-0.2469,0.0346,0.2514,3,15,0.75,0.84,0.24,24.65,17.87,94.3,46.8,20753.0,7690,7537,7458,7628,67.4,64.7,64.4,64.5,2.844,3.002,2.818,2.994,8.51,36.4,38.8,51.1,1006.52,-28.8,-1.49,1.47,38.2,51.0,42.5,0,no_anomaly,0.0,0,0,0,0,22.5726163,88.3639128,5.0,0.0
2024-06-11T14:55:05.900Z,MISSION_0035,59,0,takeoff,SITE_KOL_006,22.5726148,88.363916,5.0,245.39,1.859,0.067,2.43,0.8045,1.3342,245.3949,-0.54008,-0.01359,-0.00038,0.8415,-0.0404,0.0047,-9.8207,-0.076,-0.5033,-0.0758,0.289,3,16,0.54,0.93,0.24,24.622,20.48,94.3,46.3,20741.0,7580,7809,7774,7906,60.8,67.8,63.1,68.1,2.792,2.787,2.854,2.834,7.48,54.5,38.7,51.5,1007.12,-27.53,0.26,1.41,34.1,43.9,39.0,0,no_anomaly,0.0,0,0,0,0,22.5726148,88.363916,5.0,0.0
2024-06-11T14:55:06.000Z,MISSION_0035,60,0,takeoff,SITE_KOL_006,22.5726169,88.3639135,5.0,245.0,1.826,0.227,2.41,0.1699,-2.877,244.9976,-0.53714,0.02038,0.01474,0.84312,-0.1583,-0.1485,-9.8269,-0.1471,-0.6211,-0.2451,0.279,3,18,0.79,1.04,0.36,24.576,15.06,94.2,47.0,20729.0,7587,7810,7841,7617,63.9,64.7,63.7,61.2,2.496,2.37,2.541,2.831,7.16,58.7,39.0,50.3,1006.86,-28.79,-0.93,1.18,33.2,49.0,40.6,0,no_anomaly,0.0,0,0,0,0,22.5726169,88.3639135,5.0,0.0
2024-06-11T14:55:06.100Z,MISSION_0035,61,0,takeoff,SITE_KOL_006,22.5726199,88.3639111,5.0,244.45,1.942,0.184,2.53,-1.2171,-1.0492,244.4461,-0.53308,0.01341,-0.0041,0.84595,0.2038,0.064,-9.9051,0.6571,0.1424,0.0037,0.3027,3,14,0.63,0.98,0.31,24.637,22.97,94.2,46.7,20717.0,7713,7350,7621,7609,62.9,62.3,61.6,63.8,2.696,2.86,2.703,2.605,7.96,55.0,38.7,51.7,1006.94,-28.34,0.29,1.23,35.1,46.1,41.1,0,no_anomaly,0.0,0,0,0,0,22.5726199,88.3639111,5.0,0.0
2024-06-11T14:55:06.200Z,MISSION_0035,62,0,takeoff,SITE_KOL_006,22.5726187,88.3639113,5.0,244.78,1.876,0.036,2.44,0.5223,-0.9872,244.7772,-0.53567,0.00483,0.00846,0.84437,-0.1222,-0.0848,-9.8472,0.0873,-0.2194,-0.6438,0.195,3,11,0.7,0.83,0.22,24.637,20.27,94.1,47.6,20705.0,7677,7390,7599,8050,63.0,64.3,60.9,62.0,2.771,3.009,2.86,2.729,6.66,51.7,38.6,51.0,1007.27,-32.91,-1.57,1.08,31.9,52.9,41.8,0,no_anomaly,0.0,0,0,0,0,22.5726187,88.3639113,5.0,0.0
2024-06-11T14:55:06.300Z,MISSION_0035,63,0,takeoff,SITE_KOL_006,22.572618,88.3639089,5.0,244.05,2.193,0.039,2.24,-3.5273,-1.2252,244.0474,-0.52971,0.02538,-0.02042,0.84755,0.1789,0.0441,-9.8002,-0.2133,-0.8326,0.1644,0.2759,3,16,0.64,1.05,0.2,24.634,17.01,94.1,46.3,20692.0,7624,7839,7889,7361,66.5,60.1,63.7,62.0,2.785,2.959,2.761,2.678,6.91,54.1,38.7,51.2,1006.83,-25.57,-0.15,1.2,35.6,50.5,40.0,0,no_anomaly,0.0,0,0,0,0,22.572618,88.3639089,5.0,0.0
2024-06-11T14:55:06.400Z,MISSION_0035,64,0,takeoff,SITE_KOL_006,22.5726222,88.3639082,5.0,241.54,2.212,0.055,2.63,-2.4178,-1.6985,241.5368,-0.51113,0.02352,-0.01055,0.85912,-0.374,0.0947,-9.7702,0.7688,-0.3091,0.1331,0.2522,3,10,0.66,0.74,0.26,24.649,19.37,94.0,47.3,20680.0,7485,7794,7555,7508,63.2,64.4,63.9,61.2,2.783,2.722,2.55,2.647,7.23,54.3,38.4,51.7,1006.78,-26.46,-1.62,1.53,33.0,44.6,41.9,0,no_anomaly,0.0,0,0,0,0,22.5726222,88.3639082,5.0,0.0
2024-06-11T14:55:06.500Z,MISSION_0035,65,0,takeoff,SITE_KOL_006,22.5726207,88.363908,5.0,241.62,2.334,0.154,2.47,-0.6348,-0.7628,241.6227,-0.51216,0.00855,-0.00135,0.85885,-0.0121,-0.0291,-9.7773,0.0235,0.4719,0.1323,0.2897,3,20,0.85,0.92,0.38,24.699,22.93,93.9,47.3,20668.0,7697,7800,7653,7796,66.0,66.5,60.1,62.6,2.795,2.697,2.673,2.884,7.52,42.7,38.6,50.5,1006.81,-32.47,0.07,1.55,36.7,50.7,44.1,0,no_anomaly,0.0,0,0,0,0,22.5726207,88.363908,5.0,0.0
2024-06-11T14:55:06.600Z,MISSION_0035,66,0,takeoff,SITE_KOL_006,22.5726234,88.3639121,5.0,241.8,2.718,0.153,2.93,4.4573,-1.687,241.7973,-0.51357,-0.00734,0.04092,0.85704,0.1344,0.1453,-9.8426,0.0368,-0.0799,-0.1237,0.2283,3,15,0.64,0.83,0.28,24.622,19.35,93.9,47.2,20656.0,7717,7540,7783,7466,66.8,61.5,65.6,59.8,2.772,2.827,3.149,2.972,6.21,48.5,38.8,51.5,1006.7,-26.86,-2.1,1.07,35.8,46.8,41.1,0,no_anomaly,0.0,0,0,0,0,22.5726234,88.3639121,5.0,0.0
2024-06-11T14:55:06.700Z,MISSION_0035,67,0,takeoff,SITE_KOL_006,22.5726217,88.3639063,5.0,243.92,2.875,0.121,2.52,-4.6383,-2.566,243.922,-0.52801,0.0404,-0.02248,0.84798,-0.2315,0.0324,-9.7904,-0.3932,-0.4563,0.0291,0.2639,3,16,0.57,0.99,0.2,24.548,21.51,93.8,46.7,20644.0,7593,7885,7599,7522,64.5,58.6,69.0,60.8,2.854,2.767,2.873,2.713,6.98,49.8,38.9,50.4,1006.63,-27.38,-0.9,1.3,30.9,43.2,38.6,0,no_anomaly,0.0,0,0,0,0,22.5726217,88.3639063,5.0,0.0
2024-06-11T14:55:06.800Z,MISSION_0035,68,0,takeoff,SITE_KOL_006,22.5726198,88.3639035,5.0,242.51,3.381,0.166,2.24,2.0746,-5.0244,242.512,-0.51896,0.02808,0.0382,0.85348,-0.0712,-0.0597,-9.901,-0.2499,-0.099,0.1489,0.209,3,12,0.68,1.1,0.2,24.633,17.12,93.8,46.6,20632.0,7630,7651,7590,7705,63.0,61.4,64.5,62.5,2.941,2.855,2.899,2.678,6.62,51.2,38.5,50.9,1007.24,-35.41,-1.3,2.14,31.9,47.5,41.3,0,no_anomaly,0.0,0,0,0,0,22.5726198,88.3639035,5.0,0.0
2024-06-11T14:55:06.900Z,MISSION_0035,69,0,takeoff,SITE_KOL_006,22.5726215,88.3639017,5.0,241.69,3.394,0.107,2.4,4.2117,-4.4592,241.6939,-0.51324,0.01455,0.05146,0.85658,0.1452,-0.0001,-9.7719,0.2886,-0.7525,0.0439,0.2443,3,15,0.75,0.96,0.3,24.645,19.4,93.7,47.4,20619.0,7571,7622,7411,7779,60.8,65.2,62.7,63.7,2.617,2.91,2.853,2.793,7.86,36.0,38.5,50.7,1006.94,-30.53,-0.89,1.54,32.2,43.4,38.2,0,no_anomaly,0.0,0,0,0,0,22.5726215,88.3639017,5.0,0.0
2024-06-11T14:55:07.000Z,MISSION_0035,70,0,transit,SITE_KOL_006,22.5726193,88.363903,5.5,242.58,3.488,0.115,2.18,3.9086,-3.129,242.5795,-0.51967,0.00561,0.0433,0.85325,0.1844,0.0086,-9.8562,0.4175,0.2244,0.116,0.2072,3,13,0.64,0.94,0.28,24.691,20.19,93.7,47.1,20607.0,7481,7845,7617,7533,65.3,63.8,60.7,64.7,3.025,2.812,2.827,2.804,7.39,42.3,39.0,50.5,1006.86,-28.28,-0.87,1.5,32.4,53.5,39.5,0,no_anomaly,0.0,0,0,0,0,22.5726193,88.363903,5.5,0.0
2024-06-11T14:55:07.100Z,MISSION_0035,71,0,transit,SITE_KOL_006,22.5726202,88.3639072,6.0,245.02,3.881,0.122,2.39,-2.6879,0.6373,245.0192,-0.5374,0.00792,-0.02277,0.84299,-0.3169,0.0324,-9.8363,1.4076,-0.5255,-0.2579,0.1798,3,12,0.72,0.74,0.28,24.683,20.91,93.6,46.9,20595.0,7821,7640,7502,7594,62.6,64.9,60.5,63.7,2.621,2.853,2.907,2.655,8.13,55.8,38.9,51.1,1006.82,-30.65,-0.45,1.29,35.7,49.9,43.4,0,no_anomaly,0.0,0,0,0,0,22.5726202,88.3639072,6.0,0.0
2024-06-11T14:55:07.200Z,MISSION_0035,72,0,transit,SITE_KOL_006,22.572617,88.3639024,6.5,246.38,4.042,0.112,1.91,-0.2407,2.3992,246.3762,-0.5473,-0.01637,-0.01322,0.83667,0.1411,-0.0483,-9.8727,-0.1759,0.4259,-0.4292,0.2522,3,10,0.72,0.66,0.21,24.681,24.31,93.6,47.2,20583.0,7531,7699,7706,7572,64.5,61.7,65.1,67.5,2.575,2.902,2.9,2.774,7.3,50.9,39.1,51.4,1006.82,-25.69,0.98,1.4,31.0,47.4,42.5,0,no_anomaly,0.0,0,0,0,0,22.572617,88.3639024,6.5,0.0
2024-06-11T14:55:07.300Z,MISSION_0035,73,0,transit,SITE_KOL_006,22.5726161,88.3639048,7.0,246.05,3.995,0.001,1.87,3.886,-3.6229,246.0482,-0.54531,0.00802,0.04563,0.83696,-0.0284,-0.0443,-9.8507,0.0535,0.7498,-0.2715,0.3093,3,10,0.82,0.95,0.27,24.659,23.82,93.5,45.8,20571.0,7607,7595,7677,7594,61.4,63.8,60.8,63.6,2.768,2.751,3.08,2.821,6.84,42.7,38.8,50.0,1006.79,-29.66,-1.2,1.23,35.9,55.4,42.2,0,no_anomaly,0.0,0,0,0,0,22.5726161,88.3639048,7.0,0.0
2024-06-11T14:55:07.400Z,MISSION_0035,74,0,transit,SITE_KOL_006,22.5726206,88.3639094,7.5,246.74,3.616,0.096,2.52,8.0762,-3.8629,246.7378,-0.55033,-0.01063,0.07727,0.83129,-0.1988,-0.0219,-9.7924,-0.4696,-1.0328,-0.0453,0.2988,3,18,0.62,0.92,0.28,24.699,19.12,93.4,47.1,20559.0,7495,7502,7660,7729,61.7,63.3,65.7,64.3,2.912,2.728,2.913,2.742,7.8,46.6,38.9,50.8,1006.89,-28.8,-0.65,1.61,32.2,52.8,43.1,0,no_anomaly,0.0,0,0,0,0,22.5726206,88.3639094,7.5,0.0
2024-06-11T14:55:07.500Z,MISSION_0035,75,0,transit,SITE_KOL_006,22.5726239,88.3639086,8.0,247.1,3.399,0.036,2.83,0.8558,-2.1767,247.1003,-0.55267,0.0117,0.01672,0.83315,0.3395,0.0857,-9.7953,0.3025,0.3214,0.2442,0.3026,3,20,0.81,0.91,0.34,24.614,19.54,93.4,47.2,20546.0,7783,7893,7802,7802,62.7,63.3,58.1,65.5,2.806,2.694,2.752,2.693,6.62,50.5,38.6,50.5,1007.08,-31.4,-1.59,2.24,31.3,42.7,39.2,0,no_anomaly,0.0,0,0,0,0,22.5726239,88.3639086,8.0,0.0
2024-06-11T14:55:07.600Z,MISSION_0035,76,0,transit,SITE_KOL_006,22.5726254,88.3639092,8.5,247.25,3.79,0.001,3.01,-7.0101,-0.5694,247.2503,-0.55246,0.03798,-0.04816,0.83128,0.1577,-0.014,-9.7913,0.5392,0.7729,-0.5945,0.2598,3,13,0.69,1.02,0.34,24.599,18.99,93.3,47.2,20534.0,7698,7612,7720,7442,65.0,61.6,63.0,63.3,2.773,2.725,2.709,2.618,6.72,45.3,39.0,51.7,1006.99,-33.88,-1.92,1.17,28.9,50.0,40.4,0,no_anomaly,0.0,0,0,0,0,22.5726254,88.3639092,8.5,0.0
2024-06-11T14:55:07.700Z,MISSION_0035,77,0,transit,SITE_KOL_006,22.5726234,88.3639125,9.0,248.3,3.58,0.079,2.96,3.3054,-4.2789,248.3003,-0.56163,0.0147,0.0448,0.82604,-0.2534,-0.0662,-9.7867,0.347,-0.146,0.218,0.2741,3,15,0.63,0.73,0.25,24.578,18.61,93.3,46.8,20522.0,7711,7498,7690,8010,65.7,64.2,65.4,64.0,2.723,3.017,2.787,3.012,6.55,41.6,38.5,52.0,1006.68,-26.44,1.75,1.61,34.4,49.5,44.0,0,no_anomaly,0.0,0,0,0,0,22.5726234,88.3639125,9.0,0.0
2024-06-11T14:55:07.800Z,MISSION_0035,78,0,transit,SITE_KOL_006,22.5726297,88.3639112,9.5,249.76,3.311,0.05,3.54,1.6243,-2.5967,249.7641,-0.57195,0.01048,0.02458,0.81985,0.0128,0.0564,-9.7413,-0.3655,-0.1193,0.5759,0.2619,3,14,0.75,0.6,0.35,24.599,22.26,93.2,47.7,20510.0,7689,7672,7533,7871,63.8,63.7,64.3,66.2,2.727,2.767,3.088,2.977,7.52,53.3,38.9,50.3,1007.35,-30.52,0.09,1.6,30.4,42.8,42.3,0,no_anomaly,0.0,0,0,0,0,22.5726297,88.3639112,9.5,0.0
2024-06-11T14:55:07.900Z,MISSION_0035,79,0,transit,SITE_KOL_006,22.5726268,88.363911,10.0,249.83,3.39,0.06,3.22,1.604,-0.0399,249.8297,-0.57231,-0.00773,0.01168,0.81992,0.2131,0.0793,-9.8543,0.4673,0.5007,0.1007,0.2116,3,18,0.69,0.85,0.29,24.673,19.15,93.2,46.5,20498.0,7752,7508,7534,7919,65.0,65.1,68.7,64.3,2.754,2.668,3.017,2.59,7.36,50.9,38.7,50.8,1007.08,-25.85,-0.66,1.26,36.0,53.2,44.0,0,no_anomaly,0.0,0,0,0,0,22.5726268,88.363911,10.0,0.0
2024-06-11T14:55:08.000Z,MISSION_0035,80,0,transit,SITE_KOL_006,22.5726291,88.363909,10.5,251.52,3.481,0.132,3.39,3.2951,-1.0673,251.522,-0.58436,-0.00925,0.02877,0.81093,0.313,-0.0036,-9.8451,-0.4908,0.1822,-0.1055,0.2762,3,17,0.77,0.78,0.36,24.625,15.77,93.1,47.5,20486.0,7919,7769,7593,7576,62.8,64.8,61.1,63.7,3.0,2.886,2.766,2.973,7.39,47.8,38.9,51.1,1006.87,-29.33,0.36,1.19,33.0,50.3,40.3,0,no_anomaly,0.0,0,0,0,0,22.5726291,88.363909,10.5,0.0
2024-06-11T14:55:08.100Z,MISSION_0035,81,0,transit,SITE_KOL_006,22.5726325,88.3639057,11.0,251.83,3.698,0.122,3.67,-0.1094,-3.8413,251.8277,-0.58621,0.0277,0.01889,0.80946,-0.0209,-0.0337,-9.8894,0.0221,0.1748,0.0121,0.1863,3,13,0.6,1.03,0.2,24.665,21.0,93.1,47.1,20474.0,7676,7874,7654,7671,65.0,66.0,65.5,66.4,2.715,2.837,2.836,2.673,7.77,46.1,39.0,51.3,1007.07,-29.5,0.91,2.24,34.7,52.1,40.1,0,no_anomaly,0.0,0,0,0,0,22.5726325,88.3639057,11.0,0.0
2024-06-11T14:55:08.200Z,MISSION_0035,82,0,transit,SITE_KOL_006,22.5726276,88.3639047,11.5,252.22,3.642,0.156,3.12,0.3988,-1.1829,252.2159,-0.5893,0.00629,0.00889,0.80784,0.1814,0.0108,-9.7241,-0.5065,0.2095,-0.1444,0.2728,3,17,0.83,0.72,0.36,24.647,23.86,93.0,47.8,20461.0,7687,7615,7716,7551,63.4,60.6,66.1,64.7,2.78,2.56,3.021,2.894,7.16,55.1,38.3,51.9,1006.81,-29.19,0.48,1.93,34.0,53.1,39.1,0,no_anomaly,0.0,0,0,0,0,22.5726276,88.3639047,11.5,0.0
2024-06-11T14:55:08.300Z,MISSION_0035,83,0,transit,SITE_KOL_006,22.5726266,88.3639042,12.0,253.24,3.116,0.122,2.99,-1.214,-3.2477,253.2416,-0.596,0.02906,0.0084,0.80241,0.0443,-0.1197,-9.8115,-0.2637,0.1687,0.5597,0.3063,3,10,0.81,0.92,0.33,24.656,17.96,93.0,46.6,20449.0,7890,7695,7780,7615,64.8,64.4,63.4,65.0,2.777,3.065,2.948,2.948,8.0,56.1,39.0,51.2,1006.72,-36.28,-1.38,1.38,34.1,52.2,42.8,0,no_anomaly,0.0,0,0,0,0,22.5726266,88.3639042,12.0,0.0
2024-06-11T14:55:08.400Z,MISSION_0035,84,0,transit,SITE_KOL_006,22.5726248,88.3639042,12.5,252.61,3.442,0.057,2.8,-4.1489,-4.0141,252.6148,-0.59034,0.04962,-0.00843,0.80558,-0.2729,0.0678,-9.8305,-0.2486,-0.1869,-0.0007,0.2324,3,14,0.65,1.16,0.21,24.656,21.69,92.9,46.9,20437.0,7553,7584,7531,7626,66.4,66.9,64.8,62.6,2.703,2.804,2.913,2.813,6.97,47.6,38.8,51.9,1007.03,-24.87,-0.04,1.69,30.7,48.2,42.5,0,no_anomaly,0.0,0,0,0,0,22.5726248,88.3639042,12.5,0.0
2024-06-11T14:55:08.500Z,MISSION_0035,85,0,transit,SITE_KOL_006,22.5726277,88.3639016,13.0,250.27,3.541,-0.016,3.08,3.3968,0.6664,250.2697,-0.5751,-0.02181,0.02089,0.81753,-0.2429,0.008,-9.8294,0.2015,0.3377,-0.1526,0.3594,3,16,0.83,0.99,0.3,24.655,18.91,92.8,46.8,20425.0,7646,7493,7747,7597,59.1,65.3,60.2,64.2,2.839,2.63,2.629,2.78,7.51,45.6,38.9,50.1,1006.74,-34.43,-0.84,1.3,31.2,49.2,41.5,0,no_anomaly,0.0,0,0,0,0,22.5726277,88.3639016,13.0,0.0
2024-06-11T14:55:08.600Z,MISSION_0035,86,0,transit,SITE_KOL_006,22.5726213,88.3639074,13.5,250.1,3.775,0.186,2.52,-2.2771,-1.4498,250.1041,-0.57395,0.02177,-0.009,0.81855,0.105,0.0659,-9.8853,-0.8346,0.4919,-0.0394,0.3083,3,18,0.69,0.77,0.33,24.623,22.99,92.8,46.6,20413.0,7975,7768,7829,7737,61.7,64.9,62.1,68.5,2.95,2.428,2.772,2.852,7.2,43.1,38.9,51.6,1006.93,-30.14,-0.89,1.0,34.7,50.3,43.0,0,no_anomaly,0.0,0,0,0,0,22.5726213,88.3639074,13.5,0.0
2024-06-11T14:55:08.700Z,MISSION_0035,87,0,transit,SITE_KOL_006,22.5726246,88.3639082,14.0,249.53,3.997,0.123,2.89,-4.2546,-0.8302,249.5304,-0.56959,0.02711,-0.02636,0.82106,-0.079,-0.0211,-9.7679,0.0974,0.5645,0.3501,0.1217,3,14,0.73,1.18,0.25,24.637,24.32,92.7,47.6,20401.0,7554,7553,7475,7611,63.6,61.5,69.2,64.5,2.955,2.664,2.626,2.606,7.48,51.3,38.6,51.1,1006.72,-31.73,0.44,1.65,31.5,52.7,43.1,0,no_anomaly,0.0,0,0,0,0,22.5726246,88.3639082,14.0,0.0
2024-06-11T14:55:08.800Z,MISSION_0035,88,0,transit,SITE_KOL_006,22.5726228,88.363912,14.5,250.19,3.832,0.097,2.87,-2.8029,-4.4314,250.1877,-0.57354,0.04567,0.00222,0.8179,-0.3107,-0.0191,-9.8537,0.0105,0.9179,-0.2484,0.2225,3,17,0.82,0.63,0.43,24.518,16.99,92.7,46.9,20388.0,8002,7610,7707,7512,61.9,60.8,63.3,64.7,2.659,2.854,2.598,2.737,7.5,49.6,38.8,50.9,1007.22,-26.93,-2.89,1.78,33.0,50.4,40.0,0,no_anomaly,0.0,0,0,0,0,22.5726228,88.363912,14.5,0.0
2024-06-11T14:55:08.900Z,MISSION_0035,89,0,transit,SITE_KOL_006,22.5726213,88.3639123,15.0,253.01,3.755,0.11,2.73,2.8874,-0.9239,253.0108,-0.59485,-0.00851,0.02505,0.8034,-0.1142,-0.0059,-9.7518,-0.1913,0.6584,-0.6329,0.2168,3,17,0.64,0.76,0.27,24.719,21.03,92.6,47.3,20376.0,7619,7855,7678,7662,63.2,65.2,63.6,66.4,2.702,2.816,2.702,2.904,6.78,48.9,38.5,50.5,1006.94,-25.54,-0.63,1.57,33.1,46.2,42.5,0,no_anomaly,0.0,0,0,0,0,22.5726213,88.3639123,15.0,0.0
2024-06-11T14:55:09.000Z,MISSION_0035,90,0,transit,SITE_KOL_006,22.5726211,88.3639109,15.5,255.49,4.196,0.081,2.64,0.5985,-2.6234,255.4867,-0.61205,0.01491,0.01814,0.79047,0.2881,-0.0468,-9.796,-0.6247,-0.6552,0.1147,0.2822,3,10,0.68,1.09,0.27,24.607,23.36,92.6,47.1,20364.0,7345,7792,7523,7575,60.9,64.4,66.4,66.5,2.903,2.815,2.93,2.77,7.36,54.8,38.7,51.0,1006.94,-28.27,-0.78,1.42,35.1,50.9,40.2,0,no_anomaly,0.0,0,0,0,0,22.5726211,88.3639109,15.5,0.0
2024-06-11T14:55:09.100Z,MISSION_0035,91,0,transit,SITE_KOL_006,22.5726227,88.3639101,16.0,254.43,4.172,0.04,2.77,2.3388,-2.4486,254.4303,-0.60489,0.00467,0.02917,0.79576,0.1727,0.0446,-9.821,0.2627,0.3085,-0.2689,0.2319,3,17,0.85,0.82,0.2,24.682,21.64,92.5,46.6,20352.0,7800,7872,7752,7639,62.7,67.3,61.1,65.8,3.035,2.495,2.746,3.033,6.08,52.6,38.9,50.3,1006.88,-34.95,0.41,1.34,33.5,42.3,38.1,0,no_anomaly,0.0,0,0,0,0,22.5726227,88.3639101,16.0,0.0
2024-06-11T14:55:09.200Z,MISSION_0035,92,0,transit,SITE_KOL_006,22.5726235,88.3639146,16.5,253.67,4.17,0.11,3.08,2.6151,-1.1681,253.666,-0.59948,-0.00552,0.02437,0.8,-0.1796,0.0096,-9.7904,-1.1561,-0.1879,0.0152,0.2273,3,18,0.83,0.98,0.39,24.612,17.96,92.5,47.2,20340.0,7730,7435,7719,7751,66.0,61.3,63.2,67.7,2.83,2.753,2.731,2.589,6.98,54.5,38.9,51.5,1007.47,-30.09,-0.46,1.18,32.6,49.1,43.0,0,no_anomaly,0.0,0,0,0,0,22.5726235,88.3639146,16.5,0.0
2024-06-11T14:55:09.300Z,MISSION_0035,93,0,transit,SITE_KOL_006,22.5726238,88.3639163,17.0,249.56,3.838,0.074,3.21,6.7991,1.0345,249.5579,-0.56895,-0.04123,0.04356,0.82019,-0.1222,-0.0047,-9.7904,-0.1585,-0.9935,-0.168,0.1671,3,11,0.64,0.84,0.27,24.61,20.22,92.4,47.0,20328.0,7530,7824,7639,7730,63.9,67.9,68.4,64.8,2.824,3.212,2.53,2.666,7.07,46.5,38.9,49.8,1007.2,-36.51,-0.07,1.54,31.6,49.6,40.0,0,no_anomaly,0.0,0,0,0,0,22.5726238,88.3639163,17.0,0.0
2024-06-11T14:55:09.400Z,MISSION_0035,94,0,transit,SITE_KOL_006,22.5726225,88.3639129,17.5,250.99,3.479,0.037,2.89,-0.5687,-1.0672,250.9874,-0.58054,0.01046,0.00137,0.81416,0.0572,-0.0151,-9.827,-0.0078,0.047,-0.0326,0.3352,3,19,0.79,1.23,0.29,24.585,17.17,92.3,47.7,20316.0,7802,7880,7660,7621,60.5,64.1,64.1,64.3,2.627,2.683,2.979,2.851,7.51,54.5,38.9,51.4,1007.09,-28.16,1.83,1.73,32.8,49.9,43.0,0,no_anomaly,0.0,0,0,0,0,22.5726225,88.3639129,17.5,0.0
2024-06-11T14:55:09.500Z,MISSION_0035,95,0,transit,SITE_KOL_006,22.5726222,88.3639148,18.0,250.48,3.781,0.105,2.97,-0.4208,1.5585,250.4832,-0.57701,-0.00899,-0.01085,0.81662,0.4216,0.0015,-9.7763,-0.069,0.7185,0.396,0.3073,3,13,0.64,0.93,0.27,24.621,18.65,92.3,47.0,20303.0,7623,7700,7561,7748,64.0,64.1,63.9,65.4,2.611,2.622,2.514,2.915,6.74,43.1,39.0,51.9,1006.91,-32.68,0.49,1.54,35.7,54.0,41.0,0,no_anomaly,0.0,0,0,0,0,22.5726222,88.3639148,18.0,0.0
2024-06-11T14:55:09.600Z,MISSION_0035,96,0,transit,SITE_KOL_006,22.5726178,88.3639183,18.5,249.05,3.602,0.103,2.85,9.0214,0.9468,249.0532,-0.56448,-0.05136,0.06012,0.82165,-0.0624,0.0525,-9.7433,0.1374,0.3858,0.3255,0.3391,3,16,0.53,0.82,0.22,24.582,19.4,92.2,47.1,20291.0,7478,7483,7660,7424,66.3,62.1,63.8,62.1,2.817,2.692,2.966,3.094,7.13,45.7,39.0,51.1,1007.11,-24.47,-0.91,2.09,36.0,49.2,40.8,0,no_anomaly,0.0,0,0,0,0,22.5726178,88.3639183,18.5,0.0
2024-06-11T14:55:09.700Z,MISSION_0035,97,0,transit,SITE_KOL_006,22.5726172,88.3639158,19.0,248.72,3.384,0.129,2.6,9.0457,-0.543,248.7191,-0.56293,-0.04061,0.06776,0.82272,-0.0132,-0.0085,-9.7473,0.6549,-0.7091,-0.1927,0.3,3,10,0.55,0.98,0.2,24.517,24.82,92.2,47.8,20279.0,7812,7380,7405,7614,66.4,65.4,61.8,66.5,2.717,2.974,2.809,3.146,7.67,45.7,38.6,51.1,1006.83,-25.18,0.36,1.13,33.2,54.1,44.3,0,no_anomaly,0.0,0,0,0,0,22.5726172,88.3639158,19.0,0.0
2024-06-11T14:55:09.800Z,MISSION_0035,98,0,transit,SITE_KOL_006,22.5726181,88.3639091,19.2,248.71,3.171,0.147,2.26,-0.4296,-0.7912,248.7093,-0.56428,0.00782,0.0008,0.82555,-0.3041,0.0387,-9.8594,0.3108,0.8467,0.4951,0.2594,3,14,0.76,0.92,0.36,24.553,17.74,92.1,47.3,20267.0,7792,7869,7799,7775,65.0,63.9,65.3,64.7,2.463,2.909,2.961,2.844,7.27,41.1,39.4,51.0,1007.12,-32.65,0.54,1.94,35.2,46.0,41.8,0,no_anomaly,0.0,0,0,0,0,22.5726181,88.3639091,19.2,0.0
2024-06-11T14:55:09.900Z,MISSION_0035,99,0,transit,SITE_KOL_006,22.5726199,88.3639082,19.2,250.58,3.779,0.178,2.39,-1.8934,-2.5672,250.5763,-0.57716,0.02783,-0.00054,0.81615,0.1265,0.0052,-9.7411,-0.3755,0.3158,0.281,0.3362,3,17,0.94,1.03,0.21,24.651,21.97,92.1,46.6,20255.0,7769,7686,7433,7652,65.6,60.8,62.3,65.4,2.738,2.931,2.566,2.824,6.93,41.4,38.9,51.4,1006.92,-32.93,-2.38,1.73,32.4,50.2,42.1,0,no_anomaly,0.0,0,0,0,0,22.5726199,88.3639082,19.2,0.0
2024-06-11T14:55:10.000Z,MISSION_0035,100,0,transit,SITE_KOL_006,22.5726162,88.3639035,19.2,251.69,3.734,0.106,1.85,-1.9298,-2.9521,251.695,-0.585,0.03074,0.00144,0.81045,-0.0558,-0.0876,-9.706,0.3469,-0.3488,0.2746,0.2221,3,10,0.79,0.83,0.42,24.544,20.7,92.0,47.0,20243.0,7482,7603,7820,7950,62.7,67.1,65.2,63.5,2.862,2.745,2.609,2.884,7.04,54.4,39.0,52.4,1006.72,-31.64,0.08,1.25,32.2,44.6,41.1,0,no_anomaly,0.0,0,0,0,0,22.5726162,88.3639035,19.2,0.0
2024-06-11T14:55:10.100Z,MISSION_0035,101,0,transit,SITE_KOL_006,22.5726176,88.3639103,19.2,251.32,3.923,0.093,2.27,-7.168,-0.5121,251.3187,-0.58159,0.04007,-0.04819,0.81106,-0.055,0.068,-9.7833,0.8957,0.1512,0.07,0.1906,3,14,0.65,1.1,0.32,24.615,17.66,92.0,47.5,20230.0,7566,7936,7843,7415,61.1,63.2,65.1,63.5,2.692,2.774,2.765,3.115,6.91,53.0,38.8,51.1,1006.83,-35.18,0.95,1.71,34.7,46.2,39.6,0,no_anomaly,0.0,0,0,0,0,22.5726176,88.3639103,19.2,0.0
2024-06-11T14:55:10.200Z,MISSION_0035,102,0,transit,SITE_KOL_006,22.572618,88.3639107,19.2,249.57,3.636,0.059,2.33,0.2066,-3.3305,249.5714,-0.57031,0.02284,0.01806,0.82091,0.3397,0.0147,-9.8392,0.1356,-0.2772,-0.2883,0.2983,3,17,0.62,0.6,0.25,24.569,16.06,91.9,47.8,20218.0,7580,7747,7481,7686,62.6,64.5,65.8,65.8,2.74,2.839,2.845,2.518,7.17,46.2,38.8,50.3,1007.12,-31.61,-2.56,1.47,31.7,51.3,39.9,0,no_anomaly,0.0,0,0,0,0,22.572618,88.3639107,19.2,0.0
2024-06-11T14:55:10.300Z,MISSION_0035,103,0,transit,SITE_KOL_006,22.5726185,88.3639094,19.2,252.99,3.421,0.152,2.31,4.6009,-0.3237,252.9926,-0.59438,-0.0216,0.03395,0.80318,-0.0568,0.015,-9.7287,-1.0089,-0.1347,-0.0733,0.1682,3,10,0.59,0.83,0.28,24.508,16.2,91.8,47.6,20206.0,7762,7659,7640,7636,64.5,60.4,63.9,62.5,2.76,2.8,2.603,2.628,6.81,45.2,38.6,51.1,1006.94,-33.81,-0.29,1.49,35.8,50.2,44.7,0,no_anomaly,0.0,0,0,0,0,22.5726185,88.3639094,19.2,0.0
2024-06-11T14:55:10.400Z,MISSION_0035,104,0,transit,SITE_KOL_006,22.5726117,88.3639168,19.2,254.4,3.36,0.055,2.27,-0.0052,-1.4267,254.4018,-0.60456,0.00994,0.00749,0.79646,0.3402,-0.0364,-9.742,0.346,0.0144,0.1864,0.2666,3,10,0.5,0.73,0.25,24.658,22.19,91.8,48.0,20194.0,7621,7714,7859,7791,63.5,66.3,67.6,62.2,2.675,3.048,2.567,2.524,7.53,51.2,38.8,50.5,1006.87,-30.48,1.58,1.0,33.4,52.7,43.5,0,no_anomaly,0.0,0,0,0,0,22.5726117,88.3639168,19.2,0.0
2024-06-11T14:55:10.500Z,MISSION_0035,105,0,transit,SITE_KOL_006,22.5726101,88.3639124,19.2,254.6,3.808,0.17,1.78,-2.0232,-0.7017,254.5991,-0.60579,0.01557,-0.01033,0.7954,0.3377,0.1022,-9.79,0.1607,0.468,-0.0688,0.2817,3,19,0.8,1.01,0.38,24.596,18.28,91.7,46.8,20182.0,7818,7376,7936,7468,62.2,63.8,62.2,59.8,2.987,2.834,2.661,2.623,6.5,49.2,38.9,51.7,1006.84,-24.97,-0.29,1.62,30.6,46.6,40.4,0,no_anomaly,0.0,0,0,0,0,22.5726101,88.3639124,19.2,0.0
2024-06-11T14:55:10.600Z,MISSION_0035,106,0,transit,SITE_KOL_006,22.5726136,88.3639114,19.2,252.22,4.09,0.125,1.97,-2.8991,-3.2884,252.2153,-0.58829,0.03807,-0.00353,0.80775,-0.1484,0.0093,-9.7401,-0.2584,0.1084,-0.044,0.1974,3,17,0.84,0.92,0.26,24.6,17.56,91.7,46.5,20170.0,7617,7357,7854,7521,61.5,61.3,64.7,61.7,2.87,2.705,2.849,2.709,6.87,58.1,39.2,51.1,1006.65,-26.79,-0.05,1.68,31.9,46.8,43.1,0,no_anomaly,0.0,0,0,0,0,22.5726136,88.3639114,19.2,0.0
2024-06-11T14:55:10.700Z,MISSION_0035,107,0,transit,SITE_KOL_006,22.5726085,88.363912,19.2,251.73,3.63,0.105,1.64,-1.9919,-2.307,251.7281,-0.58537,0.02649,-0.00229,0.81033,0.4161,0.0169,-9.8056,0.967,-0.3404,0.1156,0.2943,3,20,0.69,0.77,0.2,24.619,21.84,91.6,47.8,20157.0,7882,7756,7566,7631,67.2,63.7,67.8,66.4,2.818,2.726,2.865,2.746,6.84,52.7,38.7,51.9,1006.92,-30.3,-0.65,1.58,33.6,53.3,40.3,0,no_anomaly,0.0,0,0,0,0,22.5726085,88.363912,19.2,0.0
2024-06-11T14:55:10.800Z,MISSION_0035,108,0,transit,SITE_KOL_006,22.5726147,88.3639125,19.2,253.64,3.552,0.109,2.15,-1.3694,-1.4977,253.6415,-0.59909,0.01762,-0.00173,0.80048,-0.03,-0.0136,-9.835,-0.336,-0.6548,0.2864,0.226,3,12,0.62,0.89,0.28,24.66,17.54,91.6,46.6,20145.0,7761,7840,7774,7678,62.4,66.5,63.4,62.9,2.77,2.644,3.023,2.95,6.75,43.3,38.6,51.1,1007.18,-30.25,1.29,1.56,31.9,45.2,40.6,0,no_anomaly,0.0,0,0,0,0,22.5726147,88.3639125,19.2,0.0
2024-06-11T14:55:10.900Z,MISSION_0035,109,0,transit,SITE_KOL_006,22.5726117,88.3639182,19.2,251.58,3.6,0.079,2.41,8.0066,-4.8483,251.5753,-0.58523,-0.00656,0.08126,0.80676,0.0471,-0.0556,-9.7677,0.512,-0.1853,-0.0881,0.1745,3,14,0.65,0.77,0.42,24.651,16.02,91.5,47.3,20133.0,7860,7644,7461,7615,65.8,60.6,64.8,67.2,2.851,2.919,2.889,2.631,7.61,48.5,38.5,51.2,1007.2,-30.95,-0.86,1.74,33.1,47.2,39.0,0,no_anomaly,0.0,0,0,0,0,22.5726117,88.3639182,19.2,0.0
2024-06-11T14:55:11.000Z,MISSION_0035,110,0,transit,SITE_KOL_006,22.5726136,88.3639178,19.2,249.43,3.761,0.042,2.49,-1.5019,-1.0887,249.4291,-0.56931,0.01527,-0.00536,0.82196,0.0685,0.0213,-9.7745,0.3667,-0.0309,-0.0045,0.1378,3,14,0.64,0.99,0.43,24.485,17.61,91.5,46.7,20121.0,7612,7812,7503,7504,65.1,67.5,63.8,61.1,2.799,2.757,2.799,2.898,6.94,40.5,38.9,50.3,1007.14,-32.73,0.29,1.95,32.3,48.6,43.0,0,no_anomaly,0.0,0,0,0,0,22.5726136,88.3639178,19.2,0.0
2024-06-11T14:55:11.100Z,MISSION_0035,111,0,transit,SITE_KOL_006,22.5726163,88.3639154,19.2,249.75,3.768,0.056,2.5,-0.0421,-1.3301,249.7501,-0.57175,0.00973,0.00634,0.82035,0.2639,-0.031,-9.8511,-0.791,-0.1623,-0.0123,0.2915,3,16,0.82,1.16,0.39,24.537,21.56,91.4,47.3,20109.0,7902,7835,7931,7728,59.7,63.4,63.6,61.6,2.651,2.647,2.998,2.838,7.41,39.8,38.8,51.8,1007.05,-33.15,-1.09,1.39,36.8,45.3,44.8,0,no_anomaly,0.0,0,0,0,0,22.5726163,88.3639154,19.2,0.0
2024-06-11T14:55:11.200Z,MISSION_0035,112,0,transit,SITE_KOL_006,22.57262,88.3639135,19.2,248.21,3.651,0.091,2.69,1.0595,-3.4792,248.2149,-0.5607,0.01995,0.02467,0.82741,-0.0537,0.0725,-9.8644,-0.8419,0.6747,0.4284,0.2022,3,15,0.86,1.04,0.44,24.529,20.17,91.3,47.3,20097.0,7830,7711,7466,7671,65.0,63.5,61.9,65.5,2.773,2.732,2.579,2.948,6.68,46.1,39.0,51.7,1006.93,-31.9,1.47,1.76,31.1,52.5,39.1,0,no_anomaly,0.0,0,0,0,0,22.57262,88.3639135,19.2,0.0
2024-06-11T14:55:11.300Z,MISSION_0035,113,0,transit,SITE_KOL_006,22.5726267,88.3639144,19.2,248.68,3.591,0.027,3.37,3.9794,-3.0083,248.6839,-0.56435,0.00208,0.04346,0.82439,-0.0788,0.0162,-9.8207,-0.139,-0.1619,0.5217,0.2538,3,20,0.68,1.01,0.28,24.61,19.6,91.3,46.7,20085.0,7918,7729,7701,7492,67.0,66.6,64.9,64.7,2.794,2.724,2.901,2.935,7.3,48.9,38.8,50.4,1006.85,-27.86,-1.4,1.82,33.6,51.7,44.4,0,no_anomaly,0.0,0,0,0,0,22.5726267,88.3639144,19.2,0.0
2024-06-11T14:55:11.400Z,MISSION_0035,114,0,transit,SITE_KOL_006,22.5726268,88.363918,19.2,248.72,3.83,0.072,3.6,-5.5584,-0.913,248.72,-0.56339,0.03393,-0.03553,0.82473,0.0786,-0.0057,-9.8429,-0.4181,0.5103,-0.2796,0.2524,3,12,0.67,1.06,0.2,24.564,20.71,91.2,46.7,20072.0,7409,7577,7792,7756,60.4,66.3,66.0,63.8,2.934,2.556,2.756,2.72,7.21,43.2,38.5,51.0,1006.95,-36.89,1.16,1.57,32.8,44.2,40.0,0,no_anomaly,0.0,0,0,0,0,22.5726268,88.363918,19.2,0.0
2024-06-11T14:55:11.500Z,MISSION_0035,115,0,transit,SITE_KOL_006,22.572628,88.3639183,19.2,249.07,3.92,0.033,3.72,1.7587,-0.6375,249.0742,-0.56693,-0.00412,0.0158,0.8236,-0.2012,-0.0462,-9.844,-0.6126,-0.1197,0.0734,0.2928,3,15,0.74,0.86,0.54,24.565,18.23,91.2,47.4,20060.0,7858,7552,7768,7698,61.9,66.1,65.0,65.4,2.831,2.795,2.978,2.699,7.77,53.6,38.7,51.1,1007.02,-28.25,1.57,1.36,35.9,52.4,41.0,0,no_anomaly,0.0,0,0,0,0,22.572628,88.3639183,19.2,0.0
2024-06-11T14:55:11.600Z,MISSION_0035,116,0,transit,SITE_KOL_006,22.5726256,88.3639134,19.2,250.26,3.853,0.172,3.22,-2.9165,-0.0699,250.2614,-0.57524,0.01514,-0.02046,0.81759,0.1962,-0.0898,-9.8237,0.4647,-0.5683,0.0052,0.2056,3,16,0.58,0.83,0.2,24.613,22.78,91.1,46.7,20048.0,7589,7618,7693,7598,64.0,64.1,62.4,66.8,2.741,2.683,2.799,2.755,6.56,53.8,38.7,51.0,1007.19,-30.64,-0.8,1.21,35.5,51.9,42.7,0,no_anomaly,0.0,0,0,0,0,22.5726256,88.3639134,19.2,0.0
2024-06-11T14:55:11.700Z,MISSION_0035,117,0,transit,SITE_KOL_006,22.5726274,88.3639126,19.2,249.76,3.437,0.123,3.36,-3.1474,-5.606,249.76,-0.56986,0.05579,0.00545,0.81983,0.0519,-0.0292,-9.8504,-0.4313,0.2785,-0.1942,0.26,3,10,0.63,0.98,0.31,24.553,16.99,91.1,47.4,20036.0,7953,7699,7708,7730,63.7,62.8,60.4,65.8,2.794,2.82,2.644,2.682,6.85,50.6,38.3,50.9,1006.89,-35.22,-0.03,1.4,34.0,52.4,42.8,0,no_anomaly,0.0,0,0,0,0,22.5726274,88.3639126,19.2,0.0
2024-06-11T14:55:11.800Z,MISSION_0035,118,0,transit,SITE_KOL_006,22.5726194,88.3639143,19.2,250.79,3.239,0.034,2.68,-0.5772,-1.7277,250.7886,-0.57907,0.01521,0.00463,0.81513,0.0432,0.0208,-9.9574,0.6229,0.7055,0.2764,0.2505,3,12,0.64,0.79,0.31,24.513,18.2,91.0,47.8,20024.0,7609,7765,7676,7671,58.0,64.6,63.1,65.4,2.87,2.93,2.81,2.839,7.36,56.3,38.7,51.8,1007.07,-26.2,0.49,1.83,36.6,45.3,43.7,0,no_anomaly,0.0,0,0,0,0,22.5726194,88.3639143,19.2,0.0
2024-06-11T14:55:11.900Z,MISSION_0035,119,0,transit,SITE_KOL_006,22.5726194,88.3639085,19.2,248.27,3.094,0.092,2.36,8.2068,-0.9293,248.2671,-0.56015,-0.03346,0.06377,0.82526,0.1048,-0.0637,-9.8139,0.0352,0.113,0.0995,0.2434,3,20,0.7,1.28,0.32,24.634,24.3,91.0,46.9,20012.0,7785,7591,7651,7506,66.9,61.6,61.2,67.0,3.014,2.607,2.866,2.652,7.08,55.3,38.6,51.5,1006.9,-25.31,2.42,1.92,32.6,48.5,43.9,0,no_anomaly,0.0,0,0,0,0,22.5726194,88.3639085,19.2,0.0
2024-06-11T14:55:12.000Z,MISSION_0035,120,0,transit,SITE_KOL_006,22.5726196,88.363908,19.2,247.37,3.158,0.11,2.35,-5.4765,-2.9911,247.3713,-0.55278,0.04818,-0.02528,0.83155,0.1976,0.0132,-9.8625,-0.572,0.3557,-0.3696,0.112,3,17,0.64,0.99,0.22,24.532,20.61,90.9,47.6,19999.0,7667,7447,7496,7797,68.9,63.4,63.4,64.0,2.678,2.899,2.626,2.694,6.8,45.4,38.8,50.8,1006.74,-35.7,0.2,1.35,31.6,46.6,39.0,0,no_anomaly,0.0,0,0,0,0,22.5726196,88.363908,19.2,0.0
2024-06-11T14:55:12.100Z,MISSION_0035,121,0,transit,SITE_KOL_006,22.5726166,88.3639015,19.2,248.47,2.953,0.081,1.86,-7.3798,0.1761,248.4729,-0.56152,0.03494,-0.05407,0.82495,0.1586,-0.0548,-9.8673,-0.7262,0.4264,0.0227,0.1911,3,10,0.5,1.07,0.2,24.54,24.92,90.9,46.7,19987.0,7658,7539,7877,7531,62.3,66.2,64.6,64.7,2.711,2.898,2.531,2.676,7.14,56.8,38.9,52.2,1007.08,-29.25,0.81,1.35,32.0,48.6,40.2,0,no_anomaly,0.0,0,0,0,0,22.5726166,88.3639015,19.2,0.0
2024-06-11T14:55:12.200Z,MISSION_0035,122,0,transit,SITE_KOL_006,22.5726185,88.3638976,19.2,249.47,3.246,0.153,2.08,3.0679,-5.7935,249.4675,-0.56994,0.02628,0.05075,0.81969,-0.1758,-0.0238,-9.6529,-0.196,-0.8656,0.1964,0.3503,3,15,0.74,0.86,0.32,24.517,21.42,90.8,47.7,19975.0,7374,7614,7692,7607,62.6,65.3,64.8,60.8,2.667,2.918,2.921,2.92,6.58,53.5,38.7,50.8,1007.2,-30.67,0.85,1.65,33.9,44.3,39.4,0,no_anomaly,0.0,0,0,0,0,22.5726185,88.3638976,19.2,0.0
2024-06-11T14:55:12.300Z,MISSION_0035,123,0,transit,SITE_KOL_006,22.5726176,88.3639,19.2,250.03,2.599,0.214,1.96,-3.2742,-2.8041,250.0347,-0.57285,0.03642,-0.00936,0.8188,0.0402,-0.0687,-9.7612,-0.3902,1.1524,0.2342,0.1951,3,17,0.8,1.2,0.26,24.639,20.7,90.7,47.2,19963.0,7556,7719,7907,7515,65.3,64.4,61.4,64.1,2.763,2.848,2.359,2.76,6.38,51.4,39.0,51.1,1006.99,-30.41,0.26,1.61,34.4,50.9,40.5,0,no_anomaly,0.0,0,0,0,0,22.5726176,88.3639,19.2,0.0
2024-06-11T14:55:12.400Z,MISSION_0035,124,0,transit,SITE_KOL_006,22.5726172,88.3639017,19.2,248.66,2.759,0.132,1.92,0.0983,0.8358,248.6601,-0.56394,-0.00651,-0.00341,0.82578,0.1058,-0.0662,-9.7368,-0.2367,0.2913,0.0849,0.1766,3,11,0.63,0.76,0.29,24.551,19.63,90.7,48.2,19951.0,7673,7634,7824,8030,61.9,65.1,62.0,65.4,2.548,2.805,2.973,2.818,7.04,48.3,38.9,50.9,1007.3,-34.86,-0.8,1.49,33.1,52.4,39.0,0,no_anomaly,0.0,0,0,0,0,22.5726172,88.3639017,19.2,0.0
2024-06-11T14:55:12.500Z,MISSION_0035,125,0,transit,SITE_KOL_006,22.5726128,88.3639032,19.2,247.13,2.817,0.146,1.47,-2.8543,-4.4587,247.1295,-0.55148,0.04616,0.00076,0.83291,-0.0257,-0.0033,-9.7637,1.0817,-0.3713,-0.0361,0.2443,3,18,0.78,0.82,0.24,24.594,15.55,90.6,47.2,19939.0,7666,7907,7488,7906,63.7,67.7,63.6,63.2,2.654,2.81,3.097,2.835,8.0,53.9,38.8,50.5,1007.2,-29.4,0.81,1.62,31.0,52.1,38.1,0,no_anomaly,0.0,0,0,0,0,22.5726128,88.3639032,19.2,0.0
2024-06-11T14:55:12.600Z,MISSION_0035,126,0,transit,SITE_KOL_006,22.5726114,88.3639095,19.2,249.54,2.54,0.058,1.65,-3.8226,-1.5449,249.5414,-0.56956,0.03009,-0.01971,0.82117,0.3208,-0.0053,-9.7617,0.676,0.7418,0.1498,0.2761,3,19,0.75,1.1,0.38,24.609,15.51,90.6,46.9,19926.0,7624,7751,7670,7729,63.6,62.5,62.9,67.8,2.816,2.645,3.105,2.95,6.79,53.3,39.2,51.1,1006.73,-28.91,-1.03,1.36,32.0,46.8,38.5,0,no_anomaly,0.0,0,0,0,0,22.5726114,88.3639095,19.2,0.0
2024-06-11T14:55:12.700Z,MISSION_0035,127,0,transit,SITE_KOL_006,22.5726127,88.3639069,19.2,251.32,3.066,0.081,1.61,-0.5824,-1.037,251.3178,-0.58289,0.01032,0.00115,0.81248,-0.3411,-0.0233,-9.7413,0.1751,-0.1633,0.2091,0.2234,3,15,0.8,0.75,0.28,24.589,18.47,90.5,46.7,19914.0,7844,7759,7598,7567,65.0,59.2,61.6,64.4,3.031,2.89,2.564,2.921,6.22,46.2,39.1,51.1,1007.03,-31.51,1.28,1.58,32.8,46.3,43.9,0,no_anomaly,0.0,0,0,0,0,22.5726127,88.3639069,19.2,0.0
2024-06-11T14:55:12.800Z,MISSION_0035,128,0,transit,SITE_KOL_006,22.5726117,88.3639098,19.2,250.32,2.554,0.139,1.7,2.5153,-1.5527,250.3213,-0.57592,-0.00156,0.02574,0.8171,-0.189,0.0352,-9.724,0.3267,0.841,-0.6558,0.1584,3,11,0.68,0.86,0.29,24.565,22.1,90.5,47.4,19902.0,7927,7159,7539,7610,62.9,65.4,62.9,60.9,2.88,3.203,2.77,2.948,7.51,47.3,39.0,50.8,1006.94,-27.58,-1.99,1.37,35.1,44.1,38.1,0,no_anomaly,0.0,0,0,0,0,22.5726117,88.3639098,19.2,0.0
2024-06-11T14:55:12.900Z,MISSION_0035,129,0,transit,SITE_KOL_006,22.5726114,88.3639111,19.2,249.34,2.164,0.17,1.78,3.4759,-1.6438,249.3402,-0.56889,-0.00546,0.0331,0.82173,-0.0165,0.0498,-9.8737,0.8115,1.6104,-0.1737,0.1695,3,11,0.84,0.87,0.2,24.577,19.31,90.4,47.0,19890.0,7760,7688,8186,7836,64.6,62.2,66.2,61.7,2.632,2.906,2.76,2.769,7.01,53.4,38.8,50.3,1007.05,-29.21,-0.58,1.05,33.9,53.3,43.4,0,no_anomaly,0.0,0,0,0,0,22.5726114,88.3639111,19.2,0.0
