timestamp_utc,mission_id,frame_id,waypoint_id,inspection_phase,site_id,latitude_deg,longitude_deg,altitude_m,heading_deg,ground_speed_ms,vertical_speed_ms,distance_to_tower_m,roll_deg,pitch_deg,yaw_deg,quat_w,quat_x,quat_y,quat_z,accel_x_ms2,accel_y_ms2,accel_z_ms2,gyro_x_rads,gyro_y_rads,gyro_z_rads,vibration_level,gps_fix_type,gps_satellite_count,gps_hdop,gps_vdop,position_error_m,battery_voltage_v,battery_current_a,battery_remaining_pct,battery_temp_c,battery_capacity_mah,motor_fl_rpm,motor_fr_rpm,motor_rl_rpm,motor_rr_rpm,motor_fl_temp_c,motor_fr_temp_c,motor_rl_temp_c,motor_rr_temp_c,motor_fl_thrust_n,motor_fr_thrust_n,motor_rl_thrust_n,motor_rr_thrust_n,wind_speed_ms,wind_dir_deg,air_temp_c,humidity_pct,pressure_hpa,gimbal_pitch_deg,gimbal_roll_deg,zoom_factor,ir_temp_min_c,ir_temp_max_c,ir_temp_avg_c,anomaly_detected,anomaly_class,anomaly_confidence,anomaly_bbox_x,anomaly_bbox_y,anomaly_bbox_w,anomaly_bbox_h,anomaly_gps_lat,anomaly_gps_lon,anomaly_gps_alt_m,ir_temp_delta_c
2024-10-01T10:00:00.000Z,MISSION_0011,0,0,takeoff,SITE_DEL_002,28.6138983,77.2089937,1.5,332.68,0.032,0.095,0.73,2.305,-2.4711,332.6833,-0.9714,-0.01445,0.0257,0.23561,-0.2116,-0.0226,-9.7094,-0.3773,-0.5676,-0.0829,0.1804,3,19,0.7,1.05,0.36,24.639,21.3,95.2,35.7,20952.0,8714,8649,8229,8307,52.4,54.3,54.4,55.3,2.627,2.958,2.737,2.818,7.31,111.5,27.5,71.1,1018.4,-31.73,1.25,1.55,21.6,42.2,31.8,0,no_anomaly,0.0,0,0,0,0,28.6138983,77.2089937,1.5,0.0
2024-10-01T10:00:00.100Z,MISSION_0011,1,0,takeoff,SITE_DEL_002,28.6139027,77.2089904,3.0,333.93,0.086,0.028,1.11,-4.1956,-2.5347,333.9336,-0.97317,0.04064,0.01328,0.2261,-0.1895,0.0458,-9.7782,0.2246,-0.4163,-0.5613,0.2504,3,16,0.75,0.85,0.43,24.629,19.53,95.2,35.2,20936.0,8757,8731,8904,8514,54.1,52.1,47.0,53.6,3.007,2.991,2.738,3.08,7.34,126.5,27.6,70.0,1018.49,-23.48,0.05,1.18,21.5,35.8,28.6,0,no_anomaly,0.0,0,0,0,0,28.6139027,77.2089904,3.0,0.0
2024-10-01T10:00:00.200Z,MISSION_0011,2,0,takeoff,SITE_DEL_002,28.6139034,77.2089883,4.5,331.03,0.0,0.139,1.35,2.6482,-2.7038,331.026,-0.96781,-0.01647,0.02862,0.2495,-0.11,0.0125,-9.8273,-0.1557,-0.1649,-0.0444,0.241,3,18,0.67,0.68,0.21,24.699,21.43,95.1,35.9,20919.0,8630,8557,8658,8698,53.9,54.4,53.5,55.9,3.062,2.668,2.871,2.727,7.17,117.8,27.8,70.8,1018.1,-24.18,-0.8,1.97,23.5,38.9,32.0,0,no_anomaly,0.0,0,0,0,0,28.6139034,77.2089883,4.5,0.0
2024-10-01T10:00:00.300Z,MISSION_0011,3,0,takeoff,SITE_DEL_002,28.6139098,77.2089835,5.0,331.88,0.0,0.078,2.14,-2.505,1.0453,331.8819,-0.96982,0.01899,-0.01416,0.24266,-0.1941,0.0007,-9.8203,0.125,0.2893,0.2749,0.1945,3,11,0.65,0.75,0.2,24.702,16.5,95.0,35.3,20903.0,8665,8868,9089,8955,50.6,55.9,53.5,52.3,2.552,2.87,2.931,3.162,6.78,124.3,27.7,70.9,1018.43,-36.37,-0.01,1.51,21.3,35.0,30.8,0,no_anomaly,0.0,0,0,0,0,28.6139098,77.2089835,5.0,0.0
2024-10-01T10:00:00.400Z,MISSION_0011,4,0,takeoff,SITE_DEL_002,28.6139094,77.208983,5.0,332.34,0.0,0.182,2.16,1.6725,-1.818,332.3398,-0.97084,-0.01038,0.01889,0.23876,0.2995,0.0238,-9.7637,-0.17,0.6756,0.3134,0.2889,3,14,0.74,0.89,0.38,24.696,21.17,94.9,35.8,20887.0,9053,8800,8567,8602,51.8,52.3,53.7,55.1,2.79,2.794,2.584,2.928,7.45,119.6,27.3,70.7,1017.98,-30.58,1.26,1.27,24.7,35.3,30.9,0,no_anomaly,0.0,0,0,0,0,28.6139094,77.208983,5.0,0.0
2024-10-01T10:00:00.500Z,MISSION_0011,5,0,takeoff,SITE_DEL_002,28.6139089,77.2089811,5.0,333.6,0.427,0.139,2.33,5.3792,-0.9218,333.604,-0.97257,-0.04385,0.01854,0.22769,0.2214,0.034,-9.8142,-0.1815,-0.4959,-0.0249,0.2049,3,17,0.85,0.95,0.31,24.677,14.13,94.9,35.8,20870.0,8826,8776,8544,8680,53.9,55.5,55.1,52.0,2.545,2.906,2.735,2.669,6.66,123.4,27.7,70.2,1018.6,-29.06,-0.27,1.26,24.3,31.9,29.2,0,no_anomaly,0.0,0,0,0,0,28.6139089,77.2089811,5.0,0.0
2024-10-01T10:00:00.600Z,MISSION_0011,6,0,takeoff,SITE_DEL_002,28.6139063,77.2089794,5.0,333.86,0.496,0.112,2.4,0.745,-1.2067,333.861,-0.97404,-0.00395,0.01173,0.22605,-0.1561,0.0146,-9.7771,-0.1051,-0.1589,-0.503,0.219,3,17,0.86,0.91,0.28,24.679,22.25,94.8,35.4,20854.0,8446,8816,8643,8855,51.8,49.7,51.5,52.8,2.827,2.988,2.692,2.495,7.47,118.4,27.5,69.6,1018.18,-34.44,2.05,1.35,23.6,36.0,29.3,0,no_anomaly,0.0,0,0,0,0,28.6139063,77.2089794,5.0,0.0
2024-10-01T10:00:00.700Z,MISSION_0011,7,0,takeoff,SITE_DEL_002,28.6139088,77.2089779,5.0,335.8,0.531,0.084,2.65,0.8518,0.8705,335.7971,-0.97771,-0.00886,-0.00587,0.20969,0.3843,0.0022,-9.7778,0.1822,0.0625,-0.2302,0.3118,3,12,0.66,0.99,0.28,24.626,16.32,94.7,35.8,20837.0,8798,8657,8516,8645,52.2,50.5,52.2,51.0,2.598,2.813,2.825,2.788,6.37,136.9,27.7,71.4,1018.28,-34.72,-0.45,1.85,23.6,40.7,29.9,0,no_anomaly,0.0,0,0,0,0,28.6139088,77.2089779,5.0,0.0
2024-10-01T10:00:00.800Z,MISSION_0011,8,0,takeoff,SITE_DEL_002,28.6139095,77.2089778,5.0,335.77,0.89,0.167,2.69,-2.1408,-1.9935,335.77,-0.97734,0.02191,0.01308,0.21012,-0.2233,0.0131,-9.8127,0.5856,0.3994,0.3543,0.2874,3,18,0.9,1.02,0.39,24.648,16.74,94.6,36.2,20821.0,8612,8695,8556,8527,51.9,51.5,52.1,52.9,2.673,2.672,2.839,2.808,7.45,116.5,27.9,70.2,1018.39,-28.82,-1.02,1.0,21.1,40.6,31.3,0,no_anomaly,0.0,0,0,0,0,28.6139095,77.2089778,5.0,0.0
2024-10-01T10:00:00.900Z,MISSION_0011,9,0,takeoff,SITE_DEL_002,28.6139099,77.2089849,5.0,334.6,0.719,0.134,2.01,2.4468,0.9371,334.6035,-0.97525,-0.02262,-0.00328,0.21993,0.0399,0.0313,-9.825,0.5507,0.5863,0.2534,0.2745,3,18,0.68,1.03,0.44,24.699,17.21,94.6,35.8,20805.0,9007,8769,8710,8785,52.5,54.3,49.6,51.3,2.61,2.854,2.909,2.793,7.03,119.4,27.9,70.1,1018.87,-25.18,-0.34,1.55,24.8,43.2,31.9,0,no_anomaly,0.0,0,0,0,0,28.6139099,77.2089849,5.0,0.0
2024-10-01T10:00:01.000Z,MISSION_0011,10,0,takeoff,SITE_DEL_002,28.6139091,77.208985,5.0,335.43,1.039,0.173,1.95,6.7198,-0.9439,335.4343,-0.9755,-0.05551,0.0205,0.21189,-0.2248,-0.0687,-9.8313,-0.8774,0.3259,0.2349,0.2017,3,18,0.64,0.84,0.28,24.661,18.44,94.5,35.3,20788.0,8714,8924,8725,8675,50.3,52.8,57.8,50.6,2.668,2.832,2.939,3.088,7.15,118.9,27.5,70.9,1018.68,-31.1,-1.42,1.73,19.7,39.6,31.8,0,no_anomaly,0.0,0,0,0,0,28.6139091,77.208985,5.0,0.0
2024-10-01T10:00:01.100Z,MISSION_0011,11,0,takeoff,SITE_DEL_002,28.6139104,77.2089801,5.0,337.94,1.1,0.056,2.5,0.3616,-1.9192,337.9357,-0.98139,0.00011,0.01704,0.19128,0.0749,0.0455,-9.7921,0.6705,-0.2972,-0.3155,0.1661,3,11,0.78,1.17,0.23,24.708,19.72,94.4,35.3,20772.0,8491,8952,8738,8798,51.0,53.1,54.7,54.9,2.813,2.773,2.965,2.73,7.05,111.6,27.5,70.0,1018.54,-36.16,-1.22,1.57,23.3,37.4,31.3,0,no_anomaly,0.0,0,0,0,0,28.6139104,77.2089801,5.0,0.0
2024-10-01T10:00:01.200Z,MISSION_0011,12,0,takeoff,SITE_DEL_002,28.6139078,77.2089837,5.0,335.21,1.296,0.033,2.01,4.4024,-3.9619,335.212,-0.97568,-0.03008,0.04198,0.21305,0.0836,-0.0606,-9.8392,0.8062,-0.3712,-0.0385,0.2404,3,13,0.72,0.65,0.29,24.646,12.52,94.3,35.0,20756.0,8710,8670,8596,8792,55.3,53.5,58.5,55.9,2.695,2.569,2.651,2.661,6.95,120.6,27.6,70.5,1018.53,-23.58,-0.68,1.87,22.3,33.0,32.0,0,no_anomaly,0.0,0,0,0,0,28.6139078,77.2089837,5.0,0.0
2024-10-01T10:00:01.300Z,MISSION_0011,13,0,takeoff,SITE_DEL_002,28.6139126,77.2089844,5.0,337.22,1.054,0.133,2.23,-1.6036,-2.1087,337.2237,-0.98,0.01735,0.01527,0.19765,0.0782,-0.0311,-9.7648,0.449,0.3495,0.0484,0.2642,3,11,0.77,0.87,0.46,24.669,21.29,94.3,36.6,20739.0,8871,8721,8955,8554,54.1,55.4,52.2,51.3,2.827,2.897,2.841,2.608,7.42,114.1,27.6,70.0,1018.4,-27.99,0.21,1.28,25.3,35.8,29.6,0,no_anomaly,0.0,0,0,0,0,28.6139126,77.2089844,5.0,0.0
2024-10-01T10:00:01.400Z,MISSION_0011,14,0,takeoff,SITE_DEL_002,28.6139159,77.2089886,5.0,337.53,1.283,0.104,2.18,-4.632,-0.3952,337.5279,-0.98,0.04031,-0.00449,0.19483,-0.2157,-0.0064,-9.7146,-0.4691,0.0631,0.2204,0.351,3,14,0.77,0.95,0.39,24.638,16.18,94.2,36.4,20723.0,8459,8438,8716,8615,52.8,49.3,49.6,51.9,2.76,2.953,2.524,3.028,6.71,123.2,27.5,70.6,1018.36,-26.51,1.26,1.97,21.6,41.8,32.6,0,no_anomaly,0.0,0,0,0,0,28.6139159,77.2089886,5.0,0.0
2024-10-01T10:00:01.500Z,MISSION_0011,15,0,takeoff,SITE_DEL_002,28.6139133,77.20899,5.0,339.86,1.374,0.097,1.85,-2.7218,0.1121,339.8575,-0.98432,0.02321,-0.00512,0.1748,-0.1903,-0.0053,-9.7196,-0.4309,0.9258,0.1969,0.2045,3,14,0.76,0.9,0.3,24.64,15.06,94.1,35.8,20706.0,8579,8694,8636,8936,49.9,53.8,51.4,49.6,2.723,3.148,2.778,2.744,7.27,131.6,27.9,70.7,1018.18,-28.19,0.46,1.0,24.3,42.4,31.3,0,no_anomaly,0.0,0,0,0,0,28.6139133,77.20899,5.0,0.0
2024-10-01T10:00:01.600Z,MISSION_0011,16,0,takeoff,SITE_DEL_002,28.6139158,77.2089877,5.0,341.32,1.278,0.118,2.24,-1.4193,-2.0099,341.325,-0.98649,0.01507,0.0153,0.16243,-0.0994,-0.0142,-9.7438,-0.2351,0.6634,0.2703,0.2738,3,18,0.71,0.74,0.27,24.653,16.58,94.0,35.5,20690.0,8764,8713,8700,8899,53.3,54.8,50.9,48.2,3.069,2.96,2.801,2.611,7.46,126.2,27.4,70.8,1018.03,-29.04,0.85,1.0,21.0,41.3,31.7,0,no_anomaly,0.0,0,0,0,0,28.6139158,77.2089877,5.0,0.0
2024-10-01T10:00:01.700Z,MISSION_0011,17,0,takeoff,SITE_DEL_002,28.6139141,77.2089863,5.0,339.84,1.237,0.124,2.19,-2.9596,-5.6458,339.8361,-0.98281,0.03401,0.04396,0.17604,-0.2807,-0.056,-9.84,0.676,-0.4636,-0.7633,0.3099,3,14,0.75,0.96,0.31,24.641,22.74,94.0,34.8,20674.0,8916,8786,8597,8681,55.2,52.8,50.4,55.3,2.792,2.594,3.045,3.192,6.7,124.5,27.3,70.4,1018.6,-26.56,2.19,1.0,25.5,36.5,29.2,0,no_anomaly,0.0,0,0,0,0,28.6139141,77.2089863,5.0,0.0
2024-10-01T10:00:01.800Z,MISSION_0011,18,0,takeoff,SITE_DEL_002,28.6139141,77.2089904,5.0,338.39,0.953,0.071,1.9,7.4952,-2.7813,338.3899,-0.98018,-0.05964,0.03604,0.18545,-0.1019,0.0343,-9.7669,0.0305,0.2908,-0.3619,0.1131,3,18,0.7,1.05,0.36,24.652,15.58,93.9,35.4,20657.0,8973,8394,8700,8622,54.8,54.0,49.5,53.2,2.792,2.841,3.112,2.546,7.24,122.1,27.3,70.4,1018.57,-29.13,-1.22,1.0,22.8,39.7,31.4,0,no_anomaly,0.0,0,0,0,0,28.6139141,77.2089904,5.0,0.0
2024-10-01T10:00:01.900Z,MISSION_0011,19,0,takeoff,SITE_DEL_002,28.6139163,77.2089965,5.0,339.37,0.777,0.074,1.85,1.4534,-1.031,339.369,-0.98374,-0.01087,0.01112,0.17893,0.0011,0.023,-9.7859,-0.1113,-1.0048,0.1702,0.2367,3,17,0.67,1.03,0.27,24.666,21.73,93.8,35.6,20641.0,8936,8662,8419,8812,55.2,54.7,54.0,51.6,2.642,2.723,2.922,2.949,7.29,120.8,27.3,70.3,1018.51,-29.03,-0.86,1.82,20.1,34.5,29.7,0,no_anomaly,0.0,0,0,0,0,28.6139163,77.2089965,5.0,0.0
2024-10-01T10:00:02.000Z,MISSION_0011,20,0,takeoff,SITE_DEL_002,28.6139114,77.2090005,5.0,341.25,0.934,0.08,1.27,-2.3365,-2.6159,341.2479,-0.9861,0.02383,0.0192,0.1633,0.0756,0.0409,-9.7792,0.3384,1.5988,-0.5298,0.2177,3,12,0.82,0.75,0.29,24.609,19.2,93.7,35.8,20624.0,8800,8639,8712,8662,56.8,50.1,51.2,53.2,3.051,2.784,2.839,2.606,6.74,130.6,27.5,70.8,1018.53,-30.23,0.87,1.2,23.7,35.9,28.9,0,no_anomaly,0.0,0,0,0,0,28.6139114,77.2090005,5.0,0.0
2024-10-01T10:00:02.100Z,MISSION_0011,21,0,takeoff,SITE_DEL_002,28.6139078,77.2090024,5.0,340.75,0.92,0.074,0.91,3.6498,-2.226,340.7455,-0.98533,-0.02814,0.02447,0.16651,-0.228,-0.0085,-9.8057,-0.0052,-0.5593,0.5602,0.2325,3,20,0.78,1.12,0.21,24.689,21.11,93.7,36.0,20608.0,8740,8918,8744,8448,48.8,52.5,53.9,55.4,2.645,2.614,2.752,2.754,6.58,123.2,27.4,71.1,1018.4,-35.65,0.22,2.24,22.6,35.4,29.6,0,no_anomaly,0.0,0,0,0,0,28.6139078,77.2090024,5.0,0.0
2024-10-01T10:00:02.200Z,MISSION_0011,22,0,takeoff,SITE_DEL_002,28.6139087,77.2089997,5.0,341.76,0.484,0.136,0.97,3.061,-2.683,341.7632,-0.98684,-0.02266,0.02734,0.15776,-0.2106,-0.0807,-9.8191,-0.4994,-0.011,-0.1621,0.2876,3,14,0.69,1.25,0.32,24.64,25.03,93.6,35.9,20592.0,8937,8483,8477,8923,51.8,53.8,52.7,50.8,2.879,2.546,2.751,2.803,6.62,121.0,27.6,70.7,1018.47,-27.16,0.57,1.51,23.8,39.2,29.1,0,no_anomaly,0.0,0,0,0,0,28.6139087,77.2089997,5.0,0.0
2024-10-01T10:00:02.300Z,MISSION_0011,23,0,takeoff,SITE_DEL_002,28.6139069,77.2089954,5.0,340.66,0.459,0.163,0.92,-0.9747,-1.7536,340.6597,-0.98562,0.01095,0.01366,0.16808,-0.4371,0.0242,-9.8146,-0.1297,-1.2285,0.0729,0.365,3,13,0.66,0.87,0.26,24.67,17.19,93.5,35.7,20575.0,8624,8487,8692,8742,50.8,52.8,54.5,49.4,2.76,2.676,2.85,2.374,6.22,124.3,27.3,70.5,1018.4,-35.5,-1.08,1.0,19.6,34.2,27.7,0,no_anomaly,0.0,0,0,0,0,28.6139069,77.2089954,5.0,0.0
2024-10-01T10:00:02.400Z,MISSION_0011,24,0,takeoff,SITE_DEL_002,28.6139057,77.208991,5.0,340.78,0.255,0.128,1.19,0.1491,-1.7318,340.7788,-0.98585,0.00124,0.01512,0.16691,-0.3413,-0.0131,-9.7247,-0.6306,-0.1345,0.0447,0.1761,3,10,0.72,0.9,0.32,24.517,22.96,93.4,36.5,20559.0,8661,8578,8758,8724,52.0,55.3,54.9,49.8,2.764,2.484,2.946,2.933,6.93,119.1,27.6,70.9,1018.1,-35.56,1.08,1.61,21.4,39.5,30.0,0,no_anomaly,0.0,0,0,0,0,28.6139057,77.208991,5.0,0.0
2024-10-01T10:00:02.500Z,MISSION_0011,25,0,takeoff,SITE_DEL_002,28.6139088,77.2089907,5.0,339.17,0.0,0.105,1.43,0.4943,0.917,339.1737,-0.98348,-0.00569,-0.00709,0.18077,-0.1163,0.0635,-9.7791,-0.294,-0.8676,0.0308,0.2723,3,19,0.57,0.8,0.27,24.643,18.59,93.4,36.2,20542.0,8538,8522,8581,8764,51.1,49.9,50.4,53.7,2.88,2.629,2.638,2.887,6.57,120.9,27.5,70.6,1018.69,-28.97,-0.55,1.54,24.7,38.2,31.5,0,no_anomaly,0.0,0,0,0,0,28.6139088,77.2089907,5.0,0.0
2024-10-01T10:00:02.600Z,MISSION_0011,26,0,takeoff,SITE_DEL_002,28.613907,77.2089866,5.0,337.86,0.0,0.155,1.68,1.6035,-0.3483,337.8616,-0.9813,-0.01315,0.00567,0.19193,0.246,-0.0031,-9.8089,-0.7669,0.2818,-0.1769,0.2594,3,20,0.83,0.89,0.47,24.656,14.65,93.3,36.0,20526.0,8705,8531,8729,8668,52.3,55.7,53.5,57.2,2.458,2.725,2.646,2.908,7.8,125.7,27.5,70.5,1017.97,-29.45,1.34,1.62,24.6,40.5,30.1,0,no_anomaly,0.0,0,0,0,0,28.613907,77.2089866,5.0,0.0
2024-10-01T10:00:02.700Z,MISSION_0011,27,0,takeoff,SITE_DEL_002,28.6139077,77.2089837,5.0,338.15,0.208,0.052,2.01,-3.5436,-2.1144,338.1492,-0.98113,0.03385,0.01225,0.18997,0.0508,-0.0705,-9.895,-0.389,0.1185,-0.1809,0.269,3,10,0.88,0.79,0.47,24.596,19.83,93.2,34.6,20510.0,8570,8549,8559,8815,53.7,54.8,51.3,51.4,2.831,2.848,2.675,2.961,7.66,128.5,27.9,69.5,1018.34,-29.86,0.81,1.23,22.6,33.8,32.4,0,no_anomaly,0.0,0,0,0,0,28.6139077,77.2089837,5.0,0.0
2024-10-01T10:00:02.800Z,MISSION_0011,28,0,takeoff,SITE_DEL_002,28.6139051,77.2089822,5.0,335.72,0.0,0.102,2.07,-3.4125,-0.1126,335.7236,-0.9772,0.02932,-0.0053,0.21021,0.0797,0.0199,-9.8228,-0.4819,0.1062,0.52,0.2278,3,19,0.73,1.13,0.3,24.642,16.19,93.2,35.6,20493.0,8615,8536,8689,8663,51.0,50.2,51.8,54.7,2.74,2.721,2.752,2.649,7.09,123.9,27.4,70.7,1018.62,-28.33,-1.19,1.5,21.3,41.3,30.2,0,no_anomaly,0.0,0,0,0,0,28.6139051,77.2089822,5.0,0.0
2024-10-01T10:00:02.900Z,MISSION_0011,29,0,takeoff,SITE_DEL_002,28.6139051,77.2089833,5.0,336.11,0.982,0.187,1.95,4.6499,-3.6502,336.1076,-0.97731,-0.03308,0.03953,0.20545,0.0209,-0.0345,-9.812,-0.3468,0.454,0.3125,0.2893,3,18,0.7,0.94,0.28,24.6,20.61,93.1,36.1,20477.0,8632,8642,8781,8342,55.9,51.9,53.0,49.0,2.787,2.516,2.818,2.696,6.87,116.9,28.0,70.8,1018.35,-24.34,-0.13,1.31,20.1,40.5,31.7,0,no_anomaly,0.0,0,0,0,0,28.6139051,77.2089833,5.0,0.0
2024-10-01T10:00:03.000Z,MISSION_0011,30,0,takeoff,SITE_DEL_002,28.6139034,77.2089826,5.0,335.51,1.383,0.157,1.98,-4.2404,-3.7892,335.5125,-0.97579,0.04314,0.02445,0.21301,0.0457,-0.0421,-9.8497,0.8128,-0.4121,0.3715,0.3073,3,16,0.76,1.0,0.23,24.622,15.79,93.0,36.2,20460.0,8609,8896,8649,8710,53.1,55.1,55.2,53.4,2.751,2.848,2.67,2.707,6.13,123.9,27.4,71.1,1017.99,-33.84,0.27,1.78,22.7,33.1,27.5,0,no_anomaly,0.0,0,0,0,0,28.6139034,77.2089826,5.0,0.0
2024-10-01T10:00:03.100Z,MISSION_0011,31,0,transit,SITE_DEL_002,28.6139094,77.2089829,5.5,333.4,1.269,0.078,2.17,5.439,-1.4371,333.3977,-0.97214,-0.04329,0.02311,0.22921,-0.1616,0.0096,-9.8236,0.2964,-1.5639,0.5177,0.2664,3,19,0.79,0.76,0.33,24.598,20.19,92.9,35.2,20444.0,8697,8779,8847,8543,53.0,50.9,52.3,53.6,2.84,2.774,2.686,2.503,7.24,127.0,27.7,70.2,1018.7,-29.04,0.42,1.68,24.2,34.4,28.6,0,no_anomaly,0.0,0,0,0,0,28.6139094,77.2089829,5.5,0.0
2024-10-01T10:00:03.200Z,MISSION_0011,32,0,transit,SITE_DEL_002,28.6139104,77.2089851,6.0,334.51,0.955,0.128,2.03,4.5171,-0.8351,334.506,-0.97463,-0.03683,0.0158,0.22019,-0.0323,-0.0096,-9.7478,0.1574,-0.5329,-0.2118,0.2452,3,15,0.79,0.9,0.3,24.576,19.8,92.9,34.4,20428.0,8838,8820,8627,8581,50.6,53.4,55.3,47.2,2.607,2.672,2.712,2.869,6.92,123.9,27.7,70.5,1018.18,-27.0,-0.08,1.69,23.3,42.4,29.3,0,no_anomaly,0.0,0,0,0,0,28.6139104,77.2089851,6.0,0.0
2024-10-01T10:00:03.300Z,MISSION_0011,33,0,transit,SITE_DEL_002,28.6139137,77.2089878,6.5,332.34,1.218,0.179,2.04,2.9159,-0.6914,332.3402,-0.97071,-0.02326,0.01194,0.23881,-0.134,0.0277,-9.7391,-1.0058,-0.0417,-0.2074,0.248,3,16,0.89,0.91,0.44,24.575,22.03,92.8,35.7,20411.0,8606,8661,8541,8789,54.1,53.8,52.3,51.9,2.831,2.824,2.772,2.781,7.12,124.8,27.4,69.5,1018.4,-28.68,1.04,1.24,24.3,32.6,32.1,0,no_anomaly,0.0,0,0,0,0,28.6139137,77.2089878,6.5,0.0
2024-10-01T10:00:03.400Z,MISSION_0011,34,0,transit,SITE_DEL_002,28.6139153,77.2089949,7.0,331.05,0.979,0.102,1.8,-2.0477,-2.8558,331.0548,-0.9677,0.02352,0.01966,0.25023,-0.1599,0.077,-9.7186,-0.4161,0.5144,0.0145,0.1708,3,20,0.7,0.94,0.2,24.555,16.92,92.7,35.5,20395.0,8696,8626,8884,8734,52.5,50.7,55.4,54.2,2.677,2.798,2.852,2.64,6.87,122.2,27.4,71.0,1018.39,-31.31,0.12,1.82,21.5,33.5,27.2,0,no_anomaly,0.0,0,0,0,0,28.6139153,77.2089949,7.0,0.0
2024-10-01T10:00:03.500Z,MISSION_0011,35,0,transit,SITE_DEL_002,28.6139192,77.2089945,7.5,332.82,0.788,0.093,2.22,3.3769,-1.2569,332.8185,-0.97159,-0.02606,0.01758,0.23456,-0.1178,-0.0042,-9.8293,0.2269,0.0143,-0.1308,0.2176,3,17,0.86,0.81,0.32,24.573,21.44,92.6,35.6,20379.0,8360,8851,8725,8545,52.1,55.7,54.2,52.7,2.473,3.022,2.778,2.704,7.56,119.6,27.6,70.8,1018.18,-32.65,-1.19,1.48,21.0,41.2,32.4,0,no_anomaly,0.0,0,0,0,0,28.6139192,77.2089945,7.5,0.0
2024-10-01T10:00:03.600Z,MISSION_0011,36,0,transit,SITE_DEL_002,28.6139154,77.2089956,8.0,334.23,0.801,0.093,1.79,-0.3687,1.3234,334.2285,-0.97475,0.00056,-0.01197,0.22296,-0.3952,-0.03,-9.7558,0.4229,-0.6239,-0.2464,0.2145,3,15,0.56,1.07,0.24,24.66,23.96,92.6,35.0,20362.0,8706,8703,8792,8904,48.3,53.4,52.2,50.5,2.854,2.981,3.069,2.892,6.9,130.1,27.8,71.0,1018.55,-28.21,-0.64,1.5,22.4,31.8,26.9,0,no_anomaly,0.0,0,0,0,0,28.6139154,77.2089956,8.0,0.0
2024-10-01T10:00:03.700Z,MISSION_0011,37,0,transit,SITE_DEL_002,28.6139171,77.2089969,8.5,333.21,0.619,0.114,1.94,1.9555,-1.3667,333.2076,-0.97263,-0.01384,0.01555,0.23144,0.0313,0.0234,-9.8568,-0.4682,0.2227,-0.187,0.2259,3,14,0.7,0.83,0.38,24.571,22.21,92.5,35.0,20346.0,8396,8604,8870,8833,48.8,53.4,49.7,52.3,2.721,2.94,2.836,2.651,7.56,122.8,27.6,70.5,1018.86,-33.64,-1.01,1.2,25.2,34.8,31.2,0,no_anomaly,0.0,0,0,0,0,28.6139171,77.2089969,8.5,0.0
2024-10-01T10:00:03.800Z,MISSION_0011,38,0,transit,SITE_DEL_002,28.6139128,77.2089975,9.0,334.23,0.99,0.26,1.45,1.5526,-4.3524,334.2252,-0.97413,-0.00473,0.04003,0.22235,0.0216,0.0253,-9.8613,-0.6009,0.0948,-0.0343,0.2937,3,16,0.92,0.85,0.5,24.589,15.41,92.4,36.4,20329.0,8500,8797,8511,8450,49.6,53.6,54.8,54.3,2.287,2.646,2.9,2.774,6.07,125.0,27.5,69.4,1018.41,-25.16,0.37,1.4,21.7,33.2,32.3,0,no_anomaly,0.0,0,0,0,0,28.6139128,77.2089975,9.0,0.0
2024-10-01T10:00:03.900Z,MISSION_0011,39,0,transit,SITE_DEL_002,28.6139115,77.2090037,9.5,336.16,1.204,0.131,1.34,-1.9419,-3.6878,336.1621,-0.97768,0.02322,0.02798,0.20693,0.1955,-0.0062,-9.873,0.0043,0.5084,0.2383,0.2389,3,17,0.68,0.99,0.33,24.54,11.03,92.3,36.1,20313.0,8462,8699,8339,8308,51.2,52.8,51.7,55.0,2.633,2.893,2.932,3.022,7.91,127.7,27.5,71.1,1018.12,-25.73,1.07,1.28,20.1,37.5,29.7,0,no_anomaly,0.0,0,0,0,0,28.6139115,77.2090037,9.5,0.0
2024-10-01T10:00:04.000Z,MISSION_0011,40,0,transit,SITE_DEL_002,28.6139128,77.2090047,10.0,333.34,1.143,0.101,1.51,4.9234,-2.6168,333.3437,-0.97214,-0.03652,0.0321,0.2293,0.31,-0.0318,-9.7353,-0.1399,-0.4854,0.203,0.2812,3,12,0.81,1.19,0.4,24.627,18.56,92.3,35.3,20297.0,8886,8691,8336,8543,54.3,53.8,55.2,52.0,2.681,2.793,2.896,2.662,7.23,126.8,27.5,71.5,1017.96,-31.55,1.07,1.49,26.6,34.9,30.3,0,no_anomaly,0.0,0,0,0,0,28.6139128,77.2090047,10.0,0.0
2024-10-01T10:00:04.100Z,MISSION_0011,41,0,transit,SITE_DEL_002,28.6139108,77.2090034,10.5,333.43,1.077,0.177,1.27,-1.8611,-5.1419,333.4318,-0.97197,0.0261,0.03992,0.23023,-0.0046,0.0318,-9.7187,0.4183,0.1932,0.0614,0.261,3,19,0.64,0.81,0.29,24.55,18.89,92.2,35.4,20280.0,8592,8841,8912,8753,53.2,53.8,52.1,53.3,2.661,2.894,2.812,2.803,7.94,128.1,27.6,69.9,1018.38,-29.57,1.69,2.17,24.3,41.6,28.4,0,no_anomaly,0.0,0,0,0,0,28.6139108,77.2090034,10.5,0.0
2024-10-01T10:00:04.200Z,MISSION_0011,42,0,transit,SITE_DEL_002,28.6139068,77.209002,11.0,333.07,0.845,0.163,0.79,0.6242,-3.7601,333.0744,-0.97202,0.00234,0.03317,0.23251,0.0547,-0.0329,-9.8763,0.3006,0.133,0.3958,0.368,3,10,0.69,1.06,0.38,24.644,17.63,92.1,35.4,20264.0,8697,8924,8524,8935,51.3,54.0,52.5,49.1,2.735,2.564,2.632,2.741,5.99,126.9,27.5,70.1,1018.21,-28.43,-0.01,1.65,22.5,36.0,27.0,0,no_anomaly,0.0,0,0,0,0,28.6139068,77.209002,11.0,0.0
2024-10-01T10:00:04.300Z,MISSION_0011,43,0,transit,SITE_DEL_002,28.6139039,77.2090055,11.5,335.28,0.981,0.129,0.75,-4.2046,-0.475,335.2843,-0.97613,0.03672,-0.0038,0.21402,-0.2638,0.0311,-9.8101,0.1853,-0.3617,-0.4352,0.2264,3,13,0.71,0.93,0.25,24.589,14.75,92.0,36.0,20247.0,8472,8834,8637,8526,51.9,53.3,50.3,52.8,2.842,2.576,2.839,2.861,6.91,113.1,27.6,70.0,1018.6,-26.04,1.05,1.42,21.5,39.4,30.8,0,no_anomaly,0.0,0,0,0,0,28.6139039,77.2090055,11.5,0.0
2024-10-01T10:00:04.400Z,MISSION_0011,44,0,transit,SITE_DEL_002,28.6139005,77.2090039,12.0,335.99,1.05,0.062,0.44,2.1013,-2.5331,335.9857,-0.9778,-0.01333,0.02543,0.20755,0.016,-0.0431,-9.7995,-0.2578,-0.1955,0.0085,0.2722,3,10,0.61,0.82,0.24,24.634,21.14,92.0,35.1,20231.0,8936,8645,8838,8736,52.9,50.0,56.1,52.2,2.752,2.764,2.724,2.659,6.52,122.3,27.8,70.3,1018.13,-28.66,0.56,1.84,20.3,39.8,29.1,0,no_anomaly,0.0,0,0,0,0,28.6139005,77.2090039,12.0,0.0
2024-10-01T10:00:04.500Z,MISSION_0011,45,0,transit,SITE_DEL_002,28.613901,77.2089992,12.5,336.93,0.852,0.098,0.14,-2.4355,-1.6024,336.9287,-0.97942,0.02362,0.00945,0.2002,-0.0549,0.006,-9.7072,0.8269,1.0928,-0.1385,0.3221,3,20,0.63,1.03,0.2,24.546,18.71,91.9,37.2,20215.0,8816,8576,8623,8901,53.2,50.6,49.6,52.8,2.785,2.823,2.727,2.65,7.41,128.1,27.4,70.7,1018.32,-29.45,-1.48,1.07,19.5,33.0,30.2,0,no_anomaly,0.0,0,0,0,0,28.613901,77.2089992,12.5,0.0
2024-10-01T10:00:04.600Z,MISSION_0011,46,0,transit,SITE_DEL_002,28.6139014,77.2089961,13.0,337.7,0.844,0.133,0.46,1.8371,-2.4698,337.7005,-0.98084,-0.01156,0.02424,0.19297,-0.2043,0.0402,-9.7122,0.0559,0.4102,-0.0271,0.2768,3,18,0.51,0.95,0.3,24.658,15.84,91.8,36.4,20198.0,8778,8749,8680,8758,53.5,52.1,50.8,52.0,2.739,2.688,2.91,2.772,6.48,117.9,27.6,70.0,1018.58,-33.61,0.1,1.67,19.8,34.6,31.5,0,no_anomaly,0.0,0,0,0,0,28.6139014,77.2089961,13.0,0.0
2024-10-01T10:00:04.700Z,MISSION_0011,47,0,transit,SITE_DEL_002,28.6138998,77.2090034,13.5,337.16,0.451,0.159,0.38,-0.4835,-1.7429,337.1617,-0.98007,0.00715,0.01407,0.19802,0.2473,-0.0178,-9.788,-0.9875,0.4105,0.3167,0.1895,3,13,0.83,1.06,0.38,24.547,11.1,91.7,36.0,20182.0,8625,8675,8805,8862,50.4,54.6,53.9,53.1,3.057,2.687,2.708,2.703,7.43,125.1,27.3,70.9,1018.35,-28.23,0.51,1.7,20.6,40.4,28.9,0,no_anomaly,0.0,0,0,0,0,28.6138998,77.2090034,13.5,0.0
2024-10-01T10:00:04.800Z,MISSION_0011,48,0,transit,SITE_DEL_002,28.6139008,77.2090044,14.0,336.48,0.643,0.1,0.5,0.5173,-1.2986,336.4773,-0.97894,-0.00211,0.01201,0.20377,0.0781,-0.0793,-9.8841,0.484,0.5607,-0.3705,0.2932,3,15,0.82,0.77,0.3,24.589,20.15,91.7,34.8,20165.0,8654,8929,8662,8571,56.3,52.5,51.4,52.3,2.994,2.97,2.897,2.67,7.25,122.3,27.6,70.1,1018.21,-29.63,-1.61,1.81,23.9,38.2,33.1,0,no_anomaly,0.0,0,0,0,0,28.6139008,77.2090044,14.0,0.0
2024-10-01T10:00:04.900Z,MISSION_0011,49,0,transit,SITE_DEL_002,28.6139059,77.2090038,14.0,336.74,0.867,0.067,0.78,-1.603,-3.7856,336.7389,-0.97874,0.02035,0.02953,0.20192,-0.334,-0.082,-9.8731,-0.1373,-0.4843,0.3041,0.1995,3,16,0.67,0.88,0.29,24.562,18.87,91.6,36.5,20149.0,8935,8978,8646,8875,54.0,53.9,52.8,52.7,2.87,2.724,2.506,2.789,7.53,122.7,27.4,70.4,1018.43,-34.12,1.0,1.41,21.3,36.1,26.7,0,no_anomaly,0.0,0,0,0,0,28.6139059,77.2090038,14.0,0.0
2024-10-01T10:00:05.000Z,MISSION_0011,50,0,transit,SITE_DEL_002,28.6139114,77.2089992,14.0,335.79,0.319,0.082,1.28,1.6815,-1.1265,335.7866,-0.97764,-0.01228,0.01269,0.20956,0.3942,0.0756,-9.8642,0.7014,-0.5176,-0.0707,0.2295,3,12,0.53,0.68,0.38,24.605,17.15,91.5,36.0,20133.0,8706,8561,8709,8840,54.3,51.8,50.0,50.4,2.816,2.996,2.692,2.834,6.99,126.3,27.7,70.2,1018.62,-33.07,-1.22,1.51,24.0,42.3,29.1,0,no_anomaly,0.0,0,0,0,0,28.6139114,77.2089992,14.0,0.0
2024-10-01T10:00:05.100Z,MISSION_0011,51,0,transit,SITE_DEL_002,28.613908,77.2090043,14.0,334.71,0.308,0.106,1.01,-0.6826,-0.2436,334.712,-0.97573,0.00628,0.00077,0.2189,-0.0018,0.0399,-9.8003,0.295,-0.0597,0.1364,0.192,3,14,0.75,1.04,0.35,24.567,18.84,91.4,35.4,20116.0,8652,8560,8573,8657,52.3,54.7,54.2,53.4,2.735,2.903,2.767,2.491,7.6,130.9,27.1,70.7,1018.45,-30.99,0.76,1.61,26.2,40.6,31.9,0,no_anomaly,0.0,0,0,0,0,28.613908,77.2090043,14.0,0.0
2024-10-01T10:00:05.200Z,MISSION_0011,52,0,transit,SITE_DEL_002,28.6139092,77.2090092,14.0,334.41,0.128,0.058,1.45,-2.2958,0.0506,334.4138,-0.97498,0.01944,-0.00487,0.22138,0.1667,0.0269,-9.9227,0.0681,0.4034,-0.3892,0.1605,3,18,0.76,1.0,0.37,24.562,20.72,91.4,35.6,20100.0,8723,8699,9081,8855,50.1,49.6,51.0,50.7,2.757,2.732,3.015,2.891,6.17,124.8,27.5,70.8,1018.27,-27.22,-0.19,1.78,20.3,40.4,32.5,0,no_anomaly,0.0,0,0,0,0,28.6139092,77.2090092,14.0,0.0
2024-10-01T10:00:05.300Z,MISSION_0011,53,0,transit,SITE_DEL_002,28.6139073,77.20901,14.0,333.14,0.073,0.108,1.38,3.7593,-2.9087,333.1432,-0.97202,-0.026,0.03229,0.23122,-0.2599,0.0195,-9.8075,0.3723,-0.3762,0.2273,0.2039,3,17,0.84,1.11,0.25,24.574,14.56,91.3,35.3,20084.0,8784,8830,8734,8575,51.9,52.8,51.1,52.1,2.783,2.965,2.709,2.659,5.75,120.7,27.3,70.6,1018.39,-31.17,0.43,1.89,22.8,40.7,31.7,0,no_anomaly,0.0,0,0,0,0,28.6139073,77.20901,14.0,0.0
2024-10-01T10:00:05.400Z,MISSION_0011,54,0,transit,SITE_DEL_002,28.6139023,77.2090106,14.0,331.72,0.552,0.104,1.21,-5.8749,-2.8829,331.719,-0.9678,0.05581,0.01185,0.24515,-0.3254,0.0741,-9.8049,-0.7604,0.2114,0.0307,0.2662,3,16,0.7,0.85,0.2,24.647,16.84,91.2,34.8,20067.0,8606,8636,8703,8320,54.2,54.1,57.0,53.6,2.593,2.871,2.576,2.689,6.32,128.4,27.6,70.4,1018.36,-27.37,0.39,1.61,22.2,39.3,32.3,0,no_anomaly,0.0,0,0,0,0,28.6139023,77.2090106,14.0,0.0
2024-10-01T10:00:05.500Z,MISSION_0011,55,0,transit,SITE_DEL_002,28.6138981,77.2090136,14.0,331.37,0.303,0.182,1.53,3.0754,-2.8106,331.3674,-0.96847,-0.01993,0.03039,0.24647,0.0526,0.0094,-9.8055,-0.2095,-0.0016,0.3205,0.287,3,17,0.5,1.19,0.2,24.543,10.74,91.1,35.5,20051.0,8642,8595,8737,8859,53.2,50.5,51.7,54.5,2.572,2.706,2.897,2.872,7.75,121.6,27.7,71.4,1018.53,-31.22,0.61,1.26,23.7,37.9,30.5,0,no_anomaly,0.0,0,0,0,0,28.6138981,77.2090136,14.0,0.0
2024-10-01T10:00:05.600Z,MISSION_0011,56,0,transit,SITE_DEL_002,28.6138984,77.2090083,14.0,332.96,0.0,0.009,0.94,-2.04,0.8265,332.9555,-0.97213,0.01562,-0.01117,0.23366,0.119,-0.0595,-9.7464,0.2899,0.2564,-0.1677,0.2143,3,11,0.82,0.6,0.5,24.632,19.82,91.1,35.9,20034.0,8762,8595,8752,8717,54.8,52.5,54.6,50.6,2.68,2.864,3.152,2.574,5.96,122.8,27.7,70.3,1018.27,-36.01,-0.16,1.1,18.7,36.1,26.7,0,no_anomaly,0.0,0,0,0,0,28.6138984,77.2090083,14.0,0.0
2024-10-01T10:00:05.700Z,MISSION_0011,57,0,transit,SITE_DEL_002,28.6138923,77.2090074,14.0,329.66,0.156,0.062,1.19,4.3785,-0.6949,329.6635,-0.9645,-0.03528,0.01584,0.26124,-0.1691,-0.0953,-9.8061,1.0124,-1.3243,-0.0313,0.1814,3,17,0.51,0.72,0.2,24.569,18.75,91.0,35.4,20018.0,8844,8596,9020,8890,53.2,56.8,51.2,56.0,2.889,2.717,3.013,2.834,7.55,127.4,27.6,70.7,1018.53,-31.68,-0.06,1.58,24.4,37.5,32.5,0,no_anomaly,0.0,0,0,0,0,28.6138923,77.2090074,14.0,0.0
2024-10-01T10:00:05.800Z,MISSION_0011,58,0,transit,SITE_DEL_002,28.613895,77.2090153,14.0,329.66,0.0,0.159,1.79,0.2448,-2.1196,329.6578,-0.96499,0.00278,0.01841,0.26162,-0.0236,0.0126,-9.7687,-1.143,0.8302,-0.0887,0.2934,3,12,0.72,0.91,0.27,24.549,20.45,90.9,35.4,20002.0,8739,8863,8737,8889,53.5,55.6,53.9,57.0,2.962,3.026,2.915,2.817,6.75,120.7,27.4,69.7,1018.45,-26.1,0.68,1.43,20.7,38.9,30.5,0,no_anomaly,0.0,0,0,0,0,28.613895,77.2090153,14.0,0.0
2024-10-01T10:00:05.900Z,MISSION_0011,59,0,transit,SITE_DEL_002,28.6138933,77.2090077,14.0,328.47,0.0,0.17,1.13,-0.8404,-0.2354,328.4681,-0.96235,0.00762,-2e-05,0.27171,0.1522,-0.0391,-9.8094,-0.9202,0.1061,0.3918,0.207,3,15,0.65,0.98,0.36,24.506,17.69,90.8,35.6,19985.0,8544,8494,8807,8530,51.2,53.5,53.0,53.8,2.858,2.837,2.836,2.774,6.87,125.8,27.6,70.6,1018.72,-26.53,-0.67,1.76,24.1,35.1,27.6,0,no_anomaly,0.0,0,0,0,0,28.6138933,77.2090077,14.0,0.0
2024-10-01T10:00:06.000Z,MISSION_0011,60,0,transit,SITE_DEL_002,28.6138986,77.2090049,14.0,326.45,0.0,0.048,0.57,3.7857,-4.9385,326.4452,-0.95643,-0.01917,0.05075,0.28687,-0.1678,0.0234,-9.7805,-0.6796,0.8256,-0.2917,0.1964,3,18,0.59,0.77,0.23,24.54,17.18,90.8,35.4,19969.0,8695,8261,8909,8836,50.3,51.4,55.0,53.3,3.056,2.716,2.968,2.965,6.11,125.6,27.5,70.2,1018.68,-31.55,-0.81,2.08,23.3,42.1,29.9,0,no_anomaly,0.0,0,0,0,0,28.6138986,77.2090049,14.0,0.0
2024-10-01T10:00:06.100Z,MISSION_0011,61,0,transit,SITE_DEL_002,28.6138939,77.2090056,14.0,329.88,0.413,0.118,0.92,-3.9041,-2.6428,329.8813,-0.96464,0.03887,0.01341,0.26036,-0.4392,-0.012,-9.8213,0.1511,-0.3357,0.7112,0.2378,3,11,0.66,0.88,0.27,24.611,17.03,90.7,35.9,19952.0,8442,8753,8868,8594,54.0,53.3,52.8,54.1,2.788,2.808,2.928,2.729,7.51,122.2,27.4,70.4,1018.44,-31.6,1.19,1.89,21.2,36.3,28.4,0,no_anomaly,0.0,0,0,0,0,28.6138939,77.2090056,14.0,0.0
2024-10-01T10:00:06.200Z,MISSION_0011,62,1,transit,SITE_DEL_002,28.6138896,77.2090075,14.0,328.25,0.0,-0.009,1.43,5.1301,-1.0186,328.2484,-0.96096,-0.04062,0.02078,0.27289,0.0752,-0.0184,-9.816,0.6339,0.0324,0.034,0.2775,3,14,0.73,0.6,0.4,24.499,23.42,90.6,35.5,19936.0,8580,8859,8902,8722,52.8,47.3,49.9,57.4,2.714,2.816,2.857,3.059,6.9,119.9,27.4,71.7,1018.27,-30.86,-2.92,1.67,19.8,33.4,29.2,0,no_anomaly,0.0,0,0,0,0,28.6138896,77.2090075,14.0,0.0
2024-10-01T10:00:06.300Z,MISSION_0011,63,1,transit,SITE_DEL_002,28.6138914,77.2090075,14.0,326.93,0.0,0.064,1.27,3.6332,-1.2798,326.9339,-0.95821,-0.02721,0.01972,0.28407,0.0513,0.0169,-9.7869,0.2147,0.1128,-0.486,0.2231,3,17,0.74,0.77,0.2,24.629,21.37,90.5,35.6,19920.0,8768,8799,8568,8755,54.3,55.5,53.9,49.3,2.605,2.887,2.698,2.856,7.38,114.9,27.4,70.1,1018.78,-34.86,0.45,1.08,21.6,37.1,29.9,0,no_anomaly,0.0,0,0,0,0,28.6138914,77.2090075,14.0,0.0
2024-10-01T10:00:06.400Z,MISSION_0011,64,1,transit,SITE_DEL_002,28.6138957,77.2090093,14.0,326.1,0.293,0.048,1.14,6.1103,-3.3791,326.0997,-0.95524,-0.04238,0.04369,0.2895,-0.2275,-0.0451,-9.802,0.2183,0.3632,-0.1871,0.2409,3,16,0.69,1.02,0.25,24.573,20.91,90.5,36.0,19903.0,8786,8778,8395,8584,52.0,51.6,50.3,53.0,2.984,2.758,2.76,2.731,7.45,113.4,27.2,69.8,1018.15,-28.7,-1.46,1.82,22.2,39.7,32.2,0,no_anomaly,0.0,0,0,0,0,28.6138957,77.2090093,14.0,0.0
2024-10-01T10:00:06.500Z,MISSION_0011,65,1,transit,SITE_DEL_002,28.613898,77.2090079,14.0,327.54,0.276,0.113,0.9,3.794,-3.0827,327.5423,-0.95953,-0.02426,0.03506,0.27837,-0.2635,-0.012,-9.8739,-0.8644,-0.0437,0.4905,0.2171,3,11,0.69,1.05,0.27,24.556,14.19,90.4,36.3,19887.0,8720,8819,8786,8664,54.6,53.5,53.9,49.8,2.846,2.807,3.096,2.934,7.09,119.4,27.8,70.3,1018.34,-31.34,-0.0,1.69,19.7,42.4,28.4,0,no_anomaly,0.0,0,0,0,0,28.613898,77.2090079,14.0,0.0
2024-10-01T10:00:06.600Z,MISSION_0011,66,1,transit,SITE_DEL_002,28.6138989,77.2090144,14.0,326.16,0.513,0.144,1.61,-0.3338,-1.781,326.1635,-0.95659,0.00731,0.01402,0.29101,-0.0112,-0.0071,-9.7576,-0.1871,-0.3898,-0.2045,0.2624,3,18,0.77,0.86,0.36,24.519,20.21,90.3,36.1,19870.0,8527,8550,8728,8965,50.5,56.0,50.8,51.6,2.698,2.898,2.736,2.584,6.89,130.9,27.7,69.9,1018.32,-24.86,-0.55,1.54,21.8,40.6,32.0,0,no_anomaly,0.0,0,0,0,0,28.6138989,77.2090144,14.0,0.0
2024-10-01T10:00:06.700Z,MISSION_0011,67,1,transit,SITE_DEL_002,28.6138961,77.2090155,14.0,327.35,0.776,0.063,1.78,1.3807,-0.8981,327.3546,-0.95962,-0.00936,0.01091,0.28093,0.5713,-0.0253,-9.8011,0.041,-0.3565,-0.0215,0.1813,3,12,0.85,1.21,0.22,24.558,17.39,90.2,35.4,19854.0,8705,9112,8890,8735,51.4,49.3,55.3,53.1,2.93,2.78,2.614,2.671,6.63,122.3,27.4,71.6,1018.47,-25.53,-1.72,1.54,22.7,41.4,32.4,0,no_anomaly,0.0,0,0,0,0,28.6138961,77.2090155,14.0,0.0
2024-10-01T10:00:06.800Z,MISSION_0011,68,1,transit,SITE_DEL_002,28.6138995,77.2090168,14.0,325.52,0.354,-0.048,1.87,5.7221,-1.9696,325.5233,-0.954,-0.04258,0.03118,0.29512,0.1548,0.0274,-9.7988,0.0849,0.6397,0.0437,0.2109,3,10,0.64,0.75,0.2,24.536,21.69,90.2,35.2,19838.0,8537,8843,8800,8700,53.7,52.6,51.1,56.2,2.721,2.576,2.827,2.993,7.52,122.0,27.5,71.6,1018.32,-33.39,-0.35,1.61,20.6,39.5,30.4,0,no_anomaly,0.0,0,0,0,0,28.6138995,77.2090168,14.0,0.0
2024-10-01T10:00:06.900Z,MISSION_0011,69,1,transit,SITE_DEL_002,28.6138968,77.2090141,14.0,327.71,0.318,0.042,1.61,1.4919,-3.4106,327.7051,-0.96015,-0.00422,0.0322,0.27759,-0.0559,0.0465,-9.8127,0.885,0.0088,-0.1111,0.1915,3,18,0.63,0.87,0.37,24.568,22.78,90.1,35.5,19821.0,8524,8694,8969,8802,51.3,57.0,54.1,52.0,2.935,2.887,2.934,2.904,7.03,129.7,27.8,70.1,1018.62,-29.89,-0.64,1.39,22.4,37.8,32.0,0,no_anomaly,0.0,0,0,0,0,28.6138968,77.2090141,14.0,0.0
2024-10-01T10:00:07.000Z,MISSION_0011,70,1,transit,SITE_DEL_002,28.6139001,77.2090114,14.0,327.86,0.074,0.058,1.27,5.6782,-3.4509,327.8571,-0.95972,-0.03925,0.0426,0.27494,-0.0984,0.0451,-9.9075,-0.2088,0.3245,0.0081,0.2232,3,14,0.67,0.79,0.2,24.447,17.8,90.0,36.1,19805.0,8580,8837,8450,8551,52.7,51.8,54.4,54.9,2.812,2.715,2.786,2.852,6.37,123.6,27.4,69.9,1018.37,-29.42,-0.67,1.76,19.8,32.9,26.2,0,no_anomaly,0.0,0,0,0,0,28.6139001,77.2090114,14.0,0.0
2024-10-01T10:00:07.100Z,MISSION_0011,71,1,transit,SITE_DEL_002,28.6139035,77.2090063,14.0,328.07,0.0,0.093,0.8,1.3766,-0.9629,328.0667,-0.96135,-0.00924,0.01138,0.27495,-0.0018,-0.0021,-9.7137,0.2492,0.1314,-0.4433,0.2702,3,20,0.61,1.13,0.22,24.477,13.21,89.9,35.7,19789.0,8751,8872,8680,8666,53.2,52.0,49.0,51.5,2.904,2.808,2.732,2.791,6.93,125.2,27.5,70.9,1018.75,-30.39,-2.29,1.55,20.8,38.6,31.2,0,no_anomaly,0.0,0,0,0,0,28.6139035,77.2090063,14.0,0.0
2024-10-01T10:00:07.200Z,MISSION_0011,72,1,transit,SITE_DEL_002,28.6138996,77.2090097,14.0,328.74,0.0,0.061,1.08,2.8828,-2.343,328.7372,-0.96265,-0.01871,0.02646,0.26881,-0.115,-0.0041,-9.7638,-1.2678,0.5921,-0.2761,0.1863,3,17,0.81,0.83,0.49,24.612,24.7,89.9,36.5,19772.0,8706,8705,8763,8984,51.8,52.8,52.7,53.7,2.749,3.026,2.804,2.499,7.79,130.0,27.5,69.5,1018.38,-31.18,-0.9,1.0,25.1,38.3,31.2,0,no_anomaly,0.0,0,0,0,0,28.6138996,77.2090097,14.0,0.0
2024-10-01T10:00:07.300Z,MISSION_0011,73,1,transit,SITE_DEL_002,28.6139034,77.2090176,14.0,329.26,0.0,0.166,2.0,-1.5809,-2.5747,329.2571,-0.96381,0.01925,0.018,0.26528,0.0457,-0.0532,-9.9011,-0.3299,0.8387,-0.1104,0.3347,3,11,0.83,1.06,0.32,24.531,21.08,89.8,35.9,19756.0,8593,8644,8673,8529,55.6,49.6,55.4,51.3,2.493,3.015,2.759,2.928,6.63,129.7,27.4,70.9,1018.04,-27.52,0.04,1.92,23.1,35.1,29.5,0,no_anomaly,0.0,0,0,0,0,28.6139034,77.2090176,14.0,0.0
2024-10-01T10:00:07.400Z,MISSION_0011,74,1,orbit_base,SITE_DEL_002,28.6138516,77.2090637,14.3,329.15,0.346,0.091,8.91,-1.7998,-0.1863,329.1538,-0.96386,0.01557,-0.00261,0.26594,-0.3357,0.0398,-9.8199,0.2411,-0.1227,-0.1221,0.1688,3,11,0.53,0.85,0.2,24.655,19.3,89.7,36.6,19739.0,8572,8543,8688,8689,54.3,54.4,52.8,52.3,3.011,2.893,2.848,2.711,6.46,124.1,27.4,70.2,1018.21,-32.68,-1.17,1.81,22.2,36.5,29.0,0,no_anomaly,0.0,0,0,0,0,28.6138516,77.2090637,14.3,0.0
2024-10-01T10:00:07.500Z,MISSION_0011,75,1,orbit_base,SITE_DEL_002,28.6138497,77.2090622,14.6,330.2,0.317,0.084,8.91,-1.2148,-1.9437,330.2029,-0.96614,0.0146,0.01366,0.25723,0.209,-0.0688,-9.8468,0.2259,0.2982,0.0799,0.2172,3,11,0.68,0.69,0.27,24.539,17.47,89.6,36.2,19723.0,8644,8768,8503,8996,53.0,52.7,53.0,51.5,2.721,2.834,2.72,2.791,6.93,119.6,27.7,70.1,1018.45,-36.0,0.39,1.0,23.9,33.9,28.3,0,no_anomaly,0.0,0,0,0,0,28.6138497,77.2090622,14.6,0.0
2024-10-01T10:00:07.600Z,MISSION_0011,76,1,orbit_base,SITE_DEL_002,28.6138479,77.2090607,14.9,328.21,0.0,0.08,8.91,2.9333,-2.7445,328.2143,-0.96135,-0.01805,0.03003,0.27308,-0.0487,-0.0258,-9.8392,0.4567,-1.0733,0.2353,0.2126,3,11,0.72,0.9,0.31,24.592,22.12,89.6,35.3,19707.0,8759,8604,8525,8466,53.0,53.7,52.4,46.0,2.706,2.539,2.96,2.818,6.94,127.0,27.6,70.6,1018.62,-33.27,0.62,1.83,21.1,34.5,29.8,0,no_anomaly,0.0,0,0,0,0,28.6138479,77.2090607,14.9,0.0
2024-10-01T10:00:07.700Z,MISSION_0011,77,1,orbit_base,SITE_DEL_002,28.6138461,77.2090591,15.2,325.72,0.453,0.061,8.91,-2.2857,-1.0613,325.7152,-0.95529,0.02179,0.00297,0.29485,0.1496,-0.0463,-9.7939,-0.1635,0.1136,-0.431,0.2489,3,20,0.73,1.14,0.5,24.457,18.86,89.5,36.2,19690.0,8838,8926,8794,8444,54.6,53.9,49.9,51.2,2.894,2.946,2.864,2.852,7.48,127.2,27.2,71.4,1018.51,-32.11,1.64,1.76,22.7,39.8,30.8,0,no_anomaly,0.0,0,0,0,0,28.6138461,77.2090591,15.2,0.0
2024-10-01T10:00:07.800Z,MISSION_0011,78,1,orbit_base,SITE_DEL_002,28.6138444,77.2090575,15.5,326.02,0.0,0.126,8.91,1.0015,-0.9246,326.0196,-0.95631,-0.006,0.01027,0.29212,0.1168,0.0607,-9.757,0.0347,-0.8116,-0.663,0.2413,3,10,0.57,0.6,0.32,24.677,14.79,89.4,36.1,19674.0,8818,8731,8389,8884,53.4,54.8,48.0,55.7,2.789,2.928,2.992,2.632,7.02,122.6,27.9,70.6,1018.61,-28.51,1.05,1.42,21.5,40.0,28.8,0,no_anomaly,0.0,0,0,0,0,28.6138444,77.2090575,15.5,0.0
2024-10-01T10:00:07.900Z,MISSION_0011,79,1,orbit_base,SITE_DEL_002,28.6138427,77.2090558,15.8,326.41,0.278,0.077,8.91,-1.5865,-0.7342,326.4081,-0.9572,0.0151,0.00213,0.28902,-0.114,-0.1194,-9.7766,0.4489,-0.4953,0.3759,0.2133,3,18,0.68,1.03,0.21,24.552,17.05,89.4,34.9,19657.0,8879,8443,9098,8623,49.0,49.5,50.4,48.7,2.777,2.548,2.949,2.595,6.5,123.2,27.4,70.1,1018.9,-29.94,0.95,1.72,23.1,40.5,32.2,0,no_anomaly,0.0,0,0,0,0,28.6138427,77.2090558,15.8,0.0
2024-10-01T10:00:08.000Z,MISSION_0011,80,1,orbit_base,SITE_DEL_002,28.613841,77.209054,16.1,327.9,0.0,0.122,8.91,-3.9107,-1.4616,327.9019,-0.96027,0.03631,0.00282,0.2767,-0.3287,-0.009,-9.7778,-0.2517,1.0023,-0.0883,0.2505,3,14,0.68,1.06,0.2,24.557,16.62,89.3,36.2,19641.0,8722,8915,8768,8690,51.1,57.0,54.2,50.0,2.887,2.677,2.472,2.856,6.3,118.7,27.9,70.1,1018.32,-27.78,-1.06,1.89,22.2,36.0,27.1,0,no_anomaly,0.0,0,0,0,0,28.613841,77.209054,16.1,0.0
2024-10-01T10:00:08.100Z,MISSION_0011,81,1,orbit_base,SITE_DEL_002,28.6138394,77.2090522,16.4,328.43,0.0,0.153,8.91,3.4868,-3.9022,328.429,-0.96157,-0.02,0.04102,0.27076,0.042,0.0994,-9.7743,-0.625,-0.8959,0.1407,0.2155,3,11,0.84,0.75,0.38,24.581,19.3,89.2,36.3,19625.0,8586,8534,8640,8689,50.5,52.4,47.8,52.8,2.669,3.112,3.037,2.751,6.93,116.0,27.4,70.2,1018.48,-34.73,1.77,1.55,21.8,39.8,30.5,0,no_anomaly,0.0,0,0,0,0,28.6138394,77.2090522,16.4,0.0
2024-10-01T10:00:08.200Z,MISSION_0011,82,1,orbit_base,SITE_DEL_002,28.6138379,77.2090504,16.7,329.87,0.183,0.145,8.91,5.9817,-1.1433,329.8715,-0.96441,-0.04779,0.02318,0.25903,-0.0434,0.1071,-9.8998,0.4999,0.7358,-0.0934,0.2147,3,19,0.74,1.07,0.28,24.567,21.27,89.1,36.7,19608.0,8513,8476,8904,8761,49.3,53.8,49.9,50.3,2.532,2.752,2.74,2.953,6.78,127.8,27.3,70.5,1017.99,-33.14,-1.36,1.14,25.1,37.7,28.8,0,no_anomaly,0.0,0,0,0,0,28.6138379,77.2090504,16.7,0.0
2024-10-01T10:00:08.300Z,MISSION_0011,83,1,orbit_base,SITE_DEL_002,28.6138364,77.2090485,17.0,329.42,0.552,0.024,8.91,4.9081,-1.6532,329.4244,-0.96379,-0.0375,0.02519,0.2628,0.4013,-0.0975,-9.7843,0.6688,-0.5422,0.0677,0.2422,3,15,0.5,0.94,0.2,24.468,19.61,89.1,36.2,19592.0,8792,8759,8825,8777,54.3,56.0,51.1,50.3,2.501,2.769,2.757,2.62,7.14,122.5,27.6,70.8,1018.27,-30.16,0.11,1.88,23.8,41.7,28.9,0,no_anomaly,0.0,0,0,0,0,28.6138364,77.2090485,17.0,0.0
2024-10-01T10:00:08.400Z,MISSION_0011,84,1,orbit_base,SITE_DEL_002,28.613835,77.2090466,17.3,331.34,0.0,0.124,8.91,-2.7044,-1.5241,331.3423,-0.96846,0.02615,0.00704,0.2477,0.0774,-0.0462,-9.7171,-0.1567,-0.9352,0.2736,0.2921,3,14,0.66,0.81,0.2,24.377,15.61,89.0,35.7,19575.0,8827,8921,8776,8743,53.2,48.5,55.2,52.8,2.661,2.661,2.889,2.587,6.85,120.8,27.3,69.9,1018.03,-31.29,1.3,1.43,25.5,34.3,32.9,0,no_anomaly,0.0,0,0,0,0,28.613835,77.2090466,17.3,0.0
2024-10-01T10:00:08.500Z,MISSION_0011,85,1,orbit_base,SITE_DEL_002,28.6138336,77.2090446,17.6,331.44,0.0,0.163,8.91,-0.2743,-0.859,331.4357,-0.96906,0.00417,0.00667,0.24671,0.0091,-0.0677,-9.8932,0.5279,-0.4021,0.2129,0.1917,3,15,0.57,0.84,0.23,24.505,16.86,88.9,35.3,19559.0,8985,8609,8696,8791,51.2,54.6,49.4,52.7,2.87,3.007,2.814,2.891,6.5,119.6,27.7,71.0,1018.13,-28.39,-0.09,1.26,22.5,38.4,31.2,0,no_anomaly,0.0,0,0,0,0,28.6138336,77.2090446,17.6,0.0
2024-10-01T10:00:08.600Z,MISSION_0011,86,1,orbit_base,SITE_DEL_002,28.6138323,77.2090426,17.9,331.33,0.0,0.015,8.91,-4.3671,-2.7455,331.332,-0.96766,0.04283,0.01376,0.24821,-0.2785,0.0628,-9.8525,0.2662,0.1738,-0.5766,0.3594,3,19,0.53,1.02,0.22,24.515,18.07,88.8,35.6,19543.0,8835,8574,8663,8733,52.5,49.0,51.4,51.8,2.867,2.826,2.896,2.757,8.28,122.2,27.5,70.8,1018.2,-25.4,-1.34,1.85,21.9,35.9,28.3,0,no_anomaly,0.0,0,0,0,0,28.6138323,77.2090426,17.9,0.0
2024-10-01T10:00:08.700Z,MISSION_0011,87,1,orbit_base,SITE_DEL_002,28.613831,77.2090406,18.2,330.02,0.514,0.009,8.91,2.9243,-1.0653,330.0158,-0.96567,-0.02224,0.01558,0.25836,0.0513,0.0167,-9.8791,0.0526,0.2417,-0.1499,0.3904,3,13,0.59,1.06,0.22,24.482,16.93,88.8,35.0,19526.0,8737,8764,8677,8837,51.0,52.8,51.0,53.7,2.819,2.978,2.886,2.986,6.87,120.5,27.7,70.4,1018.05,-35.98,0.73,1.75,18.5,32.2,28.8,0,no_anomaly,0.0,0,0,0,0,28.613831,77.2090406,18.2,0.0
2024-10-01T10:00:08.800Z,MISSION_0011,88,1,orbit_base,SITE_DEL_002,28.6138299,77.2090385,18.5,328.87,0.969,0.16,8.91,1.9149,-1.202,328.8678,-0.96318,-0.01328,0.01459,0.26813,0.0693,0.0174,-9.859,0.1632,0.2436,0.4798,0.2657,3,12,0.8,1.11,0.37,24.52,24.36,88.7,35.7,19510.0,8519,8554,8956,8744,52.2,51.8,51.6,50.8,2.945,2.817,2.737,2.949,6.48,118.8,27.3,70.3,1018.39,-29.12,0.1,1.19,24.6,39.8,27.4,0,no_anomaly,0.0,0,0,0,0,28.6138299,77.2090385,18.5,0.0
2024-10-01T10:00:08.900Z,MISSION_0011,89,1,orbit_base,SITE_DEL_002,28.6138287,77.2090363,18.8,329.24,1.211,0.146,8.91,-1.6362,-1.0463,329.2407,-0.96402,0.01619,0.00502,0.2653,0.0037,0.0833,-9.807,0.1113,0.0369,-0.2262,0.2499,3,17,0.57,0.93,0.2,24.51,20.9,88.6,36.1,19493.0,8538,8621,8486,8730,50.3,52.4,51.0,53.7,2.847,2.789,3.021,2.803,6.83,116.8,27.5,70.3,1018.58,-32.02,0.84,1.3,23.1,35.2,32.6,0,no_anomaly,0.0,0,0,0,0,28.6138287,77.2090363,18.8,0.0
2024-10-01T10:00:09.000Z,MISSION_0011,90,1,orbit_base,SITE_DEL_002,28.6138277,77.2090342,19.1,330.6,1.251,0.069,8.91,-3.0044,-2.1489,330.6049,-0.96665,0.03011,0.01148,0.25406,-0.3207,0.003,-9.7869,0.7423,0.5352,0.107,0.3247,3,18,0.63,0.77,0.25,24.524,13.54,88.5,35.6,19477.0,9006,8704,8542,8755,53.8,55.5,54.3,49.3,2.808,2.652,2.964,2.859,7.53,124.5,27.6,70.2,1018.2,-32.5,1.92,1.49,26.7,35.4,32.7,0,no_anomaly,0.0,0,0,0,0,28.6138277,77.2090342,19.1,0.0
2024-10-01T10:00:09.100Z,MISSION_0011,91,1,orbit_base,SITE_DEL_002,28.6138267,77.209032,19.4,329.87,1.329,0.108,8.91,3.7448,-2.2605,329.8677,-0.96509,-0.02642,0.02753,0.25912,-0.076,0.0525,-9.86,0.0213,-0.4576,-0.3442,0.2743,3,19,0.58,0.69,0.2,24.472,16.7,88.5,35.7,19461.0,8711,8845,8886,8902,52.4,52.3,52.4,51.3,2.743,2.714,2.827,2.852,6.92,120.8,27.7,70.2,1018.45,-27.85,0.74,1.0,24.0,34.4,32.9,0,no_anomaly,0.0,0,0,0,0,28.6138267,77.209032,19.4,0.0
2024-10-01T10:00:09.200Z,MISSION_0011,92,1,orbit_base,SITE_DEL_002,28.6138258,77.2090298,19.7,328.25,1.137,0.17,8.91,0.8617,-0.7,328.2484,-0.96182,-0.00556,0.00793,0.2735,-0.1412,0.0191,-9.8965,-0.0442,0.0807,0.0269,0.2558,3,18,0.65,0.81,0.3,24.553,18.13,88.4,36.2,19444.0,8714,8689,8663,8660,53.3,51.7,53.7,56.4,2.637,2.96,2.658,3.146,7.02,125.5,27.8,71.1,1018.65,-30.21,0.24,1.65,24.5,42.8,29.6,0,no_anomaly,0.0,0,0,0,0,28.6138258,77.2090298,19.7,0.0
2024-10-01T10:00:09.300Z,MISSION_0011,93,1,orbit_base,SITE_DEL_002,28.6138249,77.2090276,20.0,328.87,0.996,0.119,8.91,0.5301,-4.0264,328.8712,-0.96277,0.00497,0.03508,0.268,0.0504,0.0488,-9.8606,-0.0688,0.0384,0.5146,0.2379,3,15,0.6,0.74,0.23,24.477,22.42,88.3,36.5,19428.0,8654,8669,8743,8523,53.9,53.7,52.7,53.4,2.899,2.891,2.657,2.813,7.35,116.9,27.7,70.8,1018.54,-29.35,0.92,1.66,24.9,40.9,30.3,0,no_anomaly,0.0,0,0,0,0,28.6138249,77.2090276,20.0,0.0
2024-10-01T10:00:09.400Z,MISSION_0011,94,1,orbit_base,SITE_DEL_002,28.6138241,77.2090253,20.3,327.54,0.863,0.104,8.91,-0.874,-4.0307,327.5366,-0.95944,0.01715,0.03163,0.2796,0.244,-0.0621,-9.8012,0.6807,-0.1116,-0.1324,0.255,3,20,0.61,0.91,0.23,24.517,13.28,88.2,36.1,19412.0,8769,8948,8791,8752,52.1,52.2,49.2,51.1,2.777,2.751,2.962,3.168,6.07,119.1,27.6,70.8,1018.28,-30.64,-0.52,2.07,21.2,33.6,28.0,0,no_anomaly,0.0,0,0,0,0,28.6138241,77.2090253,20.3,0.0
2024-10-01T10:00:09.500Z,MISSION_0011,95,1,orbit_base,SITE_DEL_002,28.6138234,77.209023,20.6,329.45,0.833,0.146,8.91,-6.008,-2.601,329.4506,-0.96279,0.05651,0.00806,0.26416,-0.0225,0.0504,-9.7857,0.48,-0.5627,-0.0954,0.2477,3,19,0.73,0.94,0.27,24.505,17.76,88.2,36.8,19395.0,8802,8724,8864,8794,52.9,52.9,53.3,54.5,2.629,2.958,2.813,2.756,7.31,126.1,27.9,71.0,1018.58,-30.0,0.42,1.0,25.6,34.3,31.3,0,no_anomaly,0.0,0,0,0,0,28.6138234,77.209023,20.6,0.0
2024-10-01T10:00:09.600Z,MISSION_0011,96,1,orbit_base,SITE_DEL_002,28.6138227,77.2090207,20.9,329.04,1.417,0.078,8.91,8.0226,-1.3382,329.0419,-0.96152,-0.0643,0.02989,0.26543,0.0364,0.0845,-9.855,-0.2552,-0.4349,0.5277,0.2908,3,11,0.68,0.98,0.28,24.433,15.36,88.1,35.2,19379.0,8842,8717,8598,8910,53.3,54.7,56.9,55.5,2.928,2.832,2.948,2.905,7.03,125.3,27.7,70.0,1018.31,-37.9,0.21,1.16,23.3,41.8,29.8,0,no_anomaly,0.0,0,0,0,0,28.6138227,77.2090207,20.9,0.0
2024-10-01T10:00:09.700Z,MISSION_0011,97,1,orbit_base,SITE_DEL_002,28.6138221,77.2090184,21.2,328.04,1.215,0.098,8.91,-1.9799,-1.2269,328.04,-0.96111,0.01956,0.00553,0.27542,-0.0062,0.0393,-9.9153,-0.7621,0.2673,-0.4072,0.2021,3,16,0.74,0.99,0.38,24.462,21.02,88.0,36.6,19362.0,8812,8866,8671,8813,50.6,54.5,57.1,52.0,2.855,2.693,2.954,2.735,6.66,125.5,27.6,70.5,1018.62,-27.96,0.45,1.23,22.0,39.7,28.8,0,no_anomaly,0.0,0,0,0,0,28.6138221,77.2090184,21.2,0.0
2024-10-01T10:00:09.800Z,MISSION_0011,98,1,orbit_base,SITE_DEL_002,28.6138216,77.209016,21.5,327.52,1.335,0.099,8.91,-1.822,-2.4612,327.524,-0.95967,0.02127,0.01617,0.27986,-0.1481,-0.0261,-9.8707,-0.7981,-0.1191,0.2797,0.2402,3,18,0.63,0.88,0.22,24.499,20.98,87.9,36.2,19346.0,8805,8958,8688,8680,52.1,56.3,51.5,55.0,2.862,2.589,2.861,2.898,7.15,123.6,27.7,71.0,1018.35,-23.56,-0.65,1.25,24.7,39.0,31.4,0,no_anomaly,0.0,0,0,0,0,28.6138216,77.209016,21.5,0.0
2024-10-01T10:00:09.900Z,MISSION_0011,99,1,orbit_base,SITE_DEL_002,28.6138212,77.2090137,21.8,328.7,1.53,0.103,8.91,5.2367,-3.0807,328.6952,-0.96189,-0.03673,0.03818,0.26824,-0.1112,0.0454,-9.7941,-0.1737,0.1539,0.0145,0.2177,3,18,0.71,1.02,0.29,24.533,18.05,87.9,37.0,19330.0,8565,8849,8498,8735,50.6,53.5,51.7,51.3,2.691,2.608,2.915,3.059,6.08,122.1,27.7,69.8,1018.79,-32.01,0.57,1.53,23.6,38.3,31.3,0,no_anomaly,0.0,0,0,0,0,28.6138212,77.2090137,21.8,0.0
2024-10-01T10:00:10.000Z,MISSION_0011,100,1,orbit_base,SITE_DEL_002,28.6138208,77.2090113,22.1,328.95,1.83,0.104,8.91,2.7117,-2.5889,328.9508,-0.96314,-0.01675,0.02809,0.26699,-0.3236,-0.025,-9.8258,0.2342,-0.0874,0.1367,0.1646,3,17,0.69,0.78,0.31,24.498,19.66,87.8,35.9,19313.0,8944,8649,8853,8782,54.4,50.8,54.7,49.7,2.829,2.555,2.664,2.862,6.74,119.8,27.9,70.2,1018.44,-31.58,-0.81,1.29,24.6,38.7,31.8,0,no_anomaly,0.0,0,0,0,0,28.6138208,77.2090113,22.1,0.0
2024-10-01T10:00:10.100Z,MISSION_0011,101,1,orbit_base,SITE_DEL_002,28.6138205,77.2090089,22.4,328.05,1.76,0.111,8.91,1.395,1.849,328.0454,-0.96112,-0.01614,-0.01216,0.27539,0.071,0.0174,-9.7425,0.2415,0.0509,0.003,0.2402,3,15,0.57,0.85,0.31,24.575,21.38,87.7,35.2,19297.0,8673,8890,8907,8630,51.5,49.8,51.1,49.9,2.866,2.631,2.62,2.672,6.77,120.6,27.5,70.9,1018.25,-31.52,-0.65,1.82,22.9,40.5,30.1,0,no_anomaly,0.0,0,0,0,0,28.6138205,77.2090089,22.4,0.0
2024-10-01T10:00:10.200Z,MISSION_0011,102,1,orbit_base,SITE_DEL_002,28.6138203,77.2090065,22.7,326.41,1.657,0.081,8.91,-1.1842,-1.2872,326.4104,-0.9572,0.01314,0.00777,0.28902,0.1154,-0.0379,-9.8545,-0.8144,-0.0463,0.6673,0.2175,3,17,0.76,1.36,0.24,24.436,15.29,87.6,35.5,19280.0,8870,8723,8890,8828,52.7,50.6,50.4,52.1,2.95,2.725,2.705,2.747,7.0,131.9,27.7,70.5,1018.44,-29.01,-0.59,1.73,23.9,38.0,28.9,0,no_anomaly,0.0,0,0,0,0,28.6138203,77.2090065,22.7,0.0
2024-10-01T10:00:10.300Z,MISSION_0011,103,1,orbit_base,SITE_DEL_002,28.6138201,77.2090041,23.0,329.22,1.617,0.131,8.91,2.5161,0.0123,329.2183,-0.9639,-0.0212,0.00572,0.26534,-0.0206,0.0212,-9.8171,-0.5229,-0.1599,-0.0291,0.2685,3,20,0.66,1.13,0.36,24.422,16.11,87.6,35.5,19264.0,8835,8880,8664,8801,49.9,54.8,49.1,53.1,2.606,2.84,2.951,2.794,7.0,124.9,27.5,70.6,1018.31,-30.82,-0.93,1.74,24.3,41.3,29.1,0,no_anomaly,0.0,0,0,0,0,28.6138201,77.2090041,23.0,0.0
2024-10-01T10:00:10.400Z,MISSION_0011,104,1,orbit_base,SITE_DEL_002,28.61382,77.2090017,23.3,331.03,2.233,0.098,8.91,-1.0579,-2.725,331.0325,-0.96785,0.01488,0.02071,0.25024,-0.0871,0.0073,-9.8187,-0.5485,-0.3709,0.7453,0.2367,3,19,0.79,0.8,0.46,24.461,21.65,87.5,35.2,19248.0,8745,8467,8873,8762,52.5,50.1,52.0,49.4,3.134,2.782,2.866,2.788,7.16,122.8,27.6,70.2,1018.45,-34.05,1.11,1.76,22.2,35.8,30.1,0,no_anomaly,0.0,0,0,0,0,28.61382,77.2090017,23.3,0.0
2024-10-01T10:00:10.500Z,MISSION_0011,105,1,orbit_base,SITE_DEL_002,28.61382,77.2089993,23.6,330.2,2.305,0.108,8.91,0.4925,-4.8804,330.2031,-0.96554,0.0068,0.04225,0.25669,-0.0313,0.0056,-9.8162,0.4742,0.2541,0.3786,0.1566,3,19,0.52,0.93,0.2,24.449,18.23,87.4,35.4,19231.0,8581,8719,8696,8570,47.9,53.2,55.1,53.6,2.883,2.674,2.692,2.694,6.57,126.3,27.6,70.1,1018.91,-29.08,0.6,1.8,21.3,38.6,29.5,0,no_anomaly,0.0,0,0,0,0,28.61382,77.2089993,23.6,0.0
2024-10-01T10:00:10.600Z,MISSION_0011,106,1,orbit_base,SITE_DEL_002,28.6138201,77.2089969,23.9,331.6,2.603,0.077,8.91,-1.1081,-1.3223,331.6044,-0.96932,0.0122,0.00881,0.24535,0.1204,-0.0309,-9.8224,0.5293,0.6811,0.346,0.2597,3,10,0.9,0.79,0.4,24.554,18.66,87.3,35.7,19215.0,9002,8826,9114,8915,54.0,56.2,53.8,50.4,2.773,2.539,2.779,3.092,7.36,124.1,27.4,70.7,1018.35,-25.29,-0.42,1.73,21.0,36.1,27.4,0,no_anomaly,0.0,0,0,0,0,28.6138201,77.2089969,23.9,0.0
2024-10-01T10:00:10.700Z,MISSION_0011,107,1,orbit_base,SITE_DEL_002,28.6138202,77.2089945,24.2,331.68,2.42,0.065,8.91,0.7233,-3.5022,331.6839,-0.9692,0.00136,0.03117,0.24429,-0.4136,-0.034,-9.7966,0.0895,0.8382,-0.438,0.3778,3,10,0.73,1.08,0.26,24.532,18.33,87.3,36.1,19198.0,8716,8973,8897,8751,50.1,50.0,49.9,50.7,2.766,2.901,2.945,2.953,7.26,134.9,27.9,70.3,1018.54,-31.4,-0.07,1.32,20.4,33.8,31.5,0,no_anomaly,0.0,0,0,0,0,28.6138202,77.2089945,24.2,0.0
2024-10-01T10:00:10.800Z,MISSION_0011,108,1,orbit_base,SITE_DEL_002,28.6138204,77.2089921,24.5,332.83,2.357,0.02,8.91,-1.4329,-1.4216,332.8333,-0.97184,0.01507,0.00912,0.23497,-0.0064,-0.0268,-9.8394,0.1366,0.7558,0.5204,0.241,3,14,0.66,0.88,0.22,24.471,19.06,87.2,36.5,19182.0,8862,8991,8726,8739,48.2,54.2,54.6,53.2,2.633,2.904,2.89,2.886,6.81,125.2,28.0,70.5,1018.23,-31.38,0.24,2.08,22.1,41.4,29.1,0,no_anomaly,0.0,0,0,0,0,28.6138204,77.2089921,24.5,0.0
2024-10-01T10:00:10.900Z,MISSION_0011,109,1,orbit_base,SITE_DEL_002,28.6138207,77.2089898,24.8,332.91,2.733,0.109,8.91,-1.7423,-1.5597,332.9093,-0.97193,0.01797,0.00967,0.23437,0.0375,-0.0373,-9.7145,0.5937,-0.8206,-0.0919,0.3123,3,18,0.65,0.86,0.2,24.423,17.32,87.1,36.0,19166.0,8973,8814,8806,8952,54.3,53.8,51.7,53.9,2.931,2.704,2.644,2.789,7.28,128.2,27.8,69.8,1018.65,-30.8,0.45,1.56,19.9,38.3,29.9,0,no_anomaly,0.0,0,0,0,0,28.6138207,77.2089898,24.8,0.0
2024-10-01T10:00:11.000Z,MISSION_0011,110,1,orbit_base,SITE_DEL_002,28.613821,77.2089874,25.1,332.33,2.742,0.107,8.91,5.0439,-2.6676,332.3267,-0.97002,-0.03715,0.0331,0.23786,-0.6262,-0.0826,-9.8848,-0.2793,0.058,0.8002,0.2424,3,14,0.61,0.74,0.29,24.336,17.63,87.0,34.9,19149.0,8710,8750,8615,8882,51.4,54.8,53.5,54.7,2.839,2.805,2.818,2.749,6.68,123.7,27.6,70.4,1018.53,-29.89,-0.7,1.63,22.9,34.5,31.0,0,no_anomaly,0.0,0,0,0,0,28.613821,77.2089874,25.1,0.0
2024-10-01T10:00:11.100Z,MISSION_0011,111,1,orbit_base,SITE_DEL_002,28.6138214,77.208985,25.4,334.22,2.798,0.067,8.91,1.3616,0.5066,334.2239,-0.97472,-0.01257,-0.00166,0.22308,0.2519,0.062,-9.8646,0.0163,-0.3819,0.9022,0.2884,3,13,0.75,1.05,0.23,24.432,17.62,87.0,36.1,19133.0,9022,8877,8712,8927,53.8,53.6,52.8,54.9,3.02,2.946,2.936,2.632,7.13,128.0,27.7,70.2,1018.17,-27.77,0.6,1.76,26.6,41.4,32.5,0,no_anomaly,0.0,0,0,0,0,28.6138214,77.208985,25.4,0.0
2024-10-01T10:00:11.200Z,MISSION_0011,112,1,orbit_base,SITE_DEL_002,28.6138219,77.2089827,25.7,334.15,2.668,0.179,8.91,5.8908,-0.8266,334.1496,-0.97343,-0.04847,0.01851,0.22302,0.1337,0.0635,-9.6951,0.3081,-0.3187,0.0309,0.3141,3,12,0.85,0.66,0.57,24.433,21.06,86.9,35.9,19117.0,8774,9091,8857,9033,54.1,53.9,51.7,53.7,2.902,3.145,2.537,2.663,6.55,114.0,27.1,70.5,1018.33,-30.3,1.12,1.1,21.8,33.4,32.7,0,no_anomaly,0.0,0,0,0,0,28.6138219,77.2089827,25.7,0.0
2024-10-01T10:00:11.300Z,MISSION_0011,113,1,orbit_base,SITE_DEL_002,28.6138225,77.2089803,26.0,333.84,2.785,0.2,8.91,0.7977,-3.8359,333.8444,-0.97355,0.0008,0.03417,0.22591,0.4788,-0.0124,-9.7918,-0.583,0.3081,0.1825,0.2449,3,17,0.79,0.94,0.38,24.37,17.58,86.8,36.3,19100.0,8872,8719,8870,8887,51.2,53.2,53.2,57.2,2.714,2.989,2.68,2.883,7.3,117.0,27.7,70.9,1018.58,-26.73,0.54,1.79,24.2,35.5,30.9,0,no_anomaly,0.0,0,0,0,0,28.6138225,77.2089803,26.0,0.0
2024-10-01T10:00:11.400Z,MISSION_0011,114,1,orbit_base,SITE_DEL_002,28.6138231,77.208978,26.3,335.98,2.736,0.118,8.91,-1.4413,-0.7336,335.9759,-0.97799,0.01363,0.00364,0.20818,0.0428,0.0098,-9.829,0.3005,-0.2771,-0.0216,0.2404,3,10,0.5,0.89,0.23,24.4,22.94,86.7,36.2,19084.0,8837,8774,8696,8767,57.5,55.3,53.1,53.6,3.037,2.634,3.029,2.789,7.35,126.4,27.9,71.1,1018.46,-32.89,-1.11,2.09,23.2,34.7,29.1,0,no_anomaly,0.0,0,0,0,0,28.6138231,77.208978,26.3,0.0
2024-10-01T10:00:11.500Z,MISSION_0011,115,1,orbit_base,SITE_DEL_002,28.6138238,77.2089757,26.6,337.26,2.607,0.11,8.91,-0.4567,-3.0039,337.2603,-0.98001,0.00907,0.02491,0.19717,0.148,0.0061,-9.8421,0.061,0.8723,-0.1506,0.1359,3,12,0.85,0.98,0.42,24.512,18.88,86.7,35.3,19067.0,8767,8869,8898,8868,53.3,52.7,52.5,52.3,2.561,2.841,2.706,2.989,7.25,118.7,27.6,71.1,1018.51,-26.93,-1.02,1.23,26.7,43.5,29.3,0,no_anomaly,0.0,0,0,0,0,28.6138238,77.2089757,26.6,0.0
2024-10-01T10:00:11.600Z,MISSION_0011,116,1,orbit_base,SITE_DEL_002,28.6138245,77.2089734,26.9,338.99,2.769,0.087,8.91,-1.7895,1.2352,338.9949,-0.9831,0.01339,-0.01344,0.18208,0.2684,0.0578,-9.8,0.5902,-0.2795,-0.4495,0.3008,3,20,0.51,0.89,0.2,24.493,21.48,86.6,36.1,19051.0,8703,8731,8922,8807,50.5,52.5,52.4,54.6,2.888,2.564,2.717,2.811,7.0,124.3,27.8,70.0,1018.3,-32.07,0.69,1.03,24.4,33.3,30.4,0,no_anomaly,0.0,0,0,0,0,28.6138245,77.2089734,26.9,0.0
2024-10-01T10:00:11.700Z,MISSION_0011,117,1,orbit_base,SITE_DEL_002,28.6138254,77.2089712,27.2,337.57,3.212,0.048,8.91,2.1263,-1.6717,337.5743,-0.98069,-0.01536,0.01791,0.19413,-0.0852,0.0279,-9.8474,-0.0579,0.0478,0.2652,0.2482,3,15,0.69,0.79,0.24,24.487,18.47,86.5,35.6,19035.0,8686,8574,9003,8505,57.0,52.2,53.9,49.8,2.801,2.607,2.783,3.04,7.15,121.3,27.4,70.1,1018.45,-31.41,0.93,1.54,26.0,37.3,29.9,0,no_anomaly,0.0,0,0,0,0,28.6138254,77.2089712,27.2,0.0
2024-10-01T10:00:11.800Z,MISSION_0011,118,1,orbit_base,SITE_DEL_002,28.6138263,77.208969,27.5,337.46,3.179,0.1,8.91,-2.0267,-2.3425,337.4579,-0.98028,0.02134,0.01659,0.19573,-0.1989,-0.029,-9.8281,-0.0252,0.1255,-0.2313,0.3341,3,15,0.99,1.11,0.37,24.456,19.87,86.4,35.6,19018.0,8685,8895,8684,8682,52.4,51.9,53.2,54.2,2.82,2.656,2.834,2.63,6.91,116.6,27.5,71.2,1018.45,-32.03,1.6,1.1,22.7,32.5,28.4,0,no_anomaly,0.0,0,0,0,0,28.6138263,77.208969,27.5,0.0
2024-10-01T10:00:11.900Z,MISSION_0011,119,1,orbit_base,SITE_DEL_002,28.6138272,77.2089668,27.8,338.13,3.22,0.043,8.91,2.8821,-5.0717,338.1256,-0.98078,-0.01628,0.04819,0.18839,0.2267,0.0576,-9.7774,0.5988,-0.2948,-0.3262,0.2186,3,15,0.86,0.66,0.37,24.499,20.53,86.4,35.4,19002.0,8585,8892,8922,8858,51.2,52.9,53.5,51.5,2.843,2.849,2.888,2.801,6.98,120.4,27.4,70.3,1018.05,-31.91,0.05,1.43,26.0,36.3,29.0,0,no_anomaly,0.0,0,0,0,0,28.6138272,77.2089668,27.8,0.0
2024-10-01T10:00:12.000Z,MISSION_0011,120,1,orbit_base,SITE_DEL_002,28.6138283,77.2089646,28.1,335.26,3.393,0.115,8.91,-1.6515,-1.1508,335.258,-0.9766,0.01623,0.00672,0.21435,-0.2891,-0.0351,-9.743,0.2031,-0.3031,-0.136,0.1705,3,18,0.6,0.97,0.31,24.376,16.99,86.3,35.8,18985.0,8993,8646,8727,8945,50.2,55.9,52.7,50.2,2.849,2.906,2.908,2.913,6.95,119.7,27.8,70.6,1018.25,-28.49,-0.82,1.8,21.1,37.8,30.6,0,no_anomaly,0.0,0,0,0,0,28.6138283,77.2089646,28.1,0.0
2024-10-01T10:00:12.100Z,MISSION_0011,121,1,orbit_base,SITE_DEL_002,28.6138294,77.2089625,28.4,332.51,3.168,0.027,8.91,0.837,-2.2945,332.5098,-0.97118,-0.00234,0.02118,0.23741,0.2285,-0.0087,-9.8293,-0.1326,0.0908,0.4143,0.1296,3,11,0.73,0.68,0.39,24.474,24.72,86.2,36.9,18969.0,8926,8984,9057,8664,53.8,54.0,54.0,49.8,2.783,3.054,2.796,2.566,7.0,127.3,27.5,70.6,1018.12,-31.22,0.27,1.48,21.2,39.4,28.0,0,no_anomaly,0.0,0,0,0,0,28.6138294,77.2089625,28.4,0.0
2024-10-01T10:00:12.200Z,MISSION_0011,122,1,orbit_base,SITE_DEL_002,28.6138305,77.2089604,28.7,331.3,2.687,0.056,8.91,0.099,-0.3511,331.2986,-0.96879,-8e-05,0.00318,0.24785,-0.106,0.0607,-9.8745,0.316,0.0134,-0.4604,0.228,3,12,0.52,1.06,0.27,24.534,18.09,86.1,35.9,18953.0,8700,8709,8721,9052,51.0,53.8,51.7,51.9,2.726,2.999,2.702,2.71,5.81,116.6,27.5,70.6,1018.46,-27.66,-0.85,1.84,19.2,36.3,29.4,0,no_anomaly,0.0,0,0,0,0,28.6138305,77.2089604,28.7,0.0
2024-10-01T10:00:12.300Z,MISSION_0011,123,2,climb_tower,SITE_DEL_002,28.6138363,77.2089614,29.0,329.92,2.854,0.071,8.29,1.2691,-0.0595,329.9213,-0.96569,-0.01056,0.00337,0.25946,-0.2125,0.0283,-9.8284,-0.7257,-0.1303,0.3892,0.246,3,14,0.73,0.9,0.2,24.411,20.77,86.1,36.1,18936.0,8945,8815,8777,8971,51.7,55.7,54.2,52.0,2.872,2.693,2.72,2.639,7.51,125.0,27.0,71.2,1018.84,-33.24,0.43,1.33,21.9,38.1,32.2,0,no_anomaly,0.0,0,0,0,0,28.6138363,77.2089614,29.0,0.0
2024-10-01T10:00:12.400Z,MISSION_0011,124,2,climb_tower,SITE_DEL_002,28.6138318,77.2089596,29.3,329.26,2.422,0.073,8.82,-0.74,-1.4198,329.2594,-0.96412,0.00951,0.01023,0.26511,0.2018,-0.0277,-9.7351,-0.1212,-0.6595,0.0645,0.2588,3,13,0.59,0.8,0.2,24.414,20.34,86.0,35.9,18920.0,8728,8623,8835,8921,51.9,53.5,54.6,55.8,2.827,3.03,2.965,2.432,7.12,119.0,27.5,70.0,1018.38,-28.61,-0.78,1.03,25.3,37.9,29.5,0,no_anomaly,0.0,0,0,0,0,28.6138318,77.2089596,29.3,0.0
2024-10-01T10:00:12.500Z,MISSION_0011,125,2,climb_tower,SITE_DEL_002,28.6138354,77.2089574,29.6,329.22,2.644,0.002,8.62,-1.6591,-4.1104,329.2218,-0.96329,0.02347,0.03073,0.26568,0.1464,-0.084,-9.7344,0.938,0.0273,-0.3016,0.1548,3,18,0.67,1.05,0.35,24.373,19.4,85.9,35.5,18903.0,9020,8566,8772,8808,48.8,51.6,52.6,52.1,2.725,2.888,2.977,2.558,6.94,117.7,27.7,69.8,1017.85,-32.83,1.19,1.36,24.4,36.0,31.5,0,no_anomaly,0.0,0,0,0,0,28.6138354,77.2089574,29.6,0.0
2024-10-01T10:00:12.600Z,MISSION_0011,126,2,climb_tower,SITE_DEL_002,28.6138338,77.2089588,29.9,328.85,2.786,0.158,8.68,3.4484,-1.6115,328.8485,-0.96286,-0.02521,0.02162,0.26796,-0.226,-0.0735,-9.8533,-0.1811,-0.7272,-0.3358,0.1722,3,11,0.6,0.75,0.25,24.384,18.84,85.9,36.1,18887.0,9017,8784,9001,8642,50.2,55.8,49.4,55.7,2.809,3.026,2.686,2.731,7.07,115.0,27.6,70.7,1018.24,-29.35,-0.79,1.0,21.5,41.3,33.1,0,no_anomaly,0.0,0,0,0,0,28.6138338,77.2089588,29.9,0.0
2024-10-01T10:00:12.700Z,MISSION_0011,127,2,climb_tower,SITE_DEL_002,28.6138368,77.208958,30.2,328.48,2.815,0.001,8.44,-6.4436,-1.9554,328.4821,-0.96049,0.05871,0.00113,0.27205,0.0792,0.0319,-9.7957,-0.148,-0.3327,-0.2883,0.2541,3,12,0.58,0.93,0.27,24.377,21.13,85.8,36.6,18871.0,8963,9003,8810,8691,54.5,51.9,54.8,56.3,2.734,3.087,2.634,2.886,7.06,121.2,27.6,70.6,1018.59,-34.09,-1.6,1.32,22.9,33.5,30.8,0,no_anomaly,0.0,0,0,0,0,28.6138368,77.208958,30.2,0.0
2024-10-01T10:00:12.800Z,MISSION_0011,128,2,climb_tower,SITE_DEL_002,28.6138335,77.2089587,30.5,326.47,3.329,0.185,8.71,3.4103,0.4779,326.4705,-0.95703,-0.02969,0.00459,0.28843,-0.0048,0.0729,-9.8527,0.3734,0.6476,-0.1485,0.3578,3,15,0.67,0.91,0.4,24.47,16.6,85.7,36.1,18854.0,8833,9157,8943,8916,51.4,51.6,51.0,53.0,2.538,2.649,2.7,3.03,7.62,125.6,27.6,71.0,1018.44,-31.96,0.46,1.55,19.5,33.8,29.9,0,no_anomaly,0.0,0,0,0,0,28.6138335,77.2089587,30.5,0.0
