timestamp_utc,mission_id,frame_id,waypoint_id,inspection_phase,site_id,latitude_deg,longitude_deg,altitude_m,heading_deg,ground_speed_ms,vertical_speed_ms,distance_to_tower_m,roll_deg,pitch_deg,yaw_deg,quat_w,quat_x,quat_y,quat_z,accel_x_ms2,accel_y_ms2,accel_z_ms2,gyro_x_rads,gyro_y_rads,gyro_z_rads,vibration_level,gps_fix_type,gps_satellite_count,gps_hdop,gps_vdop,position_error_m,battery_voltage_v,battery_current_a,battery_remaining_pct,battery_temp_c,battery_capacity_mah,motor_fl_rpm,motor_fr_rpm,motor_rl_rpm,motor_rr_rpm,motor_fl_temp_c,motor_fr_temp_c,motor_rl_temp_c,motor_rr_temp_c,motor_fl_thrust_n,motor_fr_thrust_n,motor_rl_thrust_n,motor_rr_thrust_n,wind_speed_ms,wind_dir_deg,air_temp_c,humidity_pct,pressure_hpa,gimbal_pitch_deg,gimbal_roll_deg,zoom_factor,ir_temp_min_c,ir_temp_max_c,ir_temp_avg_c,anomaly_detected,anomaly_class,anomaly_confidence,anomaly_bbox_x,anomaly_bbox_y,anomaly_bbox_w,anomaly_bbox_h,anomaly_gps_lat,anomaly_gps_lon,anomaly_gps_alt_m,ir_temp_delta_c
2024-12-07T17:25:00.000Z,MISSION_0055,0,0,takeoff,SITE_KOL_006,22.5725984,88.363899,1.5,99.95,0.0,0.003,0.21,-0.2943,-0.6453,99.9464,0.64314,0.00266,-0.00559,0.76572,-0.0109,0.0072,-9.7407,-0.0222,0.7538,-0.3039,0.1233,3,17,0.56,0.82,0.27,24.719,14.91,95.9,32.7,21092.0,7753,7543,7518,7630,48.0,52.4,51.5,49.4,2.886,2.777,2.645,2.559,2.31,288.4,25.7,65.1,1009.07,-26.17,0.21,1.31,20.2,35.6,30.0,0,no_anomaly,0.0,0,0,0,0,22.5725984,88.363899,1.5,0.0
2024-12-07T17:25:00.100Z,MISSION_0055,1,0,takeoff,SITE_KOL_006,22.5725957,88.3638979,3.0,98.69,0.0,0.069,0.53,0.7787,-1.8487,98.6886,0.65133,0.01667,-0.00536,0.75859,-0.0364,0.0765,-9.7953,0.2846,0.243,-0.0934,0.1761,3,10,0.72,1.12,0.3,24.678,11.6,95.8,33.5,21077.0,7684,7291,7489,7515,50.1,51.8,49.4,53.6,2.788,2.795,2.797,3.05,1.97,292.7,25.5,64.8,1008.84,-33.78,-0.79,1.56,21.2,33.7,26.2,0,no_anomaly,0.0,0,0,0,0,22.5725957,88.3638979,3.0,0.0
2024-12-07T17:25:00.200Z,MISSION_0055,2,0,takeoff,SITE_KOL_006,22.5725969,88.3639011,4.5,93.81,0.455,0.028,0.37,0.721,0.8699,93.8062,0.68324,-0.00124,0.00978,0.73013,-0.1361,0.0868,-9.8053,-0.3692,0.7259,0.5137,0.1158,3,12,0.66,1.07,0.25,24.664,15.98,95.7,33.2,21062.0,7318,7435,7547,7340,53.1,48.9,49.7,51.6,2.774,2.878,2.689,2.802,1.75,283.7,25.6,65.3,1009.16,-24.89,-1.41,1.24,18.1,33.8,27.0,0,no_anomaly,0.0,0,0,0,0,22.5725969,88.3639011,4.5,0.0
2024-12-07T17:25:00.300Z,MISSION_0055,3,0,takeoff,SITE_KOL_006,22.5725909,88.3639032,5.0,93.36,0.588,0.153,1.07,-1.0501,-0.8295,93.3559,0.6861,-0.00102,-0.01163,0.72741,0.1313,0.072,-9.8261,-0.8455,0.0976,-0.6755,0.0531,3,10,0.77,0.93,0.28,24.729,16.73,95.7,33.6,21047.0,7153,7427,7455,7304,51.5,48.3,52.8,54.6,3.065,2.657,2.937,3.038,1.78,283.7,25.4,64.8,1009.07,-31.71,-1.49,1.67,21.0,39.3,28.5,0,no_anomaly,0.0,0,0,0,0,22.5725909,88.3639032,5.0,0.0
2024-12-07T17:25:00.400Z,MISSION_0055,4,0,takeoff,SITE_KOL_006,22.5725912,88.3639065,5.0,91.99,0.132,0.093,1.21,0.3981,-5.651,91.9937,0.69373,0.03787,-0.03175,0.71854,0.0965,-0.0341,-9.7907,0.3679,0.0389,-0.4643,0.0767,3,15,0.84,1.06,0.3,24.669,14.32,95.6,33.9,21032.0,7383,7127,7620,7415,50.2,52.2,49.5,50.6,2.853,2.841,2.781,2.991,1.27,294.3,25.5,64.8,1009.14,-27.43,-0.4,1.57,19.8,34.3,29.3,0,no_anomaly,0.0,0,0,0,0,22.5725912,88.3639065,5.0,0.0
2024-12-07T17:25:00.500Z,MISSION_0055,5,0,takeoff,SITE_KOL_006,22.572583,88.3639084,5.0,90.43,0.452,0.054,2.11,1.632,-0.3593,90.4261,0.70437,0.01226,0.0079,0.70969,-0.1315,0.0117,-9.7913,0.6612,0.5635,-0.085,0.1304,3,15,0.63,1.04,0.3,24.666,17.36,95.5,33.5,21017.0,7384,7616,7398,7815,49.5,48.5,51.9,50.4,2.776,2.9,2.536,2.692,1.7,286.2,25.7,64.7,1009.08,-31.94,-0.51,1.95,18.1,30.5,24.3,0,no_anomaly,0.0,0,0,0,0,22.572583,88.3639084,5.0,0.0
2024-12-07T17:25:00.600Z,MISSION_0055,6,0,takeoff,SITE_KOL_006,22.5725841,88.3639047,5.0,89.7,0.838,0.165,1.85,0.7898,-1.496,89.703,0.7088,0.01409,-0.00439,0.70526,0.021,0.0296,-9.8448,0.3348,0.1127,-0.3806,0.0436,3,13,0.76,0.84,0.28,24.615,15.0,95.5,33.9,21002.0,7619,7661,7455,7338,47.6,49.5,55.0,48.1,2.752,2.852,3.073,2.597,1.98,293.7,25.8,65.2,1009.08,-32.14,1.08,1.24,21.7,38.1,26.3,0,no_anomaly,0.0,0,0,0,0,22.5725841,88.3639047,5.0,0.0
2024-12-07T17:25:00.700Z,MISSION_0055,7,0,takeoff,SITE_KOL_006,22.5725813,88.3639117,5.0,89.61,0.772,0.072,2.45,-1.7127,-4.0396,89.6138,0.70934,0.01424,-0.03553,0.70383,-0.0437,-0.1222,-9.8048,0.633,-0.8935,0.1432,0.0758,3,20,0.57,0.99,0.2,24.618,14.84,95.4,33.1,20987.0,7461,7398,7360,7625,52.0,50.5,51.1,50.3,2.69,2.805,2.987,2.81,1.33,295.0,25.4,65.1,1009.19,-31.6,-1.96,1.35,20.9,32.7,28.0,0,no_anomaly,0.0,0,0,0,0,22.5725813,88.3639117,5.0,0.0
2024-12-07T17:25:00.800Z,MISSION_0055,8,0,takeoff,SITE_KOL_006,22.5725789,88.3639127,5.0,89.62,0.785,0.133,2.75,2.5335,-0.73,89.6218,0.70915,0.02017,0.01106,0.70468,0.0381,0.1253,-9.8435,0.238,0.6888,-0.2081,0.1928,3,20,0.73,0.88,0.26,24.635,15.06,95.3,33.5,20972.0,7553,7851,7416,7354,49.6,48.9,50.6,49.6,3.037,2.858,2.823,2.808,2.18,297.2,25.4,65.5,1008.85,-31.3,-1.36,1.42,17.4,33.8,27.2,0,no_anomaly,0.0,0,0,0,0,22.5725789,88.3639127,5.0,0.0
2024-12-07T17:25:00.900Z,MISSION_0055,9,0,takeoff,SITE_KOL_006,22.572573,88.3639118,5.0,88.4,0.847,0.106,3.28,0.6383,-1.2853,88.3966,0.71683,0.01181,-0.00416,0.69713,-0.0598,-0.0263,-9.8371,-0.0017,0.4208,-0.1085,0.1004,3,11,0.65,0.73,0.23,24.632,17.64,95.3,33.4,20957.0,7375,7686,7273,7514,49.9,51.5,46.1,51.4,3.108,3.035,2.826,2.626,0.59,290.3,25.3,64.6,1009.25,-24.7,0.79,1.77,18.3,35.6,29.3,0,no_anomaly,0.0,0,0,0,0,22.572573,88.3639118,5.0,0.0
2024-12-07T17:25:01.000Z,MISSION_0055,10,0,takeoff,SITE_KOL_006,22.572574,88.3639098,5.0,90.58,0.951,0.118,3.1,0.3057,-1.5798,90.5781,0.70344,0.01167,-0.0078,0.71062,0.0394,0.0163,-9.8729,-0.0728,0.5756,-0.0211,0.1333,3,11,0.61,1.01,0.31,24.616,16.3,95.2,33.8,20942.0,7317,7375,7501,7584,53.5,48.9,53.6,50.1,2.726,2.713,2.935,3.056,1.84,292.6,25.7,65.2,1008.95,-31.32,-1.86,1.54,19.9,32.6,29.1,0,no_anomaly,0.0,0,0,0,0,22.572574,88.3639098,5.0,0.0
2024-12-07T17:25:01.100Z,MISSION_0055,11,0,takeoff,SITE_KOL_006,22.5725732,88.3639113,5.0,92.26,0.719,0.13,3.24,-3.9451,-3.0807,92.2612,0.69302,-0.00448,-0.04342,0.71959,0.0758,-0.0567,-9.7358,0.0738,0.664,-0.5188,0.1226,3,10,0.72,1.01,0.32,24.607,20.56,95.1,33.7,20927.0,7449,7409,7563,7426,50.4,50.2,45.8,50.1,2.681,2.632,2.7,2.892,2.08,284.9,25.6,64.6,1008.97,-30.98,-1.37,1.21,20.0,34.0,31.4,0,no_anomaly,0.0,0,0,0,0,22.5725732,88.3639113,5.0,0.0
2024-12-07T17:25:01.200Z,MISSION_0055,12,0,takeoff,SITE_KOL_006,22.5725743,88.3639104,5.0,92.39,0.569,0.004,3.08,0.7612,-2.9217,92.3864,0.69187,0.023,-0.01285,0.72154,-0.0108,-0.0686,-9.8416,0.3249,-0.3941,0.1025,0.1245,3,10,0.88,1.19,0.33,24.621,18.68,95.1,32.8,20911.0,7312,7485,7380,7125,49.2,48.4,52.8,50.8,2.563,2.633,2.646,2.935,1.84,286.3,25.1,64.6,1009.17,-32.09,-1.53,1.65,17.2,33.5,26.0,0,no_anomaly,0.0,0,0,0,0,22.5725743,88.3639104,5.0,0.0
2024-12-07T17:25:01.300Z,MISSION_0055,13,0,takeoff,SITE_KOL_006,22.5725764,88.3639115,5.0,90.19,1.073,0.009,2.92,1.0899,-1.7107,90.1864,0.70574,0.01729,-0.0038,0.70825,0.0005,-0.0548,-9.7762,0.386,-0.6915,0.3772,0.0955,3,12,0.69,0.92,0.22,24.646,15.09,95.0,33.7,20896.0,7512,7566,7628,7482,49.2,50.2,50.4,54.6,3.018,2.942,3.074,2.627,1.38,290.1,25.9,64.7,1009.04,-27.06,0.57,1.26,20.5,38.0,27.8,0,no_anomaly,0.0,0,0,0,0,22.5725764,88.3639115,5.0,0.0
2024-12-07T17:25:01.400Z,MISSION_0055,14,0,takeoff,SITE_KOL_006,22.5725708,88.3639068,5.0,87.83,1.002,0.07,3.34,-2.0759,-0.8679,87.828,0.72034,-0.0078,-0.01802,0.69335,0.0824,0.0592,-9.8953,-0.4361,-0.2719,-0.5347,0.2148,3,11,0.61,0.96,0.2,24.587,25.63,94.9,33.6,20881.0,7232,7316,7523,7684,49.2,52.1,52.3,48.4,2.847,2.916,2.824,2.722,1.94,298.8,25.8,65.4,1008.81,-26.84,-0.23,2.37,18.5,38.6,27.1,0,no_anomaly,0.0,0,0,0,0,22.5725708,88.3639068,5.0,0.0
2024-12-07T17:25:01.500Z,MISSION_0055,15,0,takeoff,SITE_KOL_006,22.572577,88.3639101,5.0,86.76,0.679,0.113,2.8,-2.6703,-2.194,86.756,0.72681,-0.00379,-0.02991,0.68617,-0.0462,0.0325,-9.821,0.0402,-0.541,-0.2937,0.1054,3,15,0.5,1.01,0.2,24.735,18.56,94.8,32.8,20866.0,7266,7105,7431,7498,51.0,48.8,50.1,49.5,3.088,2.913,2.692,2.736,2.35,288.9,25.4,65.3,1009.22,-29.13,0.03,1.67,17.5,32.2,26.5,0,no_anomaly,0.0,0,0,0,0,22.572577,88.3639101,5.0,0.0
2024-12-07T17:25:01.600Z,MISSION_0055,16,0,takeoff,SITE_KOL_006,22.5725773,88.3639074,5.0,83.96,1.24,0.162,2.66,3.698,-1.4868,83.9555,0.74268,0.03266,0.01194,0.66875,0.0052,0.0356,-9.851,0.1565,-0.1725,-0.0199,0.1961,3,10,0.82,1.13,0.29,24.619,20.5,94.8,33.2,20851.0,7279,7519,7387,7364,51.1,48.9,50.1,53.4,2.691,2.871,2.871,2.826,2.08,298.3,25.7,64.6,1009.05,-29.47,1.14,1.25,20.7,31.7,27.3,0,no_anomaly,0.0,0,0,0,0,22.5725773,88.3639074,5.0,0.0
2024-12-07T17:25:01.700Z,MISSION_0055,17,0,takeoff,SITE_KOL_006,22.5725792,88.3639098,5.0,84.89,1.494,0.041,2.56,6.1292,-0.4383,84.8903,0.73673,0.04203,0.03326,0.67406,-0.0483,0.0061,-9.7938,1.1257,0.7505,0.0628,0.2089,3,12,0.69,0.68,0.31,24.638,22.26,94.7,33.8,20836.0,7534,7207,7189,7291,46.8,50.4,52.1,47.9,2.627,2.872,2.958,2.788,1.55,285.5,25.2,65.2,1009.36,-30.61,-1.32,1.61,19.8,38.4,27.6,0,no_anomaly,0.0,0,0,0,0,22.5725792,88.3639098,5.0,0.0
2024-12-07T17:25:01.800Z,MISSION_0055,18,0,takeoff,SITE_KOL_006,22.5725773,88.3639111,5.0,84.18,1.132,0.007,2.81,-2.077,-2.2153,84.1828,0.74205,-0.00049,-0.02649,0.66982,0.0555,0.0572,-9.7843,0.7528,0.7048,0.4098,0.1016,3,16,0.86,0.91,0.39,24.671,13.82,94.6,33.7,20821.0,7431,7464,7174,7262,51.0,52.9,51.6,49.6,2.881,2.867,2.6,2.94,2.77,293.8,25.4,64.8,1009.03,-24.48,0.82,1.12,22.9,36.4,27.9,0,no_anomaly,0.0,0,0,0,0,22.5725773,88.3639111,5.0,0.0
2024-12-07T17:25:01.900Z,MISSION_0055,19,0,takeoff,SITE_KOL_006,22.5725765,88.3639092,5.0,84.19,0.985,0.018,2.8,2.7894,-3.9282,84.1885,0.74083,0.04102,-0.00912,0.67038,0.0139,-0.034,-9.7206,-0.4377,-0.0919,0.2928,0.0443,3,18,0.75,0.82,0.34,24.668,23.77,94.6,33.3,20806.0,7500,7421,7336,7371,51.5,51.8,50.9,48.2,2.711,2.893,2.855,2.776,2.82,293.8,25.7,64.3,1009.11,-25.62,-0.75,1.19,16.4,38.5,25.0,0,no_anomaly,0.0,0,0,0,0,22.5725765,88.3639092,5.0,0.0
2024-12-07T17:25:02.000Z,MISSION_0055,20,0,takeoff,SITE_KOL_006,22.5725743,88.3639136,5.0,83.23,1.134,0.091,3.24,-2.1216,-0.588,83.2302,0.74755,-0.01043,-0.01613,0.66393,-0.0103,0.0142,-9.8038,-0.0622,-1.4305,-0.0116,0.1084,3,12,0.78,0.8,0.2,24.715,14.61,94.5,33.5,20791.0,7259,7446,7633,7417,50.7,52.5,50.5,49.2,2.831,2.811,2.957,2.651,2.69,291.3,25.3,64.8,1009.02,-32.67,0.8,2.18,19.3,31.7,26.3,0,no_anomaly,0.0,0,0,0,0,22.5725743,88.3639136,5.0,0.0
2024-12-07T17:25:02.100Z,MISSION_0055,21,0,takeoff,SITE_KOL_006,22.5725734,88.3639173,5.0,83.99,0.738,0.067,3.53,-3.3751,0.7869,83.9879,0.74274,-0.02648,-0.0146,0.6689,-0.1123,-0.0033,-9.7897,0.3009,-0.0255,-0.3521,0.1705,3,10,0.72,1.13,0.29,24.597,15.51,94.4,33.5,20776.0,7387,7379,7220,7602,48.8,52.2,51.5,53.0,2.79,2.747,3.003,2.813,1.36,291.6,25.3,65.9,1008.79,-30.3,-0.43,1.5,19.6,40.8,29.2,0,no_anomaly,0.0,0,0,0,0,22.5725734,88.3639173,5.0,0.0
2024-12-07T17:25:02.200Z,MISSION_0055,22,0,takeoff,SITE_KOL_006,22.5725724,88.3639184,5.0,80.66,0.22,0.065,3.69,3.1192,-2.9901,80.663,0.76131,0.03762,-0.00227,0.64729,0.031,0.0423,-9.8225,0.1638,0.7145,0.6014,0.141,3,18,0.62,0.73,0.3,24.569,17.74,94.4,33.0,20761.0,7398,7419,7486,7291,52.4,47.8,51.4,48.7,2.914,2.921,2.789,2.881,1.97,295.9,25.3,65.2,1008.59,-21.55,0.56,1.41,20.5,30.8,26.9,0,no_anomaly,0.0,0,0,0,0,22.5725724,88.3639184,5.0,0.0
2024-12-07T17:25:02.300Z,MISSION_0055,23,0,takeoff,SITE_KOL_006,22.5725718,88.3639177,5.0,81.48,0.0,0.136,3.71,0.3328,-2.6792,81.4802,0.75742,0.01746,-0.01582,0.6525,0.0263,0.0362,-9.8115,-0.0077,0.3192,0.0928,0.0824,3,19,0.64,0.99,0.2,24.768,21.05,94.3,33.6,20746.0,7418,7403,7662,7460,51.2,50.4,47.3,52.2,2.683,2.691,2.708,2.85,0.86,296.0,25.5,65.2,1008.97,-24.25,0.42,1.63,21.8,39.4,27.7,0,no_anomaly,0.0,0,0,0,0,22.5725718,88.3639177,5.0,0.0
2024-12-07T17:25:02.400Z,MISSION_0055,24,0,takeoff,SITE_KOL_006,22.5725712,88.3639227,5.0,80.9,0.0,0.184,4.09,-2.027,-1.7653,80.8959,0.76096,-0.00347,-0.02319,0.64837,-0.0695,-0.0792,-9.8494,-0.3246,-0.0337,0.0278,0.064,3,10,0.68,0.67,0.2,24.655,14.69,94.2,33.2,20731.0,7506,7347,7228,7650,54.4,48.2,49.6,48.5,2.653,2.892,2.757,2.934,2.15,286.1,25.4,65.3,1008.94,-32.42,-0.38,1.9,19.6,32.3,27.2,0,no_anomaly,0.0,0,0,0,0,22.5725712,88.3639227,5.0,0.0
2024-12-07T17:25:02.500Z,MISSION_0055,25,0,takeoff,SITE_KOL_006,22.5725708,88.3639258,5.0,79.15,0.027,0.028,4.34,-0.7277,-2.0966,79.1479,0.77073,0.00676,-0.01815,0.63686,0.0385,-0.0685,-9.8558,0.1937,-0.5481,-0.2572,0.1203,3,12,0.69,0.86,0.2,24.645,16.67,94.2,32.7,20716.0,7638,7200,7421,7273,47.3,47.3,51.5,51.5,2.54,2.759,2.945,3.019,1.64,288.4,25.5,65.0,1009.16,-31.28,-0.85,1.57,21.2,40.6,29.9,0,no_anomaly,0.0,0,0,0,0,22.5725708,88.3639258,5.0,0.0
2024-12-07T17:25:02.600Z,MISSION_0055,26,0,takeoff,SITE_KOL_006,22.5725713,88.3639295,5.0,79.71,0.359,0.102,4.59,-2.4336,-4.8967,79.7065,0.7674,0.01108,-0.04638,0.6394,-0.0306,-0.0027,-9.8168,-0.5645,0.0243,-0.1844,0.0903,3,13,0.71,0.88,0.37,24.629,13.14,94.1,33.7,20701.0,7306,7250,7570,7614,52.7,50.5,48.8,49.1,2.88,2.647,2.737,2.781,1.63,302.6,25.3,64.2,1008.86,-31.55,-0.02,1.16,17.9,33.0,25.0,0,no_anomaly,0.0,0,0,0,0,22.5725713,88.3639295,5.0,0.0
2024-12-07T17:25:02.700Z,MISSION_0055,27,0,takeoff,SITE_KOL_006,22.5725716,88.3639302,5.0,81.26,0.041,0.105,4.62,-1.1839,-3.0727,81.2582,0.75881,0.00962,-0.02707,0.65068,0.0616,0.0603,-9.823,0.4147,-0.1837,0.1106,0.0739,3,15,0.7,0.9,0.2,24.574,15.39,94.0,33.5,20686.0,7368,7424,7438,7697,50.7,49.1,50.9,47.9,2.744,2.799,2.86,2.636,2.33,298.6,25.6,65.1,1008.98,-30.31,0.03,1.34,21.4,36.7,27.5,0,no_anomaly,0.0,0,0,0,0,22.5725716,88.3639302,5.0,0.0
2024-12-07T17:25:02.800Z,MISSION_0055,28,0,takeoff,SITE_KOL_006,22.5725719,88.3639302,5.0,82.27,0.499,0.155,4.59,-1.4626,-0.1532,82.2746,0.75308,-0.00873,-0.0094,0.6578,0.1065,0.0246,-9.8644,-0.3383,0.5941,0.1966,0.1043,3,10,0.63,1.08,0.2,24.684,22.77,94.0,34.5,20671.0,7516,7391,7305,7237,48.2,51.3,50.8,52.2,3.004,2.764,2.348,2.92,2.01,284.1,25.4,64.6,1008.73,-31.33,1.52,1.87,19.9,32.1,29.8,0,no_anomaly,0.0,0,0,0,0,22.5725719,88.3639302,5.0,0.0
2024-12-07T17:25:02.900Z,MISSION_0055,29,0,takeoff,SITE_KOL_006,22.5725752,88.3639326,5.0,81.85,0.625,0.199,4.56,0.128,-2.7308,81.8489,0.75534,0.01645,-0.01727,0.6549,-0.1944,0.0626,-9.838,0.2155,0.187,-0.1485,0.0873,3,10,0.66,1.19,0.23,24.681,18.65,93.9,34.1,20656.0,7165,7485,7364,7521,50.1,51.1,50.1,51.4,2.86,2.975,2.809,2.847,2.23,293.8,25.7,65.2,1008.97,-28.62,-0.5,1.39,18.2,35.6,26.2,0,no_anomaly,0.0,0,0,0,0,22.5725752,88.3639326,5.0,0.0
2024-12-07T17:25:03.000Z,MISSION_0055,30,0,takeoff,SITE_KOL_006,22.5725761,88.3639307,5.0,84.15,0.527,0.079,4.33,0.2748,-0.4111,84.1522,0.74224,0.00418,-0.00106,0.67012,0.1963,-0.0947,-9.764,0.3355,0.6845,-0.0143,0.1705,3,11,0.75,0.97,0.35,24.686,14.5,93.8,33.4,20641.0,7283,7636,7350,7285,50.7,50.8,49.8,54.1,2.708,2.892,2.94,2.866,1.98,282.7,25.4,64.3,1008.84,-28.16,1.02,1.58,18.3,33.7,26.3,0,no_anomaly,0.0,0,0,0,0,22.5725761,88.3639307,5.0,0.0
2024-12-07T17:25:03.100Z,MISSION_0055,31,0,takeoff,SITE_KOL_006,22.5725779,88.3639316,5.0,83.83,0.748,0.118,4.29,-1.8156,-1.3601,83.8313,0.74411,-0.00386,-0.01941,0.66777,-0.0399,-0.0208,-9.9147,-0.3941,0.4377,0.0061,0.1807,3,16,0.8,0.73,0.32,24.555,15.08,93.8,33.2,20626.0,7507,7523,7535,7480,49.7,49.0,51.2,51.1,2.487,2.618,2.602,2.926,1.35,291.7,25.6,65.1,1008.93,-28.21,1.06,1.29,22.2,37.8,28.8,0,no_anomaly,0.0,0,0,0,0,22.5725779,88.3639316,5.0,0.0
2024-12-07T17:25:03.200Z,MISSION_0055,32,0,takeoff,SITE_KOL_006,22.5725809,88.3639408,5.0,83.9,0.801,0.083,5.02,-4.2992,-3.3495,83.9003,0.74362,-0.00836,-0.04678,0.66691,0.0619,0.0677,-9.8036,-0.3443,0.7903,0.3779,0.1266,3,15,0.79,0.9,0.26,24.588,17.96,93.7,32.9,20611.0,7592,7598,7350,7483,52.0,49.6,49.1,49.4,2.761,2.809,2.629,2.886,1.22,292.7,25.4,65.6,1008.78,-25.83,-0.16,1.89,18.4,29.9,25.4,0,no_anomaly,0.0,0,0,0,0,22.5725809,88.3639408,5.0,0.0
2024-12-07T17:25:03.300Z,MISSION_0055,33,0,takeoff,SITE_KOL_006,22.5725797,88.3639437,5.0,83.47,0.744,0.109,5.37,1.8349,-1.3656,83.4703,0.74595,0.01988,0.00177,0.6657,0.0065,0.0755,-9.8164,-0.2497,0.3416,0.0848,0.1453,3,11,0.73,0.94,0.32,24.663,29.06,93.6,33.3,20596.0,7451,7567,7372,7233,51.0,51.3,49.3,50.1,2.827,2.79,2.727,2.627,1.68,292.1,25.1,65.5,1008.82,-31.96,-1.22,1.73,24.0,37.0,31.8,0,no_anomaly,0.0,0,0,0,0,22.5725797,88.3639437,5.0,0.0
2024-12-07T17:25:03.400Z,MISSION_0055,34,0,takeoff,SITE_KOL_006,22.5725764,88.3639423,5.0,82.89,0.903,0.093,5.4,-0.0399,-2.535,82.8905,0.74941,0.01438,-0.01681,0.66174,0.027,0.0783,-9.8841,-0.1558,-0.2987,-0.3199,0.0638,3,15,0.62,0.82,0.3,24.557,18.79,93.5,33.5,20581.0,7372,7455,7258,7521,47.9,47.9,47.2,50.0,2.76,2.636,2.749,2.776,1.76,292.6,25.3,65.6,1009.05,-32.07,-0.07,1.49,21.7,35.3,25.4,0,no_anomaly,0.0,0,0,0,0,22.5725764,88.3639423,5.0,0.0
2024-12-07T17:25:03.500Z,MISSION_0055,35,0,takeoff,SITE_KOL_006,22.5725836,88.3639449,5.0,84.44,0.774,0.148,5.33,-2.6069,-1.695,84.4421,0.74051,-0.00691,-0.02624,0.6715,-0.1287,-0.081,-9.8244,0.1848,-0.0523,-0.2853,0.198,3,19,0.78,0.81,0.42,24.664,11.28,93.5,33.3,20565.0,7169,7135,7471,7274,53.1,48.8,48.8,47.8,2.974,2.768,2.766,2.873,2.06,295.8,25.3,64.8,1008.89,-28.44,0.17,1.63,20.1,30.8,25.5,0,no_anomaly,0.0,0,0,0,0,22.5725836,88.3639449,5.0,0.0
2024-12-07T17:25:03.600Z,MISSION_0055,36,0,transit,SITE_KOL_006,22.5725876,88.3639462,5.5,83.58,0.214,0.168,5.33,2.932,-1.6657,83.5831,0.745,0.02876,0.00621,0.66641,0.0037,0.045,-9.7896,0.4923,0.0776,-0.0866,0.1539,3,10,0.69,1.07,0.22,24.691,18.23,93.4,33.7,20550.0,7187,7544,7288,7490,52.6,50.3,49.2,51.7,2.92,2.884,2.821,2.687,1.19,291.5,25.4,65.0,1008.9,-33.6,0.77,1.63,21.5,37.5,28.0,0,no_anomaly,0.0,0,0,0,0,22.5725876,88.3639462,5.5,0.0
2024-12-07T17:25:03.700Z,MISSION_0055,37,0,transit,SITE_KOL_006,22.5725855,88.3639462,6.0,83.99,0.25,0.025,5.39,0.8531,-0.1888,83.9856,0.7432,0.00664,0.00376,0.66903,-0.033,0.0008,-9.7898,-0.7519,0.7181,0.2134,0.1474,3,11,0.71,1.15,0.3,24.633,18.38,93.3,33.4,20535.0,7587,7565,7469,6979,51.8,50.3,50.7,49.6,2.987,2.702,2.921,3.052,2.01,281.3,25.5,64.8,1009.14,-27.8,1.83,1.28,23.8,36.5,28.0,0,no_anomaly,0.0,0,0,0,0,22.5725855,88.3639462,6.0,0.0
2024-12-07T17:25:03.800Z,MISSION_0055,38,0,transit,SITE_KOL_006,22.572585,88.3639456,6.5,83.48,0.319,0.072,5.34,-3.8745,0.0516,83.4814,0.74573,-0.02552,-0.02217,0.66539,0.0889,-0.0058,-9.8237,-0.7559,-0.3014,-0.1696,0.1954,3,17,0.72,0.66,0.23,24.564,15.91,93.3,33.8,20520.0,7582,7549,7341,7370,49.6,46.6,48.2,53.5,2.765,2.875,2.858,2.814,1.34,284.3,25.4,65.8,1009.14,-33.69,1.34,1.1,19.2,35.5,25.1,0,no_anomaly,0.0,0,0,0,0,22.572585,88.3639456,6.5,0.0
2024-12-07T17:25:03.900Z,MISSION_0055,39,0,transit,SITE_KOL_006,22.5725933,88.3639456,7.0,83.67,0.42,0.138,5.13,0.2193,-1.4904,83.6692,0.74499,0.0101,-0.00841,0.66694,-0.0935,-0.0143,-9.7838,0.0669,0.9018,0.0239,0.1988,3,19,0.58,0.6,0.23,24.676,17.84,93.2,33.0,20505.0,7583,7556,7592,7204,50.9,51.7,50.1,49.4,2.658,2.756,3.072,2.883,1.25,289.1,25.1,64.6,1009.24,-32.21,-0.35,1.3,19.1,33.9,29.5,0,no_anomaly,0.0,0,0,0,0,22.5725933,88.3639456,7.0,0.0
2024-12-07T17:25:04.000Z,MISSION_0055,40,0,transit,SITE_KOL_006,22.5725929,88.3639409,7.5,85.39,0.304,0.149,4.63,0.6665,-1.0199,85.3882,0.73491,0.01031,-0.0026,0.67808,0.0431,-0.0484,-9.7957,-0.2045,-0.3207,0.0935,0.1579,3,14,0.68,0.89,0.27,24.588,19.31,93.1,33.4,20490.0,7319,7212,7629,7554,50.0,50.3,49.2,49.3,2.812,2.913,2.679,2.773,2.03,284.8,25.4,65.3,1008.94,-29.38,-0.8,1.56,19.3,38.5,27.0,0,no_anomaly,0.0,0,0,0,0,22.5725929,88.3639409,7.5,0.0
2024-12-07T17:25:04.100Z,MISSION_0055,41,0,transit,SITE_KOL_006,22.5725937,88.3639421,8.0,83.92,0.0,0.163,4.74,1.5628,-2.3003,83.9191,0.74321,0.02356,-0.00581,0.66861,0.1065,-0.0325,-9.8364,-0.0313,-0.1977,0.0489,0.1146,3,11,0.7,0.94,0.28,24.627,21.93,93.1,33.5,20475.0,7424,7540,7599,7183,52.6,45.0,46.1,45.3,2.888,2.498,2.7,2.866,2.04,287.6,25.3,65.5,1009.12,-31.26,-0.16,1.21,20.2,36.0,24.4,0,no_anomaly,0.0,0,0,0,0,22.5725937,88.3639421,8.0,0.0
2024-12-07T17:25:04.200Z,MISSION_0055,42,0,transit,SITE_KOL_006,22.5725908,88.3639448,8.5,85.24,0.302,0.149,5.09,2.8545,-0.6729,85.2404,0.73552,0.0223,0.01255,0.67702,0.0388,-0.0155,-9.8105,0.2058,0.8735,-0.2217,0.1334,3,19,0.67,1.09,0.22,24.598,15.16,93.0,33.1,20460.0,7522,7423,7417,7132,49.5,48.1,51.6,48.8,2.86,2.742,2.635,2.617,1.45,294.9,25.5,65.1,1008.78,-29.35,0.12,1.34,22.6,31.3,26.6,0,no_anomaly,0.0,0,0,0,0,22.5725908,88.3639448,8.5,0.0
2024-12-07T17:25:04.300Z,MISSION_0055,43,0,transit,SITE_KOL_006,22.5725904,88.3639451,9.0,83.4,0.127,-0.023,5.13,0.8683,-1.0477,83.3965,0.74656,0.01174,-0.00179,0.66521,-0.0638,0.0604,-9.7118,-0.5302,0.5476,0.097,0.1397,3,14,0.59,0.94,0.27,24.649,21.64,92.9,32.8,20445.0,7240,7558,7255,7585,45.1,48.9,47.9,48.9,3.085,2.594,2.71,2.781,1.62,301.9,25.4,64.6,1008.91,-28.91,-1.42,1.56,19.5,40.1,27.0,0,no_anomaly,0.0,0,0,0,0,22.5725904,88.3639451,9.0,0.0
2024-12-07T17:25:04.400Z,MISSION_0055,44,0,transit,SITE_KOL_006,22.5725893,88.3639457,9.5,80.08,0.47,0.078,5.22,-2.7067,-0.4418,80.085,0.76541,-0.0156,-0.01815,0.6431,-0.0199,0.0498,-9.8487,-0.4062,-0.4373,0.5474,0.1754,3,10,0.64,0.8,0.34,24.616,20.13,92.9,33.1,20430.0,7478,7164,7232,7464,54.6,48.6,48.2,49.5,2.787,2.852,2.774,2.702,1.73,289.7,24.8,65.8,1009.13,-27.54,1.41,1.45,21.0,33.9,27.5,0,no_anomaly,0.0,0,0,0,0,22.5725893,88.3639457,9.5,0.0
2024-12-07T17:25:04.500Z,MISSION_0055,45,0,transit,SITE_KOL_006,22.5725886,88.3639488,10.0,81.85,0.692,0.092,5.58,-0.057,-0.5386,81.8467,0.75558,0.0027,-0.00388,0.65504,-0.0801,-0.0139,-9.8803,-0.0653,-0.0275,-0.1035,0.1995,3,15,0.65,1.27,0.24,24.572,16.31,92.8,33.6,20415.0,7216,7231,7602,7443,50.5,51.0,45.0,50.3,2.694,2.944,2.855,2.993,2.55,288.2,25.0,65.4,1008.76,-31.73,-0.94,1.93,23.5,40.2,26.4,0,no_anomaly,0.0,0,0,0,0,22.5725886,88.3639488,10.0,0.0
2024-12-07T17:25:04.600Z,MISSION_0055,46,0,transit,SITE_KOL_006,22.572582,88.3639509,10.5,82.48,0.728,0.078,6.0,1.6023,-1.2458,82.4752,0.75176,0.01768,0.00104,0.65919,-0.1103,0.0053,-9.8267,-1.1838,0.1686,-0.4781,0.1802,3,14,0.88,0.85,0.32,24.585,22.58,92.7,33.7,20400.0,7602,7252,7620,7245,47.9,47.5,53.2,54.0,2.301,2.992,3.037,2.778,1.67,293.4,25.5,65.3,1009.42,-30.05,0.1,1.7,22.3,36.2,29.3,0,no_anomaly,0.0,0,0,0,0,22.572582,88.3639509,10.5,0.0
2024-12-07T17:25:04.700Z,MISSION_0055,47,0,transit,SITE_KOL_006,22.5725804,88.3639526,11.0,84.58,0.792,0.12,6.25,-1.8663,-1.3627,84.5821,0.73972,-0.00405,-0.01975,0.67262,0.0686,0.0133,-9.7286,0.3952,0.9506,0.0055,0.081,3,12,0.77,0.87,0.34,24.584,21.61,92.7,32.7,20385.0,7520,7433,7430,7673,51.4,53.9,53.0,51.1,2.903,2.867,2.586,2.824,1.92,298.2,25.7,65.3,1008.69,-28.84,0.8,1.49,17.8,37.6,27.4,0,no_anomaly,0.0,0,0,0,0,22.5725804,88.3639526,11.0,0.0
2024-12-07T17:25:04.800Z,MISSION_0055,48,0,transit,SITE_KOL_006,22.5725762,88.3639535,11.5,81.32,1.055,0.114,6.52,2.2424,-0.5605,81.3157,0.7584,0.01803,0.00904,0.65148,-0.028,0.0146,-9.7522,0.1391,0.3414,-0.2876,0.1208,3,20,0.67,0.63,0.2,24.59,21.83,92.6,33.0,20370.0,7266,7595,7402,7454,45.7,52.4,49.5,49.0,2.546,2.514,2.658,2.863,1.0,293.3,25.8,64.5,1009.21,-29.79,-0.95,1.56,21.8,37.9,27.3,0,no_anomaly,0.0,0,0,0,0,22.5725762,88.3639535,11.5,0.0
2024-12-07T17:25:04.900Z,MISSION_0055,49,0,transit,SITE_KOL_006,22.5725772,88.3639587,12.0,83.39,1.095,0.033,7.01,2.6057,-1.2418,83.3853,0.74632,0.02418,0.00703,0.66511,0.009,0.0152,-9.6762,0.1696,0.7712,0.0593,0.1885,3,16,0.7,1.22,0.29,24.58,15.72,92.5,33.2,20355.0,7438,7481,7484,7365,51.4,50.8,52.7,52.3,3.026,2.749,3.035,2.81,2.16,282.4,25.4,65.2,1009.08,-30.18,1.12,1.0,20.3,34.3,27.9,0,no_anomaly,0.0,0,0,0,0,22.5725772,88.3639587,12.0,0.0
2024-12-07T17:25:05.000Z,MISSION_0055,50,0,transit,SITE_KOL_006,22.572577,88.3639605,12.5,82.51,0.971,0.084,7.2,-0.6222,-4.1533,82.5067,0.75143,0.01981,-0.03082,0.6588,-0.1742,0.0722,-9.7995,-0.6057,-0.0475,0.1787,0.1593,3,18,0.87,1.15,0.35,24.579,18.28,92.5,32.7,20340.0,7479,7295,7503,7487,48.7,45.6,51.9,50.9,2.928,2.768,2.958,2.797,1.83,294.9,25.4,65.4,1009.39,-34.43,-0.24,1.01,17.6,33.9,26.9,0,no_anomaly,0.0,0,0,0,0,22.572577,88.3639605,12.5,0.0
2024-12-07T17:25:05.100Z,MISSION_0055,51,0,transit,SITE_KOL_006,22.5725732,88.3639637,13.0,83.18,0.994,0.135,7.69,-2.9741,-0.9016,83.1766,0.74779,-0.01419,-0.02311,0.66338,-0.0168,-0.0126,-9.7435,-0.316,-0.2982,0.1196,0.1127,3,13,0.67,0.88,0.2,24.544,19.11,92.4,33.5,20325.0,7504,7413,7484,7315,46.2,51.6,48.5,52.8,2.9,2.801,2.963,2.882,1.81,291.6,25.5,65.3,1009.32,-29.71,-0.8,1.53,24.9,33.4,29.4,0,no_anomaly,0.0,0,0,0,0,22.5725732,88.3639637,13.0,0.0
2024-12-07T17:25:05.200Z,MISSION_0055,52,0,transit,SITE_KOL_006,22.5725708,88.3639595,13.5,81.45,1.104,0.161,7.37,0.7685,-1.7061,81.4477,0.7577,0.01479,-0.00691,0.6524,-0.0121,-0.0543,-9.8066,-0.3875,0.1055,-0.5807,0.094,3,20,0.74,1.05,0.35,24.661,16.02,92.3,32.3,20310.0,7123,7522,7730,7517,50.4,53.2,53.9,50.9,2.764,2.946,2.739,3.149,2.12,290.6,25.9,64.5,1008.9,-29.03,0.18,1.26,20.9,37.8,29.9,0,no_anomaly,0.0,0,0,0,0,22.5725708,88.3639595,13.5,0.0
2024-12-07T17:25:05.300Z,MISSION_0055,53,0,transit,SITE_KOL_006,22.5725706,88.3639603,14.0,82.14,1.337,0.104,7.47,1.6162,-0.7894,82.145,0.75372,0.01516,0.00407,0.65701,0.0755,0.0709,-9.8486,0.5041,0.566,0.2035,0.1427,3,11,0.72,0.84,0.26,24.621,14.96,92.2,33.5,20295.0,7481,7567,7145,7614,47.4,46.7,47.2,46.4,2.7,2.852,2.844,2.85,1.45,292.9,25.4,64.6,1009.35,-30.49,1.1,1.0,19.0,37.8,31.5,0,no_anomaly,0.0,0,0,0,0,22.5725706,88.3639603,14.0,0.0
2024-12-07T17:25:05.400Z,MISSION_0055,54,0,transit,SITE_KOL_006,22.5725683,88.3639564,14.5,82.25,1.067,0.062,7.21,-1.3249,-1.6957,82.247,0.75327,0.00102,-0.01875,0.65744,0.1277,0.0446,-9.9191,0.2229,0.078,0.5717,0.1283,3,20,0.78,0.91,0.37,24.556,19.71,92.2,33.2,20280.0,7606,7616,7271,7359,49.3,52.0,47.2,52.1,2.635,2.864,2.971,2.91,1.19,295.0,25.3,65.4,1008.98,-31.83,-1.01,1.75,19.8,34.1,29.3,0,no_anomaly,0.0,0,0,0,0,22.5725683,88.3639564,14.5,0.0
2024-12-07T17:25:05.500Z,MISSION_0055,55,0,transit,SITE_KOL_006,22.5725691,88.3639574,15.0,79.85,0.874,0.083,7.25,-0.8246,-2.4303,79.85,0.76679,0.00809,-0.02088,0.64151,-0.0457,0.0518,-9.7641,0.5052,0.1107,-0.1218,0.147,3,19,0.75,0.96,0.22,24.599,14.39,92.1,33.0,20265.0,7388,7561,7473,7469,49.2,50.0,52.1,52.2,2.842,2.793,2.717,2.671,1.55,300.5,25.1,64.2,1008.91,-34.37,-0.75,1.95,21.9,38.8,29.6,0,no_anomaly,0.0,0,0,0,0,22.5725691,88.3639574,15.0,0.0
2024-12-07T17:25:05.600Z,MISSION_0055,56,0,transit,SITE_KOL_006,22.5725719,88.363958,15.5,77.21,0.933,0.167,7.17,3.7974,0.2411,77.208,0.78109,0.02458,0.02232,0.62354,0.0888,-0.0013,-9.8025,-0.0327,-0.6735,0.1021,0.2374,3,11,0.8,1.22,0.31,24.521,11.79,92.0,33.3,20250.0,7330,7794,7621,7433,46.3,50.6,49.4,53.1,2.957,2.616,2.766,2.501,2.31,295.9,25.5,64.7,1008.75,-36.21,-0.55,1.36,17.6,31.5,26.5,0,no_anomaly,0.0,0,0,0,0,22.5725719,88.363958,15.5,0.0
2024-12-07T17:25:05.700Z,MISSION_0055,57,0,transit,SITE_KOL_006,22.5725667,88.3639608,16.0,77.59,1.63,0.073,7.71,1.3557,-2.5365,77.5903,0.77898,0.02308,-0.00984,0.62654,-0.0676,0.052,-9.8858,-0.3583,-0.017,0.4776,0.1984,3,17,0.56,1.0,0.24,24.55,23.78,92.0,34.1,20235.0,7667,7384,7407,7541,53.1,52.4,54.7,54.9,2.741,2.651,2.797,2.72,2.26,281.6,25.4,65.6,1009.37,-32.51,1.02,1.4,22.5,39.9,27.0,0,no_anomaly,0.0,0,0,0,0,22.5725667,88.3639608,16.0,0.0
2024-12-07T17:25:05.800Z,MISSION_0055,58,0,transit,SITE_KOL_006,22.572568,88.3639586,16.5,78.76,2.123,0.064,7.44,-1.8764,-1.374,78.7595,0.77292,-0.00505,-0.01965,0.63418,0.0745,-0.1028,-9.7971,-0.1227,-0.4347,-0.1088,0.1426,3,11,0.74,0.71,0.29,24.588,23.44,91.9,33.7,20220.0,7507,7597,7547,7330,49.7,52.0,47.1,49.2,2.732,2.966,2.776,2.671,2.09,285.8,25.5,63.9,1008.84,-34.26,0.53,1.9,19.8,35.7,26.8,0,no_anomaly,0.0,0,0,0,0,22.572568,88.3639586,16.5,0.0
2024-12-07T17:25:05.900Z,MISSION_0055,59,0,transit,SITE_KOL_006,22.5725695,88.3639641,17.0,79.26,2.609,0.11,7.9,-0.5653,-0.5556,79.2642,0.77015,-0.00071,-0.00688,0.63782,-0.1299,-0.039,-9.8461,-0.5084,0.6085,0.0415,0.0861,3,20,0.73,0.91,0.37,24.499,16.18,91.8,33.3,20204.0,7450,7401,7536,7456,51.2,52.4,51.5,49.8,2.846,2.914,2.797,2.977,2.31,288.0,25.3,65.9,1008.96,-38.43,-0.18,1.07,20.1,36.4,27.7,0,no_anomaly,0.0,0,0,0,0,22.5725695,88.3639641,17.0,0.0
2024-12-07T17:25:06.000Z,MISSION_0055,60,0,transit,SITE_KOL_006,22.5725667,88.3639644,17.5,76.18,2.578,0.113,8.07,0.0931,-0.8486,76.1795,0.78702,0.00521,-0.00533,0.61688,0.1795,0.0077,-9.7644,0.674,-0.0227,-0.4669,0.1024,3,11,0.53,0.99,0.29,24.508,16.44,91.8,33.8,20189.0,7665,7659,7644,7367,49.3,52.4,49.2,50.7,2.803,2.713,2.592,2.918,1.27,298.1,25.1,64.7,1009.13,-30.09,-0.04,1.3,21.3,39.9,25.8,0,no_anomaly,0.0,0,0,0,0,22.5725667,88.3639644,17.5,0.0
2024-12-07T17:25:06.100Z,MISSION_0055,61,0,transit,SITE_KOL_006,22.572574,88.3639625,18.0,75.0,2.155,0.135,7.54,2.5225,-1.6325,75.0034,0.79287,0.02613,0.0021,0.60882,0.1032,-0.0224,-9.7569,0.6263,-0.2211,-0.4029,0.1789,3,10,0.69,0.87,0.31,24.672,17.55,91.7,32.8,20174.0,7524,7771,7452,7424,50.9,52.5,49.9,49.9,2.571,3.063,2.921,2.921,1.18,292.9,25.4,64.5,1009.03,-33.51,-1.38,1.32,22.6,37.8,30.0,0,no_anomaly,0.0,0,0,0,0,22.572574,88.3639625,18.0,0.0
2024-12-07T17:25:06.200Z,MISSION_0055,62,0,transit,SITE_KOL_006,22.5725726,88.3639608,18.5,74.81,2.007,0.072,7.42,-0.7246,-0.7773,74.8098,0.79435,-0.0009,-0.00923,0.60738,-0.0148,-0.0579,-9.7663,-0.659,0.3052,-0.1168,0.1216,3,16,0.54,0.96,0.2,24.569,16.49,91.6,33.7,20159.0,7308,7609,7272,7202,50.7,53.1,51.9,53.6,2.745,3.044,2.747,2.975,1.36,285.7,25.5,65.0,1009.02,-25.16,-0.7,1.93,19.5,34.1,29.4,0,no_anomaly,0.0,0,0,0,0,22.5725726,88.3639608,18.5,0.0
2024-12-07T17:25:06.300Z,MISSION_0055,63,0,transit,SITE_KOL_006,22.5725727,88.3639625,19.0,75.81,1.727,0.091,7.6,-0.7064,-1.7301,75.8089,0.78899,0.00441,-0.0157,0.61419,-0.1331,-0.0852,-9.7903,-0.0355,0.0155,0.0047,0.1346,3,17,0.72,1.04,0.2,24.564,22.21,91.6,33.2,20144.0,7763,7487,7548,7430,47.1,50.1,51.4,49.0,2.865,2.802,2.864,2.901,1.83,293.8,25.3,64.2,1009.04,-35.69,0.62,1.45,19.6,30.7,23.7,0,no_anomaly,0.0,0,0,0,0,22.5725727,88.3639625,19.0,0.0
2024-12-07T17:25:06.400Z,MISSION_0055,64,0,transit,SITE_KOL_006,22.5725714,88.3639617,19.2,75.63,1.781,0.151,7.57,1.4806,-4.7435,75.6263,0.78894,0.03557,-0.02478,0.61293,0.0511,0.029,-9.8145,0.2856,1.0773,0.1575,0.1748,3,12,0.71,0.78,0.34,24.462,18.87,91.5,34.4,20129.0,7597,7655,7281,7664,50.4,49.0,56.0,56.1,2.794,2.538,2.731,2.877,1.0,289.2,25.1,65.5,1009.1,-30.99,-1.63,1.66,17.7,33.1,29.3,0,no_anomaly,0.0,0,0,0,0,22.5725714,88.3639617,19.2,0.0
2024-12-07T17:25:06.500Z,MISSION_0055,65,0,transit,SITE_KOL_006,22.5725656,88.3639586,19.2,76.92,1.761,0.073,7.56,0.026,-1.5177,76.9184,0.78298,0.00841,-0.01023,0.6219,0.0187,-0.1093,-9.8027,0.3646,0.1447,-0.0389,0.198,3,15,0.67,0.92,0.3,24.59,12.49,91.4,33.4,20114.0,7488,7334,7600,7254,52.4,51.5,49.7,54.0,2.923,2.634,2.845,2.845,1.05,288.2,25.1,64.5,1008.91,-35.76,-0.51,1.21,23.4,40.0,27.2,0,no_anomaly,0.0,0,0,0,0,22.5725656,88.3639586,19.2,0.0
2024-12-07T17:25:06.600Z,MISSION_0055,66,0,transit,SITE_KOL_006,22.5725694,88.363959,19.2,74.44,1.743,0.26,7.4,1.4318,-0.6188,74.439,0.79621,0.01322,0.00326,0.60487,-0.0859,0.0627,-9.7708,0.0745,-0.0542,0.4041,0.0,3,14,0.69,1.07,0.33,24.57,14.27,91.4,32.9,20099.0,7782,7403,7432,7407,49.2,50.9,47.4,52.5,3.019,2.79,2.735,2.729,1.58,295.7,25.4,65.5,1009.34,-37.35,2.06,1.82,19.3,33.8,28.6,0,no_anomaly,0.0,0,0,0,0,22.5725694,88.363959,19.2,0.0
2024-12-07T17:25:06.700Z,MISSION_0055,67,0,transit,SITE_KOL_006,22.5725678,88.3639599,19.2,75.46,1.82,0.091,7.57,-1.7529,0.9671,75.4566,0.79072,-0.01726,-0.00269,0.61193,-0.047,0.0122,-9.8229,-0.2362,-0.0389,0.0804,0.127,3,15,0.74,1.0,0.3,24.598,18.32,91.3,34.1,20084.0,7296,7437,7485,7394,50.9,50.8,49.5,50.0,2.623,2.93,2.771,2.788,1.47,289.0,25.7,65.0,1008.85,-30.05,0.61,1.79,17.2,29.3,27.6,0,no_anomaly,0.0,0,0,0,0,22.5725678,88.3639599,19.2,0.0
2024-12-07T17:25:06.800Z,MISSION_0055,68,0,transit,SITE_KOL_006,22.5725655,88.363955,19.2,77.64,2.385,0.131,7.23,0.8609,-1.6276,77.6376,0.77896,0.01476,-0.00636,0.62686,-0.0075,-0.0226,-9.7318,0.522,-0.3798,-0.2739,0.1755,3,11,0.62,0.97,0.2,24.592,18.97,91.2,33.8,20069.0,7611,7628,7372,7602,52.9,50.9,53.4,48.9,2.755,2.992,2.794,2.907,2.23,297.1,25.9,65.1,1008.91,-31.89,-1.05,1.39,19.3,31.1,27.6,0,no_anomaly,0.0,0,0,0,0,22.5725655,88.363955,19.2,0.0
2024-12-07T17:25:06.900Z,MISSION_0055,69,0,transit,SITE_KOL_006,22.572563,88.3639525,19.2,79.06,2.182,0.208,7.15,-0.0188,-4.1783,79.0574,0.7708,0.02308,-0.02822,0.63604,-0.0424,-0.0658,-9.7417,-0.2955,-0.0269,-0.4091,0.1118,3,18,0.77,0.73,0.39,24.564,18.67,91.2,33.8,20054.0,7644,7576,7485,7541,51.7,51.6,50.9,48.7,2.773,2.712,3.033,2.974,1.71,283.3,25.6,65.2,1008.87,-32.26,-0.22,1.59,19.9,37.3,26.5,0,no_anomaly,0.0,0,0,0,0,22.572563,88.3639525,19.2,0.0
2024-12-07T17:25:07.000Z,MISSION_0055,70,0,transit,SITE_KOL_006,22.5725569,88.3639589,19.2,81.28,2.777,0.186,8.13,-0.2567,-1.9129,81.2772,0.75875,0.00917,-0.01413,0.65117,0.0399,0.0391,-9.7876,-0.8106,0.3887,-0.0268,0.1709,3,17,0.63,1.04,0.23,24.579,24.25,91.1,33.7,20039.0,7605,7312,7494,7420,50.4,51.2,50.4,51.8,2.966,2.699,2.922,2.985,0.02,301.4,25.6,65.2,1009.21,-30.4,-2.48,1.75,23.6,33.8,29.3,0,no_anomaly,0.0,0,0,0,0,22.5725569,88.3639589,19.2,0.0
2024-12-07T17:25:07.100Z,MISSION_0055,71,0,transit,SITE_KOL_006,22.5725591,88.3639642,19.2,80.9,2.51,0.064,8.48,0.6224,-1.8148,80.9028,0.76079,0.01441,-0.00853,0.64878,0.1618,-0.0782,-9.7846,-0.6125,-0.5352,-0.0544,0.0622,3,17,0.67,0.81,0.34,24.595,21.23,91.0,33.1,20024.0,7275,7258,7517,7629,49.0,48.1,47.4,49.0,2.892,2.711,2.823,2.997,1.37,294.2,25.4,65.7,1009.18,-28.59,0.32,1.15,21.7,32.6,29.1,0,no_anomaly,0.0,0,0,0,0,22.5725591,88.3639642,19.2,0.0
2024-12-07T17:25:07.200Z,MISSION_0055,72,1,transit,SITE_KOL_006,22.5725629,88.3639591,19.2,82.73,2.535,0.184,7.77,1.0619,-2.4256,82.7332,0.75017,0.02094,-0.00976,0.66085,0.1256,0.0466,-9.8309,0.826,0.0257,0.0617,0.1793,3,17,0.75,1.03,0.22,24.499,17.35,90.9,33.5,20009.0,7149,7444,7543,7582,52.9,52.1,51.1,49.6,2.884,2.773,2.809,2.731,1.67,302.6,25.6,65.6,1008.74,-34.15,-0.09,1.88,20.5,36.4,28.1,0,no_anomaly,0.0,0,0,0,0,22.5725629,88.3639591,19.2,0.0
2024-12-07T17:25:07.300Z,MISSION_0055,73,1,transit,SITE_KOL_006,22.5725629,88.3639584,19.2,83.69,2.495,0.135,7.7,0.0704,-1.5502,83.6906,0.74487,0.00948,-0.00967,0.66707,0.0656,0.0282,-9.8862,-0.4479,-0.1334,0.6364,0.2106,3,16,0.67,0.76,0.25,24.58,18.92,90.9,34.4,19994.0,7520,7552,7416,7303,48.0,50.2,51.5,48.9,2.895,3.034,2.695,3.013,1.82,288.2,25.5,65.2,1009.17,-30.01,0.56,1.2,23.9,38.0,31.0,0,no_anomaly,0.0,0,0,0,0,22.5725629,88.3639584,19.2,0.0
2024-12-07T17:25:07.400Z,MISSION_0055,74,1,transit,SITE_KOL_006,22.5725656,88.3639604,19.2,86.06,2.558,0.132,7.73,1.6419,-2.3047,86.0602,0.73058,0.02419,-0.00492,0.68239,0.061,0.043,-9.6804,0.1823,-0.3656,0.3136,0.1191,3,10,0.74,1.02,0.24,24.562,15.83,90.8,33.7,19979.0,7460,7452,7591,7414,48.4,49.7,52.3,54.1,2.891,2.921,2.755,2.835,1.81,289.7,25.6,65.4,1008.79,-27.22,-0.63,2.23,21.2,35.0,26.1,0,no_anomaly,0.0,0,0,0,0,22.5725656,88.3639604,19.2,0.0
2024-12-07T17:25:07.500Z,MISSION_0055,75,1,transit,SITE_KOL_006,22.5725645,88.3639591,19.2,87.04,2.689,0.132,7.67,2.4906,-1.7151,87.0401,0.72466,0.02606,0.00411,0.6886,-0.0444,0.0054,-9.8275,0.0493,0.5465,-0.4475,0.1117,3,16,0.63,0.98,0.28,24.657,20.14,90.7,33.6,19964.0,7382,7675,7634,7452,53.5,51.1,51.0,47.1,2.906,2.62,2.791,2.992,2.27,294.7,25.6,64.8,1008.94,-27.25,0.9,1.3,23.0,32.7,29.1,0,no_anomaly,0.0,0,0,0,0,22.5725645,88.3639591,19.2,0.0
2024-12-07T17:25:07.600Z,MISSION_0055,76,1,transit,SITE_KOL_006,22.5725719,88.3639554,19.2,86.58,2.519,0.075,6.92,-0.2497,-3.6901,86.5849,0.72753,0.02049,-0.02493,0.68531,-0.0169,0.0125,-9.757,0.4226,0.5403,-0.2031,0.1064,3,20,0.58,0.89,0.2,24.601,20.38,90.7,33.9,19949.0,7682,7591,7561,7517,46.9,54.2,46.5,50.8,2.916,2.745,3.014,2.779,1.37,291.1,25.8,65.6,1009.2,-30.54,0.35,1.02,18.7,33.6,26.6,0,no_anomaly,0.0,0,0,0,0,22.5725719,88.3639554,19.2,0.0
2024-12-07T17:25:07.700Z,MISSION_0055,77,1,transit,SITE_KOL_006,22.5725778,88.3639522,19.2,85.61,2.271,0.025,6.32,2.6635,-4.3961,85.6108,0.73232,0.04309,-0.01235,0.67948,-0.1469,0.1472,-9.8614,0.3762,0.3116,0.2565,0.1356,3,19,0.62,1.06,0.2,24.501,20.61,90.6,33.3,19934.0,7515,7567,7303,7291,51.7,48.4,50.5,49.6,2.798,2.919,2.777,2.576,2.12,289.4,25.9,65.8,1009.04,-27.87,0.21,1.01,17.3,35.1,28.7,0,no_anomaly,0.0,0,0,0,0,22.5725778,88.3639522,19.2,0.0
2024-12-07T17:25:07.800Z,MISSION_0055,78,1,transit,SITE_KOL_006,22.5725727,88.3639545,19.2,87.19,2.387,0.121,6.79,-2.2561,1.5939,87.1852,0.72386,-0.02385,-0.0035,0.68952,0.0853,-0.079,-9.8522,-0.8018,0.2571,-0.2369,0.1087,3,14,0.74,0.87,0.26,24.567,16.4,90.5,34.2,19919.0,7704,7559,7321,7695,47.5,50.4,54.3,54.3,2.811,2.73,2.498,3.03,2.29,293.1,25.3,65.4,1008.97,-31.59,-1.39,1.54,18.9,39.1,27.4,0,no_anomaly,0.0,0,0,0,0,22.5725727,88.3639545,19.2,0.0
2024-12-07T17:25:07.900Z,MISSION_0055,79,1,transit,SITE_KOL_006,22.5725734,88.3639527,19.2,86.31,1.994,-0.025,6.58,1.7842,0.1994,86.3095,0.72944,0.01017,0.01192,0.68387,0.0521,-0.0407,-9.7652,0.4888,0.8122,-0.4455,0.0406,3,20,0.6,1.12,0.25,24.557,20.23,90.5,34.7,19904.0,7488,7599,7480,7421,51.5,51.7,49.8,47.6,2.627,3.102,2.593,2.765,0.96,301.0,25.3,64.9,1008.97,-35.77,-0.43,1.33,20.0,32.9,27.4,0,no_anomaly,0.0,0,0,0,0,22.5725734,88.3639527,19.2,0.0
2024-12-07T17:25:08.000Z,MISSION_0055,80,1,transit,SITE_KOL_006,22.5725762,88.36395,19.2,86.74,2.364,0.093,6.16,-3.2919,-1.0546,86.7368,0.7268,-0.01456,-0.02641,0.68618,-0.0427,0.0005,-9.8483,0.5692,0.5773,-0.4375,0.1478,3,12,0.81,0.81,0.46,24.52,19.07,90.4,34.0,19889.0,7298,7822,7517,7793,55.0,50.5,47.5,45.7,3.005,2.618,3.039,2.596,1.44,290.4,25.1,65.2,1008.8,-36.1,-1.17,1.93,20.9,38.6,30.5,0,no_anomaly,0.0,0,0,0,0,22.5725762,88.36395,19.2,0.0
2024-12-07T17:25:08.100Z,MISSION_0055,81,1,transit,SITE_KOL_006,22.5725774,88.3639476,19.2,87.73,2.149,0.088,5.87,0.11,-2.6587,87.7323,0.72075,0.01677,-0.01606,0.69281,0.1419,-0.0069,-9.6607,0.7186,0.095,0.0806,0.0983,3,15,0.61,0.96,0.26,24.616,22.78,90.3,33.7,19874.0,7143,7722,7215,7413,52.3,52.9,51.4,49.8,2.741,2.609,2.501,2.719,0.67,287.5,25.4,64.2,1008.95,-30.91,1.29,2.09,23.4,32.8,29.0,0,no_anomaly,0.0,0,0,0,0,22.5725774,88.3639476,19.2,0.0
2024-12-07T17:25:08.200Z,MISSION_0055,82,1,transit,SITE_KOL_006,22.5725728,88.3639428,19.2,88.39,2.162,0.104,5.65,-2.7864,-4.0761,88.3856,0.71694,0.00736,-0.04243,0.69581,-0.0849,0.0751,-9.7741,-0.3048,-0.1124,0.2086,0.1562,3,18,0.62,0.92,0.28,24.583,17.83,90.3,33.9,19859.0,7523,7659,7376,7355,49.7,58.9,52.8,50.0,2.667,3.076,2.504,2.921,2.33,288.1,25.3,64.8,1009.14,-31.41,0.32,1.53,20.3,36.5,28.6,0,no_anomaly,0.0,0,0,0,0,22.5725728,88.3639428,19.2,0.0
2024-12-07T17:25:08.300Z,MISSION_0055,83,1,transit,SITE_KOL_006,22.5725737,88.3639365,19.2,86.01,2.185,0.118,5.01,1.847,-0.9252,86.0121,0.73107,0.01729,0.00509,0.68206,-0.1233,0.0069,-9.7857,-0.0104,-0.4445,0.2211,0.0812,3,17,0.68,1.1,0.21,24.492,18.24,90.2,34.5,19843.0,7338,7618,7544,7482,47.0,50.4,49.9,52.5,2.597,2.831,2.716,2.858,2.17,283.1,25.2,65.2,1008.72,-29.12,0.4,1.46,16.9,31.1,26.7,0,no_anomaly,0.0,0,0,0,0,22.5725737,88.3639365,19.2,0.0
2024-12-07T17:25:08.400Z,MISSION_0055,84,1,transit,SITE_KOL_006,22.5725735,88.3639355,19.2,84.92,1.71,0.181,4.93,-0.5753,-4.6771,84.9169,0.73728,0.02384,-0.03349,0.67433,-0.002,0.0581,-9.8608,0.6045,-0.0076,-0.3542,0.1993,3,19,0.73,0.92,0.35,24.476,16.96,90.1,34.2,19828.0,7545,7624,7520,7712,50.4,49.2,52.9,52.0,2.914,2.791,2.918,2.79,1.68,301.2,25.9,65.3,1008.97,-32.11,-1.79,1.35,20.7,37.7,27.6,0,no_anomaly,0.0,0,0,0,0,22.5725735,88.3639355,19.2,0.0
2024-12-07T17:25:08.500Z,MISSION_0055,85,1,transit,SITE_KOL_006,22.5725683,88.3639375,19.2,85.45,1.716,0.075,5.46,-0.9795,-1.5196,85.4533,0.73458,0.00272,-0.01554,0.67833,0.0701,0.0494,-9.8292,-0.3596,-0.2327,0.6157,0.1252,3,14,0.93,1.15,0.23,24.665,16.03,90.1,33.7,19813.0,7572,7459,7449,7569,51.7,48.8,50.2,49.1,2.677,2.453,2.723,3.121,2.29,290.1,25.1,64.6,1008.72,-29.95,0.41,1.52,22.2,34.9,29.0,0,no_anomaly,0.0,0,0,0,0,22.5725683,88.3639375,19.2,0.0
2024-12-07T17:25:08.600Z,MISSION_0055,86,1,transit,SITE_KOL_006,22.5725722,88.3639369,19.2,85.66,1.276,0.173,5.14,-0.2601,-2.1361,85.6621,0.73326,0.01101,-0.01521,0.67969,-0.2054,-0.0059,-9.8431,-0.2227,1.417,0.1595,0.1518,3,13,0.76,0.74,0.2,24.528,22.45,90.0,33.8,19798.0,7388,7726,7673,7393,54.1,50.2,52.4,51.9,2.85,3.076,2.973,2.873,1.95,294.3,25.5,65.8,1008.97,-27.34,0.86,1.93,21.9,31.1,25.0,0,no_anomaly,0.0,0,0,0,0,22.5725722,88.3639369,19.2,0.0
2024-12-07T17:25:08.700Z,MISSION_0055,87,1,orbit_base,SITE_KOL_006,22.572531,88.3639406,19.5,86.28,0.878,0.026,8.91,0.3666,-1.5707,86.283,0.72957,0.01171,-0.00781,0.68377,0.0475,-0.0194,-9.7479,-1.1013,0.3633,0.8175,0.1122,3,12,0.62,0.95,0.27,24.545,16.59,89.9,33.6,19783.0,7389,7530,7664,7297,50.0,50.4,48.3,49.6,2.836,2.78,3.04,2.598,0.56,302.8,25.5,64.9,1009.07,-34.74,-1.04,1.55,23.8,34.9,28.7,0,no_anomaly,0.0,0,0,0,0,22.572531,88.3639406,19.5,0.0
2024-12-07T17:25:08.800Z,MISSION_0055,88,1,orbit_base,SITE_KOL_006,22.5725299,88.3639385,19.8,87.59,0.967,0.053,8.91,-0.6578,1.6727,87.59,0.72167,-0.01425,0.00656,0.69206,0.0395,0.0364,-9.8738,-0.2674,0.5132,0.2838,0.2394,3,12,0.75,0.79,0.32,24.562,21.73,89.9,33.2,19768.0,7580,7633,7551,7559,53.0,53.1,52.2,52.8,2.621,2.78,2.94,2.873,2.26,293.6,25.4,64.4,1009.06,-33.11,0.18,1.65,21.7,37.1,28.3,0,no_anomaly,0.0,0,0,0,0,22.5725299,88.3639385,19.8,0.0
2024-12-07T17:25:08.900Z,MISSION_0055,89,1,orbit_base,SITE_KOL_006,22.5725287,88.3639363,20.1,85.78,1.405,0.179,8.91,-1.807,-4.9608,85.7784,0.73236,0.01791,-0.04243,0.67936,-0.0031,-0.0071,-9.9011,-0.7251,-0.4963,0.1951,0.1585,3,18,0.57,1.09,0.22,24.604,18.05,89.8,33.2,19753.0,7684,7731,7421,7574,47.6,51.0,49.3,52.7,3.049,2.866,2.657,2.538,1.37,288.7,25.6,65.1,1008.8,-34.54,-1.31,1.62,19.9,31.7,27.7,0,no_anomaly,0.0,0,0,0,0,22.5725287,88.3639363,20.1,0.0
2024-12-07T17:25:09.000Z,MISSION_0055,90,1,orbit_base,SITE_KOL_006,22.5725277,88.3639342,20.4,84.62,1.203,0.067,8.91,-2.9526,0.0346,84.621,0.73926,-0.01926,-0.01712,0.67293,-0.0043,0.008,-9.8411,-0.7633,0.0585,-0.066,0.1987,3,13,0.7,0.83,0.32,24.408,14.68,89.7,34.2,19738.0,7763,7590,7490,7823,51.8,49.8,49.9,51.9,2.767,2.872,2.718,2.748,1.62,293.4,25.2,65.5,1008.88,-27.67,0.7,1.81,23.2,38.7,30.5,0,no_anomaly,0.0,0,0,0,0,22.5725277,88.3639342,20.4,0.0
2024-12-07T17:25:09.100Z,MISSION_0055,91,1,orbit_base,SITE_KOL_006,22.5725267,88.363932,20.7,82.37,1.279,0.092,8.91,3.5735,-2.6717,82.3652,0.75157,0.0388,0.00299,0.65851,-0.1101,0.002,-9.7819,0.2969,-0.4386,-0.1444,0.1648,3,16,0.84,1.27,0.27,24.477,18.95,89.7,34.3,19723.0,7347,7286,7270,7547,49.9,51.1,47.0,50.4,2.77,2.797,2.81,2.68,0.99,287.5,25.3,65.4,1008.87,-27.8,0.9,1.53,18.0,37.2,28.1,0,no_anomaly,0.0,0,0,0,0,22.5725267,88.363932,20.7,0.0
2024-12-07T17:25:09.200Z,MISSION_0055,92,1,orbit_base,SITE_KOL_006,22.5725258,88.3639298,21.0,79.27,1.167,0.07,8.91,-2.0786,-2.0796,79.2684,0.77009,-0.00239,-0.02554,0.63742,-0.0237,0.0095,-9.8088,0.0506,-0.0415,-0.0859,0.1522,3,14,0.61,0.94,0.2,24.486,22.94,89.6,33.4,19708.0,7569,7463,7593,7371,50.9,52.5,55.9,53.4,3.035,2.957,3.027,2.687,1.33,299.2,25.5,65.4,1008.83,-26.73,0.72,1.8,20.3,32.7,25.8,0,no_anomaly,0.0,0,0,0,0,22.5725258,88.3639298,21.0,0.0
2024-12-07T17:25:09.300Z,MISSION_0055,93,1,orbit_base,SITE_KOL_006,22.5725249,88.3639276,21.3,80.0,1.116,0.135,8.91,-1.4508,-3.377,80.0017,0.76588,0.00925,-0.0307,0.64218,-0.0868,0.0962,-9.7853,0.2198,0.0779,-0.1949,0.1305,3,10,0.87,0.6,0.47,24.56,20.9,89.5,33.4,19693.0,7635,7448,7290,7626,49.3,51.6,49.9,48.9,3.038,2.987,2.453,2.802,1.99,296.0,25.3,65.2,1008.58,-31.44,0.12,1.54,19.0,37.8,30.2,0,no_anomaly,0.0,0,0,0,0,22.5725249,88.3639276,21.3,0.0
2024-12-07T17:25:09.400Z,MISSION_0055,94,1,orbit_base,SITE_KOL_006,22.5725241,88.3639253,21.6,79.64,1.716,0.111,8.91,-1.0405,-0.9209,79.635,0.76808,-0.00183,-0.01199,0.64024,-0.0197,0.0078,-9.7172,-0.6532,0.0326,0.1222,0.1631,3,14,0.58,0.86,0.25,24.569,11.3,89.4,33.2,19678.0,7519,7519,7591,7649,52.4,48.3,52.4,51.9,2.947,2.83,3.036,2.407,1.74,278.9,26.0,64.6,1008.86,-31.58,0.42,1.38,19.7,37.5,29.7,0,no_anomaly,0.0,0,0,0,0,22.5725241,88.3639253,21.6,0.0
2024-12-07T17:25:09.500Z,MISSION_0055,95,1,orbit_base,SITE_KOL_006,22.5725234,88.363923,21.9,77.29,1.56,0.12,8.91,1.9906,-1.4631,77.2933,0.78069,0.02154,0.00088,0.62454,0.0702,-0.0736,-9.8525,0.2927,-0.2788,0.1158,0.1662,3,16,0.74,0.89,0.35,24.573,18.62,89.4,33.5,19663.0,7405,7659,7307,7459,55.4,49.1,52.5,50.9,2.743,2.945,2.733,3.062,1.67,300.3,25.5,64.4,1008.93,-31.78,0.13,1.46,19.3,32.3,25.5,0,no_anomaly,0.0,0,0,0,0,22.5725234,88.363923,21.9,0.0
2024-12-07T17:25:09.600Z,MISSION_0055,96,1,orbit_base,SITE_KOL_006,22.5725227,88.3639207,22.2,78.34,1.439,0.086,8.91,-3.866,-0.4907,78.338,0.77493,-0.02345,-0.02462,0.63113,0.0004,-0.0099,-9.8308,-0.366,0.4909,0.3478,0.1057,3,11,0.65,0.89,0.28,24.538,18.24,89.3,33.5,19648.0,7614,7498,7592,7660,50.0,48.7,53.0,52.1,2.796,3.029,2.839,2.809,1.24,291.9,25.6,64.5,1009.33,-24.99,1.08,1.19,21.0,37.7,28.3,0,no_anomaly,0.0,0,0,0,0,22.5725227,88.3639207,22.2,0.0
2024-12-07T17:25:09.700Z,MISSION_0055,97,1,orbit_base,SITE_KOL_006,22.5725221,88.3639184,22.5,81.82,1.748,0.064,8.91,-0.4862,-1.2194,81.8185,0.75573,0.00376,-0.01082,0.65479,0.1295,-0.0645,-9.8681,0.2042,0.245,-0.0898,0.1701,3,18,0.68,0.73,0.25,24.545,17.81,89.2,33.4,19633.0,7727,7543,7307,7386,49.3,50.2,49.4,50.6,3.024,3.095,3.107,2.557,1.43,283.9,25.1,65.0,1009.04,-31.5,-0.56,1.89,20.7,30.5,26.2,0,no_anomaly,0.0,0,0,0,0,22.5725221,88.3639184,22.5,0.0
2024-12-07T17:25:09.800Z,MISSION_0055,98,1,orbit_base,SITE_KOL_006,22.5725216,88.363916,22.8,82.03,1.713,0.147,8.91,-0.4431,-2.4213,82.0275,0.75443,0.01095,-0.01848,0.65603,0.0918,-0.0097,-9.8093,0.23,-0.3717,-0.5476,0.0271,3,18,0.78,0.89,0.35,24.437,21.32,89.2,34.4,19618.0,7451,7551,7580,7316,53.5,51.2,53.2,52.1,2.88,2.78,2.9,2.634,1.79,296.5,25.6,65.6,1009.14,-27.88,-0.55,1.66,20.0,35.2,25.5,0,no_anomaly,0.0,0,0,0,0,22.5725216,88.363916,22.8,0.0
2024-12-07T17:25:09.900Z,MISSION_0055,99,1,orbit_base,SITE_KOL_006,22.5725212,88.3639137,23.1,80.98,2.081,0.082,8.91,-1.4695,-3.9225,80.9797,0.7603,0.01247,-0.03435,0.64855,-0.1015,-0.0435,-9.8012,0.563,-0.4251,0.2328,0.1241,3,14,0.59,1.1,0.29,24.437,19.29,89.1,32.7,19603.0,7435,7645,7469,7553,49.8,48.6,52.5,54.2,2.971,3.064,2.944,2.903,1.93,295.9,25.8,64.7,1009.52,-31.95,0.63,1.8,19.5,39.9,26.0,0,no_anomaly,0.0,0,0,0,0,22.5725212,88.3639137,23.1,0.0
2024-12-07T17:25:10.000Z,MISSION_0055,100,1,orbit_base,SITE_KOL_006,22.5725208,88.3639113,23.4,81.15,1.916,0.112,8.91,2.051,-2.1324,81.1537,0.75906,0.02569,-0.00249,0.6505,0.1033,-0.0146,-9.8265,0.2744,0.2688,0.2553,0.0897,3,20,0.7,0.64,0.39,24.613,23.84,89.0,34.4,19588.0,7414,7385,7631,7508,52.6,48.5,47.8,50.9,2.956,2.916,2.89,2.958,1.27,289.9,25.4,64.9,1009.09,-29.84,0.54,2.21,20.9,35.1,30.3,0,no_anomaly,0.0,0,0,0,0,22.5725208,88.3639113,23.4,0.0
2024-12-07T17:25:10.100Z,MISSION_0055,101,1,orbit_base,SITE_KOL_006,22.5725205,88.3639089,23.7,81.41,2.069,0.241,8.91,0.9678,0.8644,81.4108,0.75807,0.00148,0.01123,0.65208,0.0759,0.0619,-9.745,-0.7309,-0.4996,-0.0587,0.059,3,12,0.78,0.83,0.39,24.484,21.05,89.0,33.9,19573.0,7249,7714,7449,7730,47.8,50.4,50.7,50.7,2.938,2.941,2.649,2.455,1.41,294.5,25.8,64.3,1008.89,-30.19,-0.53,1.61,21.3,31.8,27.8,0,no_anomaly,0.0,0,0,0,0,22.5725205,88.3639089,23.7,0.0
2024-12-07T17:25:10.200Z,MISSION_0055,102,1,orbit_base,SITE_KOL_006,22.5725203,88.3639065,24.0,82.0,2.079,0.1,8.91,-1.3062,-1.3784,81.9981,0.75471,-0.00071,-0.01656,0.65585,0.0671,-0.0185,-9.8118,-0.1776,-0.1452,-0.489,0.1051,3,13,0.8,0.98,0.38,24.47,16.04,88.9,34.4,19558.0,7496,7635,7597,7404,51.5,49.9,49.3,51.7,2.671,2.905,2.58,2.703,2.08,288.3,25.5,65.0,1008.95,-35.76,1.78,1.29,19.2,33.5,25.5,0,no_anomaly,0.0,0,0,0,0,22.5725203,88.3639065,24.0,0.0
2024-12-07T17:25:10.300Z,MISSION_0055,103,1,orbit_base,SITE_KOL_006,22.5725201,88.3639041,24.3,81.23,2.003,0.097,8.91,2.711,-4.0759,81.2274,0.75788,0.04109,-0.0116,0.651,-0.0177,-0.0406,-9.7633,0.0987,0.0084,-0.21,0.1078,3,14,0.66,0.61,0.33,24.51,16.32,88.8,34.4,19543.0,7318,7247,7537,7492,45.6,51.6,50.2,48.9,2.862,2.615,3.069,2.686,1.24,301.8,25.4,64.5,1008.96,-31.69,0.01,1.58,20.5,36.3,29.2,0,no_anomaly,0.0,0,0,0,0,22.5725201,88.3639041,24.3,0.0
2024-12-07T17:25:10.400Z,MISSION_0055,104,1,orbit_base,SITE_KOL_006,22.57252,88.3639017,24.6,82.73,2.131,0.168,8.91,-2.1221,0.3901,82.7269,0.75036,-0.01615,-0.00968,0.66076,-0.0266,-0.074,-9.7622,-0.0112,-0.6537,0.0978,0.1671,3,15,0.84,1.11,0.28,24.53,18.75,88.8,34.5,19528.0,7736,7332,7303,7490,51.8,51.6,48.7,47.7,2.712,2.923,2.933,2.767,1.45,287.3,25.7,63.8,1008.91,-27.31,1.39,1.39,18.9,36.4,26.6,0,no_anomaly,0.0,0,0,0,0,22.57252,88.3639017,24.6,0.0
2024-12-07T17:25:10.500Z,MISSION_0055,105,1,orbit_base,SITE_KOL_006,22.57252,88.3638993,24.9,82.58,2.476,0.032,8.91,-3.0466,0.495,82.5848,0.751,-0.02282,-0.0143,0.65975,-0.0088,-0.0369,-9.8003,0.5214,0.8332,-0.0111,0.1106,3,16,0.85,0.73,0.51,24.55,12.28,88.7,34.2,19513.0,7881,7632,7565,7581,52.3,48.7,49.7,52.7,2.887,2.803,2.898,2.734,1.63,296.6,25.5,65.1,1009.48,-25.47,0.36,1.78,21.6,39.9,28.7,0,no_anomaly,0.0,0,0,0,0,22.57252,88.3638993,24.9,0.0
2024-12-07T17:25:10.600Z,MISSION_0055,106,1,orbit_base,SITE_KOL_006,22.5725201,88.3638969,25.2,82.15,2.055,0.139,8.91,1.258,-2.3389,82.1461,0.75352,0.02168,-0.00817,0.65701,0.0601,0.0273,-9.8034,0.316,-0.1012,0.0915,0.1485,3,12,0.77,0.87,0.32,24.584,20.75,88.6,33.4,19497.0,7618,7780,7461,7523,50.9,49.2,49.1,49.9,2.83,2.761,2.805,2.599,1.85,297.5,25.2,64.9,1009.16,-32.11,2.03,2.03,18.0,34.6,28.2,0,no_anomaly,0.0,0,0,0,0,22.5725201,88.3638969,25.2,0.0
2024-12-07T17:25:10.700Z,MISSION_0055,107,1,orbit_base,SITE_KOL_006,22.5725202,88.3638945,25.5,81.59,2.532,0.071,8.91,1.9557,-1.8217,81.5852,0.7567,0.0233,-0.00089,0.65335,0.1077,-0.0153,-9.7537,0.3406,-0.4228,-0.0742,0.1026,3,16,0.81,0.89,0.35,24.501,16.78,88.6,33.5,19482.0,7527,7419,7286,7512,49.8,51.1,53.0,48.4,2.822,2.83,2.54,2.687,1.82,291.5,25.7,64.8,1009.12,-29.58,-1.43,1.81,19.5,33.6,24.2,0,no_anomaly,0.0,0,0,0,0,22.5725202,88.3638945,25.5,0.0
2024-12-07T17:25:10.800Z,MISSION_0055,108,1,orbit_base,SITE_KOL_006,22.5725204,88.3638921,25.8,78.01,2.801,0.113,8.91,-0.8076,-2.8713,78.011,0.77693,0.01029,-0.0239,0.62904,0.0168,0.0429,-9.765,0.5777,-0.3411,0.1306,0.145,3,19,0.82,0.95,0.24,24.592,18.09,88.5,34.0,19467.0,7297,7483,7667,7753,50.8,50.4,53.3,49.2,2.658,2.898,2.847,2.805,2.3,297.4,25.3,65.1,1009.12,-31.83,0.24,1.47,19.3,31.5,25.6,0,no_anomaly,0.0,0,0,0,0,22.5725204,88.3638921,25.8,0.0
2024-12-07T17:25:10.900Z,MISSION_0055,109,1,orbit_base,SITE_KOL_006,22.5725207,88.3638898,26.1,76.17,2.704,0.109,8.91,1.037,-1.1741,76.1725,0.78695,0.01344,-0.00248,0.61686,0.0387,0.0596,-9.7971,-0.0088,-0.0243,-0.1077,0.0819,3,16,0.87,0.81,0.34,24.477,23.88,88.4,34.5,19452.0,7528,7315,7423,7466,52.6,52.1,50.9,51.0,2.972,2.867,2.969,2.666,1.88,295.5,25.4,65.0,1008.79,-26.09,0.49,1.63,18.8,32.5,27.5,0,no_anomaly,0.0,0,0,0,0,22.5725207,88.3638898,26.1,0.0
2024-12-07T17:25:11.000Z,MISSION_0055,110,1,orbit_base,SITE_KOL_006,22.572521,88.3638874,26.4,78.16,2.475,0.179,8.91,-1.377,-2.7834,78.1615,0.77616,0.00598,-0.02643,0.62996,-0.1173,0.0581,-9.7689,0.5183,-0.5247,0.0467,0.134,3,12,0.73,0.81,0.2,24.556,20.8,88.4,32.9,19437.0,7562,7197,7683,7409,49.8,49.7,50.0,48.9,2.806,2.754,2.708,2.62,1.06,293.4,25.4,65.2,1009.12,-31.32,-1.15,1.84,19.2,34.2,27.6,0,no_anomaly,0.0,0,0,0,0,22.572521,88.3638874,26.4,0.0
2024-12-07T17:25:11.100Z,MISSION_0055,111,1,orbit_base,SITE_KOL_006,22.5725214,88.363885,26.7,78.49,2.622,0.163,8.91,-1.1901,-4.0911,78.495,0.77412,0.01454,-0.03421,0.63195,0.0124,-0.0303,-9.9207,-0.2809,0.3868,-0.0928,0.0781,3,20,0.71,0.95,0.31,24.45,16.82,88.3,34.0,19422.0,7422,7429,7459,7259,51.2,51.6,47.4,50.3,2.888,2.904,3.072,2.896,1.38,287.7,25.3,64.6,1008.92,-29.74,-1.08,1.0,17.5,39.1,27.1,0,no_anomaly,0.0,0,0,0,0,22.5725214,88.363885,26.7,0.0
2024-12-07T17:25:11.200Z,MISSION_0055,112,1,orbit_base,SITE_KOL_006,22.5725219,88.3638827,27.0,80.63,1.745,0.07,8.91,4.9712,-1.906,80.6292,0.76121,0.04381,0.01538,0.64684,-0.0309,-0.0059,-9.8009,0.1926,-0.5308,-0.1683,0.0931,3,17,0.75,1.03,0.33,24.436,20.14,88.2,33.4,19407.0,7648,7615,7314,7505,49.8,52.5,48.4,52.7,2.686,2.837,2.707,3.128,0.85,295.3,25.4,65.1,1009.24,-30.58,1.09,1.3,17.8,31.9,28.3,0,no_anomaly,0.0,0,0,0,0,22.5725219,88.3638827,27.0,0.0
2024-12-07T17:25:11.300Z,MISSION_0055,113,1,orbit_base,SITE_KOL_006,22.5725225,88.3638803,27.3,78.83,1.38,-0.013,8.91,-0.6402,0.0516,78.8344,0.77253,-0.0046,-0.0032,0.63495,0.0964,-0.0562,-9.7445,-0.1981,0.1062,-0.0103,0.046,3,18,0.58,0.83,0.26,24.557,15.75,88.1,33.5,19392.0,7623,7699,7650,7513,51.5,53.3,50.7,51.4,2.808,3.02,2.852,2.749,1.25,300.2,25.6,65.0,1009.11,-25.9,-0.48,1.37,22.3,35.6,27.8,0,no_anomaly,0.0,0,0,0,0,22.5725225,88.3638803,27.3,0.0
2024-12-07T17:25:11.400Z,MISSION_0055,114,1,orbit_base,SITE_KOL_006,22.5725231,88.363878,27.6,78.75,1.926,0.214,8.91,-2.6649,-2.6288,78.7541,0.77291,-0.00342,-0.03248,0.63367,0.1719,-0.0032,-9.8005,0.7756,-0.3956,-0.1366,0.0759,3,12,0.82,0.82,0.38,24.569,22.01,88.1,34.0,19377.0,7674,7760,7442,7418,51.5,52.7,48.8,54.0,2.849,3.08,2.783,2.703,1.78,289.6,25.1,64.8,1008.73,-32.27,-1.07,1.26,19.8,38.8,26.0,0,no_anomaly,0.0,0,0,0,0,22.5725231,88.363878,27.6,0.0
2024-12-07T17:25:11.500Z,MISSION_0055,115,1,orbit_base,SITE_KOL_006,22.5725238,88.3638757,27.9,76.34,1.584,0.158,8.91,-2.9509,-0.7323,76.3406,0.786,-0.01629,-0.02093,0.61765,-0.0807,-0.0762,-9.8756,0.1168,0.186,-0.3197,0.096,3,15,0.69,0.82,0.31,24.467,19.12,88.0,33.6,19362.0,7509,7450,7701,7236,52.0,52.0,51.0,49.6,2.628,2.765,2.997,2.931,1.99,294.8,25.3,65.4,1008.84,-29.34,-0.01,1.63,19.2,34.1,28.9,0,no_anomaly,0.0,0,0,0,0,22.5725238,88.3638757,27.9,0.0
2024-12-07T17:25:11.600Z,MISSION_0055,116,1,orbit_base,SITE_KOL_006,22.5725245,88.3638734,28.2,77.46,1.843,-0.007,8.91,4.7063,-2.2206,77.4551,0.77883,0.04414,0.01058,0.62559,0.0537,0.0046,-9.8537,-0.0537,-0.2278,0.2196,0.0735,3,12,0.72,1.05,0.29,24.461,18.39,87.9,34.2,19347.0,7384,7537,7683,7422,49.7,49.9,53.6,53.5,2.768,2.623,2.711,2.954,2.36,289.5,25.6,64.7,1009.21,-25.29,1.13,1.16,22.0,35.9,29.8,0,no_anomaly,0.0,0,0,0,0,22.5725245,88.3638734,28.2,0.0
2024-12-07T17:25:11.700Z,MISSION_0055,117,1,orbit_base,SITE_KOL_006,22.5725254,88.3638712,28.5,77.96,1.812,0.094,8.91,2.2786,-0.1813,77.9597,0.77719,0.01645,0.01128,0.62895,0.1039,0.0508,-9.841,0.0378,-0.2463,0.4695,0.1436,3,18,0.77,0.77,0.36,24.488,19.18,87.9,33.1,19332.0,7365,7446,7492,7650,52.2,54.0,51.2,51.0,3.013,2.88,3.045,2.763,1.48,292.3,25.5,64.4,1009.42,-32.72,-0.61,1.81,22.6,36.4,32.8,0,no_anomaly,0.0,0,0,0,0,22.5725254,88.3638712,28.5,0.0
2024-12-07T17:25:11.800Z,MISSION_0055,118,1,orbit_base,SITE_KOL_006,22.5725263,88.363869,28.8,77.33,2.178,0.216,8.91,1.6132,-0.0553,77.3322,0.78072,0.01129,0.00842,0.62472,-0.069,-0.1255,-9.7847,0.5981,-0.7523,0.157,0.065,3,19,0.64,0.85,0.2,24.442,18.36,87.8,33.0,19317.0,7678,7450,7470,7496,50.9,48.2,49.3,49.6,2.685,2.809,2.641,2.799,1.04,287.2,25.4,65.4,1009.0,-32.69,-0.4,1.58,20.8,35.6,27.4,0,no_anomaly,0.0,0,0,0,0,22.5725263,88.363869,28.8,0.0
2024-12-07T17:25:11.900Z,MISSION_0055,119,1,orbit_base,SITE_KOL_006,22.5725272,88.3638668,29.1,77.61,2.466,0.191,8.91,0.8165,-4.4142,77.6127,0.7785,0.02968,-0.02555,0.62642,-0.019,-0.0371,-9.8065,0.1894,0.715,-0.2999,0.1319,3,12,0.86,0.95,0.3,24.481,16.47,87.7,34.4,19302.0,7543,7222,7481,7805,48.9,49.0,52.3,48.7,3.0,2.724,2.707,2.589,1.91,285.9,25.2,64.7,1009.0,-32.51,0.33,1.75,21.0,33.2,26.0,0,no_anomaly,0.0,0,0,0,0,22.5725272,88.3638668,29.1,0.0
2024-12-07T17:25:12.000Z,MISSION_0055,120,1,orbit_base,SITE_KOL_006,22.5725283,88.3638646,29.4,77.52,2.944,0.16,8.91,-1.951,-3.6798,77.5166,0.77962,0.00683,-0.03569,0.6252,0.2542,0.1002,-9.8213,0.1295,-0.2984,-0.2682,0.1343,3,17,0.69,1.02,0.22,24.582,15.68,87.7,33.8,19287.0,7537,7753,7706,7637,49.7,51.7,50.3,49.5,2.733,3.133,2.642,2.808,1.71,292.1,25.4,64.9,1008.73,-26.09,-0.05,1.5,19.8,36.6,25.6,0,no_anomaly,0.0,0,0,0,0,22.5725283,88.3638646,29.4,0.0
2024-12-07T17:25:12.100Z,MISSION_0055,121,1,orbit_base,SITE_KOL_006,22.5725294,88.3638625,29.7,74.84,3.116,0.078,8.91,3.6707,-1.4036,74.8363,0.79352,0.03287,0.00974,0.60758,-0.0025,-0.0145,-9.8891,-0.3929,-0.1199,-0.0993,0.0287,3,20,0.76,0.99,0.2,24.527,18.01,87.6,34.0,19272.0,7634,7801,7453,7279,51.6,53.6,47.3,47.9,2.903,2.536,2.939,2.706,0.69,295.7,25.1,64.7,1008.98,-30.05,1.34,1.6,20.0,40.3,26.4,0,no_anomaly,0.0,0,0,0,0,22.5725294,88.3638625,29.7,0.0
2024-12-07T17:25:12.200Z,MISSION_0055,122,1,orbit_base,SITE_KOL_006,22.5725305,88.3638604,30.0,73.1,3.306,0.073,8.91,-0.2714,-0.8305,73.0988,0.80333,0.00241,-0.00723,0.59548,-0.0688,0.0155,-9.8562,0.3174,-0.2567,0.1228,0.1797,3,14,0.75,0.82,0.36,24.45,20.15,87.5,32.8,19257.0,7593,7625,7454,7588,50.2,52.2,52.4,53.7,2.648,2.669,2.798,2.745,2.32,287.4,25.2,66.2,1009.03,-30.48,0.58,1.53,22.7,34.3,32.1,0,no_anomaly,0.0,0,0,0,0,22.5725305,88.3638604,30.0,0.0
2024-12-07T17:25:12.300Z,MISSION_0055,123,1,orbit_base,SITE_KOL_006,22.5725317,88.3638583,30.3,72.93,3.34,0.084,8.91,2.6986,-2.7639,72.9345,0.8034,0.03326,-0.0054,0.59448,0.0035,0.0149,-9.8586,0.8903,-0.6928,-0.2878,0.1693,3,11,0.83,0.85,0.41,24.414,14.89,87.5,33.4,19242.0,7356,7494,7542,7528,49.3,49.1,48.1,49.2,2.584,2.72,2.677,3.021,1.22,293.8,25.0,65.0,1009.23,-28.19,1.21,1.7,22.3,36.7,28.5,0,no_anomaly,0.0,0,0,0,0,22.5725317,88.3638583,30.3,0.0
2024-12-07T17:25:12.400Z,MISSION_0055,124,1,orbit_base,SITE_KOL_006,22.572533,88.3638563,30.6,74.64,2.794,0.135,8.91,-3.6687,-1.0763,74.6446,0.79498,-0.01976,-0.02687,0.60572,-0.0097,0.0065,-9.8353,-1.0793,-0.9311,-0.1821,0.0343,3,20,0.7,1.02,0.26,24.474,16.04,87.4,33.9,19227.0,7443,7380,7689,7613,50.0,50.0,51.8,49.6,3.038,2.755,2.774,2.718,1.24,289.8,25.2,64.0,1009.15,-28.4,1.1,1.18,23.9,36.0,28.2,0,no_anomaly,0.0,0,0,0,0,22.572533,88.3638563,30.6,0.0
2024-12-07T17:25:12.500Z,MISSION_0055,125,1,orbit_base,SITE_KOL_006,22.5725344,88.3638543,30.9,77.56,2.455,0.183,8.91,-1.9433,-1.7896,77.5553,0.77954,-0.00344,-0.02279,0.62593,-0.0242,0.0289,-9.8203,-0.3576,-0.4566,-0.1881,0.1092,3,18,0.81,1.0,0.32,24.489,24.57,87.3,34.5,19212.0,7394,7493,7159,7237,47.4,53.7,48.8,47.8,2.775,2.69,3.058,2.827,1.36,287.8,25.3,65.4,1009.14,-30.04,-0.19,1.7,22.1,34.8,26.1,0,no_anomaly,0.0,0,0,0,0,22.5725344,88.3638543,30.9,0.0
2024-12-07T17:25:12.600Z,MISSION_0055,126,1,orbit_base,SITE_KOL_006,22.5725358,88.3638523,31.2,79.39,2.374,0.1,8.91,3.3054,-2.1474,79.3857,0.76868,0.03415,0.004,0.63871,0.0103,0.1639,-9.8687,-0.9018,-0.9546,-0.1802,0.2002,3,14,0.78,0.78,0.25,24.438,17.96,87.3,35.0,19197.0,7847,7355,7822,7856,52.8,47.5,51.5,54.6,3.007,2.901,2.853,2.967,1.99,275.2,25.2,64.5,1008.97,-32.97,-0.12,1.6,22.5,40.3,29.3,0,no_anomaly,0.0,0,0,0,0,22.5725358,88.3638523,31.2,0.0
2024-12-07T17:25:12.700Z,MISSION_0055,127,1,orbit_base,SITE_KOL_006,22.5725372,88.3638504,31.5,77.6,2.446,0.036,8.91,0.3214,-2.6067,77.5964,0.77911,0.01644,-0.01597,0.62646,-0.0615,0.0119,-9.8366,0.132,0.7379,-0.1638,0.1506,3,14,0.78,0.87,0.35,24.504,17.05,87.2,33.4,19182.0,7335,7644,7561,7820,52.2,49.7,49.1,51.2,2.822,2.635,3.006,2.745,1.48,294.1,25.6,65.0,1008.77,-27.97,0.69,1.16,19.7,40.8,28.2,0,no_anomaly,0.0,0,0,0,0,22.5725372,88.3638504,31.5,0.0
2024-12-07T17:25:12.800Z,MISSION_0055,128,1,orbit_base,SITE_KOL_006,22.5725387,88.3638486,31.8,78.9,2.435,0.114,8.91,1.9117,-2.1285,78.9003,0.77174,0.02468,-0.00374,0.63545,-0.0824,0.0552,-9.8201,-0.4123,0.3472,-0.561,0.1608,3,14,0.57,1.1,0.28,24.408,20.67,87.1,33.5,19167.0,7854,7476,7859,7562,52.2,50.7,53.1,51.0,2.608,2.9,2.906,2.944,1.24,292.0,25.7,64.2,1009.19,-30.87,1.07,1.2,17.7,40.5,28.1,0,no_anomaly,0.0,0,0,0,0,22.5725387,88.3638486,31.8,0.0
2024-12-07T17:25:12.900Z,MISSION_0055,129,1,orbit_base,SITE_KOL_006,22.5725403,88.3638467,32.1,82.44,2.183,0.161,8.91,-4.4076,-3.9972,82.4364,0.75208,-0.00594,-0.05154,0.65703,-0.1634,0.1349,-9.9252,-0.4705,-0.1383,0.1646,0.081,3,15,0.91,0.77,0.56,24.403,20.17,87.1,34.0,19152.0,7396,7642,7629,7606,50.0,46.7,49.3,50.1,2.82,2.724,3.044,2.845,1.78,294.3,25.3,64.6,1008.98,-33.32,0.24,1.04,19.8,30.3,25.9,0,no_anomaly,0.0,0,0,0,0,22.5725403,88.3638467,32.1,0.0
