timestamp_utc,mission_id,frame_id,waypoint_id,inspection_phase,site_id,latitude_deg,longitude_deg,altitude_m,heading_deg,ground_speed_ms,vertical_speed_ms,distance_to_tower_m,roll_deg,pitch_deg,yaw_deg,quat_w,quat_x,quat_y,quat_z,accel_x_ms2,accel_y_ms2,accel_z_ms2,gyro_x_rads,gyro_y_rads,gyro_z_rads,vibration_level,gps_fix_type,gps_satellite_count,gps_hdop,gps_vdop,position_error_m,battery_voltage_v,battery_current_a,battery_remaining_pct,battery_temp_c,battery_capacity_mah,motor_fl_rpm,motor_fr_rpm,motor_rl_rpm,motor_rr_rpm,motor_fl_temp_c,motor_fr_temp_c,motor_rl_temp_c,motor_rr_temp_c,motor_fl_thrust_n,motor_fr_thrust_n,motor_rl_thrust_n,motor_rr_thrust_n,wind_speed_ms,wind_dir_deg,air_temp_c,humidity_pct,pressure_hpa,gimbal_pitch_deg,gimbal_roll_deg,zoom_factor,ir_temp_min_c,ir_temp_max_c,ir_temp_avg_c,anomaly_detected,anomaly_class,anomaly_confidence,anomaly_bbox_x,anomaly_bbox_y,anomaly_bbox_w,anomaly_bbox_h,anomaly_gps_lat,anomaly_gps_lon,anomaly_gps_alt_m,ir_temp_delta_c
2024-02-01T17:17:00.000Z,MISSION_0001,0,0,takeoff,SITE_DEL_002,28.6139015,77.2089996,1.5,58.45,0.457,0.002,0.17,-0.7315,-2.3512,58.4489,0.87258,0.00445,-0.02102,0.48801,0.2499,0.0384,-9.8335,0.2713,-0.2317,-0.1397,0.2204,3,16,0.51,0.64,0.2,24.651,19.17,96.2,31.1,21169.0,7004,7436,7182,7226,45.7,47.5,48.8,46.3,2.856,2.71,2.756,2.71,6.34,321.1,23.3,53.3,1005.59,-33.17,0.82,1.13,19.7,30.3,28.6,0,no_anomaly,0.0,0,0,0,0,28.6139015,77.2089996,1.5,0.0
2024-02-01T17:17:00.100Z,MISSION_0001,1,0,takeoff,SITE_DEL_002,28.613902,77.2089992,3.0,58.0,0.013,0.105,0.24,-2.2489,-2.691,57.9972,0.87445,-0.00578,-0.03004,0.48416,0.1673,0.0172,-9.8982,0.162,-0.1925,-0.2031,0.2389,3,15,0.8,1.04,0.25,24.685,19.0,96.2,32.1,21157.0,7152,7196,7058,7044,50.2,51.3,48.4,50.6,2.854,2.703,2.854,3.031,5.4,329.0,23.2,53.1,1005.52,-37.86,0.82,1.53,20.7,32.1,25.1,0,no_anomaly,0.0,0,0,0,0,28.613902,77.2089992,3.0,0.0
2024-02-01T17:17:00.200Z,MISSION_0001,2,0,takeoff,SITE_DEL_002,28.6139064,77.2089977,4.5,56.78,0.0,0.138,0.76,2.8598,-1.5069,56.7845,0.87921,0.0282,0.0003,0.4756,-0.0838,0.0257,-9.8051,0.4843,-0.351,-0.0983,0.1887,3,15,0.55,0.94,0.23,24.699,17.3,96.1,30.9,21144.0,7168,7180,7111,7207,49.4,52.3,48.9,49.1,2.789,2.512,2.796,2.809,6.65,320.2,23.7,52.8,1005.73,-29.1,-0.03,1.15,19.1,37.8,28.4,0,no_anomaly,0.0,0,0,0,0,28.6139064,77.2089977,4.5,0.0
2024-02-01T17:17:00.300Z,MISSION_0001,3,0,takeoff,SITE_DEL_002,28.6139022,77.2089994,5.0,60.07,0.0,0.051,0.26,-1.7692,-1.8505,60.0702,0.86563,-0.00528,-0.0217,0.50019,-0.0797,-0.0775,-9.8066,-0.5312,0.2368,-0.2758,0.2858,3,18,0.62,0.85,0.3,24.636,18.68,96.1,32.2,21132.0,6992,7261,7272,7351,46.1,45.9,49.6,49.2,2.838,2.852,2.698,2.835,5.56,317.6,23.7,53.8,1005.28,-24.4,0.47,1.14,21.5,38.4,24.6,0,no_anomaly,0.0,0,0,0,0,28.6139022,77.2089994,5.0,0.0
2024-02-01T17:17:00.400Z,MISSION_0001,4,0,takeoff,SITE_DEL_002,28.6139051,77.2090007,5.0,61.3,0.569,0.128,0.58,-0.7666,-3.1306,61.3033,0.86004,0.00817,-0.02691,0.50946,-0.1408,-0.0408,-9.8139,0.1706,0.1383,0.2482,0.2089,3,14,0.85,0.86,0.57,24.727,15.71,96.0,31.0,21119.0,7306,7200,7341,7304,48.4,46.9,45.5,47.7,2.928,2.832,2.613,2.826,5.61,316.8,23.8,53.7,1005.17,-29.54,0.06,1.16,16.9,35.1,28.2,0,no_anomaly,0.0,0,0,0,0,28.6139051,77.2090007,5.0,0.0
2024-02-01T17:17:00.500Z,MISSION_0001,5,0,takeoff,SITE_DEL_002,28.6139023,77.2090022,5.0,62.07,0.724,0.125,0.36,12.0362,-1.1437,62.0739,0.85153,0.09495,0.04555,0.51362,0.1797,0.0477,-9.7774,-0.1576,0.3795,-0.2318,0.1964,3,19,0.65,0.91,0.41,24.601,20.42,95.9,30.8,21107.0,7163,7397,7243,7072,47.1,49.9,47.1,49.0,2.807,2.702,3.122,2.895,4.4,322.1,23.7,52.6,1005.38,-31.99,0.85,1.26,20.3,29.1,26.8,0,no_anomaly,0.0,0,0,0,0,28.6139023,77.2090022,5.0,0.0
2024-02-01T17:17:00.600Z,MISSION_0001,6,0,takeoff,SITE_DEL_002,28.6139009,77.2090003,5.0,64.72,0.845,0.038,0.1,-3.9391,-0.6232,64.7221,0.84428,-0.02612,-0.02299,0.53477,0.3359,0.0516,-9.886,-0.2421,0.6335,-0.2123,0.2305,3,14,0.78,0.76,0.31,24.531,15.35,95.9,31.5,21094.0,7046,7478,7019,7167,48.8,51.5,45.7,50.9,2.802,2.653,2.869,2.83,5.11,321.5,24.0,52.2,1005.42,-31.16,0.11,1.7,17.2,38.7,29.5,0,no_anomaly,0.0,0,0,0,0,28.6139009,77.2090003,5.0,0.0
2024-02-01T17:17:00.700Z,MISSION_0001,7,0,takeoff,SITE_DEL_002,28.6139026,77.2090011,5.0,63.79,0.783,0.05,0.32,-1.5402,-2.884,63.7881,0.84886,0.00189,-0.02846,0.52785,0.1345,0.0179,-9.8446,0.4498,0.1536,0.2439,0.2398,3,16,0.62,0.82,0.29,24.722,18.33,95.8,31.6,21082.0,7425,7145,7316,7203,48.1,50.8,50.2,50.2,2.996,2.803,2.902,2.753,5.58,320.5,23.3,53.8,1005.61,-29.71,0.6,1.25,22.0,37.0,27.5,0,no_anomaly,0.0,0,0,0,0,28.6139026,77.2090011,5.0,0.0
2024-02-01T17:17:00.800Z,MISSION_0001,8,0,takeoff,SITE_DEL_002,28.6139045,77.209003,5.0,63.77,0.513,0.08,0.6,0.2368,-3.0157,63.7697,0.84879,0.01565,-0.02125,0.52808,0.1543,-0.0074,-9.8513,-0.1607,0.2065,-0.1691,0.1672,3,15,0.72,0.94,0.25,24.666,18.95,95.8,30.9,21069.0,7022,7126,7201,7280,51.5,50.3,48.3,48.5,2.65,2.797,2.757,2.848,5.0,323.8,23.6,53.2,1005.47,-25.4,-0.11,1.62,20.1,36.0,27.8,0,no_anomaly,0.0,0,0,0,0,28.6139045,77.209003,5.0,0.0
2024-02-01T17:17:00.900Z,MISSION_0001,9,0,takeoff,SITE_DEL_002,28.6139022,77.2090031,5.0,64.52,0.949,0.047,0.42,2.9968,1.2298,64.5167,0.84546,0.01639,0.02303,0.53329,-0.1214,0.0436,-9.8008,1.0949,-0.4041,-0.2519,0.1783,3,20,0.5,0.82,0.2,24.696,19.5,95.7,32.5,21057.0,7376,7147,7099,7307,45.9,52.2,50.9,47.6,2.543,3.003,2.783,2.986,4.62,318.2,23.5,53.3,1005.55,-29.98,0.05,1.36,18.3,35.3,25.0,0,no_anomaly,0.0,0,0,0,0,28.6139022,77.2090031,5.0,0.0
2024-02-01T17:17:01.000Z,MISSION_0001,10,0,takeoff,SITE_DEL_002,28.6139043,77.2089997,5.0,62.22,1.332,0.053,0.48,1.0382,-3.1227,62.2155,0.85572,0.02183,-0.01865,0.51665,0.2455,0.0058,-9.751,0.0338,1.0304,0.5266,0.1958,3,13,0.8,1.0,0.43,24.639,20.72,95.7,32.1,21044.0,6970,7056,6928,7193,50.0,51.6,48.7,51.8,2.593,2.544,2.792,2.858,5.4,310.8,23.5,52.7,1005.43,-30.27,-1.3,1.7,21.0,32.7,28.9,0,no_anomaly,0.0,0,0,0,0,28.6139043,77.2089997,5.0,0.0
2024-02-01T17:17:01.100Z,MISSION_0001,11,0,takeoff,SITE_DEL_002,28.6139072,77.2089967,5.0,62.97,1.173,0.184,0.88,-2.477,-2.1605,62.9716,0.85263,-0.00858,-0.02736,0.52172,-0.1638,-0.0277,-9.8699,0.9824,0.0176,-0.2099,0.219,3,20,0.69,0.87,0.32,24.723,16.99,95.6,31.3,21031.0,7192,6888,7006,7439,51.9,48.1,49.7,49.2,3.262,2.968,2.781,2.657,4.61,322.2,23.7,53.2,1005.74,-32.27,-1.42,1.31,16.4,29.7,24.1,0,no_anomaly,0.0,0,0,0,0,28.6139072,77.2089967,5.0,0.0
2024-02-01T17:17:01.200Z,MISSION_0001,12,0,takeoff,SITE_DEL_002,28.6139074,77.2089942,5.0,65.26,1.335,0.055,1.05,-3.2404,-2.2855,65.2563,0.84199,-0.01306,-0.03203,0.53839,-0.1386,-0.0691,-9.7637,0.9547,-0.6993,0.1689,0.1757,3,10,0.65,0.81,0.2,24.686,16.17,95.5,31.7,21019.0,7226,7198,7097,7147,50.1,49.6,46.6,48.8,2.913,2.55,2.882,2.701,5.7,317.4,23.7,52.4,1005.43,-35.41,-1.63,1.51,20.5,29.1,25.4,0,no_anomaly,0.0,0,0,0,0,28.6139074,77.2089942,5.0,0.0
2024-02-01T17:17:01.300Z,MISSION_0001,13,0,takeoff,SITE_DEL_002,28.6139038,77.2089922,5.0,65.33,1.077,0.101,0.97,-1.2014,-0.4906,65.3274,0.84182,-0.00652,-0.00926,0.53963,-0.0913,0.0418,-9.8665,0.2649,0.7208,-0.7415,0.1684,3,14,0.76,0.87,0.33,24.652,18.8,95.5,31.5,21006.0,7409,7272,7284,7172,47.6,47.7,49.4,47.7,2.843,3.111,2.931,2.751,6.01,319.1,23.9,53.4,1005.4,-36.11,-1.01,1.0,20.8,37.3,26.0,0,no_anomaly,0.0,0,0,0,0,28.6139038,77.2089922,5.0,0.0
2024-02-01T17:17:01.400Z,MISSION_0001,14,0,takeoff,SITE_DEL_002,28.6139063,77.2089856,5.0,65.68,1.308,0.097,1.75,-4.6192,-0.2844,65.6808,0.83955,-0.03251,-0.02394,0.54177,0.0536,-0.0208,-9.7784,1.1353,0.0909,0.0745,0.1853,3,15,0.62,1.02,0.2,24.685,17.22,95.4,31.8,20994.0,7284,7389,7157,7193,46.6,47.7,49.3,50.1,2.662,2.93,3.003,2.862,6.35,317.3,23.6,52.6,1005.94,-33.73,-1.78,1.95,20.9,34.2,28.6,0,no_anomaly,0.0,0,0,0,0,28.6139063,77.2089856,5.0,0.0
2024-02-01T17:17:01.500Z,MISSION_0001,15,0,takeoff,SITE_DEL_002,28.6139067,77.2089859,5.0,66.77,1.452,0.087,1.74,0.6994,-3.1857,66.7695,0.83456,0.02039,-0.01985,0.55018,0.0746,0.0941,-9.7427,0.7966,-0.2556,-0.2969,0.202,3,20,0.71,1.06,0.2,24.756,18.25,95.4,31.4,20981.0,7082,6985,7357,7244,46.0,46.0,47.9,51.9,2.761,2.575,2.763,2.759,4.07,320.9,23.3,54.5,1005.46,-30.69,0.7,2.05,19.9,32.3,25.9,0,no_anomaly,0.0,0,0,0,0,28.6139067,77.2089859,5.0,0.0
2024-02-01T17:17:01.600Z,MISSION_0001,16,0,takeoff,SITE_DEL_002,28.6139067,77.2089858,5.0,67.07,1.409,0.131,1.75,-1.7922,-2.8203,67.0666,0.83342,0.00056,-0.02915,0.55187,-0.0052,-0.0272,-9.8456,0.0532,-0.1275,0.4512,0.0757,3,18,0.81,1.09,0.2,24.661,17.59,95.3,30.9,20969.0,7117,7067,7496,7374,51.1,50.0,46.3,47.5,2.873,2.617,2.907,2.764,5.23,324.7,23.7,53.1,1005.51,-28.67,-0.36,1.85,17.2,35.0,24.6,0,no_anomaly,0.0,0,0,0,0,28.6139067,77.2089858,5.0,0.0
2024-02-01T17:17:01.700Z,MISSION_0001,17,0,takeoff,SITE_DEL_002,28.613903,77.2089886,5.0,66.79,1.252,0.151,1.31,3.2772,-3.0565,66.7892,0.83384,0.03854,-0.00652,0.55062,-0.2229,-0.0778,-9.7797,-0.6402,0.8774,-0.6246,0.2931,3,19,0.72,0.89,0.25,24.697,18.51,95.3,32.2,20956.0,7251,7256,7179,7225,49.2,45.2,45.9,50.1,2.826,2.772,2.803,2.852,5.14,317.3,23.7,53.3,1005.64,-29.41,-0.98,1.62,17.5,29.1,26.9,0,no_anomaly,0.0,0,0,0,0,28.613903,77.2089886,5.0,0.0
2024-02-01T17:17:01.800Z,MISSION_0001,18,0,takeoff,SITE_DEL_002,28.613908,77.2089916,5.0,64.03,0.868,0.021,1.29,-1.952,-1.9609,64.0279,0.84783,-0.00537,-0.02354,0.52972,0.0819,-0.0363,-9.8007,-0.3777,-0.3058,-0.422,0.1621,3,18,0.56,0.75,0.28,24.628,26.33,95.2,31.9,20944.0,7261,7105,7339,7147,48.8,53.7,48.4,50.9,2.695,2.795,3.066,2.706,6.32,324.7,23.4,53.1,1005.43,-31.69,0.63,1.79,19.2,36.7,28.5,0,no_anomaly,0.0,0,0,0,0,28.613908,77.2089916,5.0,0.0
2024-02-01T17:17:01.900Z,MISSION_0001,19,0,takeoff,SITE_DEL_002,28.6139098,77.2089922,5.0,62.02,0.982,0.113,1.4,1.9075,-1.1603,62.0249,0.85681,0.01948,-0.0001,0.51527,0.1711,0.0417,-9.787,-0.0351,-0.8305,0.1289,0.2187,3,12,0.73,0.71,0.21,24.726,18.37,95.1,32.0,20931.0,7238,7238,7374,7156,48.8,47.7,47.7,48.0,2.833,2.728,2.988,2.666,5.32,319.0,23.7,53.2,1005.66,-25.66,0.2,1.81,16.3,35.0,24.2,0,no_anomaly,0.0,0,0,0,0,28.6139098,77.2089922,5.0,0.0
2024-02-01T17:17:02.000Z,MISSION_0001,20,0,takeoff,SITE_DEL_002,28.6139083,77.2089964,5.0,65.47,0.873,0.124,1.0,-1.3918,0.1801,65.4733,0.84109,-0.01107,-0.00525,0.54075,0.25,-0.0261,-9.831,-0.1409,-0.6722,-0.2756,0.1581,3,11,0.62,0.89,0.26,24.75,15.44,95.1,32.1,20919.0,7201,7226,7335,7065,49.4,48.9,49.6,49.2,3.168,2.704,2.72,2.707,5.14,318.0,23.5,53.5,1005.49,-26.43,1.42,1.33,18.4,33.7,25.1,0,no_anomaly,0.0,0,0,0,0,28.6139083,77.2089964,5.0,0.0
2024-02-01T17:17:02.100Z,MISSION_0001,21,0,takeoff,SITE_DEL_002,28.6139037,77.209001,5.0,68.17,0.689,0.16,0.43,-1.2112,-1.5712,68.1671,0.82818,-0.00107,-0.01728,0.5602,0.0529,0.0329,-9.7095,-0.0885,-0.3991,-0.4138,0.1717,3,14,0.7,1.17,0.24,24.682,18.3,95.0,32.2,20906.0,7613,7154,7160,7390,50.0,52.3,49.8,47.9,2.889,2.966,2.923,2.876,5.95,327.0,23.4,53.4,1005.37,-25.85,0.65,1.45,15.9,37.3,23.8,0,no_anomaly,0.0,0,0,0,0,28.6139037,77.209001,5.0,0.0
2024-02-01T17:17:02.200Z,MISSION_0001,22,0,takeoff,SITE_DEL_002,28.6139038,77.2090049,5.0,68.45,0.703,0.072,0.69,-4.2483,-0.8806,68.4537,0.82638,-0.02633,-0.0272,0.56183,0.1022,0.1082,-9.8254,0.1096,0.1247,0.4732,0.2035,3,11,0.73,0.99,0.31,24.647,18.93,95.0,32.2,20894.0,7080,7253,7128,7413,45.6,47.5,49.4,51.7,2.79,2.717,3.082,2.583,4.31,323.4,23.3,53.6,1005.58,-31.51,-1.02,1.71,17.7,34.2,25.1,0,no_anomaly,0.0,0,0,0,0,28.6139038,77.2090049,5.0,0.0
2024-02-01T17:17:02.300Z,MISSION_0001,23,0,takeoff,SITE_DEL_002,28.6139035,77.2090104,5.0,66.85,0.246,0.139,1.22,-2.1616,-2.0684,66.8486,0.83452,-0.0058,-0.02545,0.55036,0.0385,-0.0121,-9.7924,-0.6258,0.7219,-0.0246,0.2641,3,20,0.73,0.97,0.33,24.69,20.05,94.9,32.3,20881.0,7263,7340,7220,7450,47.3,52.2,48.5,45.7,2.819,2.698,2.926,2.702,5.19,311.7,23.6,52.7,1005.44,-31.36,-2.42,1.02,20.3,32.3,25.1,0,no_anomaly,0.0,0,0,0,0,28.6139035,77.2090104,5.0,0.0
2024-02-01T17:17:02.400Z,MISSION_0001,24,0,takeoff,SITE_DEL_002,28.6139035,77.2090069,5.0,69.1,0.509,0.071,0.87,-0.6903,-1.9597,69.1037,0.82354,0.00474,-0.0175,0.56697,0.033,-0.1021,-9.8224,-0.341,-0.5008,-0.0843,0.2982,3,10,0.76,0.81,0.35,24.736,21.03,94.9,31.7,20869.0,7136,7338,7293,7368,49.9,50.7,47.5,51.2,2.83,3.111,2.697,3.06,5.51,317.9,23.6,54.3,1005.79,-31.45,-0.32,1.63,16.4,37.8,25.4,0,no_anomaly,0.0,0,0,0,0,28.6139035,77.2090069,5.0,0.0
2024-02-01T17:17:02.500Z,MISSION_0001,25,0,takeoff,SITE_DEL_002,28.6139048,77.2090071,5.0,69.28,0.693,0.157,0.95,-3.1953,-2.3861,69.2837,0.82255,-0.0111,-0.03297,0.56762,-0.2641,0.02,-9.7776,-0.2416,0.787,-0.3677,0.1351,3,18,0.72,1.06,0.41,24.642,21.58,94.8,31.6,20856.0,7208,7366,7331,6997,51.6,51.4,47.4,49.4,2.874,2.839,2.717,2.699,5.4,327.0,23.2,53.0,1005.22,-28.37,-0.37,1.73,14.1,30.8,21.2,0,no_anomaly,0.0,0,0,0,0,28.6139048,77.2090071,5.0,0.0
2024-02-01T17:17:02.600Z,MISSION_0001,26,0,takeoff,SITE_DEL_002,28.6139009,77.2090105,5.0,68.58,0.797,0.093,1.18,-0.1466,-1.2844,68.5822,0.82614,0.00526,-0.00998,0.56335,0.0122,-0.0641,-9.7602,-0.2469,-0.7783,-0.1284,0.2833,3,20,0.79,0.85,0.29,24.647,24.63,94.7,31.8,20843.0,7298,7388,7269,7195,48.2,48.5,48.5,50.1,2.808,2.91,2.788,2.812,4.41,325.8,23.8,52.7,1005.57,-28.96,1.0,1.0,21.9,37.0,28.7,0,no_anomaly,0.0,0,0,0,0,28.6139009,77.2090105,5.0,0.0
2024-02-01T17:17:02.700Z,MISSION_0001,27,0,takeoff,SITE_DEL_002,28.6138978,77.2090087,5.0,71.45,0.74,0.091,1.0,0.6793,-0.6949,71.4532,0.81176,0.00835,-0.00146,0.58393,0.0785,0.0075,-9.7918,1.2017,-0.0288,0.0603,0.2608,3,12,0.81,1.08,0.38,24.605,23.27,94.7,31.1,20831.0,7279,7120,7224,7283,49.3,49.5,51.8,49.5,2.763,2.945,2.978,2.616,5.71,324.7,23.6,52.7,1005.16,-30.89,1.38,1.45,19.4,30.3,28.5,0,no_anomaly,0.0,0,0,0,0,28.6138978,77.2090087,5.0,0.0
2024-02-01T17:17:02.800Z,MISSION_0001,28,0,takeoff,SITE_DEL_002,28.6139026,77.2090061,5.0,69.97,0.094,0.147,0.74,-1.9962,-3.9846,69.9661,0.81905,0.00567,-0.03846,0.5724,0.2599,0.0505,-9.8444,1.1262,0.4909,-0.0974,0.0833,3,18,0.93,0.69,0.22,24.711,25.37,94.6,32.3,20818.0,7318,7323,7362,7347,49.2,48.8,48.5,47.1,2.758,2.546,2.785,2.652,4.86,322.1,23.4,53.1,1005.56,-25.82,0.92,1.03,15.1,33.6,25.0,0,no_anomaly,0.0,0,0,0,0,28.6139026,77.2090061,5.0,0.0
2024-02-01T17:17:02.900Z,MISSION_0001,29,0,takeoff,SITE_DEL_002,28.6138996,77.2090064,5.0,67.97,0.0,0.102,0.72,0.999,-4.3895,67.9651,0.82838,0.02863,-0.02688,0.55879,0.0697,-0.001,-9.7824,0.112,0.6821,0.0376,0.1868,3,11,0.71,0.98,0.29,24.661,15.89,94.6,31.3,20806.0,7023,7496,7047,7130,47.2,50.4,48.0,51.1,2.699,2.842,2.675,3.122,4.82,322.7,23.5,53.7,1005.89,-28.1,0.41,1.44,15.9,37.2,27.6,0,no_anomaly,0.0,0,0,0,0,28.6138996,77.2090064,5.0,0.0
2024-02-01T17:17:03.000Z,MISSION_0001,30,0,takeoff,SITE_DEL_002,28.613898,77.2090023,5.0,67.83,0.774,0.055,0.34,-2.5107,0.4587,67.8327,0.8296,-0.02041,-0.0089,0.55792,0.2655,-0.0277,-9.7816,0.8142,-0.1896,-0.0611,0.1792,3,14,0.6,0.8,0.2,24.659,16.08,94.5,31.8,20793.0,7000,7283,7359,6934,49.4,51.1,46.2,52.0,2.863,2.694,2.792,2.884,5.45,323.9,23.4,53.8,1005.67,-32.76,0.17,1.08,20.0,30.9,26.3,0,no_anomaly,0.0,0,0,0,0,28.613898,77.2090023,5.0,0.0
2024-02-01T17:17:03.100Z,MISSION_0001,31,0,takeoff,SITE_DEL_002,28.6138998,77.2089991,5.0,67.36,1.138,0.154,0.11,0.4427,1.479,67.3581,0.83211,-0.00394,0.01288,0.55445,0.0623,0.0096,-9.8255,0.0668,-0.0762,0.2124,0.2561,3,11,0.62,0.7,0.2,24.681,15.26,94.5,30.6,20781.0,7292,7607,7233,7359,48.8,48.4,50.5,48.0,2.84,2.848,2.7,2.949,5.33,317.4,23.7,53.2,1005.61,-28.39,-0.9,1.51,21.0,33.4,23.9,0,no_anomaly,0.0,0,0,0,0,28.6138998,77.2089991,5.0,0.0
2024-02-01T17:17:03.200Z,MISSION_0001,32,0,takeoff,SITE_DEL_002,28.613904,77.2090007,5.0,67.37,0.744,0.089,0.45,-3.3275,-2.4578,67.3736,0.83189,-0.01226,-0.03394,0.55377,-0.0965,-0.0093,-9.8072,0.2648,-0.0352,0.146,0.2115,3,18,0.5,0.76,0.2,24.594,20.17,94.4,32.4,20768.0,7416,7201,7457,7256,48.0,47.4,48.0,47.9,2.826,2.824,2.8,2.866,6.01,325.9,23.3,52.3,1005.56,-34.45,-2.55,1.78,15.6,28.5,24.6,0,no_anomaly,0.0,0,0,0,0,28.613904,77.2090007,5.0,0.0
2024-02-01T17:17:03.300Z,MISSION_0001,33,0,takeoff,SITE_DEL_002,28.6139062,77.208999,5.0,63.49,0.58,0.123,0.7,1.224,-4.2184,63.487,0.84958,0.02844,-0.02568,0.52607,0.029,-0.0008,-9.781,0.0598,-0.4865,0.359,0.2003,3,18,0.7,0.76,0.25,24.609,17.77,94.3,32.5,20756.0,7028,6991,7454,7202,47.3,50.7,47.4,52.3,2.902,2.727,3.124,2.709,5.78,322.7,23.4,54.2,1005.47,-26.09,1.56,1.51,19.8,33.1,25.8,0,no_anomaly,0.0,0,0,0,0,28.6139062,77.208999,5.0,0.0
2024-02-01T17:17:03.400Z,MISSION_0001,34,0,takeoff,SITE_DEL_002,28.6139052,77.2089996,5.0,61.47,0.289,0.141,0.58,3.7502,-2.9853,61.4663,0.85837,0.04142,-0.00566,0.51133,-0.1657,0.0268,-9.7507,0.3595,0.498,-0.227,0.1372,3,13,0.85,0.85,0.32,24.718,19.81,94.3,31.9,20743.0,7558,7137,7373,7242,49.2,51.7,49.6,49.7,2.961,2.745,2.674,2.643,4.43,331.5,23.7,52.9,1005.41,-33.31,-0.22,1.42,16.3,36.4,27.3,0,no_anomaly,0.0,0,0,0,0,28.6139052,77.2089996,5.0,0.0
2024-02-01T17:17:03.500Z,MISSION_0001,35,0,takeoff,SITE_DEL_002,28.613906,77.2089988,5.0,63.88,0.436,0.093,0.68,2.2958,-1.0057,63.8774,0.84832,0.02164,0.00315,0.52903,0.1857,0.0091,-9.8748,0.1998,-0.3257,-0.1586,0.2376,3,14,0.82,0.9,0.35,24.735,18.94,94.2,33.0,20731.0,7318,6969,7347,7291,51.2,50.0,48.4,46.2,2.769,2.672,2.713,2.888,6.25,323.2,23.6,52.8,1005.58,-33.59,0.44,1.86,18.6,34.7,24.8,0,no_anomaly,0.0,0,0,0,0,28.613906,77.2089988,5.0,0.0
2024-02-01T17:17:03.600Z,MISSION_0001,36,0,takeoff,SITE_DEL_002,28.6139056,77.2090001,5.0,62.55,0.305,0.007,0.63,2.2568,-2.5592,62.5461,0.8541,0.02842,-0.00886,0.51926,0.2733,-0.02,-9.7988,0.4663,-0.7092,-0.5282,0.132,3,18,0.83,0.82,0.54,24.62,18.71,94.2,32.4,20718.0,7534,7543,7415,7387,49.8,50.2,47.5,47.0,2.799,2.774,2.732,2.904,5.89,321.6,23.5,53.1,1005.75,-25.57,-1.14,1.44,18.1,30.3,23.2,0,no_anomaly,0.0,0,0,0,0,28.6139056,77.2090001,5.0,0.0
2024-02-01T17:17:03.700Z,MISSION_0001,37,0,takeoff,SITE_DEL_002,28.6139075,77.208997,5.0,65.33,0.671,0.089,0.9,1.8185,-2.3397,65.3273,0.8414,0.02437,-0.00862,0.5398,-0.1519,-0.0186,-9.7556,0.9423,0.7716,-0.1467,0.1523,3,10,0.71,0.63,0.31,24.64,16.94,94.1,30.9,20706.0,7311,7154,7058,6803,48.6,52.2,52.0,47.7,2.71,2.87,2.65,2.845,5.8,327.3,23.6,53.7,1005.29,-30.3,-0.2,1.24,17.2,30.0,23.8,0,no_anomaly,0.0,0,0,0,0,28.6139075,77.208997,5.0,0.0
2024-02-01T17:17:03.800Z,MISSION_0001,38,0,takeoff,SITE_DEL_002,28.613912,77.2089962,5.0,65.3,0.447,0.05,1.4,-7.5735,-0.6739,65.2952,0.84036,-0.05244,-0.04057,0.53796,0.1166,-0.0141,-9.8067,0.258,-0.7813,-0.1587,0.248,3,11,0.57,0.94,0.2,24.669,18.12,94.1,30.9,20693.0,7408,7123,7112,7264,50.9,46.6,48.8,49.5,2.904,2.826,2.745,2.676,5.46,315.8,23.7,54.2,1005.45,-38.76,0.44,1.77,15.0,26.8,21.5,0,no_anomaly,0.0,0,0,0,0,28.613912,77.2089962,5.0,0.0
2024-02-01T17:17:03.900Z,MISSION_0001,39,0,takeoff,SITE_DEL_002,28.6139098,77.2089956,5.0,67.36,0.253,0.052,1.2,-2.4967,-2.7241,67.3575,0.83201,-0.00495,-0.03185,0.55382,-0.1509,0.0061,-9.7288,0.1615,-0.1262,-0.0875,0.1301,3,10,0.79,0.89,0.3,24.804,19.02,94.0,31.3,20681.0,7170,7406,7250,7018,50.5,47.3,52.4,50.8,2.733,2.992,2.81,2.928,5.66,317.0,23.6,54.2,1005.23,-31.93,1.03,1.4,16.0,28.9,24.4,0,no_anomaly,0.0,0,0,0,0,28.6139098,77.2089956,5.0,0.0
2024-02-01T17:17:04.000Z,MISSION_0001,40,0,takeoff,SITE_DEL_002,28.6139099,77.2089999,5.0,67.24,0.389,0.176,1.1,-3.319,-1.3575,67.2381,0.83252,-0.01756,-0.02589,0.55311,-0.0296,0.0493,-9.7506,1.2948,0.2898,0.0977,0.218,3,20,0.66,0.95,0.24,24.651,22.15,93.9,31.2,20668.0,7404,7431,7216,6915,47.4,51.2,48.6,46.6,2.724,2.926,2.882,2.764,5.23,319.2,23.8,53.0,1005.53,-32.77,1.62,1.4,19.9,35.2,28.4,0,no_anomaly,0.0,0,0,0,0,28.6139099,77.2089999,5.0,0.0
2024-02-01T17:17:04.100Z,MISSION_0001,41,0,takeoff,SITE_DEL_002,28.6139098,77.2089972,5.0,67.72,0.035,0.135,1.14,3.7104,-2.6969,67.7246,0.82929,0.03998,-0.0015,0.55739,0.0318,0.0142,-9.8229,0.2933,-0.2375,0.2614,0.141,3,19,0.71,1.19,0.21,24.607,19.56,93.9,31.8,20655.0,7286,7307,7329,7400,49.5,48.2,50.0,52.4,2.78,2.654,2.966,2.782,4.33,325.4,23.5,53.5,1005.4,-31.61,-0.09,1.6,18.3,31.2,26.1,0,no_anomaly,0.0,0,0,0,0,28.6139098,77.2089972,5.0,0.0
2024-02-01T17:17:04.200Z,MISSION_0001,42,0,takeoff,SITE_DEL_002,28.613912,77.208999,5.0,66.32,0.361,0.166,1.35,-1.6744,-0.7879,66.3214,0.83709,-0.00847,-0.01375,0.54683,0.0581,0.0919,-9.8212,-0.1747,-0.0097,-0.091,0.2483,3,16,0.54,0.74,0.2,24.687,23.31,93.8,31.6,20643.0,7208,7244,7408,7094,49.1,50.6,49.7,49.0,2.95,2.395,2.902,2.702,4.5,323.7,23.9,53.6,1005.46,-25.88,-0.14,1.79,22.0,31.1,27.3,0,no_anomaly,0.0,0,0,0,0,28.613912,77.208999,5.0,0.0
2024-02-01T17:17:04.300Z,MISSION_0001,43,0,takeoff,SITE_DEL_002,28.6139072,77.2089983,5.0,65.06,1.012,0.195,0.83,-0.5495,-1.8152,65.0566,0.84305,0.00447,-0.01593,0.53758,0.0873,0.0022,-9.7252,-0.3113,0.0973,-0.2227,0.1423,3,16,0.64,0.89,0.23,24.604,14.29,93.8,31.7,20630.0,7008,7348,7246,7015,48.0,47.1,49.3,51.3,2.519,2.817,2.776,2.901,5.52,317.4,23.6,52.9,1005.14,-30.96,-0.8,1.82,19.1,37.2,23.9,0,no_anomaly,0.0,0,0,0,0,28.6139072,77.2089983,5.0,0.0
2024-02-01T17:17:04.400Z,MISSION_0001,44,0,takeoff,SITE_DEL_002,28.6139018,77.2089935,5.0,65.46,1.165,0.006,0.75,-4.9398,-0.6574,65.4573,0.84058,-0.03315,-0.02812,0.53994,-0.0765,0.0073,-9.7294,0.4484,-0.1343,-0.2674,0.1007,3,20,0.63,0.87,0.2,24.63,18.81,93.7,31.6,20618.0,7136,7259,7300,7070,51.5,48.5,48.7,50.1,2.835,2.943,2.843,2.708,5.59,315.5,23.5,53.3,1005.48,-29.67,-0.03,1.44,15.5,29.4,25.4,0,no_anomaly,0.0,0,0,0,0,28.6139018,77.2089935,5.0,0.0
2024-02-01T17:17:04.500Z,MISSION_0001,45,0,takeoff,SITE_DEL_002,28.6138987,77.2089973,5.0,64.16,1.456,0.038,0.33,1.3346,-2.9693,64.158,0.84681,0.02362,-0.01577,0.53113,0.281,-0.0597,-9.764,0.5003,-0.3353,0.4177,0.1958,3,15,0.73,0.94,0.28,24.676,21.11,93.7,30.8,20605.0,7429,6984,7388,7403,46.5,47.8,46.4,48.2,2.754,2.917,2.997,3.009,5.13,320.1,23.4,53.2,1005.5,-35.05,-0.81,1.79,18.4,31.3,26.1,0,no_anomaly,0.0,0,0,0,0,28.6138987,77.2089973,5.0,0.0
2024-02-01T17:17:04.600Z,MISSION_0001,46,0,takeoff,SITE_DEL_002,28.6138963,77.2089986,5.0,63.45,1.452,0.112,0.44,1.7066,-1.9904,63.4472,0.85024,0.0218,-0.00694,0.5259,-0.0691,-0.0055,-9.8144,-0.185,-0.1294,0.4796,0.2363,3,18,0.67,1.0,0.25,24.692,19.83,93.6,31.6,20593.0,7301,6998,7064,7054,48.9,52.1,53.1,49.9,2.875,2.53,2.719,2.682,5.1,320.3,24.0,52.7,1004.94,-31.42,-1.98,1.72,17.8,31.7,23.9,0,no_anomaly,0.0,0,0,0,0,28.6138963,77.2089986,5.0,0.0
2024-02-01T17:17:04.700Z,MISSION_0001,47,0,takeoff,SITE_DEL_002,28.6138955,77.2090019,5.0,66.38,1.083,0.128,0.55,1.5517,-2.698,66.3848,0.83635,0.02422,-0.01229,0.54752,-0.0168,0.1322,-9.8851,0.1269,0.2338,0.3257,0.2132,3,13,0.73,0.84,0.31,24.615,20.41,93.5,31.5,20580.0,7290,7229,7402,7226,45.1,51.2,46.8,47.4,2.711,3.006,2.48,3.271,5.94,322.3,23.6,53.1,1005.42,-30.16,0.29,1.66,17.0,30.0,28.3,0,no_anomaly,0.0,0,0,0,0,28.6138955,77.2090019,5.0,0.0
2024-02-01T17:17:04.800Z,MISSION_0001,48,0,takeoff,SITE_DEL_002,28.6138949,77.2090053,5.0,67.28,0.201,0.111,0.82,2.0491,-1.7079,67.2751,0.83219,0.02314,-0.0025,0.55401,-0.003,-0.0194,-9.7538,0.4738,-0.3864,0.1221,0.1597,3,18,0.56,0.81,0.27,24.678,19.64,93.5,32.1,20568.0,7311,7137,7298,7354,50.2,51.0,50.1,49.4,2.961,2.796,2.668,2.776,5.04,317.8,23.6,52.8,1005.58,-30.43,-0.79,1.41,19.1,33.2,24.4,0,no_anomaly,0.0,0,0,0,0,28.6138949,77.2090053,5.0,0.0
2024-02-01T17:17:04.900Z,MISSION_0001,49,0,takeoff,SITE_DEL_002,28.6138977,77.2090005,5.0,66.13,0.0,0.1,0.26,-2.9363,-0.7558,66.131,0.83785,-0.01787,-0.0195,0.54526,-0.0307,-0.0132,-9.9102,0.3177,-0.6196,0.018,0.2221,3,10,0.84,0.7,0.2,24.638,23.4,93.4,32.3,20555.0,7265,7160,7355,7087,49.6,49.7,50.8,54.2,2.859,2.724,2.796,2.535,5.07,319.1,23.6,53.0,1005.48,-31.57,0.15,1.25,16.9,38.9,28.9,0,no_anomaly,0.0,0,0,0,0,28.6138977,77.2090005,5.0,0.0
2024-02-01T17:17:05.000Z,MISSION_0001,50,0,takeoff,SITE_DEL_002,28.6139002,77.2089979,5.0,65.14,0.0,0.093,0.24,-4.2046,-3.2289,65.1438,0.84237,-0.01574,-0.04347,0.53691,-0.0754,0.0437,-9.7969,0.0968,0.4254,-0.0412,0.2278,3,12,0.69,0.94,0.24,24.506,17.6,93.4,32.4,20543.0,7372,7378,7419,7247,49.1,47.4,48.0,49.9,2.981,2.779,2.732,2.8,5.71,314.0,23.5,53.9,1005.51,-36.89,-0.55,1.13,18.6,32.9,27.4,0,no_anomaly,0.0,0,0,0,0,28.6139002,77.2089979,5.0,0.0
2024-02-01T17:17:05.100Z,MISSION_0001,51,0,takeoff,SITE_DEL_002,28.6139011,77.2089997,5.0,63.44,0.312,0.136,0.12,-0.2367,-0.9943,63.4356,0.85062,0.0028,-0.00847,0.5257,-0.1696,-0.0777,-9.7691,0.1882,-0.451,-0.2609,0.2645,3,10,0.58,1.15,0.2,24.658,17.17,93.3,32.0,20530.0,7152,7209,7240,7083,50.1,47.6,48.2,46.7,2.416,2.771,3.162,2.918,5.4,319.9,23.7,53.4,1005.45,-29.93,0.55,1.15,21.7,29.7,26.6,0,no_anomaly,0.0,0,0,0,0,28.6139011,77.2089997,5.0,0.0
2024-02-01T17:17:05.200Z,MISSION_0001,52,0,takeoff,SITE_DEL_002,28.6139031,77.2090015,5.0,62.9,0.14,0.123,0.38,0.3182,0.3235,62.9045,0.85307,0.0009,0.00386,0.52178,-0.1961,-0.0734,-9.8018,0.0254,0.0867,0.0732,0.1971,3,17,0.85,0.66,0.27,24.62,13.14,93.3,31.6,20518.0,7483,7237,7268,7044,47.4,47.9,48.0,51.2,2.884,2.633,2.837,2.875,5.98,329.1,23.8,53.2,1005.38,-33.05,-0.81,1.12,19.6,35.3,27.0,0,no_anomaly,0.0,0,0,0,0,28.6139031,77.2090015,5.0,0.0
2024-02-01T17:17:05.300Z,MISSION_0001,53,0,takeoff,SITE_DEL_002,28.6139035,77.208999,5.0,66.04,0.0,0.037,0.41,0.5771,1.0354,66.0388,0.83847,-0.0007,0.01032,0.54486,0.0011,-0.0095,-9.8279,-0.0902,0.6864,-0.6636,0.2849,3,18,0.56,0.86,0.2,24.653,13.21,93.2,32.0,20505.0,7537,7029,7262,7134,49.5,48.7,47.4,49.6,3.071,2.771,2.908,2.606,4.94,323.5,23.7,53.6,1005.36,-25.55,0.36,1.41,17.6,33.4,24.5,0,no_anomaly,0.0,0,0,0,0,28.6139035,77.208999,5.0,0.0
2024-02-01T17:17:05.400Z,MISSION_0001,54,0,takeoff,SITE_DEL_002,28.6139021,77.2089998,5.0,65.38,0.0,0.176,0.24,6.5597,-2.3705,65.3838,0.83939,0.05929,0.01352,0.54012,-0.0567,-0.0324,-9.7728,-0.0906,-0.3247,0.3964,0.2793,3,13,0.64,0.62,0.32,24.588,20.37,93.1,30.7,20492.0,7367,7052,7343,7236,46.8,47.9,50.0,48.9,2.888,3.096,2.565,3.043,5.47,316.7,23.3,53.2,1005.2,-33.99,-0.19,1.78,15.6,34.2,26.1,0,no_anomaly,0.0,0,0,0,0,28.6139021,77.2089998,5.0,0.0
2024-02-01T17:17:05.500Z,MISSION_0001,55,0,takeoff,SITE_DEL_002,28.6139032,77.2090025,5.0,64.75,0.0,0.104,0.45,0.6215,-1.3449,64.7526,0.84444,0.01086,-0.00701,0.53549,0.064,0.0618,-9.8636,0.3401,0.5963,-0.5336,0.2243,3,15,0.65,0.89,0.28,24.596,15.97,93.1,31.7,20480.0,7070,7071,7335,7061,50.0,49.6,45.2,47.3,2.979,2.653,2.73,2.869,5.81,319.9,23.4,52.8,1005.55,-31.79,1.42,2.02,22.2,35.4,27.1,0,no_anomaly,0.0,0,0,0,0,28.6139032,77.2090025,5.0,0.0
2024-02-01T17:17:05.600Z,MISSION_0001,56,0,takeoff,SITE_DEL_002,28.6139045,77.2090067,5.0,65.73,0.0,0.082,0.89,3.2864,-3.4971,65.7283,0.83875,0.04063,-0.01007,0.54291,-0.0608,0.0125,-9.7102,1.555,0.3034,-0.055,0.235,3,18,0.79,0.85,0.46,24.63,19.49,93.0,32.1,20467.0,7297,7359,7141,7150,46.5,49.6,50.2,49.6,3.051,2.799,2.9,2.636,5.22,324.7,23.7,53.5,1005.55,-27.45,-0.29,1.48,19.1,36.7,22.4,0,no_anomaly,0.0,0,0,0,0,28.6139045,77.2090067,5.0,0.0
2024-02-01T17:17:05.700Z,MISSION_0001,57,0,takeoff,SITE_DEL_002,28.6139046,77.2090067,5.0,64.74,0.21,0.156,0.9,1.3152,-1.262,64.7378,0.84444,0.01559,-0.00316,0.53541,-0.0833,-0.1077,-9.7551,-0.2394,-0.4314,0.208,0.1887,3,12,0.81,0.99,0.38,24.549,21.74,93.0,31.9,20455.0,7178,7255,6967,7295,46.6,46.0,45.6,50.9,2.706,3.03,2.72,2.544,4.86,327.4,23.9,53.0,1005.18,-30.47,-0.55,1.55,21.7,29.7,28.4,0,no_anomaly,0.0,0,0,0,0,28.6139046,77.2090067,5.0,0.0
2024-02-01T17:17:05.800Z,MISSION_0001,58,0,takeoff,SITE_DEL_002,28.6139034,77.2090075,5.0,63.29,0.0,0.114,0.91,1.074,-2.073,63.2922,0.85104,0.01747,-0.01048,0.52471,0.0052,-0.0379,-9.8215,-0.4621,0.4451,0.3106,0.116,3,16,0.61,0.68,0.2,24.612,13.65,92.9,31.3,20442.0,7083,7265,7244,7125,49.0,47.6,48.1,52.0,3.001,2.605,2.924,2.922,4.84,325.3,23.7,53.4,1005.53,-25.39,-1.12,1.22,21.9,38.5,25.8,0,no_anomaly,0.0,0,0,0,0,28.6139034,77.2090075,5.0,0.0
2024-02-01T17:17:05.900Z,MISSION_0001,59,0,takeoff,SITE_DEL_002,28.6138994,77.2090106,5.0,65.05,0.0,0.071,1.18,-0.1358,-4.2967,65.0466,0.8426,0.01916,-0.03224,0.53723,0.0814,0.0286,-9.8131,0.5622,-0.167,0.1694,0.1573,3,19,0.7,0.87,0.3,24.596,17.61,92.9,32.2,20430.0,7168,6993,7496,7441,46.1,50.1,47.7,49.2,2.844,2.765,2.682,2.696,4.96,317.0,23.6,53.5,1005.54,-30.2,-0.72,1.7,22.8,30.9,28.3,0,no_anomaly,0.0,0,0,0,0,28.6138994,77.2090106,5.0,0.0
2024-02-01T17:17:06.000Z,MISSION_0001,60,0,takeoff,SITE_DEL_002,28.6138996,77.2090128,5.0,65.77,0.0,0.086,1.43,2.7153,-0.6691,65.7699,0.83944,0.02307,0.00796,0.54291,-0.1208,0.0019,-9.7758,-0.1047,0.5365,0.7092,0.169,3,19,0.56,0.95,0.26,24.601,22.36,92.8,31.1,20417.0,7337,7143,7491,7532,47.2,47.6,50.4,47.9,2.793,2.804,2.512,2.798,5.07,318.7,23.7,53.4,1005.56,-25.67,-1.26,1.74,18.1,37.6,24.3,0,no_anomaly,0.0,0,0,0,0,28.6138996,77.2090128,5.0,0.0
2024-02-01T17:17:06.100Z,MISSION_0001,61,0,takeoff,SITE_DEL_002,28.6139025,77.2090118,5.0,64.85,0.0,0.038,1.35,-2.5786,2.4236,64.8516,0.84343,-0.03033,0.00578,0.53635,0.197,-0.0676,-9.8761,0.2409,0.2736,0.1647,0.1955,3,15,0.69,0.95,0.28,24.501,17.31,92.7,31.3,20405.0,7260,7681,7289,7186,50.5,49.7,49.5,49.9,3.108,2.63,2.871,2.661,5.69,316.6,23.6,52.9,1005.2,-31.25,-0.3,1.79,21.1,33.4,27.8,0,no_anomaly,0.0,0,0,0,0,28.6139025,77.2090118,5.0,0.0
2024-02-01T17:17:06.200Z,MISSION_0001,62,0,takeoff,SITE_DEL_002,28.6139019,77.2090109,5.0,68.49,0.13,0.188,1.23,-4.3038,-2.8472,68.4916,0.82632,-0.01706,-0.04165,0.5614,0.1617,0.1044,-9.8893,-0.94,0.9355,0.1169,0.1649,3,14,0.75,0.6,0.3,24.626,20.84,92.7,31.2,20392.0,7246,7095,7272,7099,47.9,46.7,50.0,50.4,2.765,2.806,2.583,2.755,5.39,334.3,23.6,53.4,1005.44,-33.34,1.46,1.8,19.1,38.1,28.5,0,no_anomaly,0.0,0,0,0,0,28.6139019,77.2090109,5.0,0.0
2024-02-01T17:17:06.300Z,MISSION_0001,63,0,takeoff,SITE_DEL_002,28.6139056,77.2090142,5.0,67.55,0.0,0.135,1.7,-0.6341,-3.2001,67.5531,0.83096,0.01093,-0.02628,0.5556,-0.0101,0.0619,-9.8329,-0.0214,0.029,0.2545,0.0959,3,10,0.64,0.93,0.33,24.584,12.37,92.6,32.1,20380.0,7138,7055,7140,7206,47.5,44.3,50.5,51.2,2.898,2.629,2.77,2.799,5.71,324.5,23.7,53.2,1005.73,-32.2,0.08,1.64,20.3,40.0,30.0,0,no_anomaly,0.0,0,0,0,0,28.6139056,77.2090142,5.0,0.0
2024-02-01T17:17:06.400Z,MISSION_0001,64,0,takeoff,SITE_DEL_002,28.6139068,77.2090116,5.0,69.66,0.209,0.055,1.5,-1.3841,-2.7192,69.6582,0.82073,0.00364,-0.02637,0.57069,0.0469,0.0232,-9.8001,0.1557,0.85,0.3215,0.2178,3,11,0.79,0.75,0.35,24.697,17.45,92.6,31.3,20367.0,7136,7070,7116,7178,45.9,48.7,50.5,46.9,3.028,2.877,2.955,2.701,5.84,315.7,23.7,52.7,1005.54,-27.33,0.17,1.67,17.2,32.4,23.1,0,no_anomaly,0.0,0,0,0,0,28.6139068,77.2090116,5.0,0.0
2024-02-01T17:17:06.500Z,MISSION_0001,65,0,takeoff,SITE_DEL_002,28.6139027,77.2090142,5.0,67.81,0.375,0.201,1.6,1.9545,-3.0452,67.8094,0.8293,0.02897,-0.01254,0.55791,0.0921,0.013,-9.8369,-0.5043,-0.9813,0.1049,0.13,3,15,0.71,0.86,0.33,24.59,17.2,92.5,32.1,20355.0,7284,7281,7304,7003,50.2,49.9,46.7,48.2,2.794,2.78,2.85,3.015,5.95,314.6,23.8,53.3,1005.66,-28.13,1.33,1.62,17.4,38.4,26.5,0,no_anomaly,0.0,0,0,0,0,28.6139027,77.2090142,5.0,0.0
2024-02-01T17:17:06.600Z,MISSION_0001,66,0,takeoff,SITE_DEL_002,28.6139031,77.2090142,5.0,67.28,0.844,0.128,1.62,-2.5568,0.2986,67.2823,0.83228,-0.02002,-0.01019,0.5539,0.0791,-0.07,-9.7916,-1.05,0.3128,0.2656,0.1787,3,12,0.71,1.19,0.25,24.551,22.87,92.5,32.7,20342.0,7234,7385,7435,7122,47.7,51.2,52.1,49.8,2.668,3.098,2.72,2.75,5.58,329.0,23.1,53.1,1005.5,-27.44,0.41,1.64,19.0,34.0,25.1,0,no_anomaly,0.0,0,0,0,0,28.6139031,77.2090142,5.0,0.0
2024-02-01T17:17:06.700Z,MISSION_0001,67,0,takeoff,SITE_DEL_002,28.6138997,77.2090154,5.0,66.98,1.371,0.076,1.71,4.9142,-2.6987,66.9756,0.83245,0.04873,0.00403,0.55194,-0.0239,-0.0037,-9.8326,0.0975,-0.3791,-0.3392,0.2394,3,20,0.76,0.78,0.37,24.571,19.44,92.4,32.2,20330.0,7228,7302,7156,7204,48.3,47.2,48.3,45.6,2.726,2.757,2.762,2.764,5.38,323.6,23.5,52.8,1005.19,-27.38,-0.65,1.14,17.3,34.2,25.3,0,no_anomaly,0.0,0,0,0,0,28.6138997,77.2090154,5.0,0.0
2024-02-01T17:17:06.800Z,MISSION_0001,68,0,takeoff,SITE_DEL_002,28.6138983,77.2090159,5.0,67.87,1.204,0.185,1.78,-1.2902,-3.39,67.8681,0.82945,0.00717,-0.03082,0.55768,-0.005,-0.0424,-9.7813,-0.8929,-0.1798,0.0903,0.2175,3,20,0.97,0.95,0.29,24.596,13.27,92.4,31.7,20317.0,7109,7371,7151,7216,47.4,52.2,48.1,52.4,2.922,2.872,2.855,2.859,4.45,319.8,23.8,53.2,1005.64,-27.46,-0.05,1.08,20.9,37.3,24.8,0,no_anomaly,0.0,0,0,0,0,28.6138983,77.2090159,5.0,0.0
2024-02-01T17:17:06.900Z,MISSION_0001,69,0,takeoff,SITE_DEL_002,28.6138972,77.2090108,5.0,66.48,1.672,0.058,1.25,-0.856,-2.3651,66.4814,0.83626,0.00507,-0.02135,0.5479,-0.0475,0.0952,-9.7287,1.1094,-0.0795,0.0887,0.1324,3,11,0.85,0.72,0.36,24.545,17.07,92.3,31.4,20304.0,7142,7153,7151,7359,46.5,49.1,51.1,47.7,2.692,2.765,2.977,2.829,5.15,323.6,23.4,53.5,1005.69,-33.31,0.68,1.62,16.8,29.8,24.7,0,no_anomaly,0.0,0,0,0,0,28.6138972,77.2090108,5.0,0.0
2024-02-01T17:17:07.000Z,MISSION_0001,70,0,takeoff,SITE_DEL_002,28.6138953,77.2090122,5.0,63.35,1.497,0.043,1.46,-0.097,-3.3645,63.3509,0.85068,0.0147,-0.02543,0.52486,-0.1482,-0.0334,-9.7954,-0.0937,-1.1191,-0.6362,0.1779,3,13,0.75,0.6,0.26,24.572,22.91,92.2,31.6,20292.0,7291,7255,6914,7349,49.1,49.7,56.6,44.5,3.059,2.757,2.843,2.793,5.2,318.3,23.5,53.8,1005.34,-29.01,-1.52,1.73,16.8,30.2,26.3,0,no_anomaly,0.0,0,0,0,0,28.6138953,77.2090122,5.0,0.0
2024-02-01T17:17:07.100Z,MISSION_0001,71,0,transit,SITE_DEL_002,28.6138964,77.20901,5.5,64.49,1.703,0.091,1.19,5.7752,-2.2633,64.4878,0.84402,0.05312,0.01019,0.53358,0.1058,0.0049,-9.7452,-0.3594,0.3725,-0.0584,0.2051,3,14,0.71,0.94,0.28,24.607,23.59,92.2,32.3,20279.0,7366,7168,7103,7379,50.5,51.7,47.5,48.2,2.554,2.741,2.949,2.73,5.73,320.2,23.2,53.8,1005.6,-29.03,-1.15,1.53,15.5,28.1,25.1,0,no_anomaly,0.0,0,0,0,0,28.6138964,77.20901,5.5,0.0
2024-02-01T17:17:07.200Z,MISSION_0001,72,0,transit,SITE_DEL_002,28.6138978,77.2090146,6.0,63.06,2.227,0.221,1.64,2.9122,-2.3548,63.0644,0.85162,0.0324,-0.00422,0.52314,0.1797,-0.0553,-9.8512,-0.3043,-0.2645,-0.317,0.2694,3,10,0.67,0.95,0.23,24.504,19.92,92.1,30.8,20267.0,7228,7033,7537,7375,48.9,51.2,47.0,49.8,2.83,2.84,2.991,2.91,5.56,312.9,23.9,53.5,1005.46,-32.88,-0.12,1.53,19.9,31.7,23.8,0,no_anomaly,0.0,0,0,0,0,28.6138978,77.2090146,6.0,0.0
2024-02-01T17:17:07.300Z,MISSION_0001,73,0,transit,SITE_DEL_002,28.6138971,77.2090117,6.5,63.18,2.304,-0.024,1.34,-3.8794,-1.4987,63.1806,0.85149,-0.02198,-0.02886,0.52312,-0.0246,-0.0954,-9.853,-0.2068,0.9438,0.167,0.1415,3,10,0.75,0.67,0.38,24.57,18.87,92.1,32.4,20254.0,7048,7031,7153,7397,45.7,43.0,47.8,49.8,2.98,2.731,2.738,2.973,4.48,319.2,23.4,53.4,1005.25,-29.43,0.45,1.35,19.6,29.9,28.5,0,no_anomaly,0.0,0,0,0,0,28.6138971,77.2090117,6.5,0.0
2024-02-01T17:17:07.400Z,MISSION_0001,74,0,transit,SITE_DEL_002,28.6138973,77.2090131,7.0,62.67,2.355,0.185,1.48,-3.0077,-2.3099,62.6668,0.85396,-0.01193,-0.03086,0.51928,0.0966,0.0078,-9.8393,0.1121,0.3573,-0.615,0.2662,3,12,0.67,0.96,0.35,24.524,17.05,92.0,31.6,20242.0,7126,7504,7115,7160,49.1,46.3,47.9,49.3,2.75,2.786,2.721,2.573,5.57,330.0,23.6,54.0,1005.3,-29.94,0.23,1.71,15.8,32.8,24.4,0,no_anomaly,0.0,0,0,0,0,28.6138973,77.2090131,7.0,0.0
2024-02-01T17:17:07.500Z,MISSION_0001,75,0,transit,SITE_DEL_002,28.6139028,77.2090154,7.5,63.5,2.426,0.085,1.74,-0.7764,-0.1992,63.4963,0.85035,-0.00485,-0.00504,0.52616,0.0222,-0.0984,-9.8659,-0.0929,0.155,-0.017,0.2692,3,10,0.5,0.92,0.2,24.629,18.93,92.0,32.0,20229.0,7116,7438,7402,7334,48.5,49.9,47.3,50.4,3.047,2.961,2.691,2.854,4.77,324.0,23.3,53.4,1005.5,-28.65,-1.87,1.15,20.6,37.7,26.7,0,no_anomaly,0.0,0,0,0,0,28.6139028,77.2090154,7.5,0.0
2024-02-01T17:17:07.600Z,MISSION_0001,76,0,transit,SITE_DEL_002,28.6139022,77.2090131,8.0,65.07,2.922,0.081,1.48,-1.5107,-2.9183,65.0694,0.8429,0.00258,-0.02855,0.53731,0.0777,-0.0179,-9.817,0.3698,-0.9547,0.3955,0.2119,3,12,0.66,0.89,0.26,24.503,23.95,91.9,31.8,20217.0,7315,7391,7095,7320,48.2,50.4,44.5,48.5,2.71,2.865,2.871,2.694,5.06,320.6,23.4,52.4,1005.2,-32.69,0.84,1.39,15.4,34.0,23.6,0,no_anomaly,0.0,0,0,0,0,28.6139022,77.2090131,8.0,0.0
2024-02-01T17:17:07.700Z,MISSION_0001,77,0,transit,SITE_DEL_002,28.6139025,77.2090171,8.5,65.54,2.74,0.023,1.92,1.4243,-2.6886,65.5392,0.8404,0.02315,-0.013,0.54132,-0.1099,-0.0577,-9.8976,-0.195,0.079,-0.029,0.1875,3,12,0.61,0.99,0.2,24.627,16.36,91.8,31.4,20204.0,7031,7176,7397,7328,50.7,49.8,46.5,48.1,2.683,3.0,2.62,2.934,5.86,330.3,23.2,53.6,1005.07,-31.23,0.71,2.18,18.4,28.4,24.8,0,no_anomaly,0.0,0,0,0,0,28.6139025,77.2090171,8.5,0.0
2024-02-01T17:17:07.800Z,MISSION_0001,78,0,transit,SITE_DEL_002,28.6139014,77.2090184,9.0,65.82,2.868,0.109,2.06,0.6945,-0.0817,65.8169,0.83952,0.00548,0.00269,0.54329,-0.1507,-0.0338,-9.8486,0.4151,0.4502,0.1354,0.2674,3,10,0.58,1.15,0.32,24.623,24.78,91.8,31.0,20192.0,7175,7143,7362,7096,50.2,51.5,50.1,49.3,2.652,2.673,2.987,2.917,5.39,319.1,23.8,52.6,1005.48,-36.08,-1.07,2.07,14.9,29.4,23.5,0,no_anomaly,0.0,0,0,0,0,28.6139014,77.2090184,9.0,0.0
2024-02-01T17:17:07.900Z,MISSION_0001,79,0,transit,SITE_DEL_002,28.6139042,77.2090185,9.5,70.12,2.367,0.159,2.11,3.3076,-2.2592,70.1195,0.81773,0.03494,0.00044,0.57455,0.1222,0.0221,-9.8467,0.1145,-0.929,0.181,0.2232,3,11,0.76,1.06,0.33,24.592,16.54,91.7,31.4,20179.0,7434,7471,7220,7263,46.9,51.1,50.1,52.6,2.668,2.743,2.835,2.897,5.31,316.8,23.6,53.2,1005.56,-27.36,0.72,1.23,20.8,35.5,29.3,0,no_anomaly,0.0,0,0,0,0,28.6139042,77.2090185,9.5,0.0
2024-02-01T17:17:08.000Z,MISSION_0001,80,0,transit,SITE_DEL_002,28.6139016,77.2090185,10.0,66.89,2.63,0.051,2.07,-4.8782,0.2551,66.891,0.8336,-0.03674,-0.0216,0.55072,-0.0522,-0.0106,-9.8414,-0.144,0.7093,-0.7463,0.2721,3,19,0.73,0.72,0.21,24.667,16.48,91.7,31.2,20167.0,7429,7309,7118,7291,46.7,50.9,50.8,49.8,2.854,3.064,2.8,2.623,5.64,331.6,23.8,54.4,1005.49,-33.04,-0.36,1.62,17.0,37.8,24.7,0,no_anomaly,0.0,0,0,0,0,28.6139016,77.2090185,10.0,0.0
2024-02-01T17:17:08.100Z,MISSION_0001,81,0,transit,SITE_DEL_002,28.6138989,77.2090139,10.5,67.28,2.961,0.123,1.55,1.4845,-2.0036,67.2779,0.83222,0.02047,-0.00738,0.55402,-0.0933,-0.0546,-9.7683,0.4569,-0.7729,0.477,0.237,3,12,0.84,0.7,0.22,24.574,20.99,91.6,32.7,20154.0,7367,7225,7107,7446,46.8,52.0,48.2,51.9,2.902,2.779,2.722,2.749,5.63,321.6,23.4,52.6,1005.11,-31.78,-0.17,1.52,13.6,34.5,25.8,0,no_anomaly,0.0,0,0,0,0,28.6138989,77.2090139,10.5,0.0
2024-02-01T17:17:08.200Z,MISSION_0001,82,0,transit,SITE_DEL_002,28.6138935,77.2090098,11.0,66.21,3.547,0.08,1.31,-1.6429,-1.7334,66.2144,0.83759,-0.00375,-0.0205,0.54591,0.0634,0.0066,-9.8139,-0.5976,0.7255,0.5422,0.1241,3,10,0.6,0.86,0.2,24.606,17.59,91.6,32.9,20142.0,7442,7295,7418,7429,47.6,47.1,48.9,50.5,2.821,2.563,2.68,2.789,5.38,331.0,23.7,53.5,1005.49,-34.16,0.51,1.95,22.8,40.1,29.7,0,no_anomaly,0.0,0,0,0,0,28.6138935,77.2090098,11.0,0.0
2024-02-01T17:17:08.300Z,MISSION_0001,83,0,transit,SITE_DEL_002,28.6138932,77.2090111,11.5,62.42,3.752,0.107,1.45,0.3942,-2.3337,62.416,0.85507,0.01349,-0.01564,0.5181,0.324,-0.0337,-9.8302,0.9958,-0.416,-0.165,0.2009,3,16,0.78,0.93,0.21,24.552,18.05,91.5,31.8,20129.0,7330,7329,7000,7426,49.2,51.5,49.6,50.9,2.87,3.002,2.878,2.785,6.55,325.6,23.4,53.3,1005.76,-28.28,-1.28,1.11,17.0,37.5,27.9,0,no_anomaly,0.0,0,0,0,0,28.6138932,77.2090111,11.5,0.0
2024-02-01T17:17:08.400Z,MISSION_0001,84,0,transit,SITE_DEL_002,28.6138953,77.2090077,12.0,62.25,3.51,-0.03,1.01,-1.2112,-2.6204,62.2488,0.8559,0.00277,-0.02503,0.51653,-0.0756,-0.0628,-9.8164,-0.2803,-1.4647,0.6159,0.2627,3,14,0.66,0.9,0.2,24.662,25.45,91.4,31.9,20116.0,7422,7295,7068,7207,49.0,47.8,48.3,48.6,2.788,2.808,2.641,2.692,4.77,326.1,23.5,53.2,1005.24,-36.32,1.15,1.92,20.3,35.3,25.2,0,no_anomaly,0.0,0,0,0,0,28.6138953,77.2090077,12.0,0.0
2024-02-01T17:17:08.500Z,MISSION_0001,85,0,transit,SITE_DEL_002,28.6138938,77.2090123,12.5,63.25,3.233,0.052,1.54,-4.991,-2.4905,63.2462,0.851,-0.02568,-0.04131,0.5229,-0.0338,0.0248,-9.8368,0.2557,0.9676,0.2447,0.2059,3,10,0.68,0.85,0.35,24.545,19.75,91.4,31.8,20104.0,7196,7065,7319,7262,49.7,47.7,51.2,47.0,3.057,2.538,2.865,2.871,5.02,323.3,23.9,52.9,1005.21,-26.16,-2.22,1.65,13.9,28.3,25.2,0,no_anomaly,0.0,0,0,0,0,28.6138938,77.2090123,12.5,0.0
2024-02-01T17:17:08.600Z,MISSION_0001,86,0,transit,SITE_DEL_002,28.6138932,77.2090185,13.0,60.5,2.918,0.16,2.2,4.6781,0.7866,60.4986,0.86324,0.0318,0.02648,0.50309,-0.0164,-0.062,-9.7052,0.7972,0.3395,-0.2437,0.2058,3,17,0.68,0.95,0.37,24.618,16.23,91.3,32.5,20091.0,7320,7377,7493,7107,48.7,47.7,45.6,49.4,3.177,2.524,2.795,2.896,5.48,320.6,23.8,53.2,1005.49,-33.9,0.23,1.27,17.3,34.6,25.7,0,no_anomaly,0.0,0,0,0,0,28.6138932,77.2090185,13.0,0.0
2024-02-01T17:17:08.700Z,MISSION_0001,87,0,transit,SITE_DEL_002,28.6138964,77.2090192,13.5,61.85,2.828,0.139,2.17,4.0987,-1.5188,61.8547,0.85695,0.03748,0.00702,0.51398,0.0307,-0.0635,-9.7957,-0.416,-0.3191,-0.2446,0.155,3,13,0.91,1.1,0.54,24.512,19.63,91.3,31.2,20079.0,7172,7138,7462,7217,50.9,49.9,53.3,45.8,2.989,2.972,2.654,2.951,5.58,320.0,23.4,52.8,1005.66,-32.47,-0.72,2.11,21.4,30.5,25.2,0,no_anomaly,0.0,0,0,0,0,28.6138964,77.2090192,13.5,0.0
2024-02-01T17:17:08.800Z,MISSION_0001,88,0,transit,SITE_DEL_002,28.6138923,77.2090179,14.0,61.91,2.862,0.044,2.17,-0.5595,-1.4063,61.9057,0.85755,0.00212,-0.01304,0.51424,0.1097,0.0367,-9.8593,-0.1421,0.5974,0.2684,0.1396,3,11,0.74,0.6,0.3,24.666,16.59,91.2,31.4,20066.0,7393,7047,7184,7368,47.5,48.3,50.2,49.6,2.84,2.749,2.856,2.781,5.64,318.7,23.6,53.3,1005.6,-30.55,-0.99,1.49,15.0,30.5,26.0,0,no_anomaly,0.0,0,0,0,0,28.6138923,77.2090179,14.0,0.0
2024-02-01T17:17:08.900Z,MISSION_0001,89,0,transit,SITE_DEL_002,28.613891,77.2090192,14.0,62.73,2.995,0.224,2.35,-2.5794,-1.776,62.7319,0.85372,-0.01115,-0.02494,0.52001,0.0576,0.0004,-9.9143,0.0802,1.1063,-0.108,0.1719,3,16,0.74,0.95,0.38,24.507,21.69,91.2,32.1,20054.0,7257,7329,7433,7409,46.5,50.4,48.6,48.9,2.811,2.777,2.979,2.787,4.85,319.2,23.6,53.8,1005.42,-29.46,1.23,1.68,16.6,36.2,24.4,0,no_anomaly,0.0,0,0,0,0,28.613891,77.2090192,14.0,0.0
2024-02-01T17:17:09.000Z,MISSION_0001,90,0,transit,SITE_DEL_002,28.6138926,77.2090217,14.0,64.56,3.312,0.153,2.55,2.7248,-2.4726,64.5592,0.84474,0.03162,-0.00554,0.53421,-0.0905,0.0166,-9.7633,-0.1114,0.5326,0.4358,0.1625,3,10,0.62,0.88,0.27,24.542,23.71,91.1,32.0,20041.0,7284,7063,7081,7321,44.5,50.8,48.4,55.2,3.146,2.773,2.784,2.949,6.27,313.0,23.3,52.0,1005.62,-35.36,-0.62,1.67,21.4,38.8,25.0,0,no_anomaly,0.0,0,0,0,0,28.6138926,77.2090217,14.0,0.0
2024-02-01T17:17:09.100Z,MISSION_0001,91,0,transit,SITE_DEL_002,28.6138902,77.2090156,14.0,64.78,3.55,0.133,2.06,-0.3813,-2.6868,64.7768,0.84424,0.00975,-0.02158,0.53544,-0.0252,-0.0185,-9.8774,-0.3573,0.2606,0.0965,0.2167,3,14,0.6,0.87,0.2,24.576,24.06,91.0,31.1,20029.0,7191,7328,7466,7211,47.4,44.8,49.0,52.8,2.842,2.797,2.848,2.798,5.01,325.3,23.5,53.7,1005.35,-29.32,0.02,1.21,22.6,35.8,26.6,0,no_anomaly,0.0,0,0,0,0,28.6138902,77.2090156,14.0,0.0
2024-02-01T17:17:09.200Z,MISSION_0001,92,0,transit,SITE_DEL_002,28.6138878,77.2090133,14.0,62.12,3.692,0.141,2.01,-5.7206,-3.8427,62.1202,0.85594,-0.02545,-0.05442,0.51357,-0.3285,-0.0043,-9.8175,-0.1633,-0.5213,-0.3517,0.2315,3,15,0.64,0.95,0.2,24.575,23.76,91.0,32.1,20016.0,7217,7317,7242,7280,48.1,48.4,49.2,46.8,2.648,2.592,2.56,2.617,5.49,316.7,23.4,53.4,1005.28,-28.46,0.03,1.0,19.6,39.1,24.8,0,no_anomaly,0.0,0,0,0,0,28.6138878,77.2090133,14.0,0.0
2024-02-01T17:17:09.300Z,MISSION_0001,93,0,transit,SITE_DEL_002,28.6138881,77.2090095,14.0,59.43,3.577,0.074,1.7,-0.3865,-2.5965,59.4305,0.86831,0.0083,-0.02135,0.49549,-0.1874,-0.02,-9.7965,-0.0224,0.0913,-0.201,0.2669,3,19,0.58,0.97,0.3,24.588,19.18,90.9,31.6,20004.0,7434,7065,7133,7219,51.2,49.5,46.8,48.1,2.708,2.694,2.947,2.594,6.22,325.3,23.7,53.9,1005.23,-26.73,-0.46,1.46,19.0,27.6,24.3,0,no_anomaly,0.0,0,0,0,0,28.6138881,77.2090095,14.0,0.0
2024-02-01T17:17:09.400Z,MISSION_0001,94,0,transit,SITE_DEL_002,28.613887,77.2090091,14.0,57.34,3.754,0.129,1.77,-2.2618,-2.2931,57.3368,0.87725,-0.00772,-0.02702,0.4792,-0.0715,-0.0395,-9.8104,-0.1078,-0.1859,-0.2185,0.2242,3,18,0.87,0.92,0.43,24.493,20.35,90.9,31.3,19991.0,7057,7168,7457,7421,49.2,45.7,48.4,49.4,2.826,2.523,2.666,2.79,5.68,310.2,23.4,52.3,1005.37,-30.49,0.14,1.75,16.7,34.6,27.9,0,no_anomaly,0.0,0,0,0,0,28.613887,77.2090091,14.0,0.0
2024-02-01T17:17:09.500Z,MISSION_0001,95,0,transit,SITE_DEL_002,28.61389,77.2090133,14.0,58.4,3.883,0.144,1.85,1.186,-2.8342,58.4027,0.87247,0.0211,-0.01654,0.48793,-0.0206,0.0835,-9.8571,0.8074,-0.161,0.3976,0.1379,3,20,0.76,0.79,0.2,24.572,22.97,90.8,31.4,19979.0,7054,7265,7265,7361,50.7,48.6,52.5,49.2,2.748,2.558,2.761,2.75,5.89,323.5,23.7,53.2,1005.52,-33.54,0.17,1.7,21.9,34.4,29.8,0,no_anomaly,0.0,0,0,0,0,28.61389,77.2090133,14.0,0.0
2024-02-01T17:17:09.600Z,MISSION_0001,96,0,transit,SITE_DEL_002,28.6138938,77.2090093,14.0,57.88,3.652,0.104,1.24,1.1845,-0.1547,57.8785,0.87508,0.0097,0.00382,0.48387,-0.0945,-0.1195,-9.8306,0.4567,0.2688,0.1285,0.1943,3,15,0.57,0.98,0.2,24.669,21.54,90.8,31.6,19966.0,7187,7265,7243,7446,49.1,47.3,52.5,48.9,2.915,2.709,2.854,2.847,4.47,331.3,23.6,53.3,1005.55,-26.13,-0.4,1.17,18.2,35.5,24.5,0,no_anomaly,0.0,0,0,0,0,28.6138938,77.2090093,14.0,0.0
2024-02-01T17:17:09.700Z,MISSION_0001,97,0,transit,SITE_DEL_002,28.6138981,77.209011,14.0,56.3,4.06,0.096,1.24,5.1254,2.7281,56.304,0.88107,0.02819,0.04206,0.47027,-0.1778,0.0121,-9.9141,0.2766,-0.2741,0.577,0.1695,3,14,0.53,0.83,0.2,24.596,13.83,90.7,31.9,19953.0,6967,7230,7525,7333,47.0,48.7,48.8,49.7,2.595,2.889,2.394,2.706,5.17,324.4,23.4,53.0,1005.59,-29.93,-1.41,1.2,18.7,35.4,25.4,0,no_anomaly,0.0,0,0,0,0,28.6138981,77.209011,14.0,0.0
2024-02-01T17:17:09.800Z,MISSION_0001,98,0,transit,SITE_DEL_002,28.6138966,77.2090107,14.0,59.56,3.633,0.11,1.25,-5.7853,-0.8246,59.5589,0.867,-0.04023,-0.0313,0.4957,-0.1074,-0.0159,-9.8491,-0.1299,0.7993,0.2406,0.2514,3,14,0.56,0.73,0.2,24.516,22.69,90.6,32.1,19941.0,7245,7275,7175,7309,50.3,45.5,49.4,50.6,2.738,2.905,3.222,2.784,5.61,317.5,23.9,53.4,1005.64,-29.46,0.46,1.56,17.2,29.5,25.9,0,no_anomaly,0.0,0,0,0,0,28.6138966,77.2090107,14.0,0.0
2024-02-01T17:17:09.900Z,MISSION_0001,99,0,transit,SITE_DEL_002,28.6138958,77.209013,14.0,59.98,3.348,0.13,1.52,0.9951,-3.4875,59.9778,0.86556,0.02273,-0.02202,0.49981,-0.1002,0.0095,-9.7951,-0.5946,0.527,0.1716,0.173,3,16,0.55,0.88,0.2,24.561,18.58,90.6,30.9,19928.0,7220,7233,7374,7174,52.1,44.9,51.4,48.3,2.929,2.812,2.971,2.742,4.86,328.3,23.4,53.1,1005.46,-30.34,0.22,1.87,16.5,36.6,25.6,0,no_anomaly,0.0,0,0,0,0,28.6138958,77.209013,14.0,0.0
2024-02-01T17:17:10.000Z,MISSION_0001,100,0,transit,SITE_DEL_002,28.6138913,77.2090106,14.0,62.0,3.614,0.117,1.53,-0.1957,-1.6353,62.0044,0.85707,0.00589,-0.01311,0.515,-0.0466,0.0678,-9.82,0.1159,0.573,-0.2332,0.2862,3,14,0.55,1.14,0.2,24.542,14.14,90.5,31.6,19916.0,7123,7187,7258,7422,49.2,49.4,46.6,47.0,3.07,2.69,3.048,2.764,5.41,326.5,23.7,53.2,1005.57,-26.18,-0.11,1.38,19.1,36.8,25.0,0,no_anomaly,0.0,0,0,0,0,28.6138913,77.2090106,14.0,0.0
2024-02-01T17:17:10.100Z,MISSION_0001,101,0,transit,SITE_DEL_002,28.6138963,77.2090118,14.0,62.47,3.158,0.191,1.38,-8.2186,-1.4174,62.4719,0.85324,-0.05487,-0.04771,0.51643,-0.015,-0.0257,-9.7978,-0.0302,0.5639,0.0258,0.1709,3,13,0.8,0.87,0.36,24.528,17.63,90.5,31.9,19903.0,7280,7350,7238,7003,47.9,50.4,48.2,48.3,2.948,2.693,2.569,2.776,5.17,316.4,23.5,53.3,1005.35,-30.53,0.49,1.5,19.3,34.7,27.1,0,no_anomaly,0.0,0,0,0,0,28.6138963,77.2090118,14.0,0.0
2024-02-01T17:17:10.200Z,MISSION_0001,102,0,transit,SITE_DEL_002,28.6138937,77.20901,14.0,61.75,3.266,0.01,1.32,7.3387,-3.0741,61.7538,0.85532,0.06865,0.00986,0.51343,-0.0659,-0.0032,-9.7902,0.1318,0.642,-0.7279,0.0889,3,17,0.65,1.06,0.2,24.4,21.35,90.4,32.0,19891.0,7115,7131,7133,7295,47.5,49.8,43.1,47.1,2.631,2.762,2.719,2.92,4.48,321.4,23.1,53.6,1005.45,-28.32,1.86,1.36,19.2,35.6,26.4,0,no_anomaly,0.0,0,0,0,0,28.6138937,77.20901,14.0,0.0
2024-02-01T17:17:10.300Z,MISSION_0001,103,0,transit,SITE_DEL_002,28.6138973,77.2090059,14.0,62.53,3.827,0.15,0.72,1.3112,-1.5851,62.5336,0.85454,0.01696,-0.00588,0.51908,0.0014,-0.0785,-9.7422,-0.3054,0.2522,-0.4689,0.1493,3,12,0.84,0.85,0.46,24.545,14.39,90.4,32.3,19878.0,7190,7383,7282,7047,49.1,53.2,49.8,48.7,2.961,2.832,2.831,2.636,5.53,326.4,23.5,53.6,1005.39,-32.51,1.42,1.47,16.7,30.5,26.0,0,no_anomaly,0.0,0,0,0,0,28.6138973,77.2090059,14.0,0.0
2024-02-01T17:17:10.400Z,MISSION_0001,104,0,transit,SITE_DEL_002,28.6138971,77.2090074,14.0,62.97,3.228,0.032,0.88,-3.5029,-0.6059,62.97,0.85245,-0.0233,-0.02047,0.52189,-0.0209,-0.0262,-9.8779,-0.5399,-1.0109,-0.0304,0.1784,3,19,0.6,0.89,0.26,24.652,15.08,90.3,32.5,19866.0,7424,7162,7309,7210,49.1,51.8,50.0,49.8,2.735,2.577,2.769,2.981,4.65,315.9,23.4,53.6,1005.19,-29.62,-0.98,1.26,19.1,36.3,26.9,0,no_anomaly,0.0,0,0,0,0,28.6138971,77.2090074,14.0,0.0
2024-02-01T17:17:10.500Z,MISSION_0001,105,0,transit,SITE_DEL_002,28.6138923,77.2090055,14.0,64.07,3.169,0.197,1.05,-1.4514,-1.9335,64.0679,0.84766,-0.00179,-0.02102,0.53012,-0.2763,0.0247,-9.7908,-0.2047,0.503,-0.3382,0.2647,3,20,0.72,0.85,0.29,24.541,23.25,90.2,31.3,19853.0,7164,7434,7189,7414,52.2,48.0,50.1,46.5,2.913,2.83,2.871,2.703,4.58,323.7,23.8,52.9,1005.45,-36.19,-0.32,1.78,19.9,36.8,24.5,0,no_anomaly,0.0,0,0,0,0,28.6138923,77.2090055,14.0,0.0
2024-02-01T17:17:10.600Z,MISSION_0001,106,0,transit,SITE_DEL_002,28.6138921,77.2090007,14.0,62.66,3.001,0.11,0.88,-6.3613,-1.9288,62.6573,0.85325,-0.03865,-0.0432,0.51827,-0.0394,-0.0836,-9.7898,0.3579,0.1135,-0.0972,0.2378,3,10,0.77,0.95,0.24,24.559,23.09,90.2,31.6,19841.0,7593,7200,7283,7178,49.2,45.3,47.7,46.6,2.82,2.949,2.897,2.444,6.43,322.7,23.4,53.0,1005.31,-32.33,0.16,1.55,19.4,32.6,27.1,0,no_anomaly,0.0,0,0,0,0,28.6138921,77.2090007,14.0,0.0
2024-02-01T17:17:10.700Z,MISSION_0001,107,0,transit,SITE_DEL_002,28.6138878,77.2090012,14.0,63.54,3.155,0.055,1.36,2.5615,-1.5135,63.5353,0.84975,0.02595,0.00054,0.52655,-0.0843,0.042,-9.8779,-0.4503,-0.4821,0.324,0.2554,3,11,0.75,1.06,0.23,24.561,19.2,90.1,32.3,19828.0,7261,7221,7360,7410,47.4,48.7,46.7,43.8,2.83,2.891,2.839,2.508,5.24,310.1,23.3,53.4,1005.28,-25.89,-1.09,1.88,19.8,38.4,27.4,0,no_anomaly,0.0,0,0,0,0,28.6138878,77.2090012,14.0,0.0
2024-02-01T17:17:10.800Z,MISSION_0001,108,0,transit,SITE_DEL_002,28.6138881,77.2089997,14.0,60.86,2.486,0.042,1.32,0.7082,-2.8423,60.8635,0.86187,0.01789,-0.01826,0.50648,-0.0875,0.0348,-9.7513,-0.1363,-0.1703,0.15,0.1404,3,16,0.72,0.98,0.34,24.445,16.96,90.1,31.4,19816.0,7293,7351,7503,7204,47.8,51.1,49.4,51.3,2.843,2.626,2.6,2.567,5.74,327.1,23.7,53.4,1005.47,-24.45,0.84,1.85,18.0,30.4,26.3,0,no_anomaly,0.0,0,0,0,0,28.6138881,77.2089997,14.0,0.0
2024-02-01T17:17:10.900Z,MISSION_0001,109,0,transit,SITE_DEL_002,28.6138893,77.2090007,14.0,62.79,2.874,0.135,1.19,1.7002,-0.7313,62.7893,0.85344,0.01599,0.00228,0.52094,0.0814,-0.0231,-9.7722,-0.6972,0.5269,-0.3584,0.2226,3,10,0.62,0.98,0.25,24.461,20.7,90.0,31.6,19803.0,7411,7279,7338,7135,47.6,47.9,50.5,52.1,2.679,2.962,2.475,2.621,4.93,314.4,23.6,53.5,1005.43,-34.75,0.41,1.44,16.6,37.5,28.4,0,no_anomaly,0.0,0,0,0,0,28.6138893,77.2090007,14.0,0.0
2024-02-01T17:17:11.000Z,MISSION_0001,110,0,transit,SITE_DEL_002,28.6138857,77.2090039,14.0,61.91,2.594,0.097,1.64,-0.5558,-3.3692,61.9056,0.85728,0.01096,-0.0277,0.51398,-0.0661,0.0172,-9.7926,-0.4489,-0.2439,0.3223,0.2331,3,16,0.91,1.08,0.47,24.469,21.59,90.0,31.9,19791.0,7196,7304,7420,7354,47.0,50.3,47.5,49.2,2.754,2.767,2.915,2.644,6.39,312.1,23.6,53.1,1005.73,-31.79,0.37,1.68,20.2,36.5,26.9,0,no_anomaly,0.0,0,0,0,0,28.6138857,77.2090039,14.0,0.0
2024-02-01T17:17:11.100Z,MISSION_0001,111,0,transit,SITE_DEL_002,28.6138883,77.2090065,14.0,60.46,2.57,0.077,1.49,-0.9387,-3.5084,60.4563,0.86372,0.00834,-0.03057,0.50298,0.057,-0.0269,-9.7772,-0.5351,0.8595,-0.2689,0.2192,3,17,0.78,0.81,0.38,24.476,23.64,89.9,31.9,19778.0,7189,7234,7400,7191,47.3,48.3,46.4,52.4,2.715,2.925,2.831,2.652,5.41,325.1,23.3,52.9,1005.49,-30.56,1.19,1.81,22.2,32.0,28.7,0,no_anomaly,0.0,0,0,0,0,28.6138883,77.2090065,14.0,0.0
2024-02-01T17:17:11.200Z,MISSION_0001,112,0,transit,SITE_DEL_002,28.6138899,77.209,14.0,60.44,2.617,0.121,1.12,-0.8671,-0.0631,60.4442,0.86406,-0.00626,-0.00428,0.50334,0.0668,0.0655,-9.8208,0.4687,0.8175,0.3935,0.1537,3,17,0.67,0.85,0.3,24.57,16.79,89.8,31.9,19765.0,6976,7495,7202,7287,48.2,51.1,43.1,48.8,2.784,2.732,3.059,2.667,5.8,323.0,23.3,52.9,1005.52,-26.22,-0.67,1.28,21.9,34.3,27.3,0,no_anomaly,0.0,0,0,0,0,28.6138899,77.209,14.0,0.0
2024-02-01T17:17:11.300Z,MISSION_0001,113,0,transit,SITE_DEL_002,28.6138924,77.2089979,14.0,56.07,2.774,0.133,0.87,-3.8124,-5.026,56.0728,0.882,-0.00873,-0.0543,0.46803,-0.4483,0.0407,-9.8036,-0.1128,0.6945,0.1912,0.2891,3,18,0.56,0.89,0.2,24.523,18.64,89.8,32.2,19753.0,7285,7372,7384,7602,48.2,46.9,49.3,47.2,3.022,2.758,2.715,2.729,5.77,320.4,23.2,53.4,1005.24,-31.93,1.67,1.24,18.0,38.1,28.1,0,no_anomaly,0.0,0,0,0,0,28.6138924,77.2089979,14.0,0.0
2024-02-01T17:17:11.400Z,MISSION_0001,114,0,transit,SITE_DEL_002,28.6138949,77.2089951,14.0,57.11,3.106,0.13,0.79,2.6912,-1.623,57.1119,0.87786,0.02739,-0.00121,0.47813,-0.0366,-0.0288,-9.7364,-0.3497,-0.5185,0.1996,0.1685,3,19,0.6,0.68,0.21,24.529,20.28,89.7,32.4,19740.0,7358,7250,7249,7355,51.3,49.0,47.9,46.8,2.583,2.9,2.887,2.887,5.35,328.2,23.6,53.4,1005.46,-31.45,0.96,1.49,16.1,36.9,25.1,0,no_anomaly,0.0,0,0,0,0,28.6138949,77.2089951,14.0,0.0
2024-02-01T17:17:11.500Z,MISSION_0001,115,0,transit,SITE_DEL_002,28.6138948,77.2090022,14.0,58.89,3.323,0.088,0.63,0.3493,-0.4893,58.8883,0.87082,0.00475,-0.00222,0.49158,0.082,0.0013,-9.8252,-0.0405,-1.5852,0.0632,0.1838,3,18,0.86,0.9,0.24,24.529,16.52,89.7,32.1,19728.0,7322,7422,7160,7284,46.1,50.2,49.8,49.8,2.8,2.862,3.041,2.757,5.48,315.8,23.5,52.9,1005.51,-32.6,0.1,1.83,18.6,29.9,27.6,0,no_anomaly,0.0,0,0,0,0,28.6138948,77.2090022,14.0,0.0
2024-02-01T17:17:11.600Z,MISSION_0001,116,0,transit,SITE_DEL_002,28.6138903,77.2090061,14.0,57.89,3.539,0.113,1.28,-3.9676,-0.9967,57.8902,0.87467,-0.02608,-0.02436,0.4834,0.1063,0.0192,-9.8597,0.1248,-0.5915,-0.0758,0.2597,3,17,0.78,0.9,0.24,24.562,19.83,89.6,30.8,19715.0,7396,7275,7459,7114,42.4,49.4,49.4,45.4,2.653,3.213,2.754,2.91,5.09,310.7,23.5,52.6,1005.54,-30.51,-0.27,1.38,19.9,30.9,26.6,0,no_anomaly,0.0,0,0,0,0,28.6138903,77.2090061,14.0,0.0
2024-02-01T17:17:11.700Z,MISSION_0001,117,0,transit,SITE_DEL_002,28.6138844,77.2089999,14.0,59.0,3.692,0.004,1.73,-0.1793,-4.0932,58.999,0.86983,0.01622,-0.03185,0.49205,-0.112,-0.0131,-9.8898,-0.3695,0.3262,0.4282,0.1873,3,18,0.78,0.61,0.36,24.488,20.77,89.6,31.8,19703.0,7477,7147,7373,7237,48.5,48.4,47.1,48.8,2.791,2.836,2.813,2.92,5.88,315.9,23.6,53.0,1005.3,-27.39,-1.19,1.68,19.3,31.6,26.4,0,no_anomaly,0.0,0,0,0,0,28.6138844,77.2089999,14.0,0.0
2024-02-01T17:17:11.800Z,MISSION_0001,118,0,transit,SITE_DEL_002,28.6138885,77.2089979,14.0,57.79,3.714,0.049,1.3,2.1418,-2.2125,57.7894,0.87502,0.02569,-0.00787,0.48334,0.1846,0.0265,-9.9189,-0.2647,-0.2809,0.1438,0.077,3,14,0.95,0.98,0.39,24.586,26.89,89.5,32.4,19690.0,7421,7298,7257,7207,47.1,47.4,46.1,48.6,2.547,2.829,2.795,2.822,5.15,336.6,23.3,53.4,1005.31,-25.92,-1.24,1.57,19.5,31.3,27.4,0,no_anomaly,0.0,0,0,0,0,28.6138885,77.2089979,14.0,0.0
2024-02-01T17:17:11.900Z,MISSION_0001,119,0,transit,SITE_DEL_002,28.6138914,77.2090009,14.0,59.85,3.459,0.153,0.96,1.4851,-1.0513,59.8503,0.86651,0.01581,-0.00149,0.49891,-0.075,-0.0386,-9.7295,0.1137,0.318,-0.2466,0.1473,3,11,0.64,0.88,0.2,24.525,14.66,89.4,31.4,19678.0,7379,7369,7220,7126,46.7,48.1,50.1,50.7,2.726,2.627,2.84,2.676,5.15,327.8,23.5,53.9,1005.71,-27.52,0.16,1.12,20.9,31.1,27.2,0,no_anomaly,0.0,0,0,0,0,28.6138914,77.2090009,14.0,0.0
2024-02-01T17:17:12.000Z,MISSION_0001,120,0,transit,SITE_DEL_002,28.6138964,77.2090018,14.0,60.73,3.883,0.153,0.45,1.3977,-2.7519,60.7314,0.86236,0.02266,-0.01455,0.50559,-0.071,0.0119,-9.8745,-0.0716,0.5483,-0.6574,0.285,3,13,0.81,0.83,0.37,24.524,23.63,89.4,32.4,19665.0,7068,7367,7248,7291,47.3,52.3,50.9,47.3,2.6,2.742,2.865,2.836,6.04,325.1,23.6,53.5,1005.38,-27.09,0.33,1.08,21.0,32.4,26.1,0,no_anomaly,0.0,0,0,0,0,28.6138964,77.2090018,14.0,0.0
2024-02-01T17:17:12.100Z,MISSION_0001,121,0,transit,SITE_DEL_002,28.6138933,77.2090015,14.0,61.19,3.686,0.14,0.76,-0.7364,-3.4092,61.1949,0.86046,0.00961,-0.02887,0.5086,0.1771,-0.0147,-9.7374,0.7644,-0.0405,-0.3025,0.104,3,16,0.55,0.69,0.3,24.528,21.01,89.3,30.8,19653.0,7099,7412,7322,7256,49.9,52.1,48.4,48.9,2.829,3.159,2.485,2.902,5.36,324.0,23.4,53.0,1005.36,-31.97,-0.05,1.71,24.3,40.0,28.6,0,no_anomaly,0.0,0,0,0,0,28.6138933,77.2090015,14.0,0.0
2024-02-01T17:17:12.200Z,MISSION_0001,122,0,transit,SITE_DEL_002,28.6138879,77.2090005,14.0,62.29,3.304,0.119,1.35,3.2755,-1.2683,62.2942,0.85528,0.03018,0.00531,0.51726,-0.1162,-0.0071,-9.7301,0.3668,0.0044,-0.0713,0.2121,3,19,0.65,0.6,0.39,24.529,20.85,89.3,31.9,19640.0,7168,7251,7039,7620,46.3,46.7,47.9,51.4,2.802,2.615,2.988,2.91,5.68,324.8,23.7,52.4,1005.41,-22.82,2.19,1.29,17.5,30.4,29.6,0,no_anomaly,0.0,0,0,0,0,28.6138879,77.2090005,14.0,0.0
2024-02-01T17:17:12.300Z,MISSION_0001,123,0,transit,SITE_DEL_002,28.6138855,77.209003,14.0,63.9,2.682,0.05,1.65,-0.0688,-0.3172,63.9008,0.8485,0.00096,-0.00267,0.52918,-0.0295,0.0365,-9.7924,0.1708,-0.1357,-0.365,0.1522,3,19,0.77,0.9,0.3,24.498,18.43,89.2,32.5,19628.0,7228,7077,7390,7248,48.9,52.0,48.8,49.4,2.623,2.767,2.891,2.567,5.51,321.7,23.6,53.2,1005.23,-29.88,1.04,1.6,20.8,30.1,26.8,0,no_anomaly,0.0,0,0,0,0,28.6138855,77.209003,14.0,0.0
2024-02-01T17:17:12.400Z,MISSION_0001,124,0,transit,SITE_DEL_002,28.6138883,77.2090099,14.0,63.88,2.833,0.078,1.71,0.264,-3.0704,63.8753,0.84828,0.01613,-0.02152,0.52886,-0.2882,-0.0353,-9.8796,0.8521,-0.0576,-0.1038,0.2527,3,16,0.59,0.78,0.24,24.57,20.92,89.2,32.1,19615.0,7290,7339,7309,7124,48.9,46.7,49.0,47.9,3.181,2.794,2.589,2.78,5.67,329.6,23.5,53.2,1005.58,-31.77,-1.58,1.75,15.1,36.7,24.3,0,no_anomaly,0.0,0,0,0,0,28.6138883,77.2090099,14.0,0.0
2024-02-01T17:17:12.500Z,MISSION_0001,125,0,transit,SITE_DEL_002,28.6138863,77.2090091,14.0,63.85,2.878,0.095,1.83,0.3056,-1.346,63.8539,0.84864,0.00847,-0.00856,0.52883,0.1336,0.0196,-9.7873,-0.7911,0.0251,0.1439,0.2447,3,18,0.63,0.8,0.22,24.543,22.54,89.1,31.7,19603.0,7415,7297,7260,7247,50.3,49.5,53.4,47.1,2.878,2.721,2.67,2.798,5.48,335.8,23.6,53.6,1005.64,-30.55,-1.13,1.58,14.7,35.5,23.9,0,no_anomaly,0.0,0,0,0,0,28.6138863,77.2090091,14.0,0.0
2024-02-01T17:17:12.600Z,MISSION_0001,126,0,transit,SITE_DEL_002,28.6138848,77.2090087,14.0,62.7,2.539,0.139,1.95,0.9681,-3.9104,62.7047,0.85331,0.02496,-0.02474,0.52022,-0.0656,-0.0498,-9.7825,0.9007,-0.6508,-0.5559,0.202,3,14,0.7,0.93,0.25,24.505,20.37,89.0,32.5,19590.0,6985,7223,7311,7141,52.3,47.5,48.7,49.9,2.711,2.523,2.736,2.954,5.25,317.0,24.0,53.6,1005.68,-27.22,-0.33,1.35,19.1,29.0,25.4,0,no_anomaly,0.0,0,0,0,0,28.6138848,77.2090087,14.0,0.0
2024-02-01T17:17:12.700Z,MISSION_0001,127,0,transit,SITE_DEL_002,28.6138833,77.2090056,14.0,62.8,2.572,0.149,1.97,-3.3694,-2.2629,62.7982,0.85333,-0.01481,-0.03216,0.52017,0.0632,0.018,-9.7848,0.1455,-0.2535,-0.1542,0.1483,3,20,0.88,0.9,0.33,24.467,28.09,89.0,31.4,19577.0,7214,7341,7369,7422,52.4,49.8,46.7,48.3,2.846,3.11,2.59,2.98,5.5,325.4,23.6,52.9,1005.14,-30.31,-0.84,1.73,17.4,36.5,28.4,0,no_anomaly,0.0,0,0,0,0,28.6138833,77.2090056,14.0,0.0
2024-02-01T17:17:12.800Z,MISSION_0001,128,0,transit,SITE_DEL_002,28.6138857,77.2090069,14.0,61.35,2.41,0.121,1.76,-1.4582,-4.2245,61.3495,0.85966,0.00786,-0.03818,0.50937,-0.1294,-0.0567,-9.8306,-0.3693,-0.8135,0.6068,0.2709,3,12,0.62,0.94,0.27,24.572,16.75,88.9,32.5,19565.0,7196,7078,7387,7472,54.0,46.4,50.2,48.0,2.918,2.579,2.611,2.684,5.45,318.0,23.3,53.9,1005.33,-28.02,1.03,1.68,17.3,35.5,29.7,0,no_anomaly,0.0,0,0,0,0,28.6138857,77.2090069,14.0,0.0
2024-02-01T17:17:12.900Z,MISSION_0001,129,0,transit,SITE_DEL_002,28.6138884,77.2090116,14.0,62.03,1.961,0.074,1.82,-2.8686,-0.0159,62.0346,0.85675,-0.02138,-0.01302,0.51513,-0.0268,0.004,-9.7721,0.3482,0.1394,-0.0626,0.1926,3,19,0.79,0.98,0.3,24.565,18.59,88.9,31.5,19552.0,7165,7132,7238,7464,47.2,49.2,47.5,48.3,2.573,2.767,2.771,2.881,5.53,315.2,23.6,53.4,1005.1,-26.75,0.21,1.56,18.2,28.8,26.8,0,no_anomaly,0.0,0,0,0,0,28.6138884,77.2090116,14.0,0.0
2024-02-01T17:17:13.000Z,MISSION_0001,130,0,transit,SITE_DEL_002,28.6138868,77.2090108,14.0,62.42,2.319,0.085,1.9,-2.411,-2.7469,62.4188,0.85511,-0.00557,-0.03139,0.51747,-0.0811,-0.0401,-9.8274,0.3854,-0.5269,0.1283,0.1232,3,12,0.64,0.85,0.36,24.496,12.56,88.8,31.0,19540.0,7284,7371,7335,7304,51.1,47.7,50.6,45.6,2.664,2.529,2.759,2.793,5.47,321.5,23.5,54.0,1005.2,-32.78,-0.19,1.05,17.7,31.7,26.2,0,no_anomaly,0.0,0,0,0,0,28.6138868,77.2090108,14.0,0.0
