timestamp_utc,mission_id,frame_id,waypoint_id,inspection_phase,site_id,latitude_deg,longitude_deg,altitude_m,heading_deg,ground_speed_ms,vertical_speed_ms,distance_to_tower_m,roll_deg,pitch_deg,yaw_deg,quat_w,quat_x,quat_y,quat_z,accel_x_ms2,accel_y_ms2,accel_z_ms2,gyro_x_rads,gyro_y_rads,gyro_z_rads,vibration_level,gps_fix_type,gps_satellite_count,gps_hdop,gps_vdop,position_error_m,battery_voltage_v,battery_current_a,battery_remaining_pct,battery_temp_c,battery_capacity_mah,motor_fl_rpm,motor_fr_rpm,motor_rl_rpm,motor_rr_rpm,motor_fl_temp_c,motor_fr_temp_c,motor_rl_temp_c,motor_rr_temp_c,motor_fl_thrust_n,motor_fr_thrust_n,motor_rl_thrust_n,motor_rr_thrust_n,wind_speed_ms,wind_dir_deg,air_temp_c,humidity_pct,pressure_hpa,gimbal_pitch_deg,gimbal_roll_deg,zoom_factor,ir_temp_min_c,ir_temp_max_c,ir_temp_avg_c,anomaly_detected,anomaly_class,anomaly_confidence,anomaly_bbox_x,anomaly_bbox_y,anomaly_bbox_w,anomaly_bbox_h,anomaly_gps_lat,anomaly_gps_lon,anomaly_gps_alt_m,ir_temp_delta_c
2024-12-14T17:34:00.000Z,MISSION_0003,0,0,takeoff,SITE_CHE_004,13.0827015,80.2707011,1.5,220.11,0.124,0.032,0.2,-2.941,-4.0895,220.1062,-0.3417,0.0423,-0.01186,0.93878,-0.1598,0.0158,-9.8253,0.1135,-0.1289,-0.2758,0.0761,3,12,0.58,1.16,0.29,24.73,16.46,98.7,47.7,21725.0,8684,8656,8665,8368,68.6,64.4,66.7,65.6,2.543,2.723,2.794,2.676,4.55,329.1,40.0,81.0,1015.02,-26.08,0.55,1.33,34.2,54.0,42.8,0,no_anomaly,0.0,0,0,0,0,13.0827015,80.2707011,1.5,0.0
2024-12-14T17:34:00.100Z,MISSION_0003,1,0,takeoff,SITE_CHE_004,13.0827038,80.2706992,3.0,219.41,0.09,0.08,0.44,4.7189,-7.532,219.4055,-0.33867,0.04793,0.0608,0.93771,-0.1475,0.1179,-9.7531,0.2478,0.1178,-0.0831,0.1357,3,13,0.66,0.88,0.34,24.782,18.15,98.7,47.6,21711.0,8452,8261,8557,8337,64.2,67.0,65.5,65.6,2.98,2.898,2.776,2.496,5.07,330.8,40.1,81.6,1015.3,-30.06,-1.64,1.55,37.6,49.4,41.4,0,no_anomaly,0.0,0,0,0,0,13.0827038,80.2706992,3.0,0.0
2024-12-14T17:34:00.200Z,MISSION_0003,2,0,takeoff,SITE_CHE_004,13.0827094,80.2706979,4.5,217.64,0.304,0.11,1.07,-0.9286,-3.2144,217.6394,-0.32224,0.02916,0.00138,0.94621,-0.1213,0.0105,-9.8093,0.6277,0.1942,0.2795,0.2054,3,15,0.75,0.89,0.43,24.786,13.71,98.6,47.9,21697.0,8565,8529,8656,8459,65.0,66.8,62.2,63.0,3.086,2.743,2.925,2.961,4.64,327.1,40.0,82.3,1015.5,-29.97,-0.68,1.62,32.8,49.7,42.4,0,no_anomaly,0.0,0,0,0,0,13.0827094,80.2706979,4.5,0.0
2024-12-14T17:34:00.300Z,MISSION_0003,3,0,takeoff,SITE_CHE_004,13.0827133,80.2706987,5.0,216.32,0.251,0.157,1.49,2.0896,-0.3518,216.3243,-0.31171,-0.00277,0.01828,0.95,0.1661,-0.0088,-9.7987,0.2599,0.7305,-0.2266,0.2288,3,15,0.65,1.08,0.26,24.775,15.61,98.6,47.8,21684.0,8835,8630,8566,8743,68.0,64.9,63.5,64.7,2.746,2.815,2.841,3.178,4.77,324.8,39.7,81.1,1015.09,-31.76,-3.03,1.0,30.8,47.0,42.1,0,no_anomaly,0.0,0,0,0,0,13.0827133,80.2706987,5.0,0.0
2024-12-14T17:34:00.400Z,MISSION_0003,4,0,takeoff,SITE_CHE_004,13.0827145,80.2706972,5.0,215.81,0.079,0.091,1.64,-4.0872,-3.3862,215.8119,-0.30612,0.03906,-0.02484,0.95087,-0.1274,0.0317,-9.866,0.5101,0.3418,-0.4693,0.2251,3,18,0.71,1.1,0.23,24.794,20.43,98.5,47.1,21670.0,8734,8427,8608,8504,64.6,63.4,63.8,65.9,3.013,2.617,2.72,2.839,5.39,333.9,39.8,81.3,1015.26,-26.52,-1.71,1.33,33.9,54.6,42.5,0,no_anomaly,0.0,0,0,0,0,13.0827145,80.2706972,5.0,0.0
2024-12-14T17:34:00.500Z,MISSION_0003,5,0,takeoff,SITE_CHE_004,13.0827132,80.2707037,5.0,215.58,0.0,0.194,1.53,3.854,-2.1187,215.5765,-0.30587,0.00732,0.03766,0.9513,0.1207,0.0941,-9.7361,0.1864,0.3637,0.404,0.158,3,17,0.57,1.2,0.2,24.873,15.92,98.4,47.5,21656.0,8657,8297,8923,8826,68.1,61.9,67.6,67.4,2.825,2.926,2.893,2.618,5.07,329.9,40.1,82.0,1015.15,-34.55,0.75,1.84,36.7,47.6,44.1,0,no_anomaly,0.0,0,0,0,0,13.0827132,80.2707037,5.0,0.0
2024-12-14T17:34:00.600Z,MISSION_0003,6,0,takeoff,SITE_CHE_004,13.0827141,80.2706956,5.0,218.22,0.118,0.161,1.64,3.4993,-0.2806,218.2216,-0.32731,-0.00768,0.02965,0.94442,0.1147,-0.0511,-9.978,1.0915,0.0091,-0.1014,0.1926,3,19,0.65,0.9,0.26,24.764,17.33,98.4,48.4,21643.0,8646,8457,8567,8363,66.2,68.4,66.8,64.8,2.655,2.903,2.711,2.804,5.67,327.4,40.0,81.6,1015.18,-29.69,-1.04,1.4,35.2,53.8,44.2,0,no_anomaly,0.0,0,0,0,0,13.0827141,80.2706956,5.0,0.0
2024-12-14T17:34:00.700Z,MISSION_0003,7,0,takeoff,SITE_CHE_004,13.0827172,80.2706909,5.0,217.02,0.0,-0.005,2.16,0.5443,-1.7973,217.0173,-0.31748,0.01336,0.00948,0.94812,-0.0218,-0.0035,-9.8766,-0.463,0.2962,-0.4356,0.1929,3,20,0.8,0.93,0.27,24.792,15.85,98.3,48.0,21629.0,8422,8315,8520,8720,67.3,66.5,66.4,66.5,2.77,2.614,2.825,2.941,5.72,332.5,40.0,82.0,1015.37,-28.98,-1.4,1.97,34.8,53.8,44.5,0,no_anomaly,0.0,0,0,0,0,13.0827172,80.2706909,5.0,0.0
2024-12-14T17:34:00.800Z,MISSION_0003,8,0,takeoff,SITE_CHE_004,13.0827169,80.2706892,5.0,216.22,0.001,0.085,2.24,-0.564,0.9898,216.2231,-0.31089,-0.00668,-0.00736,0.95039,-0.051,-0.0384,-9.7557,0.001,0.4554,-0.0262,0.2416,3,19,0.83,1.11,0.4,24.651,13.46,98.3,48.2,21615.0,8319,8375,8672,8438,63.9,64.2,67.4,67.5,3.151,2.928,3.037,2.694,4.59,334.4,40.0,82.0,1015.29,-30.58,1.67,1.38,32.3,44.9,39.4,0,no_anomaly,0.0,0,0,0,0,13.0827169,80.2706892,5.0,0.0
2024-12-14T17:34:00.900Z,MISSION_0003,9,0,takeoff,SITE_CHE_004,13.082721,80.2706857,5.0,217.55,0.21,0.11,2.83,0.984,-1.3271,217.5507,-0.32192,0.0082,0.01186,0.94666,-0.0698,-0.0696,-9.7909,-0.2381,0.2904,-0.0959,0.2485,3,17,0.81,1.04,0.43,24.752,21.11,98.2,47.8,21601.0,8456,8550,8734,8507,66.8,63.0,61.3,64.0,2.792,2.949,2.765,3.042,5.54,330.2,39.9,82.2,1014.94,-29.3,-1.05,1.43,35.8,48.3,39.8,0,no_anomaly,0.0,0,0,0,0,13.082721,80.2706857,5.0,0.0
2024-12-14T17:34:01.000Z,MISSION_0003,10,0,takeoff,SITE_CHE_004,13.0827243,80.2706856,5.0,218.7,0.523,0.064,3.14,0.5698,-0.6993,218.6962,-0.33133,0.00411,0.00671,0.94348,0.056,0.0159,-9.8344,0.604,0.0546,0.4185,0.15,3,12,0.64,0.73,0.33,24.781,13.65,98.1,47.6,21588.0,8367,8692,8719,8467,60.9,61.0,67.6,67.5,3.034,2.781,2.492,2.874,5.05,340.2,39.7,82.0,1015.48,-27.94,0.2,1.38,36.9,46.4,43.5,0,no_anomaly,0.0,0,0,0,0,13.0827243,80.2706856,5.0,0.0
2024-12-14T17:34:01.100Z,MISSION_0003,11,0,takeoff,SITE_CHE_004,13.0827292,80.2706809,5.0,220.6,0.504,0.084,3.88,2.4959,-4.1418,220.6037,-0.3474,0.02633,0.03295,0.93677,-0.0598,0.0324,-9.81,-0.0606,-0.1694,0.0017,0.2069,3,13,0.59,0.82,0.27,24.743,19.73,98.1,47.9,21574.0,8452,8691,8634,8521,66.6,66.2,63.9,65.3,2.857,2.873,3.064,2.897,5.62,325.9,39.8,81.2,1015.5,-22.04,-1.29,1.33,37.0,49.6,40.2,0,no_anomaly,0.0,0,0,0,0,13.0827292,80.2706809,5.0,0.0
2024-12-14T17:34:01.200Z,MISSION_0003,12,0,takeoff,SITE_CHE_004,13.0827277,80.2706746,5.0,220.18,0.637,0.099,4.18,-4.9254,-1.0721,220.1753,-0.34275,0.02354,-0.03714,0.9384,0.0491,-0.0435,-9.7957,0.8128,0.0281,-0.1496,0.1646,3,11,0.88,0.87,0.33,24.792,20.03,98.0,47.3,21560.0,8568,8464,8714,8365,66.6,61.1,66.3,66.6,2.665,2.93,2.781,2.472,5.44,327.3,40.1,81.7,1015.35,-27.21,1.31,1.38,31.4,44.0,42.7,0,no_anomaly,0.0,0,0,0,0,13.0827277,80.2706746,5.0,0.0
2024-12-14T17:34:01.300Z,MISSION_0003,13,0,takeoff,SITE_CHE_004,13.0827304,80.2706779,5.0,220.75,0.12,0.172,4.18,-0.9126,-2.3149,220.7481,-0.34791,0.02171,-0.00043,0.93727,0.0137,-0.1287,-9.8499,-0.0911,0.2207,0.6775,0.2387,3,14,0.6,0.78,0.2,24.727,18.74,97.9,47.6,21547.0,8505,8508,8588,8476,63.5,63.6,65.8,63.6,2.905,2.855,2.637,2.986,5.33,328.0,40.3,82.1,1015.28,-24.51,-0.01,1.61,36.6,49.0,41.5,0,no_anomaly,0.0,0,0,0,0,13.0827304,80.2706779,5.0,0.0
2024-12-14T17:34:01.400Z,MISSION_0003,14,0,takeoff,SITE_CHE_004,13.0827332,80.2706765,5.0,221.12,0.0,0.138,4.53,5.8418,-0.371,221.1189,-0.35088,-0.01487,0.04885,0.93503,0.2777,-0.0245,-9.7646,0.2117,0.1528,0.4967,0.1602,3,16,0.64,0.82,0.2,24.645,17.49,97.9,48.4,21533.0,8504,8415,8720,8367,61.3,62.0,68.1,64.6,2.991,2.983,2.51,2.809,5.68,326.0,40.2,82.4,1015.52,-33.87,0.5,1.14,32.9,50.6,41.6,0,no_anomaly,0.0,0,0,0,0,13.0827332,80.2706765,5.0,0.0
2024-12-14T17:34:01.500Z,MISSION_0003,15,0,takeoff,SITE_CHE_004,13.0827301,80.2706815,5.0,220.35,0.0,0.117,3.93,3.3176,-1.0686,220.3497,-0.34498,-0.00123,0.03039,0.93812,-0.2655,0.0437,-9.7958,0.0166,-0.2376,0.3928,0.2849,3,17,0.76,0.71,0.21,24.702,20.89,97.8,47.9,21519.0,8631,8448,8748,8364,64.6,64.5,66.4,65.7,3.022,2.995,2.695,2.807,5.29,328.7,40.3,81.5,1015.1,-34.62,-0.02,1.76,34.2,49.6,40.9,0,no_anomaly,0.0,0,0,0,0,13.0827301,80.2706815,5.0,0.0
2024-12-14T17:34:01.600Z,MISSION_0003,16,0,takeoff,SITE_CHE_004,13.0827289,80.2706848,5.0,221.69,0.079,0.127,3.63,4.4118,-3.3902,221.6934,-0.35651,0.01393,0.04647,0.93303,-0.0658,0.0182,-9.8202,0.4237,0.8641,-0.0276,0.2263,3,16,0.79,1.01,0.46,24.762,18.2,97.8,47.5,21506.0,8590,8400,8394,8600,64.4,60.2,69.7,62.1,2.762,2.622,2.762,2.734,4.95,330.9,40.2,81.3,1015.58,-33.19,0.54,1.63,38.0,53.9,43.6,0,no_anomaly,0.0,0,0,0,0,13.0827289,80.2706848,5.0,0.0
2024-12-14T17:34:01.700Z,MISSION_0003,17,0,takeoff,SITE_CHE_004,13.0827339,80.2706874,5.0,221.2,0.718,0.086,4.02,3.4552,-4.2436,221.2037,-0.35252,0.02404,0.04122,0.93459,-0.0586,0.0302,-9.8734,0.5514,-0.098,-0.296,0.197,3,11,0.64,0.64,0.25,24.719,18.71,97.7,47.5,21492.0,8562,8900,8350,8547,65.7,65.2,65.0,65.2,2.736,3.052,2.862,2.707,5.89,327.7,39.9,82.4,1015.05,-33.4,-0.42,1.93,35.7,44.3,40.8,0,no_anomaly,0.0,0,0,0,0,13.0827339,80.2706874,5.0,0.0
2024-12-14T17:34:01.800Z,MISSION_0003,18,0,takeoff,SITE_CHE_004,13.0827358,80.2706834,5.0,222.84,0.885,0.07,4.39,2.2649,-1.7296,222.8434,-0.36539,0.00683,0.02391,0.93052,-0.1661,0.0398,-9.7806,-0.3811,-0.6189,0.0208,0.2132,3,15,0.77,0.81,0.34,24.787,12.21,97.6,46.9,21478.0,8564,8580,8443,8316,68.7,65.2,65.2,64.0,2.777,2.759,3.006,3.172,4.89,336.8,39.8,81.9,1015.01,-25.16,-0.83,1.33,31.4,45.4,39.8,0,no_anomaly,0.0,0,0,0,0,13.0827358,80.2706834,5.0,0.0
2024-12-14T17:34:01.900Z,MISSION_0003,19,0,takeoff,SITE_CHE_004,13.0827376,80.2706859,5.0,222.19,0.564,0.119,4.47,0.6251,-1.5943,222.1944,-0.35998,0.01102,0.0101,0.93284,-0.1105,-0.0209,-9.8332,0.3969,0.0984,-0.5481,0.3252,3,17,0.66,1.01,0.27,24.712,21.15,97.6,48.9,21465.0,8370,8420,8770,8848,65.8,67.7,64.1,61.7,2.79,3.014,2.692,3.043,5.91,332.2,39.9,81.6,1015.36,-21.38,-0.15,1.11,31.9,54.5,40.3,0,no_anomaly,0.0,0,0,0,0,13.0827376,80.2706859,5.0,0.0
2024-12-14T17:34:02.000Z,MISSION_0003,20,0,takeoff,SITE_CHE_004,13.0827401,80.2706868,5.0,222.13,0.393,0.174,4.7,-2.2045,-2.3895,222.1321,-0.35892,0.02637,-0.01045,0.93294,-0.1957,-0.0298,-9.7946,-0.5773,-1.0338,-0.1387,0.1459,3,17,0.65,1.03,0.31,24.732,19.93,97.5,49.0,21451.0,8499,8392,8638,8462,62.9,64.5,65.8,65.8,2.592,2.865,2.581,2.606,5.96,322.8,40.2,82.4,1015.27,-37.22,0.44,1.32,34.3,52.6,43.2,0,no_anomaly,0.0,0,0,0,0,13.0827401,80.2706868,5.0,0.0
2024-12-14T17:34:02.100Z,MISSION_0003,21,0,takeoff,SITE_CHE_004,13.0827417,80.2706853,5.0,221.22,0.391,0.107,4.92,1.8739,0.3277,221.2197,-0.35191,-0.00843,0.0143,0.93589,0.1671,0.0336,-9.8158,-0.1309,0.1142,0.0531,0.1523,3,15,0.66,0.9,0.31,24.73,23.97,97.4,47.7,21437.0,8574,8519,8600,8539,64.4,66.1,63.4,62.4,2.944,2.803,3.026,2.801,4.56,333.5,39.8,81.6,1015.8,-35.38,-1.61,1.51,33.7,53.0,42.2,0,no_anomaly,0.0,0,0,0,0,13.0827417,80.2706853,5.0,0.0
2024-12-14T17:34:02.200Z,MISSION_0003,22,0,takeoff,SITE_CHE_004,13.0827383,80.2706829,5.0,223.4,0.15,0.011,4.67,-0.8022,-1.936,223.3978,-0.36956,0.01828,-0.00026,0.92903,-0.0536,0.0575,-9.7594,0.3891,0.728,-0.035,0.2693,3,16,0.75,0.76,0.34,24.71,13.55,97.4,47.3,21424.0,8393,8772,8129,8498,66.1,64.7,64.3,63.4,3.021,2.732,2.616,2.726,5.42,327.5,39.9,81.5,1015.12,-28.76,-0.04,1.61,38.6,56.0,45.4,0,no_anomaly,0.0,0,0,0,0,13.0827383,80.2706829,5.0,0.0
2024-12-14T17:34:02.300Z,MISSION_0003,23,0,takeoff,SITE_CHE_004,13.0827386,80.2706829,5.0,220.85,0.0,0.104,4.71,3.4234,-4.0506,220.8523,-0.34962,0.02269,0.0403,0.93575,0.1072,-0.0965,-9.8914,0.2565,0.7467,0.2891,0.1796,3,12,0.62,0.96,0.2,24.752,16.33,97.3,48.9,21410.0,8582,8511,8572,8484,66.0,63.3,67.2,64.3,2.925,2.915,2.823,2.904,5.07,334.6,40.4,81.6,1015.27,-34.81,-1.06,1.45,35.2,48.1,41.9,0,no_anomaly,0.0,0,0,0,0,13.0827386,80.2706829,5.0,0.0
2024-12-14T17:34:02.400Z,MISSION_0003,24,0,takeoff,SITE_CHE_004,13.0827358,80.2706861,5.0,220.52,0.0,0.047,4.27,-0.6524,-2.3882,220.5179,-0.34607,0.02152,0.00188,0.93796,-0.1916,0.009,-9.823,-0.7438,-0.9194,-0.0502,0.1907,3,13,0.57,1.02,0.2,24.757,15.48,97.3,47.9,21396.0,8447,8480,8571,8496,66.3,62.7,63.6,65.7,2.935,2.813,2.912,2.666,5.05,334.2,39.8,82.7,1015.18,-31.09,-0.46,1.38,36.5,52.1,40.9,0,no_anomaly,0.0,0,0,0,0,13.0827358,80.2706861,5.0,0.0
2024-12-14T17:34:02.500Z,MISSION_0003,25,0,takeoff,SITE_CHE_004,13.0827347,80.2706881,5.0,220.51,0.0,0.16,4.09,-0.2733,-3.3626,220.5084,-0.34597,0.02835,0.00792,0.93778,-0.1867,0.0482,-9.7943,-0.9686,0.3995,-0.0634,0.1927,3,19,0.79,0.75,0.32,24.799,17.12,97.2,47.8,21382.0,8784,8456,8641,8345,66.6,63.9,66.9,63.9,2.879,2.511,2.783,2.812,4.8,331.5,40.0,81.7,1015.29,-21.98,-1.02,1.64,33.0,48.7,40.8,0,no_anomaly,0.0,0,0,0,0,13.0827347,80.2706881,5.0,0.0
2024-12-14T17:34:02.600Z,MISSION_0003,26,0,takeoff,SITE_CHE_004,13.0827398,80.2706867,5.0,221.85,0.0,0.167,4.67,1.2794,-2.1414,221.8459,-0.35722,0.01347,0.0171,0.93377,0.1858,-0.0027,-9.7463,-0.4019,-0.5989,-0.2898,0.2292,3,17,0.59,0.6,0.22,24.733,16.65,97.1,47.5,21369.0,8712,8659,8588,8733,63.2,64.6,67.4,65.4,3.055,2.537,2.527,2.726,5.58,334.9,40.0,81.6,1015.22,-30.72,1.03,1.62,37.6,49.3,43.1,0,no_anomaly,0.0,0,0,0,0,13.0827398,80.2706867,5.0,0.0
2024-12-14T17:34:02.700Z,MISSION_0003,27,0,takeoff,SITE_CHE_004,13.0827367,80.2706861,5.0,220.62,0.0,0.118,4.37,-1.4768,-4.2571,220.6185,-0.34637,0.0393,0.00081,0.93727,0.1167,0.0318,-9.7592,-0.2658,0.2266,-0.3424,0.1772,3,18,0.8,1.08,0.33,24.758,17.3,97.1,48.6,21355.0,8401,8556,8715,8462,65.0,65.9,66.9,63.6,2.856,2.947,2.946,2.794,5.12,331.3,39.9,82.1,1015.56,-32.12,0.54,1.54,34.4,45.4,38.1,0,no_anomaly,0.0,0,0,0,0,13.0827367,80.2706861,5.0,0.0
2024-12-14T17:34:02.800Z,MISSION_0003,28,0,takeoff,SITE_CHE_004,13.082734,80.2706849,5.0,220.27,0.0,0.157,4.14,0.3096,-1.3495,220.2704,-0.34424,0.01013,0.00659,0.9388,-0.0599,0.0276,-9.7356,-0.3451,-0.0764,-0.0881,0.2945,3,14,0.76,1.06,0.29,24.812,21.01,97.0,47.6,21341.0,8359,8546,8616,8483,63.6,67.0,65.8,64.9,2.69,2.79,2.687,2.938,5.66,326.6,39.8,81.9,1015.64,-32.75,1.31,1.74,32.7,48.2,44.8,0,no_anomaly,0.0,0,0,0,0,13.082734,80.2706849,5.0,0.0
2024-12-14T17:34:02.900Z,MISSION_0003,29,0,takeoff,SITE_CHE_004,13.0827386,80.2706866,5.0,220.58,0.166,0.128,4.54,-0.2268,-3.0439,220.5839,-0.34663,0.0256,0.00736,0.93762,-0.126,0.1092,-9.8393,0.523,-1.0775,-0.1564,0.2001,3,13,0.65,0.78,0.32,24.738,16.45,96.9,47.8,21328.0,8334,8371,8378,8470,71.2,63.9,64.1,63.9,2.868,2.609,2.649,2.964,5.42,332.2,39.7,82.1,1015.39,-27.33,0.04,1.14,35.6,53.3,41.0,0,no_anomaly,0.0,0,0,0,0,13.0827386,80.2706866,5.0,0.0
2024-12-14T17:34:03.000Z,MISSION_0003,30,0,transit,SITE_CHE_004,13.0827406,80.2706892,5.5,221.2,0.465,0.088,4.68,-3.0799,0.321,221.2024,-0.3518,0.00683,-0.02614,0.93568,-0.2941,0.0429,-9.8577,0.6232,0.3607,-0.1652,0.1922,3,18,0.66,1.01,0.2,24.707,19.68,96.9,47.1,21314.0,8346,8721,8256,8395,68.3,65.8,67.6,63.5,2.59,2.815,2.866,2.552,5.29,327.2,40.2,82.4,1015.39,-29.8,1.01,1.42,35.5,48.0,45.4,0,no_anomaly,0.0,0,0,0,0,13.0827406,80.2706892,5.5,0.0
2024-12-14T17:34:03.100Z,MISSION_0003,31,0,transit,SITE_CHE_004,13.0827413,80.2706944,6.0,221.53,0.685,0.13,4.64,-4.5262,-0.8981,221.5266,-0.35393,0.02132,-0.03415,0.9344,0.1584,-0.0197,-9.7471,-0.4926,-0.477,0.1196,0.2229,3,20,0.65,0.72,0.34,24.639,19.67,96.8,47.7,21300.0,8583,8524,8790,8752,64.7,67.4,61.3,64.8,2.759,2.493,2.733,2.974,5.38,334.0,40.0,81.7,1015.16,-33.29,-0.9,1.46,34.5,47.6,41.0,0,no_anomaly,0.0,0,0,0,0,13.0827413,80.2706944,6.0,0.0
2024-12-14T17:34:03.200Z,MISSION_0003,32,0,transit,SITE_CHE_004,13.0827393,80.2706922,6.5,220.24,0.846,0.139,4.45,0.1608,-1.2041,220.2355,-0.34395,0.00938,0.00493,0.93893,-0.0456,-0.0043,-9.902,0.3774,0.1937,0.0382,0.2516,3,10,0.87,0.78,0.47,24.779,17.18,96.8,47.5,21287.0,8587,8715,8356,8358,66.2,65.3,66.8,65.6,2.855,2.824,2.806,2.898,4.61,331.1,40.1,82.1,1014.98,-31.32,-0.5,1.69,37.2,47.7,41.5,0,no_anomaly,0.0,0,0,0,0,13.0827393,80.2706922,6.5,0.0
2024-12-14T17:34:03.300Z,MISSION_0003,33,0,transit,SITE_CHE_004,13.0827385,80.2706935,7.0,220.46,1.114,0.239,4.35,0.9457,-1.8525,220.4593,-0.34585,0.01231,0.01333,0.93811,-0.1239,-0.0168,-9.7588,-0.1523,0.4008,-0.5266,0.1644,3,10,0.54,0.6,0.2,24.706,22.92,96.7,47.3,21273.0,8551,8514,8555,8514,63.7,60.6,66.2,67.1,2.795,2.808,2.596,2.725,5.55,326.3,40.1,81.6,1015.24,-30.33,2.15,1.56,33.2,44.8,39.1,0,no_anomaly,0.0,0,0,0,0,13.0827385,80.2706935,7.0,0.0
2024-12-14T17:34:03.400Z,MISSION_0003,34,0,transit,SITE_CHE_004,13.0827334,80.2706911,7.5,221.77,0.743,0.09,3.85,-4.3651,-0.5884,221.7685,-0.35604,0.01837,-0.03375,0.93368,0.3422,0.0275,-9.7216,-0.5739,0.2318,0.3388,0.1803,3,16,0.6,0.88,0.26,24.701,19.0,96.6,47.5,21259.0,8595,8664,8591,8433,61.8,65.2,63.9,68.3,3.013,2.52,2.76,2.686,4.7,330.5,40.0,82.6,1015.2,-32.37,-0.91,1.19,36.2,53.3,46.2,0,no_anomaly,0.0,0,0,0,0,13.0827334,80.2706911,7.5,0.0
2024-12-14T17:34:03.500Z,MISSION_0003,35,0,transit,SITE_CHE_004,13.0827344,80.2706889,8.0,221.02,0.78,0.074,4.02,0.6177,-0.8817,221.0237,-0.35042,0.00532,0.00774,0.93654,0.1669,-0.0027,-9.756,-0.4114,0.3532,-0.2205,0.1708,3,13,0.8,0.6,0.37,24.721,18.89,96.6,48.9,21246.0,8392,8376,8719,8521,67.5,66.4,65.7,64.6,2.762,3.098,2.708,2.956,4.83,326.9,39.7,83.1,1014.96,-29.45,-0.15,1.79,35.7,49.5,42.3,0,no_anomaly,0.0,0,0,0,0,13.0827344,80.2706889,8.0,0.0
2024-12-14T17:34:03.600Z,MISSION_0003,36,0,transit,SITE_CHE_004,13.0827437,80.2706909,8.5,221.7,0.328,0.095,4.97,1.6865,-4.3279,221.6989,-0.35614,0.03005,0.02718,0.93355,-0.0257,0.0549,-9.8821,0.3271,-0.1811,0.1692,0.1387,3,20,0.83,1.0,0.26,24.67,21.97,96.5,47.9,21232.0,8429,8633,8652,8472,67.9,65.1,66.9,66.9,2.601,2.974,2.953,2.85,4.08,332.5,40.2,82.2,1015.5,-32.73,-1.37,1.45,35.5,43.9,39.6,0,no_anomaly,0.0,0,0,0,0,13.0827437,80.2706909,8.5,0.0
2024-12-14T17:34:03.700Z,MISSION_0003,37,0,transit,SITE_CHE_004,13.0827428,80.2706923,9.0,220.07,0.0,0.129,4.84,-3.43,-3.1094,220.0662,-0.34152,0.03573,-0.01882,0.93901,-0.1215,0.0614,-9.8176,1.0713,0.7625,-0.3026,0.2571,3,15,0.8,0.85,0.32,24.675,25.15,96.4,48.9,21218.0,8514,8792,8491,8700,65.6,64.9,63.0,63.9,2.891,2.81,2.75,3.018,5.35,331.4,39.9,81.4,1015.21,-31.61,0.3,1.68,33.9,47.6,44.6,0,no_anomaly,0.0,0,0,0,0,13.0827428,80.2706923,9.0,0.0
2024-12-14T17:34:03.800Z,MISSION_0003,38,0,transit,SITE_CHE_004,13.082744,80.2706954,9.5,223.42,0.193,0.121,4.93,-6.2652,-0.2421,223.4196,-0.36925,0.02217,-0.04999,0.92772,0.0649,-0.0346,-9.7688,0.2109,-0.2415,0.0365,0.161,3,12,0.68,0.7,0.3,24.725,21.5,96.4,48.6,21205.0,8461,8618,8623,8440,66.9,64.4,63.8,64.7,2.547,2.534,2.887,2.701,4.68,323.2,39.8,82.6,1015.12,-33.81,-0.77,1.0,38.4,46.2,44.4,0,no_anomaly,0.0,0,0,0,0,13.082744,80.2706954,9.5,0.0
2024-12-14T17:34:03.900Z,MISSION_0003,39,0,transit,SITE_CHE_004,13.0827439,80.2706994,10.0,222.9,0.433,0.157,4.89,2.15,-2.7307,222.8997,-0.36593,0.01531,0.02617,0.93015,-0.0434,-0.0683,-9.9498,-0.3871,0.1187,-0.3663,0.2365,3,13,0.66,1.05,0.2,24.701,14.59,96.3,47.1,21191.0,8523,8383,8554,8626,62.2,66.7,62.7,63.6,2.7,2.832,2.885,2.878,4.94,334.0,40.3,80.9,1015.31,-27.43,-0.6,1.03,35.9,47.4,42.7,0,no_anomaly,0.0,0,0,0,0,13.0827439,80.2706994,10.0,0.0
2024-12-14T17:34:04.000Z,MISSION_0003,40,0,transit,SITE_CHE_004,13.082745,80.2707038,10.5,223.15,0.489,0.044,5.03,-1.0959,-3.4312,223.15,-0.36727,0.03135,0.00212,0.92958,-0.0883,0.0196,-9.8686,0.6038,0.1326,-0.4673,0.2191,3,16,0.64,1.15,0.2,24.696,15.72,96.3,48.5,21177.0,8707,8359,8591,8822,66.8,68.2,65.8,62.3,2.557,2.716,2.694,3.057,6.29,334.8,40.3,82.1,1015.4,-28.12,-0.89,1.65,35.5,53.0,40.4,0,no_anomaly,0.0,0,0,0,0,13.082745,80.2707038,10.5,0.0
2024-12-14T17:34:04.100Z,MISSION_0003,41,0,transit,SITE_CHE_004,13.0827376,80.2707024,11.0,222.37,0.815,0.06,4.2,2.9261,-0.6732,222.3697,-0.36139,-0.00375,0.02593,0.93205,0.0198,0.0705,-9.8499,-0.1435,0.874,0.0302,0.2702,3,14,0.65,0.92,0.33,24.768,18.15,96.2,47.4,21163.0,8431,8509,8639,8453,66.0,65.7,64.1,61.3,2.875,2.546,2.927,3.124,5.3,328.8,40.3,82.5,1015.71,-25.45,-0.27,1.58,38.0,52.3,44.1,0,no_anomaly,0.0,0,0,0,0,13.0827376,80.2707024,11.0,0.0
2024-12-14T17:34:04.200Z,MISSION_0003,42,0,transit,SITE_CHE_004,13.0827394,80.2707014,11.5,220.54,0.854,0.038,4.39,0.3173,-0.106,220.5401,-0.34645,-9e-05,0.00292,0.93807,-0.0292,-0.0362,-9.8996,-0.0497,-0.3557,-0.1192,0.1956,3,12,0.71,0.76,0.24,24.772,17.64,96.1,48.5,21150.0,8512,8531,8723,8490,66.8,66.3,64.3,62.8,2.917,2.707,2.756,2.719,4.43,331.5,40.1,80.1,1015.26,-36.29,0.62,1.69,35.9,52.3,41.7,0,no_anomaly,0.0,0,0,0,0,13.0827394,80.2707014,11.5,0.0
2024-12-14T17:34:04.300Z,MISSION_0003,43,0,transit,SITE_CHE_004,13.0827433,80.2707023,12.0,219.59,0.495,0.001,4.82,7.6346,-2.6224,219.5861,-0.33922,-0.00105,0.07036,0.93807,-0.0325,-0.0261,-9.8577,-1.2485,-0.2989,-0.0292,0.1538,3,19,0.5,0.94,0.2,24.772,17.84,96.1,47.1,21136.0,8764,8769,8365,8651,67.9,68.4,67.7,65.7,2.792,2.71,2.703,2.608,5.52,330.4,40.5,82.5,1015.16,-31.24,-0.15,1.83,35.5,49.4,43.9,0,no_anomaly,0.0,0,0,0,0,13.0827433,80.2707023,12.0,0.0
2024-12-14T17:34:04.400Z,MISSION_0003,44,0,transit,SITE_CHE_004,13.0827433,80.270702,12.5,218.03,0.381,0.048,4.82,-3.1087,-0.6199,218.0275,-0.32553,0.01395,-0.02388,0.94513,-0.2587,-0.0325,-9.8595,0.8868,0.3972,0.1506,0.2607,3,13,0.7,0.88,0.27,24.673,20.27,96.0,48.6,21122.0,8677,8508,8490,8911,64.3,67.9,64.3,64.3,2.865,3.029,2.858,2.711,6.49,332.5,40.1,82.8,1015.08,-30.7,0.62,1.19,35.3,46.7,41.3,0,no_anomaly,0.0,0,0,0,0,13.0827433,80.270702,12.5,0.0
2024-12-14T17:34:04.500Z,MISSION_0003,45,0,transit,SITE_CHE_004,13.0827436,80.270703,13.0,219.46,0.536,0.034,4.87,0.2699,0.0336,219.459,-0.33758,-0.00107,0.00212,0.94129,0.0352,-0.0328,-9.8649,0.5924,0.7307,0.0522,0.1321,3,20,0.65,1.1,0.3,24.62,19.78,95.9,48.1,21109.0,8710,8512,8777,8540,59.2,63.8,65.6,65.3,2.727,2.566,2.973,3.045,4.82,335.7,40.3,82.0,1015.21,-28.13,-1.25,1.61,36.4,49.0,45.8,0,no_anomaly,0.0,0,0,0,0,13.0827436,80.270703,13.0,0.0
2024-12-14T17:34:04.600Z,MISSION_0003,46,0,transit,SITE_CHE_004,13.0827474,80.2707012,13.5,219.59,0.497,0.077,5.28,-3.0091,-0.1392,219.5934,-0.33854,0.01004,-0.02429,0.94059,0.0739,0.1135,-9.8024,-0.0541,-0.1657,-0.0852,0.2818,3,20,0.64,0.97,0.23,24.628,19.23,95.9,47.3,21095.0,8617,8512,8521,8561,65.1,64.7,66.1,65.1,3.221,2.635,2.631,2.742,4.86,337.4,40.1,82.4,1014.93,-24.75,-0.4,1.65,33.5,47.3,42.6,0,no_anomaly,0.0,0,0,0,0,13.0827474,80.2707012,13.5,0.0
2024-12-14T17:34:04.700Z,MISSION_0003,47,0,transit,SITE_CHE_004,13.0827439,80.2707003,14.0,219.11,0.521,0.129,4.89,-2.8365,-3.5599,219.1122,-0.33374,0.03754,-0.01292,0.94183,-0.0563,-0.0584,-9.7502,0.5202,0.3052,0.3059,0.1844,3,11,0.66,0.96,0.32,24.71,19.14,95.8,48.3,21081.0,8728,8746,8547,8677,60.8,61.8,64.4,63.8,3.063,2.756,2.856,2.832,4.59,332.8,39.8,80.8,1015.27,-29.9,1.56,1.33,38.2,51.1,42.3,0,no_anomaly,0.0,0,0,0,0,13.0827439,80.2707003,14.0,0.0
2024-12-14T17:34:04.800Z,MISSION_0003,48,0,transit,SITE_CHE_004,13.0827476,80.2707012,14.5,220.48,0.331,0.17,5.31,2.3776,-4.7015,220.4834,-0.34641,0.0313,0.03364,0.93696,0.0901,-0.0829,-9.7801,-0.2797,0.4236,-0.0118,0.2607,3,17,0.74,0.91,0.38,24.712,23.38,95.8,48.1,21068.0,8554,8450,8502,8549,63.7,66.4,62.6,63.3,2.48,2.696,2.983,2.723,4.87,327.6,40.2,82.2,1015.03,-28.95,1.28,1.76,30.7,45.7,42.3,0,no_anomaly,0.0,0,0,0,0,13.0827476,80.2707012,14.5,0.0
2024-12-14T17:34:04.900Z,MISSION_0003,49,0,transit,SITE_CHE_004,13.0827449,80.2706989,15.0,219.68,0.388,0.151,5.0,-8.4226,-3.9247,219.6793,-0.33591,0.05703,-0.05745,0.93841,-0.0358,0.0493,-9.8253,0.0935,0.5494,-0.239,0.1553,3,10,0.59,0.86,0.2,24.771,18.92,95.7,48.5,21054.0,8459,8580,8541,8616,65.8,64.4,64.7,67.3,2.663,2.908,2.844,2.912,5.13,336.5,40.2,82.3,1015.62,-31.91,0.5,1.65,37.4,49.3,43.7,0,no_anomaly,0.0,0,0,0,0,13.0827449,80.2706989,15.0,0.0
2024-12-14T17:34:05.000Z,MISSION_0003,50,0,transit,SITE_CHE_004,13.0827437,80.2706981,15.2,220.11,0.336,0.007,4.87,-1.1255,-4.1987,220.1079,-0.34232,0.03778,0.00334,0.93882,0.1213,-0.0054,-9.8128,-0.509,-0.1956,0.071,0.1455,3,18,0.68,0.83,0.26,24.678,14.13,95.6,48.6,21040.0,8219,8621,8744,8576,62.3,66.7,61.9,64.4,2.971,2.783,2.803,2.985,4.53,331.6,39.9,81.6,1015.3,-29.98,-0.77,1.31,33.1,54.9,43.2,0,no_anomaly,0.0,0,0,0,0,13.0827437,80.2706981,15.2,0.0
2024-12-14T17:34:05.100Z,MISSION_0003,51,0,transit,SITE_CHE_004,13.0827422,80.2706986,15.2,220.02,0.346,0.066,4.69,-0.3285,-1.8568,220.0214,-0.34211,0.01621,0.00285,0.93952,0.0321,0.0032,-9.8195,0.5048,-0.465,0.6496,0.162,3,11,0.65,0.63,0.24,24.729,15.29,95.6,48.8,21027.0,8562,8377,8463,8659,64.0,68.3,63.7,64.9,2.705,2.938,2.576,2.491,5.02,330.3,40.3,81.4,1015.37,-35.08,0.43,1.71,32.2,45.3,41.7,0,no_anomaly,0.0,0,0,0,0,13.0827422,80.2706986,15.2,0.0
2024-12-14T17:34:05.200Z,MISSION_0003,52,0,transit,SITE_CHE_004,13.0827407,80.2706992,15.2,221.2,0.442,0.025,4.53,-5.5904,-0.6297,221.2046,-0.3512,0.0223,-0.04372,0.93501,-0.2988,0.0332,-9.7874,-0.1423,0.2315,-0.3343,0.1391,3,18,0.76,0.85,0.42,24.665,15.15,95.5,49.5,21013.0,8375,8611,8605,8696,64.4,64.5,64.8,68.7,2.93,2.672,2.721,2.78,4.84,323.3,39.9,82.2,1015.41,-32.04,-0.91,1.97,33.3,46.7,41.4,0,no_anomaly,0.0,0,0,0,0,13.0827407,80.2706992,15.2,0.0
2024-12-14T17:34:05.300Z,MISSION_0003,53,0,transit,SITE_CHE_004,13.0827413,80.2707008,15.2,220.99,0.401,0.136,4.6,10.166,-2.9026,220.9947,-0.35078,-0.00738,0.0918,0.93192,-0.1962,-0.0219,-9.8154,-0.7832,0.2507,-0.1829,0.0901,3,12,0.7,0.78,0.35,24.631,16.58,95.5,48.3,20999.0,8533,8447,8446,8769,64.0,62.7,64.6,64.8,2.886,2.607,3.055,2.719,6.15,332.4,40.4,82.0,1015.27,-28.3,0.83,1.38,34.9,53.2,38.9,0,no_anomaly,0.0,0,0,0,0,13.0827413,80.2707008,15.2,0.0
2024-12-14T17:34:05.400Z,MISSION_0003,54,0,transit,SITE_CHE_004,13.0827423,80.2706964,15.2,222.76,0.028,0.056,4.73,4.6169,-1.6082,222.7595,-0.36474,-0.00163,0.04261,0.93013,0.1994,-0.0892,-9.7661,0.0945,-0.125,0.344,0.2447,3,13,0.72,0.6,0.26,24.725,16.14,95.4,48.3,20986.0,8686,8777,8622,8450,67.6,64.6,66.1,63.8,2.605,2.613,3.013,2.794,5.65,341.7,39.8,81.7,1015.11,-27.19,1.9,1.18,33.5,49.0,43.4,0,no_anomaly,0.0,0,0,0,0,13.0827423,80.2706964,15.2,0.0
2024-12-14T17:34:05.500Z,MISSION_0003,55,0,transit,SITE_CHE_004,13.0827406,80.2706966,15.2,223.24,0.321,0.163,4.53,1.7442,0.9321,223.2443,-0.36831,-0.01317,0.01115,0.92954,0.3291,-0.0247,-9.7973,0.0102,-0.5091,0.275,0.2471,3,18,0.77,1.04,0.26,24.744,21.94,95.3,47.1,20972.0,8523,8663,9019,8628,65.8,64.6,64.9,68.2,2.817,3.024,2.768,2.862,4.39,328.5,39.9,82.3,1015.27,-30.91,-0.04,1.47,32.0,46.5,43.6,0,no_anomaly,0.0,0,0,0,0,13.0827406,80.2706966,15.2,0.0
2024-12-14T17:34:05.600Z,MISSION_0003,56,0,transit,SITE_CHE_004,13.0827396,80.2707031,15.2,224.18,0.286,0.042,4.42,1.936,-1.1176,224.1805,-0.37615,0.00268,0.01932,0.92635,-0.0139,-0.0489,-9.829,-1.5438,-0.3109,0.1977,0.2207,3,16,0.67,0.97,0.33,24.683,17.37,95.3,48.0,20958.0,8456,8710,8900,8399,64.0,65.7,64.5,66.4,2.671,2.49,2.941,2.915,5.72,341.2,39.8,82.3,1015.05,-31.44,1.85,1.96,34.3,48.6,42.7,0,no_anomaly,0.0,0,0,0,0,13.0827396,80.2707031,15.2,0.0
2024-12-14T17:34:05.700Z,MISSION_0003,57,0,transit,SITE_CHE_004,13.0827403,80.2707024,15.2,224.57,0.561,0.176,4.5,1.2535,-0.6946,224.5705,-0.37925,0.00146,0.01242,0.92521,0.2995,-0.0958,-9.7961,-0.0216,0.0056,-0.6152,0.2166,3,13,0.65,1.01,0.43,24.62,19.37,95.2,47.3,20945.0,8611,8731,8661,8793,66.4,61.6,68.9,62.1,3.077,2.902,2.855,3.059,5.58,336.2,40.0,81.7,1015.58,-29.42,-0.63,1.19,39.0,48.7,43.2,0,no_anomaly,0.0,0,0,0,0,13.0827403,80.2707024,15.2,0.0
2024-12-14T17:34:05.800Z,MISSION_0003,58,0,transit,SITE_CHE_004,13.0827432,80.2707057,15.2,226.56,0.922,0.177,4.85,6.0588,-0.7241,226.5586,-0.39496,-0.01509,0.05104,0.91716,-0.2055,-0.0167,-9.7847,0.1687,0.4051,0.0131,0.1333,3,10,0.73,0.63,0.2,24.7,15.69,95.1,47.9,20931.0,8663,8506,8651,8768,63.4,64.0,66.4,64.2,2.894,2.877,2.751,2.999,4.69,334.4,39.8,81.8,1015.5,-36.35,0.09,1.52,31.5,51.7,41.1,0,no_anomaly,0.0,0,0,0,0,13.0827432,80.2707057,15.2,0.0
2024-12-14T17:34:05.900Z,MISSION_0003,59,0,transit,SITE_CHE_004,13.0827438,80.2707045,15.2,225.66,0.928,0.094,4.91,-1.2022,-1.8262,225.6604,-0.38778,0.01876,-0.00349,0.92156,-0.1007,0.0443,-9.8416,-0.7454,1.4086,0.3005,0.1721,3,18,0.61,1.0,0.2,24.724,20.02,95.1,48.3,20917.0,8617,8808,8558,8610,63.6,66.3,63.4,67.5,2.998,2.551,2.954,2.614,5.07,331.3,40.0,82.3,1015.05,-31.35,-0.36,1.74,37.5,54.6,42.5,0,no_anomaly,0.0,0,0,0,0,13.0827438,80.2707045,15.2,0.0
2024-12-14T17:34:06.000Z,MISSION_0003,60,1,transit,SITE_CHE_004,13.082744,80.2707038,15.2,226.08,0.579,0.092,4.91,1.1264,-1.5745,226.0836,-0.39147,0.0088,0.01442,0.92004,0.3084,-0.0647,-9.6943,0.9618,0.6417,-0.1515,0.255,3,14,0.53,0.6,0.2,24.622,12.39,95.0,49.0,20903.0,8481,8658,9011,8572,62.5,68.8,64.8,66.8,2.392,2.845,2.791,2.745,5.77,328.0,40.0,81.9,1015.0,-30.84,0.1,1.76,34.4,46.4,40.0,0,no_anomaly,0.0,0,0,0,0,13.082744,80.2707038,15.2,0.0
2024-12-14T17:34:06.100Z,MISSION_0003,61,1,transit,SITE_CHE_004,13.0827462,80.2707063,15.2,223.65,0.443,0.015,5.19,4.0832,-1.8409,223.6456,-0.37198,0.00166,0.03904,0.92742,-0.05,-0.0557,-9.7471,-0.3506,0.3434,0.5764,0.212,3,13,0.84,0.97,0.42,24.656,15.58,95.0,47.9,20890.0,8535,8629,8695,8356,65.4,65.7,65.2,63.0,2.862,2.856,2.924,2.767,5.44,334.2,40.0,81.5,1015.13,-29.86,-1.34,1.0,35.4,50.6,43.9,0,no_anomaly,0.0,0,0,0,0,13.0827462,80.2707063,15.2,0.0
2024-12-14T17:34:06.200Z,MISSION_0003,62,1,transit,SITE_CHE_004,13.0827515,80.2707051,15.2,225.43,0.455,0.135,5.77,-4.4368,-2.062,225.426,-0.38512,0.03153,-0.02876,0.92188,-0.3612,0.011,-9.8567,-0.0096,-0.3279,0.3553,0.2079,3,14,0.67,0.83,0.28,24.648,11.29,94.9,47.9,20876.0,8589,8475,8626,8605,60.7,63.7,67.8,66.2,2.894,2.946,2.763,2.716,5.71,336.9,40.0,82.0,1015.42,-26.3,-0.64,1.7,32.3,47.6,43.8,0,no_anomaly,0.0,0,0,0,0,13.0827515,80.2707051,15.2,0.0
2024-12-14T17:34:06.300Z,MISSION_0003,63,1,transit,SITE_CHE_004,13.0827506,80.270704,15.2,227.02,0.578,0.073,5.65,-3.0429,-0.2573,227.0186,-0.3987,0.01265,-0.02345,0.91669,0.2271,0.0149,-9.826,0.8064,0.7732,-0.2656,0.1926,3,20,0.69,1.15,0.34,24.649,18.27,94.8,48.1,20862.0,8474,8666,8657,8677,65.6,62.9,63.8,65.2,2.935,2.842,2.615,2.497,5.27,333.4,40.3,81.4,1015.48,-27.62,1.75,1.84,32.7,55.5,41.7,0,no_anomaly,0.0,0,0,0,0,13.0827506,80.270704,15.2,0.0
2024-12-14T17:34:06.400Z,MISSION_0003,64,1,transit,SITE_CHE_004,13.0827562,80.2707082,15.2,226.43,0.085,0.092,6.32,-2.3111,-1.9311,226.4349,-0.39377,0.02343,-0.01189,0.91883,-0.0434,0.0121,-9.9006,0.3969,-0.3114,-0.0002,0.1819,3,11,0.77,0.82,0.2,24.692,13.27,94.8,48.1,20849.0,8752,8675,8593,8599,63.0,65.9,66.1,65.5,2.801,2.779,2.919,2.708,4.62,335.9,40.3,82.5,1015.24,-33.96,-0.74,1.63,38.3,48.8,43.3,0,no_anomaly,0.0,0,0,0,0,13.0827562,80.2707082,15.2,0.0
2024-12-14T17:34:06.500Z,MISSION_0003,65,1,transit,SITE_CHE_004,13.0827545,80.270709,15.2,226.72,0.441,0.048,6.15,-0.6108,-0.4612,226.7179,-0.39646,0.00581,-0.0033,0.91803,-0.2075,0.0176,-9.8454,0.0031,-0.1098,-0.333,0.169,3,15,0.65,1.16,0.23,24.568,16.0,94.7,47.3,20835.0,8432,8223,8495,8644,64.3,64.4,70.2,63.9,2.833,2.816,2.838,2.709,5.67,337.3,40.0,82.5,1015.18,-29.8,1.17,1.66,36.2,54.6,44.6,0,no_anomaly,0.0,0,0,0,0,13.0827545,80.270709,15.2,0.0
2024-12-14T17:34:06.600Z,MISSION_0003,66,1,transit,SITE_CHE_004,13.0827548,80.2707058,15.2,227.28,0.58,0.116,6.13,7.2348,-1.6506,227.2751,-0.40094,-0.01213,0.06356,0.91382,0.047,-0.0077,-9.8143,-0.1507,0.6797,-0.1547,0.2632,3,14,0.69,0.77,0.24,24.626,16.69,94.6,47.6,20821.0,8476,8217,8604,8505,64.7,63.5,67.8,61.4,2.94,2.564,2.689,2.855,6.26,335.3,40.2,81.5,1015.07,-37.75,0.35,1.26,36.1,51.5,45.4,0,no_anomaly,0.0,0,0,0,0,13.0827548,80.2707058,15.2,0.0
2024-12-14T17:34:06.700Z,MISSION_0003,67,1,transit,SITE_CHE_004,13.0827546,80.2707035,15.2,227.77,0.446,0.166,6.09,-0.0837,-0.5476,227.7685,-0.40488,0.00467,0.00127,0.91436,0.0049,-0.0134,-9.8455,-0.2631,0.3535,-0.0415,0.1579,3,15,0.66,1.02,0.24,24.531,20.94,94.6,48.1,20808.0,8708,8527,8660,8674,63.6,62.5,62.8,65.5,2.777,2.797,2.864,2.751,5.06,327.2,39.8,82.8,1015.07,-28.88,1.7,1.35,32.5,51.7,40.5,0,no_anomaly,0.0,0,0,0,0,13.0827546,80.2707035,15.2,0.0
2024-12-14T17:34:06.800Z,MISSION_0003,68,1,transit,SITE_CHE_004,13.0827563,80.2707002,15.2,228.56,0.249,0.101,6.26,-7.1167,0.0923,228.5569,-0.41042,0.02479,-0.05691,0.90978,0.0322,-0.0269,-9.8217,-0.0958,-0.1785,-0.1168,0.1988,3,15,0.9,0.6,0.2,24.68,10.37,94.5,47.9,20794.0,8471,8583,8495,8566,63.6,62.6,64.6,66.1,2.895,2.827,2.991,2.813,5.7,330.0,39.7,82.1,1015.37,-28.63,1.96,1.55,37.9,55.8,42.1,0,no_anomaly,0.0,0,0,0,0,13.0827563,80.2707002,15.2,0.0
2024-12-14T17:34:06.900Z,MISSION_0003,69,1,transit,SITE_CHE_004,13.0827588,80.2706982,15.2,234.21,0.573,0.144,6.55,3.8788,-0.6806,234.2062,-0.4555,-0.01013,0.03283,0.88957,-0.131,-0.0209,-9.7819,-0.9226,-0.2373,-0.1513,0.2361,3,10,0.6,1.2,0.43,24.678,22.02,94.5,48.4,20780.0,8507,8448,8640,8487,67.1,63.8,65.6,63.4,2.661,3.017,2.731,2.739,4.97,328.9,40.2,82.0,1015.28,-30.32,-2.02,1.74,35.2,55.2,44.3,0,no_anomaly,0.0,0,0,0,0,13.0827588,80.2706982,15.2,0.0
2024-12-14T17:34:07.000Z,MISSION_0003,70,1,transit,SITE_CHE_004,13.0827606,80.2706942,15.2,233.67,0.867,0.087,6.78,2.6662,1.2986,233.6689,-0.45103,-0.02061,0.01564,0.89213,-0.0119,0.0608,-9.8129,-0.5502,0.0884,-0.0658,0.1847,3,19,0.59,0.86,0.2,24.753,21.15,94.4,47.6,20767.0,8499,8529,8557,8463,64.9,67.2,64.4,62.7,2.497,2.506,2.843,2.819,5.19,328.5,40.0,80.9,1015.42,-31.27,0.26,1.32,37.4,52.5,41.9,0,no_anomaly,0.0,0,0,0,0,13.0827606,80.2706942,15.2,0.0
2024-12-14T17:34:07.100Z,MISSION_0003,71,1,transit,SITE_CHE_004,13.0827614,80.2706928,15.2,233.19,1.025,0.134,6.89,-0.3985,-1.0921,233.1946,-0.44766,0.01008,0.00116,0.89414,0.0176,0.0465,-9.8583,0.0633,-0.8905,-0.2895,0.1381,3,20,0.68,0.85,0.23,24.586,13.51,94.3,47.6,20753.0,8719,8593,8449,8574,65.6,65.3,64.0,64.0,2.73,2.981,2.889,2.993,5.35,326.4,40.0,81.6,1015.11,-26.12,-0.33,1.17,35.5,50.3,42.0,0,no_anomaly,0.0,0,0,0,0,13.0827614,80.2706928,15.2,0.0
2024-12-14T17:34:07.200Z,MISSION_0003,72,1,orbit_base,SITE_CHE_004,13.0826555,80.2707665,15.5,232.92,1.16,0.107,8.91,-5.8761,-3.443,232.9209,-0.44342,0.04969,-0.0325,0.89435,-0.1267,0.0659,-9.909,-0.4731,0.0205,-0.1382,0.1567,3,13,0.67,1.14,0.33,24.568,18.81,94.3,47.3,20739.0,8630,8728,8385,8646,68.2,60.8,65.3,65.4,2.784,2.642,2.844,2.74,5.41,327.8,39.9,81.9,1015.05,-29.9,2.65,1.04,30.2,44.3,38.4,0,no_anomaly,0.0,0,0,0,0,13.0826555,80.2707665,15.5,0.0
2024-12-14T17:34:07.300Z,MISSION_0003,73,1,orbit_base,SITE_CHE_004,13.0826536,80.2707651,15.8,231.84,1.451,0.072,8.91,0.8548,-1.3776,231.8402,-0.43715,0.00755,0.01196,0.89928,0.0266,-0.0224,-9.7767,-0.2793,0.4897,0.3414,0.1957,3,19,0.59,0.9,0.3,24.624,19.12,94.2,48.1,20726.0,8534,8839,8729,8473,61.1,66.1,63.4,65.6,2.765,2.991,2.775,2.832,6.38,337.3,39.7,82.0,1015.45,-35.33,-0.28,1.34,34.8,54.1,42.5,0,no_anomaly,0.0,0,0,0,0,13.0826536,80.2707651,15.8,0.0
2024-12-14T17:34:07.400Z,MISSION_0003,74,1,orbit_base,SITE_CHE_004,13.0826516,80.2707637,16.1,231.7,1.222,0.169,8.91,-0.7122,-2.4467,231.7045,-0.43582,0.02192,0.00372,0.89976,0.0938,0.0595,-9.7728,-0.2139,-0.9334,-0.0687,0.2378,3,17,0.8,0.86,0.27,24.587,21.06,94.1,47.4,20712.0,8726,8506,8418,8802,62.6,62.3,69.1,66.3,2.861,2.834,2.698,2.725,6.16,330.9,39.9,80.9,1015.44,-31.98,1.34,1.28,37.1,52.7,42.3,0,no_anomaly,0.0,0,0,0,0,13.0826516,80.2707637,16.1,0.0
2024-12-14T17:34:07.500Z,MISSION_0003,75,1,orbit_base,SITE_CHE_004,13.0826497,80.2707622,16.4,231.38,1.217,0.112,8.91,0.2849,-2.5178,231.3769,-0.43342,0.01872,0.01176,0.90092,0.2741,0.01,-9.809,0.3898,-0.2097,-0.0731,0.2308,3,17,0.7,1.01,0.26,24.667,21.03,94.1,48.7,20698.0,8297,8640,8721,8450,67.3,65.6,64.3,66.0,2.924,2.477,3.043,2.508,4.74,338.5,39.4,81.5,1015.19,-27.23,-0.45,1.81,37.8,47.1,41.3,0,no_anomaly,0.0,0,0,0,0,13.0826497,80.2707622,16.4,0.0
2024-12-14T17:34:07.600Z,MISSION_0003,76,1,orbit_base,SITE_CHE_004,13.0826479,80.2707607,16.7,231.29,1.613,0.157,8.91,-1.5882,-4.1168,231.2881,-0.43201,0.03837,0.00306,0.90105,-0.1541,0.0153,-9.7548,0.0127,0.4959,-0.0023,0.2373,3,12,0.87,0.98,0.28,24.658,19.11,94.0,48.0,20684.0,8476,8931,8556,8245,63.9,63.6,64.6,62.1,2.718,2.838,2.599,2.976,5.31,332.2,40.0,82.4,1015.35,-31.2,0.22,1.73,37.1,50.1,43.9,0,no_anomaly,0.0,0,0,0,0,13.0826479,80.2707607,16.7,0.0
2024-12-14T17:34:07.700Z,MISSION_0003,77,1,orbit_base,SITE_CHE_004,13.0826461,80.2707591,17.0,230.05,1.373,0.065,8.91,-3.3264,-0.3025,230.05,-0.42276,0.01467,-0.02518,0.90577,0.2357,-0.0821,-9.7704,0.2983,1.1119,-0.0232,0.1285,3,20,0.54,1.07,0.2,24.679,18.6,94.0,48.7,20671.0,8365,8608,8716,8701,67.1,61.8,64.9,65.1,3.02,3.212,3.016,2.934,5.51,331.5,39.6,81.1,1015.27,-26.21,0.2,1.36,36.2,48.0,44.3,0,no_anomaly,0.0,0,0,0,0,13.0826461,80.2707591,17.0,0.0
2024-12-14T17:34:07.800Z,MISSION_0003,78,1,orbit_base,SITE_CHE_004,13.0826444,80.2707575,17.3,230.75,1.148,0.076,8.91,-3.798,-3.6749,230.7521,-0.42714,0.04315,-0.01619,0.90301,0.186,0.0414,-9.8517,0.2457,0.0529,0.2466,0.2697,3,16,0.53,0.96,0.21,24.696,13.42,93.9,47.6,20657.0,8613,8558,8652,8353,67.5,65.5,65.5,64.8,2.628,2.683,3.046,2.811,5.29,335.6,40.1,82.2,1015.11,-32.36,0.43,1.55,33.6,46.6,40.4,0,no_anomaly,0.0,0,0,0,0,13.0826444,80.2707575,17.3,0.0
2024-12-14T17:34:07.900Z,MISSION_0003,79,1,orbit_base,SITE_CHE_004,13.0826427,80.2707558,17.6,229.71,1.262,0.148,8.91,0.7878,-3.6214,229.7133,-0.42033,0.02578,0.01952,0.9068,0.0553,-0.0092,-9.7569,0.2099,-0.5668,0.0549,0.1674,3,16,0.71,0.96,0.32,24.592,16.8,93.8,48.2,20643.0,8535,8538,8440,8657,63.8,64.5,65.2,60.1,2.56,3.038,2.566,2.938,5.73,331.3,40.1,82.4,1015.58,-25.52,0.82,1.56,36.9,54.5,45.2,0,no_anomaly,0.0,0,0,0,0,13.0826427,80.2707558,17.6,0.0
2024-12-14T17:34:08.000Z,MISSION_0003,80,1,orbit_base,SITE_CHE_004,13.082641,80.270754,17.9,228.44,1.276,0.183,8.91,6.4062,-3.7664,228.435,-0.41101,0.00701,0.06439,0.90932,-0.0333,-0.0068,-9.8524,0.0596,-0.2862,-0.0156,0.1974,3,11,0.7,0.76,0.24,24.63,18.54,93.8,48.2,20630.0,8691,8437,8562,8463,63.1,65.8,65.3,64.1,2.711,2.604,2.958,2.779,4.48,331.7,40.6,82.7,1015.05,-32.28,-0.6,1.8,33.4,46.1,43.5,0,no_anomaly,0.0,0,0,0,0,13.082641,80.270754,17.9,0.0
2024-12-14T17:34:08.100Z,MISSION_0003,81,1,orbit_base,SITE_CHE_004,13.0826394,80.2707522,18.2,229.18,1.691,0.095,8.91,-3.4595,-1.8185,229.1841,-0.41548,0.02698,-0.02084,0.90896,0.0183,-0.0436,-9.9007,0.3583,-0.7073,0.1953,0.1962,3,10,0.83,0.73,0.33,24.741,16.72,93.7,49.0,20616.0,8486,8628,8476,8681,62.6,64.1,64.1,63.7,3.02,2.684,2.818,3.078,5.41,318.9,39.7,82.5,1014.92,-23.92,1.12,1.89,35.7,50.1,41.4,0,no_anomaly,0.0,0,0,0,0,13.0826394,80.2707522,18.2,0.0
2024-12-14T17:34:08.200Z,MISSION_0003,82,1,orbit_base,SITE_CHE_004,13.0826379,80.2707504,18.5,230.74,1.487,0.014,8.91,-1.8771,1.8299,230.7403,-0.42859,-0.00741,-0.02164,0.90321,0.1447,0.0225,-9.7359,0.3024,-0.5592,-0.3616,0.1982,3,10,0.67,1.22,0.26,24.722,19.88,93.6,48.6,20602.0,8163,8960,8492,8772,62.0,68.5,62.0,63.2,2.731,2.742,2.75,2.856,4.75,333.0,39.7,82.2,1015.19,-24.85,-1.07,1.47,34.3,52.3,41.1,0,no_anomaly,0.0,0,0,0,0,13.0826379,80.2707504,18.5,0.0
2024-12-14T17:34:08.300Z,MISSION_0003,83,1,orbit_base,SITE_CHE_004,13.0826364,80.2707485,18.8,228.23,2.01,0.204,8.91,-0.3265,-2.1047,228.2321,-0.40847,0.01793,0.0049,0.91258,-0.0297,0.0277,-9.7722,-1.4613,0.4011,-0.3812,0.1792,3,13,0.59,0.82,0.21,24.622,14.0,93.6,48.2,20589.0,8675,8592,8519,8464,59.7,66.1,65.7,64.3,2.547,2.769,2.713,3.0,5.85,327.4,39.8,82.6,1015.55,-27.81,-1.12,1.88,33.5,47.8,44.9,0,no_anomaly,0.0,0,0,0,0,13.0826364,80.2707485,18.8,0.0
2024-12-14T17:34:08.400Z,MISSION_0003,84,1,orbit_base,SITE_CHE_004,13.082635,80.2707466,19.1,229.36,1.711,0.15,8.91,-1.0934,-3.229,229.3574,-0.4171,0.02958,0.0031,0.90837,0.2962,0.0023,-9.7928,-0.0014,-0.3851,0.1775,0.2518,3,19,0.64,0.91,0.32,24.573,18.35,93.5,48.6,20575.0,8455,8627,8527,8501,63.8,62.5,60.7,63.2,2.861,2.652,2.732,2.593,5.36,340.0,40.2,82.1,1015.62,-28.31,-0.26,1.62,39.1,55.8,46.0,0,no_anomaly,0.0,0,0,0,0,13.082635,80.2707466,19.1,0.0
2024-12-14T17:34:08.500Z,MISSION_0003,85,1,orbit_base,SITE_CHE_004,13.0826336,80.2707446,19.4,230.42,1.516,0.163,8.91,-5.339,-1.6947,230.421,-0.42481,0.0332,-0.03584,0.90396,-0.2524,0.0108,-9.8587,0.4007,-0.6654,0.5734,0.2193,3,11,0.53,1.02,0.2,24.659,16.3,93.5,49.4,20561.0,8599,8286,8582,8460,68.1,65.8,64.3,66.0,2.929,2.918,2.464,3.005,4.38,336.8,40.2,82.1,1015.43,-31.8,-0.34,1.41,34.8,53.3,44.3,0,no_anomaly,0.0,0,0,0,0,13.0826336,80.2707446,19.4,0.0
2024-12-14T17:34:08.600Z,MISSION_0003,86,1,orbit_base,SITE_CHE_004,13.0826323,80.2707426,19.7,231.72,1.828,-0.005,8.91,-1.8245,0.4446,231.7178,-0.43615,0.00345,-0.01602,0.89972,0.206,-0.0884,-9.8522,-0.3176,-0.1831,-0.3262,0.1979,3,11,0.72,1.16,0.37,24.747,15.02,93.4,48.3,20548.0,8590,8592,8525,8544,64.4,66.6,65.8,63.8,2.941,2.567,2.922,2.875,4.78,332.5,40.1,81.4,1015.3,-33.17,0.46,1.02,37.2,50.3,43.3,0,no_anomaly,0.0,0,0,0,0,13.0826323,80.2707426,19.7,0.0
2024-12-14T17:34:08.700Z,MISSION_0003,87,1,orbit_base,SITE_CHE_004,13.082631,80.2707406,20.0,227.8,1.399,0.037,8.91,-1.591,-3.8327,227.7982,-0.40444,0.03619,0.00086,0.91385,-0.2916,-0.0557,-9.7521,0.7253,-0.7271,0.1517,0.2272,3,17,0.6,1.24,0.23,24.63,13.25,93.3,48.5,20534.0,8335,8638,8528,8508,63.7,67.9,67.0,66.8,2.79,2.659,2.711,2.697,5.45,332.9,40.4,82.5,1015.1,-29.96,0.94,1.42,33.6,48.5,42.9,0,no_anomaly,0.0,0,0,0,0,13.082631,80.2707406,20.0,0.0
2024-12-14T17:34:08.800Z,MISSION_0003,88,1,orbit_base,SITE_CHE_004,13.0826299,80.2707385,20.3,225.27,1.704,0.185,8.91,-3.2634,-1.0881,225.2746,-0.38447,0.01972,-0.02263,0.92265,0.2762,0.0181,-9.6571,0.407,-0.0555,-0.0465,0.2257,3,13,0.7,0.64,0.25,24.585,21.3,93.3,47.9,20520.0,8678,8632,8568,8517,65.3,65.3,63.6,64.6,2.756,2.873,2.804,2.833,5.34,329.5,39.9,82.3,1015.37,-31.57,1.26,1.26,39.3,53.6,44.8,0,no_anomaly,0.0,0,0,0,0,13.0826299,80.2707385,20.3,0.0
2024-12-14T17:34:08.900Z,MISSION_0003,89,1,orbit_base,SITE_CHE_004,13.0826287,80.2707363,20.6,223.83,2.143,0.112,8.91,5.1904,-2.7973,223.825,-0.37372,0.00573,0.0511,0.92611,-0.1154,-0.1013,-9.7858,-0.1209,-0.5873,0.0488,0.1643,3,11,0.74,0.8,0.24,24.628,17.96,93.2,47.5,20507.0,8791,8559,8744,8658,61.4,66.2,64.4,64.7,3.13,2.872,2.778,2.736,6.27,331.3,40.0,82.2,1015.03,-26.93,0.34,1.55,38.9,46.5,43.7,0,no_anomaly,0.0,0,0,0,0,13.0826287,80.2707363,20.6,0.0
2024-12-14T17:34:09.000Z,MISSION_0003,90,1,orbit_base,SITE_CHE_004,13.0826277,80.2707342,20.9,223.08,2.25,0.139,8.91,-1.9323,-3.2741,223.0775,-0.36648,0.03276,-0.00519,0.92983,0.1783,0.0408,-9.769,0.6366,0.3483,-0.4627,0.2542,3,11,0.66,0.82,0.3,24.672,20.58,93.1,48.2,20493.0,8751,8653,8678,8467,62.6,64.5,63.2,67.9,2.579,2.694,2.541,2.859,4.97,339.7,40.2,81.8,1015.09,-28.85,-0.29,1.57,35.4,53.8,41.1,0,no_anomaly,0.0,0,0,0,0,13.0826277,80.2707342,20.9,0.0
2024-12-14T17:34:09.100Z,MISSION_0003,91,1,orbit_base,SITE_CHE_004,13.0826267,80.270732,21.2,224.99,2.822,0.137,8.91,5.0089,-3.7193,224.985,-0.38331,0.01325,0.05275,0.92202,-0.0062,-0.0058,-9.8043,0.0908,0.5475,-0.5131,0.2456,3,13,0.76,0.99,0.26,24.651,17.87,93.1,48.4,20479.0,8595,8507,8371,8747,64.2,64.7,66.1,62.7,2.893,2.841,2.601,2.706,5.76,337.3,39.7,82.8,1015.25,-27.25,-0.76,1.33,36.7,48.1,39.6,0,no_anomaly,0.0,0,0,0,0,13.0826267,80.270732,21.2,0.0
2024-12-14T17:34:09.200Z,MISSION_0003,92,1,orbit_base,SITE_CHE_004,13.0826258,80.2707298,21.5,223.95,2.815,0.084,8.91,-2.8505,-0.5302,223.9468,-0.37395,0.0136,-0.02133,0.9271,0.1306,0.0108,-9.7676,-0.424,-0.5578,0.1395,0.199,3,20,0.71,0.74,0.29,24.562,22.65,93.0,48.2,20465.0,8830,8646,8507,8737,62.9,64.6,64.8,60.6,3.019,2.881,2.586,2.848,4.73,332.9,39.9,81.8,1015.46,-32.76,0.07,1.62,36.5,54.5,43.7,0,no_anomaly,0.0,0,0,0,0,13.0826258,80.2707298,21.5,0.0
2024-12-14T17:34:09.300Z,MISSION_0003,93,1,orbit_base,SITE_CHE_004,13.0826249,80.2707276,21.8,223.9,3.121,0.072,8.91,4.5969,-4.0384,223.901,-0.37458,0.01767,0.05033,0.92566,-0.1648,0.054,-9.7237,-0.5537,-0.6803,-0.2272,0.1814,3,20,0.72,1.02,0.27,24.704,19.42,93.0,47.9,20452.0,8478,8557,8650,8603,64.4,64.5,63.6,65.6,3.099,2.753,2.856,2.727,6.14,328.5,40.1,82.2,1015.3,-31.22,-1.59,1.0,32.5,53.0,40.3,0,no_anomaly,0.0,0,0,0,0,13.0826249,80.2707276,21.8,0.0
2024-12-14T17:34:09.400Z,MISSION_0003,94,1,orbit_base,SITE_CHE_004,13.0826241,80.2707253,22.1,224.52,2.949,0.029,8.91,-2.5246,-2.3878,224.524,-0.37824,0.02762,-0.01249,0.92521,-0.0616,0.009,-9.76,-0.165,0.0913,0.5919,0.2222,3,12,0.75,1.15,0.28,24.648,16.91,92.9,48.1,20438.0,8570,8694,8935,8505,67.4,66.9,65.6,65.7,2.908,2.804,2.736,2.968,5.22,332.0,39.6,81.2,1015.35,-33.0,-0.07,1.07,32.2,47.4,44.9,0,no_anomaly,0.0,0,0,0,0,13.0826241,80.2707253,22.1,0.0
2024-12-14T17:34:09.500Z,MISSION_0003,95,1,orbit_base,SITE_CHE_004,13.0826234,80.270723,22.4,223.57,3.078,0.1,8.91,-5.4453,-2.0791,223.5669,-0.36982,0.03445,-0.03738,0.92771,-0.064,0.0367,-9.7797,-1.0711,0.5871,0.3101,0.2287,3,14,0.56,0.98,0.26,24.598,22.37,92.8,49.1,20424.0,8566,8491,8593,8704,65.1,63.3,67.5,64.8,2.891,2.897,2.773,2.893,6.16,335.9,40.0,81.2,1015.87,-34.86,-0.18,1.29,37.0,52.3,41.8,0,no_anomaly,0.0,0,0,0,0,13.0826234,80.270723,22.4,0.0
2024-12-14T17:34:09.600Z,MISSION_0003,96,1,orbit_base,SITE_CHE_004,13.0826227,80.2707207,22.7,221.3,3.13,0.037,8.91,-0.1718,-1.8075,221.298,-0.35258,0.01529,0.00416,0.93565,-0.2168,-0.0833,-9.7253,-0.5847,0.2623,-0.0843,0.2555,3,11,0.72,0.91,0.3,24.574,16.08,92.8,48.2,20411.0,8396,8308,8648,8585,67.1,66.9,66.2,66.2,2.681,2.871,2.708,2.887,6.67,319.3,40.4,82.5,1015.15,-27.79,0.07,1.31,33.4,51.8,41.6,0,no_anomaly,0.0,0,0,0,0,13.0826227,80.2707207,22.7,0.0
2024-12-14T17:34:09.700Z,MISSION_0003,97,1,orbit_base,SITE_CHE_004,13.0826221,80.2707184,23.0,223.44,3.706,0.01,8.91,-0.7323,-0.9325,223.4445,-0.37004,0.00992,-0.00292,0.92896,-0.064,-0.0144,-9.8537,0.6994,-0.354,0.1187,0.2145,3,18,0.96,0.9,0.34,24.574,22.6,92.7,49.3,20397.0,8899,8554,8749,8472,65.1,62.4,65.3,63.2,2.79,2.999,2.673,2.739,5.77,329.5,40.1,82.1,1014.84,-33.61,-0.42,1.51,36.6,47.4,42.7,0,no_anomaly,0.0,0,0,0,0,13.0826221,80.2707184,23.0,0.0
2024-12-14T17:34:09.800Z,MISSION_0003,98,1,orbit_base,SITE_CHE_004,13.0826216,80.270716,23.3,222.14,3.391,0.16,8.91,-0.1639,-2.0391,222.1393,-0.35942,0.01712,0.00506,0.933,-0.3319,-0.0348,-9.8507,-0.6703,0.4285,0.2826,0.133,3,20,0.68,0.96,0.34,24.653,18.63,92.7,48.3,20383.0,8793,8567,8491,8798,63.1,61.7,65.8,66.6,2.983,2.9,2.918,2.632,5.48,334.2,39.9,82.7,1015.15,-31.83,0.01,1.85,34.7,52.1,42.3,0,no_anomaly,0.0,0,0,0,0,13.0826216,80.270716,23.3,0.0
2024-12-14T17:34:09.900Z,MISSION_0003,99,1,orbit_base,SITE_CHE_004,13.0826212,80.2707137,23.6,221.99,3.135,0.054,8.91,1.1985,1.6562,221.9933,-0.35811,-0.01724,0.00459,0.93351,0.0782,0.0431,-9.7731,-0.2984,-0.5224,-0.0442,0.2064,3,11,0.83,0.79,0.33,24.607,18.7,92.6,48.6,20370.0,8666,8837,8653,8340,63.2,64.1,60.2,63.1,2.947,2.571,2.876,2.606,5.28,331.3,40.1,82.0,1015.12,-29.23,-1.44,1.8,35.9,49.5,41.4,0,no_anomaly,0.0,0,0,0,0,13.0826212,80.2707137,23.6,0.0
2024-12-14T17:34:10.000Z,MISSION_0003,100,1,orbit_base,SITE_CHE_004,13.0826208,80.2707113,23.9,221.69,3.009,0.12,8.91,-1.4083,-3.1379,221.6931,-0.35539,0.02996,-0.00174,0.93424,0.0957,0.0212,-9.7959,-0.5241,-0.3272,-0.8423,0.2269,3,14,0.83,0.6,0.41,24.664,16.8,92.5,49.6,20356.0,8491,8561,8595,8711,63.5,64.2,62.5,65.4,3.001,2.769,2.903,2.746,6.04,331.7,39.7,81.9,1015.48,-33.18,0.1,1.44,32.9,51.9,40.1,0,no_anomaly,0.0,0,0,0,0,13.0826208,80.2707113,23.9,0.0
2024-12-14T17:34:10.100Z,MISSION_0003,101,1,orbit_base,SITE_CHE_004,13.0826205,80.2707089,24.2,219.23,3.46,0.144,8.91,-2.8099,-2.6356,219.2275,-0.33496,0.02989,-0.01537,0.94163,-0.1281,-0.004,-9.8397,0.4203,0.3509,-0.392,0.1293,3,10,0.59,0.8,0.27,24.62,24.47,92.5,48.0,20342.0,8470,8629,8372,8647,64.0,69.1,64.8,69.2,2.864,2.912,2.863,2.569,5.97,335.3,40.0,82.1,1015.56,-29.77,-1.4,1.0,32.5,54.5,43.6,0,no_anomaly,0.0,0,0,0,0,13.0826205,80.2707089,24.2,0.0
2024-12-14T17:34:10.200Z,MISSION_0003,102,1,orbit_base,SITE_CHE_004,13.0826203,80.2707065,24.5,220.26,3.588,0.044,8.91,1.8436,-1.2429,220.2637,-0.34428,0.00465,0.01884,0.93867,0.088,0.1781,-9.8153,-1.1207,-0.5382,0.3369,0.2256,3,12,0.67,0.96,0.33,24.63,24.08,92.4,49.2,20329.0,8774,8626,8838,8525,62.9,62.8,64.7,63.0,2.85,2.896,3.076,2.748,5.86,332.7,39.7,81.1,1015.17,-27.88,1.86,1.75,35.3,48.1,42.8,0,no_anomaly,0.0,0,0,0,0,13.0826203,80.2707065,24.5,0.0
2024-12-14T17:34:10.300Z,MISSION_0003,103,1,orbit_base,SITE_CHE_004,13.0826201,80.2707041,24.8,219.34,3.029,0.148,8.91,4.0171,-3.0491,219.3401,-0.33716,0.01324,0.04194,0.94042,0.0811,-0.0513,-9.891,-0.2331,0.2806,-0.508,0.19,3,17,0.69,0.84,0.2,24.593,17.41,92.3,47.6,20315.0,8813,8784,8541,8547,65.0,66.9,67.8,62.3,2.943,2.818,2.774,2.619,5.21,330.8,39.7,81.8,1015.16,-31.05,-0.17,1.82,33.4,46.4,42.4,0,no_anomaly,0.0,0,0,0,0,13.0826201,80.2707041,24.8,0.0
2024-12-14T17:34:10.400Z,MISSION_0003,104,1,orbit_base,SITE_CHE_004,13.08262,80.2707017,25.1,220.49,3.511,0.037,8.91,0.7043,-2.0508,220.488,-0.34606,0.01466,0.01196,0.93802,-0.0402,-0.0872,-9.8725,-0.8108,-0.2693,-0.1179,0.2922,3,14,0.71,0.92,0.23,24.592,13.14,92.3,48.6,20301.0,8576,8455,8612,8738,66.7,68.8,64.9,62.9,2.852,2.947,2.874,2.82,5.66,329.6,39.7,81.3,1015.28,-29.81,0.27,1.0,36.5,47.5,40.0,0,no_anomaly,0.0,0,0,0,0,13.08262,80.2707017,25.1,0.0
2024-12-14T17:34:10.500Z,MISSION_0003,105,1,orbit_base,SITE_CHE_004,13.08262,80.2706993,25.4,218.86,3.633,0.169,8.91,3.0694,-1.4028,218.8623,-0.33284,0.00263,0.02933,0.94252,0.1516,-0.0092,-9.7711,-0.1665,0.1759,-0.3431,0.2769,3,16,0.87,0.93,0.49,24.621,19.52,92.2,48.1,20288.0,8919,8617,8638,8779,66.0,64.6,67.1,62.0,2.787,2.805,2.778,2.925,4.87,330.8,39.7,82.5,1015.21,-22.47,0.72,1.8,35.8,49.8,42.3,0,no_anomaly,0.0,0,0,0,0,13.08262,80.2706993,25.4,0.0
2024-12-14T17:34:10.600Z,MISSION_0003,106,1,orbit_base,SITE_CHE_004,13.0826201,80.2706969,25.7,218.74,3.926,0.11,8.91,-3.7768,0.2454,218.7429,-0.33158,0.00891,-0.0318,0.94285,-0.1566,-0.0176,-9.8378,0.0216,-0.3257,-0.1741,0.145,3,16,0.71,0.7,0.26,24.546,16.74,92.2,47.9,20274.0,8512,8707,8557,8838,63.8,64.8,64.1,65.0,2.796,2.792,2.896,2.809,5.41,337.3,40.3,82.3,1015.24,-30.9,1.28,1.55,31.7,48.7,38.0,0,no_anomaly,0.0,0,0,0,0,13.0826201,80.2706969,25.7,0.0
2024-12-14T17:34:10.700Z,MISSION_0003,107,1,orbit_base,SITE_CHE_004,13.0826202,80.2706945,26.0,218.87,3.574,0.181,8.91,0.3687,-3.2775,218.8674,-0.33266,0.0259,0.01255,0.94261,-0.3659,0.0006,-9.8072,-0.1723,-0.1693,0.041,0.1719,3,20,0.59,0.71,0.21,24.607,13.04,92.1,48.6,20260.0,8597,8554,8863,8817,66.3,63.1,67.6,63.1,2.754,2.836,2.485,2.837,4.87,329.0,40.2,82.0,1015.12,-33.56,1.06,1.39,32.5,48.8,42.7,0,no_anomaly,0.0,0,0,0,0,13.0826202,80.2706945,26.0,0.0
2024-12-14T17:34:10.800Z,MISSION_0003,108,1,orbit_base,SITE_CHE_004,13.0826204,80.2706921,26.3,217.47,3.008,0.161,8.91,-2.4075,-1.395,217.4681,-0.32084,0.01827,-0.01598,0.94682,-0.0973,0.0516,-9.8426,-0.0953,-0.3844,-0.0421,0.1494,3,18,0.83,1.05,0.22,24.645,23.71,92.0,48.6,20246.0,8825,8658,8740,8717,63.3,66.9,65.9,63.1,2.556,2.84,2.778,2.613,5.9,333.7,40.0,81.4,1015.24,-28.61,0.15,1.13,33.7,49.2,43.0,0,no_anomaly,0.0,0,0,0,0,13.0826204,80.2706921,26.3,0.0
2024-12-14T17:34:10.900Z,MISSION_0003,109,1,orbit_base,SITE_CHE_004,13.0826207,80.2706898,26.6,217.78,3.318,0.096,8.91,5.3882,-4.7013,217.7782,-0.32493,0.02356,0.0577,0.94368,0.1413,0.0249,-9.7937,-0.4394,0.2181,-0.156,0.2273,3,16,0.75,1.09,0.36,24.496,19.8,92.0,49.0,20233.0,8424,8627,8696,8306,65.9,64.0,65.5,65.7,2.762,2.799,2.643,2.782,5.0,333.2,40.0,81.9,1015.29,-29.89,-1.06,1.26,36.7,51.3,41.8,0,no_anomaly,0.0,0,0,0,0,13.0826207,80.2706898,26.6,0.0
2024-12-14T17:34:11.000Z,MISSION_0003,110,1,orbit_base,SITE_CHE_004,13.082621,80.2706874,26.9,215.72,3.208,0.1,8.91,-1.9403,1.4509,215.7189,-0.30682,-0.00686,-0.02,0.95153,0.3157,0.0239,-9.8551,-0.0423,0.1333,-0.6578,0.2043,3,13,0.57,0.85,0.2,24.585,18.26,91.9,48.4,20219.0,8759,8731,8925,8577,68.0,63.2,61.7,66.3,3.026,2.678,2.879,2.681,5.84,336.6,39.8,82.0,1015.27,-28.91,-1.13,1.62,32.1,45.7,38.3,0,no_anomaly,0.0,0,0,0,0,13.082621,80.2706874,26.9,0.0
2024-12-14T17:34:11.100Z,MISSION_0003,111,1,orbit_base,SITE_CHE_004,13.0826214,80.270685,27.2,213.95,3.741,0.139,8.91,2.5829,-1.5569,213.9535,-0.29218,0.00641,0.02552,0.956,-0.2399,0.0155,-9.7922,-0.2185,-0.5904,-0.1983,0.2561,3,10,0.78,1.05,0.36,24.542,14.86,91.8,48.3,20205.0,8793,8799,8494,8698,63.7,64.7,62.7,66.6,2.876,2.622,2.753,2.567,4.44,324.8,39.9,82.5,1015.16,-29.95,-0.51,1.51,35.3,49.2,40.1,0,no_anomaly,0.0,0,0,0,0,13.0826214,80.270685,27.2,0.0
2024-12-14T17:34:11.200Z,MISSION_0003,112,1,orbit_base,SITE_CHE_004,13.0826219,80.2706827,27.5,212.1,4.205,0.143,8.91,5.4272,-2.1156,212.0996,-0.27696,0.00463,0.05059,0.95954,-0.0357,0.0468,-9.8117,0.346,0.1235,0.0491,0.1732,3,11,0.64,1.06,0.35,24.594,23.93,91.8,47.9,20192.0,8730,8612,8654,8614,64.8,60.0,62.6,61.7,2.728,2.641,2.54,2.647,5.18,346.2,40.3,81.5,1015.29,-30.44,-0.38,1.08,36.5,47.4,43.1,0,no_anomaly,0.0,0,0,0,0,13.0826219,80.2706827,27.5,0.0
2024-12-14T17:34:11.300Z,MISSION_0003,113,1,orbit_base,SITE_CHE_004,13.0826225,80.2706803,27.8,212.47,3.918,0.135,8.91,-3.1118,-5.2103,212.4699,-0.278,0.05121,-0.01334,0.95912,-0.003,0.0876,-9.8449,-0.142,-0.0382,0.0038,0.1604,3,12,0.68,0.95,0.3,24.602,17.56,91.7,48.3,20178.0,8698,8808,8730,8494,65.3,66.0,66.2,66.4,2.882,2.566,2.648,2.977,4.8,332.8,40.2,82.3,1015.21,-31.87,0.99,1.83,35.3,45.5,43.3,0,no_anomaly,0.0,0,0,0,0,13.0826225,80.2706803,27.8,0.0
2024-12-14T17:34:11.400Z,MISSION_0003,114,1,orbit_base,SITE_CHE_004,13.0826231,80.270678,28.1,211.54,3.85,0.111,8.91,1.4412,-3.5182,211.5373,-0.27198,0.02612,0.02044,0.96173,-0.1739,-0.0428,-9.8563,-0.5481,-0.0046,0.0635,0.171,3,16,0.71,0.6,0.3,24.586,23.2,91.7,48.5,20164.0,8734,8548,8389,8651,62.1,65.3,66.2,65.0,2.653,3.06,2.756,2.95,6.06,337.8,39.8,82.1,1014.98,-27.97,1.74,1.61,37.5,54.3,41.3,0,no_anomaly,0.0,0,0,0,0,13.0826231,80.270678,28.1,0.0
2024-12-14T17:34:11.500Z,MISSION_0003,115,1,orbit_base,SITE_CHE_004,13.0826238,80.2706757,28.4,212.86,4.257,0.104,8.91,-3.3207,-1.4034,212.8648,-0.2824,0.01994,-0.02433,0.95878,0.0644,0.0663,-9.765,0.5605,0.1957,-0.3633,0.1699,3,12,0.74,0.71,0.26,24.563,19.82,91.6,48.5,20151.0,8702,8746,8516,8596,66.1,62.9,66.7,65.4,2.604,2.926,2.835,3.071,5.86,323.3,39.9,81.5,1015.16,-30.81,0.15,1.58,36.4,51.0,39.8,0,no_anomaly,0.0,0,0,0,0,13.0826238,80.2706757,28.4,0.0
2024-12-14T17:34:11.600Z,MISSION_0003,116,1,orbit_base,SITE_CHE_004,13.0826245,80.2706734,28.7,214.62,4.344,0.063,8.91,-5.1996,0.1132,214.6214,-0.29729,0.01255,-0.0436,0.95371,-0.3156,-0.0643,-9.886,-0.469,0.8406,0.2342,0.2187,3,10,0.7,0.76,0.34,24.653,22.87,91.5,48.6,20137.0,8807,8666,8358,8827,63.1,65.3,68.8,65.2,3.046,2.823,2.675,2.788,5.02,336.8,40.0,81.8,1015.29,-30.54,0.72,1.62,32.0,47.4,38.4,0,no_anomaly,0.0,0,0,0,0,13.0826245,80.2706734,28.7,0.0
2024-12-14T17:34:11.700Z,MISSION_0003,117,1,orbit_base,SITE_CHE_004,13.0826254,80.2706712,29.0,215.12,4.38,0.018,8.91,1.85,-2.9223,215.118,-0.30194,0.01944,0.02308,0.95285,0.0365,0.021,-9.8049,-0.0086,0.3423,-0.2955,0.164,3,11,0.68,1.06,0.2,24.629,24.44,91.5,48.4,20123.0,8500,8409,8974,8476,64.2,61.6,61.1,66.6,2.712,2.928,2.748,2.983,5.13,336.2,39.8,81.5,1015.65,-32.98,-0.79,1.21,33.4,45.1,43.5,0,no_anomaly,0.0,0,0,0,0,13.0826254,80.2706712,29.0,0.0
2024-12-14T17:34:11.800Z,MISSION_0003,118,1,orbit_base,SITE_CHE_004,13.0826263,80.270669,29.3,216.23,4.242,0.181,8.91,0.9264,-1.0119,216.2339,-0.311,0.00588,0.01043,0.95033,0.0941,-0.0017,-9.8048,0.1779,0.2641,0.1022,0.2136,3,12,0.61,0.98,0.2,24.578,20.56,91.4,47.6,20110.0,8549,8851,8536,8746,62.8,62.4,66.7,67.5,2.802,2.859,3.001,2.769,5.33,330.2,39.8,82.3,1015.21,-32.24,-1.51,1.24,39.0,49.8,41.5,0,no_anomaly,0.0,0,0,0,0,13.0826263,80.270669,29.3,0.0
2024-12-14T17:34:11.900Z,MISSION_0003,119,1,orbit_base,SITE_CHE_004,13.0826272,80.2706668,29.6,215.24,4.303,0.087,8.91,-4.5798,-1.7813,215.2372,-0.30181,0.0269,-0.03338,0.9524,-0.0472,-0.0151,-9.8416,-0.3958,0.1465,0.0233,0.1951,3,11,0.74,0.89,0.28,24.54,23.38,91.3,49.5,20096.0,8301,8624,8634,8685,70.8,65.3,64.5,66.4,2.925,2.709,2.787,2.793,6.1,332.1,39.9,82.1,1015.23,-28.64,-0.6,1.64,37.8,53.1,41.9,0,no_anomaly,0.0,0,0,0,0,13.0826272,80.2706668,29.6,0.0
2024-12-14T17:34:12.000Z,MISSION_0003,120,2,climb_tower,SITE_CHE_004,13.0826243,80.270664,29.9,215.55,4.331,0.13,9.33,1.942,-1.8073,215.5485,-0.30544,0.00984,0.02095,0.95193,-0.1705,0.0286,-9.853,0.5167,0.4807,-0.1786,0.1643,3,12,0.58,0.71,0.33,24.533,18.98,91.3,49.6,20082.0,8835,8816,8762,8818,60.5,65.0,63.9,62.1,2.581,2.776,2.589,2.766,5.06,339.5,40.0,81.2,1015.34,-28.06,0.87,1.17,36.4,47.7,43.9,0,no_anomaly,0.0,0,0,0,0,13.0826243,80.270664,29.9,0.0
2024-12-14T17:34:12.100Z,MISSION_0003,121,2,climb_tower,SITE_CHE_004,13.0826234,80.270662,30.2,215.9,4.217,0.076,9.52,-0.3414,-3.8389,215.905,-0.30796,0.03278,0.00749,0.95081,-0.2428,0.0728,-9.8703,-0.5799,-0.3062,0.2523,0.1728,3,14,0.68,0.76,0.35,24.467,20.79,91.2,49.3,20069.0,8621,8525,8337,8717,67.1,67.5,68.2,66.8,2.556,2.981,2.673,2.739,5.65,333.1,40.4,81.8,1015.51,-32.56,0.37,1.0,36.0,53.1,43.1,0,no_anomaly,0.0,0,0,0,0,13.0826234,80.270662,30.2,0.0
2024-12-14T17:34:12.200Z,MISSION_0003,122,2,climb_tower,SITE_CHE_004,13.0826262,80.2706644,30.5,217.11,4.366,0.021,9.13,1.9964,-0.8872,217.1062,-0.31825,0.0018,0.01898,0.94781,-0.0408,-0.0322,-9.8344,-0.1553,0.101,0.228,0.2097,3,20,0.8,0.9,0.49,24.574,20.03,91.2,48.0,20055.0,8835,8823,8904,8861,65.3,62.9,65.6,67.3,2.789,2.736,2.754,2.992,5.11,334.8,39.9,81.1,1015.47,-27.27,0.59,1.31,33.5,47.6,40.5,0,no_anomaly,0.0,0,0,0,0,13.0826262,80.2706644,30.5,0.0
2024-12-14T17:34:12.300Z,MISSION_0003,123,2,climb_tower,SITE_CHE_004,13.0826223,80.2706612,30.8,216.67,4.206,0.102,9.67,6.0147,-0.2284,216.6655,-0.3142,-0.01461,0.05043,0.9479,-0.0372,0.078,-9.7878,-0.0159,-0.4581,-0.1806,0.315,3,20,0.75,0.86,0.31,24.575,19.95,91.1,47.1,20041.0,8794,8934,8710,8734,63.6,64.5,66.0,65.6,2.774,2.958,2.827,2.885,5.03,335.7,40.1,82.3,1015.26,-33.11,0.0,1.61,37.4,52.1,42.1,0,no_anomaly,0.0,0,0,0,0,13.0826223,80.2706612,30.8,0.0
2024-12-14T17:34:12.400Z,MISSION_0003,124,2,climb_tower,SITE_CHE_004,13.0826211,80.2706624,31.1,219.82,4.38,0.033,9.73,5.2361,-1.6705,219.8228,-0.3408,-0.00186,0.0479,0.93891,0.0501,-0.1124,-9.8183,0.4945,0.1383,-0.0249,0.2084,3,10,0.88,0.81,0.44,24.648,22.26,91.0,47.9,20028.0,8762,8749,8898,8645,60.9,63.3,64.9,65.3,2.921,2.786,2.719,2.678,5.21,332.3,39.9,81.8,1015.55,-29.23,0.68,1.59,34.1,47.7,43.2,0,no_anomaly,0.0,0,0,0,0,13.0826211,80.2706624,31.1,0.0
2024-12-14T17:34:12.500Z,MISSION_0003,125,2,climb_tower,SITE_CHE_004,13.0826185,80.2706641,31.4,222.24,4.587,0.043,9.92,2.9888,0.2021,222.2375,-0.36014,-0.01104,0.02369,0.93253,0.0682,0.0411,-9.8056,0.9461,0.191,-0.2122,0.1645,3,17,0.65,0.67,0.36,24.639,23.07,91.0,48.4,20014.0,8514,8585,8747,8611,65.2,62.7,63.3,64.1,2.967,2.834,2.687,2.747,5.99,335.0,39.9,82.5,1015.42,-33.0,0.15,1.54,35.4,54.0,45.3,0,no_anomaly,0.0,0,0,0,0,13.0826185,80.2706641,31.4,0.0
2024-12-14T17:34:12.600Z,MISSION_0003,126,2,climb_tower,SITE_CHE_004,13.0826167,80.2706655,31.7,221.56,4.702,0.233,10.04,2.4142,-3.077,221.5603,-0.35511,0.01762,0.02921,0.9342,-0.0562,0.005,-9.8345,-0.3047,0.1794,0.324,0.1767,3,18,0.63,0.77,0.25,24.631,19.16,90.9,49.0,20000.0,8598,8474,8927,8650,67.1,66.9,66.5,64.8,2.864,2.764,2.591,2.745,5.69,336.7,40.0,82.0,1015.02,-26.79,-0.02,1.88,35.2,46.3,43.7,0,no_anomaly,0.0,0,0,0,0,13.0826167,80.2706655,31.7,0.0
2024-12-14T17:34:12.700Z,MISSION_0003,127,2,climb_tower,SITE_CHE_004,13.0826153,80.2706676,32.0,222.34,4.272,0.112,10.1,0.9606,-4.5045,222.3363,-0.36112,0.03362,0.022,0.93165,0.1916,0.0622,-9.8616,0.1069,-0.7059,-0.1338,0.2184,3,14,0.71,0.95,0.3,24.58,18.27,90.8,48.3,19986.0,8679,8646,9078,8686,62.5,63.1,65.7,65.0,2.774,2.566,2.595,2.632,4.8,324.7,39.8,82.4,1014.99,-27.9,0.17,1.76,33.5,51.5,46.2,0,no_anomaly,0.0,0,0,0,0,13.0826153,80.2706676,32.0,0.0
2024-12-14T17:34:12.800Z,MISSION_0003,128,2,climb_tower,SITE_CHE_004,13.0826136,80.2706669,32.3,222.62,4.628,0.023,10.3,-2.7166,-4.0246,222.6185,-0.3623,0.04131,-0.00931,0.9311,0.2394,0.0505,-9.6597,-0.7682,0.0764,-0.4384,0.2881,3,12,0.51,0.76,0.22,24.567,20.2,90.8,48.6,19973.0,8832,8738,8613,8549,65.8,66.1,66.4,64.6,2.543,2.894,2.723,2.823,5.32,324.6,39.9,81.8,1014.93,-30.08,0.34,1.74,31.6,47.1,38.4,0,no_anomaly,0.0,0,0,0,0,13.0826136,80.2706669,32.3,0.0
