timestamp_utc,mission_id,frame_id,waypoint_id,inspection_phase,site_id,latitude_deg,longitude_deg,altitude_m,heading_deg,ground_speed_ms,vertical_speed_ms,distance_to_tower_m,roll_deg,pitch_deg,yaw_deg,quat_w,quat_x,quat_y,quat_z,accel_x_ms2,accel_y_ms2,accel_z_ms2,gyro_x_rads,gyro_y_rads,gyro_z_rads,vibration_level,gps_fix_type,gps_satellite_count,gps_hdop,gps_vdop,position_error_m,battery_voltage_v,battery_current_a,battery_remaining_pct,battery_temp_c,battery_capacity_mah,motor_fl_rpm,motor_fr_rpm,motor_rl_rpm,motor_rr_rpm,motor_fl_temp_c,motor_fr_temp_c,motor_rl_temp_c,motor_rr_temp_c,motor_fl_thrust_n,motor_fr_thrust_n,motor_rl_thrust_n,motor_rr_thrust_n,wind_speed_ms,wind_dir_deg,air_temp_c,humidity_pct,pressure_hpa,gimbal_pitch_deg,gimbal_roll_deg,zoom_factor,ir_temp_min_c,ir_temp_max_c,ir_temp_avg_c,anomaly_detected,anomaly_class,anomaly_confidence,anomaly_bbox_x,anomaly_bbox_y,anomaly_bbox_w,anomaly_bbox_h,anomaly_gps_lat,anomaly_gps_lon,anomaly_gps_alt_m,ir_temp_delta_c
2024-02-11T08:55:00.000Z,MISSION_0051,0,0,takeoff,SITE_DEL_002,28.6138983,77.2089998,1.5,115.53,0.229,0.04,0.19,-4.8267,-2.5408,115.5255,0.53361,-0.00372,-0.04742,0.84439,0.232,0.0334,-9.876,0.3403,-0.3185,0.2116,0.1746,3,16,0.65,0.6,0.26,24.813,20.46,99.3,45.7,21851.0,8505,8502,8618,8334,59.8,61.7,64.2,64.1,2.702,2.517,2.946,2.874,4.34,313.3,36.9,48.1,1005.35,-24.33,1.45,1.62,32.8,43.2,40.9,0,no_anomaly,0.0,0,0,0,0,28.6138983,77.2089998,1.5,0.0
2024-02-11T08:55:00.100Z,MISSION_0051,1,0,takeoff,SITE_DEL_002,28.6139007,77.2090011,3.0,114.4,0.265,0.098,0.14,-2.0353,-0.8418,114.3962,0.54175,-0.00345,-0.01891,0.84032,-0.0406,-0.0442,-9.8411,-0.2764,0.9584,0.2227,0.2591,3,17,0.73,1.31,0.35,24.71,17.16,99.2,44.4,21834.0,8309,8187,8478,8147,60.8,61.5,62.7,59.9,2.737,2.82,2.783,2.914,3.56,322.2,36.8,47.6,1005.26,-30.92,-0.47,1.25,29.0,45.6,40.7,0,no_anomaly,0.0,0,0,0,0,28.6139007,77.2090011,3.0,0.0
2024-02-11T08:55:00.200Z,MISSION_0051,2,0,takeoff,SITE_DEL_002,28.6138982,77.2089972,4.5,114.4,0.425,0.086,0.37,1.928,-3.5891,114.405,0.54089,0.03543,-0.00283,0.84034,-0.0338,0.0109,-9.8371,1.1034,-0.4943,-0.4002,0.215,3,17,0.71,0.92,0.2,24.791,13.58,99.2,45.4,21817.0,8412,8414,8109,8586,65.1,64.8,62.7,60.3,2.609,2.826,2.719,2.929,4.31,316.7,37.5,47.1,1005.73,-32.32,1.31,1.46,30.3,47.2,41.4,0,no_anomaly,0.0,0,0,0,0,28.6138982,77.2089972,4.5,0.0
2024-02-11T08:55:00.300Z,MISSION_0051,3,0,takeoff,SITE_DEL_002,28.6138933,77.2089976,5.0,112.76,0.221,0.121,0.79,0.4595,-2.5342,112.7586,0.55348,0.02063,-0.00891,0.83256,0.0868,-0.0635,-9.7291,0.3736,0.2784,-0.0382,0.0569,3,13,0.87,0.87,0.48,24.79,17.47,99.1,45.0,21800.0,8312,8513,8487,8920,59.5,62.5,62.7,58.9,2.53,2.785,2.825,2.969,4.67,330.9,37.3,48.0,1005.59,-29.68,0.86,1.24,33.4,45.1,41.9,0,no_anomaly,0.0,0,0,0,0,28.6138933,77.2089976,5.0,0.0
2024-02-11T08:55:00.400Z,MISSION_0051,4,0,takeoff,SITE_DEL_002,28.6138873,77.2089956,5.0,112.14,0.54,0.09,1.5,-1.7189,-1.1226,112.1399,0.55821,-0.00025,-0.01791,0.8295,0.0512,0.1251,-9.8358,0.5333,0.2925,-0.474,0.1795,3,20,0.74,0.82,0.39,24.763,14.38,99.0,45.7,21784.0,8600,8662,8678,8533,62.1,61.4,61.9,62.5,2.607,2.707,2.754,2.86,4.7,317.6,37.1,47.5,1005.26,-29.13,1.78,1.85,31.2,47.9,37.3,0,no_anomaly,0.0,0,0,0,0,28.6138873,77.2089956,5.0,0.0
2024-02-11T08:55:00.500Z,MISSION_0051,5,0,takeoff,SITE_DEL_002,28.6138891,77.2089963,5.0,113.86,0.73,0.185,1.29,-1.417,0.1561,113.8596,0.54561,-0.00789,-0.00962,0.83795,0.0019,-0.0266,-9.9527,-0.367,0.394,0.2463,0.1335,3,16,0.71,1.35,0.37,24.788,17.75,98.9,45.4,21767.0,8346,8388,8444,8235,62.7,65.4,59.2,63.6,2.872,3.022,3.045,3.074,4.34,333.0,36.9,47.2,1005.34,-32.54,-1.3,1.53,34.7,52.5,39.8,0,no_anomaly,0.0,0,0,0,0,28.6138891,77.2089963,5.0,0.0
2024-02-11T08:55:00.600Z,MISSION_0051,6,0,takeoff,SITE_DEL_002,28.613893,77.2089983,5.0,113.29,0.506,0.03,0.8,3.3148,-1.9399,113.2876,0.54912,0.03003,0.01485,0.83507,0.0782,-0.0344,-9.816,0.6273,-0.5178,-0.034,0.1699,3,10,0.75,1.1,0.38,24.776,19.44,98.9,45.7,21750.0,8488,8551,8535,8476,63.6,64.4,63.9,62.1,2.905,2.627,2.893,2.755,4.62,320.5,37.3,48.5,1005.43,-29.54,0.77,1.6,34.5,45.5,38.5,0,no_anomaly,0.0,0,0,0,0,28.613893,77.2089983,5.0,0.0
2024-02-11T08:55:00.700Z,MISSION_0051,7,0,takeoff,SITE_DEL_002,28.6138933,77.2089995,5.0,113.13,0.122,0.052,0.75,0.3144,-0.5584,113.1326,0.55095,0.00558,-0.00039,0.83452,0.0203,0.0013,-9.7586,-0.3387,-0.172,0.038,0.2058,3,15,0.83,0.63,0.28,24.852,14.21,98.8,45.2,21733.0,8359,8491,8404,8363,62.3,62.4,61.6,58.8,2.778,2.486,2.867,2.767,4.19,322.2,36.9,47.7,1005.55,-27.19,-1.32,2.05,34.5,47.2,37.1,0,no_anomaly,0.0,0,0,0,0,28.6138933,77.2089995,5.0,0.0
2024-02-11T08:55:00.800Z,MISSION_0051,8,0,takeoff,SITE_DEL_002,28.6138984,77.2089953,5.0,111.89,0.239,0.094,0.56,-3.1494,0.281,111.8947,0.55969,-0.01742,-0.02139,0.82825,0.0149,-0.0169,-9.7967,-0.2833,0.2589,0.0411,0.0958,3,20,0.69,1.26,0.2,24.866,24.22,98.7,44.8,21716.0,8433,8532,8562,8691,61.1,62.6,61.2,63.4,2.804,2.942,2.76,2.673,3.17,326.2,37.1,47.4,1005.64,-29.97,0.62,1.63,30.5,46.3,39.2,0,no_anomaly,0.0,0,0,0,0,28.6138984,77.2089953,5.0,0.0
2024-02-11T08:55:00.900Z,MISSION_0051,9,0,takeoff,SITE_DEL_002,28.6138991,77.2089938,5.0,110.65,0.164,0.098,0.7,0.767,-2.6878,110.6492,0.56863,0.02309,-0.00784,0.82223,-0.0636,-0.0005,-9.7687,-0.0127,-0.3925,-0.1947,0.2116,3,14,0.52,0.91,0.2,24.742,22.56,98.6,45.1,21699.0,8453,8422,8451,8365,66.5,63.4,67.3,59.9,2.617,2.656,2.921,2.701,4.73,325.3,37.2,48.9,1005.32,-28.0,-1.23,1.27,30.2,47.6,40.7,0,no_anomaly,0.0,0,0,0,0,28.6138991,77.2089938,5.0,0.0
2024-02-11T08:55:01.000Z,MISSION_0051,10,0,takeoff,SITE_DEL_002,28.613902,77.2089917,5.0,111.32,0.332,0.144,0.94,-3.6008,-5.0073,111.3205,0.56442,0.01835,-0.05055,0.82374,0.0896,-0.0733,-9.7548,0.3109,0.0658,0.1417,0.1534,3,17,0.62,1.03,0.21,24.926,19.62,98.6,44.4,21682.0,8488,8731,8394,8303,60.4,63.9,60.6,61.6,2.65,2.715,2.593,2.837,3.43,332.2,37.0,47.5,1005.57,-29.9,-0.48,1.33,33.2,50.0,42.2,0,no_anomaly,0.0,0,0,0,0,28.613902,77.2089917,5.0,0.0
2024-02-11T08:55:01.100Z,MISSION_0051,11,0,takeoff,SITE_DEL_002,28.6139043,77.2089969,5.0,111.18,0.0,0.146,0.6,-2.0956,-2.2042,111.1803,0.5652,0.00553,-0.02595,0.82453,0.0451,0.115,-9.8885,0.5715,-0.4077,0.494,0.1589,3,12,0.66,0.84,0.31,24.82,24.63,98.5,45.2,21665.0,8519,8458,8480,8261,60.2,60.3,64.0,61.7,2.878,2.992,2.693,3.042,5.11,328.8,37.3,47.2,1005.49,-31.13,0.19,1.79,34.7,42.8,38.2,0,no_anomaly,0.0,0,0,0,0,28.6139043,77.2089969,5.0,0.0
2024-02-11T08:55:01.200Z,MISSION_0051,12,0,takeoff,SITE_DEL_002,28.6139038,77.2089971,5.0,111.82,0.387,0.232,0.53,-5.2955,-3.823,111.8248,0.56083,0.00172,-0.05691,0.82597,0.0365,-0.0322,-9.7695,-0.2071,0.27,0.5438,0.1712,3,17,0.64,0.72,0.33,24.762,15.75,98.4,45.6,21648.0,8639,8595,8331,8327,61.3,67.2,67.3,65.0,2.844,2.824,2.623,2.934,3.94,324.7,37.4,47.9,1005.44,-33.02,0.13,1.71,33.7,50.3,38.0,0,no_anomaly,0.0,0,0,0,0,28.6139038,77.2089971,5.0,0.0
2024-02-11T08:55:01.300Z,MISSION_0051,13,0,takeoff,SITE_DEL_002,28.613908,77.2090002,5.0,111.52,0.571,0.088,0.89,-1.9769,-2.0084,111.5225,0.56272,0.00478,-0.02412,0.82628,0.0934,0.1015,-9.8816,0.047,0.4373,0.0802,0.1927,3,19,0.86,1.05,0.4,24.747,13.3,98.3,45.0,21631.0,8622,8315,8566,8741,61.9,64.1,60.4,63.1,2.583,2.521,2.987,2.901,4.31,320.9,37.4,47.8,1005.41,-30.99,0.05,1.0,29.4,48.0,40.0,0,no_anomaly,0.0,0,0,0,0,28.613908,77.2090002,5.0,0.0
2024-02-11T08:55:01.400Z,MISSION_0051,14,0,takeoff,SITE_DEL_002,28.613908,77.2090058,5.0,111.77,0.321,0.136,1.11,0.7332,-1.3771,111.7721,0.56072,0.01354,-0.00144,0.82789,-0.0915,0.0316,-9.8418,0.3334,-0.3472,0.09,0.2012,3,19,0.82,1.04,0.38,24.755,20.25,98.2,44.3,21614.0,8646,8576,8636,8540,61.7,60.8,61.5,60.5,2.71,2.917,2.704,2.878,3.67,320.3,37.1,48.1,1005.53,-31.65,0.7,1.53,32.4,47.3,36.7,0,no_anomaly,0.0,0,0,0,0,28.613908,77.2090058,5.0,0.0
2024-02-11T08:55:01.500Z,MISSION_0051,15,0,takeoff,SITE_DEL_002,28.6139063,77.2090065,5.0,112.1,0.565,0.044,1.01,-2.4264,-2.5054,112.1042,0.55856,0.00631,-0.02977,0.8289,-0.0857,0.0014,-9.7183,0.6966,0.2786,-0.1384,0.174,3,14,0.87,0.78,0.22,24.726,19.16,98.2,45.2,21597.0,8554,8443,8806,8821,58.8,61.9,64.1,64.1,2.757,2.77,2.732,2.892,3.97,312.2,37.0,47.3,1005.69,-32.7,-0.23,1.19,34.1,51.1,41.2,0,no_anomaly,0.0,0,0,0,0,28.6139063,77.2090065,5.0,0.0
2024-02-11T08:55:01.600Z,MISSION_0051,16,0,takeoff,SITE_DEL_002,28.6139031,77.2090031,5.0,109.61,0.506,0.077,0.48,-1.9899,-2.724,109.6086,0.57646,0.00942,-0.02788,0.8166,0.1645,-0.1364,-9.808,-0.1834,-0.1476,0.0726,0.2188,3,14,0.75,0.68,0.27,24.651,17.49,98.1,44.1,21580.0,8548,8510,8455,8551,63.2,61.6,61.5,63.2,3.044,2.719,2.714,2.825,3.42,322.6,37.5,48.1,1005.51,-33.8,0.52,1.88,29.3,46.4,38.6,0,no_anomaly,0.0,0,0,0,0,28.6139031,77.2090031,5.0,0.0
2024-02-11T08:55:01.700Z,MISSION_0051,17,0,takeoff,SITE_DEL_002,28.6139011,77.2090058,5.0,111.44,0.594,0.05,0.66,1.1013,-1.99,111.4395,0.56299,0.01976,-0.00184,0.82622,0.2106,-0.0003,-9.7261,-0.4405,0.3646,0.1557,0.2677,3,17,0.72,0.6,0.4,24.729,19.87,98.0,45.6,21564.0,8695,8535,8475,8780,64.7,60.3,63.5,59.5,2.449,3.04,2.758,2.749,3.97,330.0,37.3,47.7,1005.93,-28.51,-0.61,1.7,33.3,46.8,38.2,0,no_anomaly,0.0,0,0,0,0,28.6139011,77.2090058,5.0,0.0
2024-02-11T08:55:01.800Z,MISSION_0051,18,0,takeoff,SITE_DEL_002,28.6139062,77.2090052,5.0,109.0,0.984,0.099,0.91,0.5974,-2.5333,108.9968,0.58048,0.02102,-0.00859,0.81396,0.0732,0.0504,-9.9215,-0.6325,0.3155,-0.3272,0.2176,3,18,0.67,0.8,0.28,24.811,22.31,97.9,46.1,21547.0,8288,8246,8570,8668,62.1,61.2,62.5,60.3,2.797,2.59,2.778,2.68,4.57,322.8,36.6,48.1,1005.3,-31.5,0.41,1.66,32.6,50.3,41.4,0,no_anomaly,0.0,0,0,0,0,28.6139062,77.2090052,5.0,0.0
2024-02-11T08:55:01.900Z,MISSION_0051,19,0,takeoff,SITE_DEL_002,28.613906,77.209005,5.0,110.5,1.277,0.078,0.87,0.5576,-2.1686,110.5016,0.5698,0.01832,-0.00679,0.82155,0.0627,0.036,-9.792,-0.2768,-0.2043,0.4875,0.1075,3,19,0.66,0.87,0.2,24.772,15.28,97.9,45.0,21530.0,8426,8572,8600,8362,63.6,64.1,66.2,62.4,2.821,2.555,3.077,2.815,4.37,325.9,37.4,47.6,1005.31,-25.06,0.39,1.71,30.5,45.0,38.3,0,no_anomaly,0.0,0,0,0,0,28.613906,77.209005,5.0,0.0
2024-02-11T08:55:02.000Z,MISSION_0051,20,0,takeoff,SITE_DEL_002,28.6139073,77.2090099,5.0,112.22,0.692,0.043,1.37,-1.2108,-2.2388,112.218,0.55765,0.01032,-0.01966,0.82978,-0.0399,-0.0152,-9.7373,0.1247,0.7625,-0.6855,0.1638,3,11,0.87,1.02,0.34,24.732,18.03,97.8,45.2,21513.0,8285,8449,8577,8613,60.5,56.7,61.0,60.5,3.062,2.778,2.81,2.872,4.3,314.4,36.9,47.8,1005.37,-29.96,0.19,1.42,30.0,45.1,36.2,0,no_anomaly,0.0,0,0,0,0,28.6139073,77.2090099,5.0,0.0
2024-02-11T08:55:02.100Z,MISSION_0051,21,0,takeoff,SITE_DEL_002,28.6139075,77.2090112,5.0,114.07,1.034,0.115,1.5,-1.4255,-0.4944,114.0656,0.54416,-0.00315,-0.01278,0.83888,-0.1517,-0.0686,-9.805,0.2753,0.5135,-0.1927,0.1563,3,12,0.78,0.94,0.27,24.679,19.77,97.7,44.6,21496.0,8379,8693,8613,8323,60.7,63.2,62.8,62.1,2.769,2.555,2.687,2.957,3.16,316.4,36.9,47.3,1005.49,-27.72,0.41,1.69,34.3,44.8,38.3,0,no_anomaly,0.0,0,0,0,0,28.6139075,77.2090112,5.0,0.0
2024-02-11T08:55:02.200Z,MISSION_0051,22,0,takeoff,SITE_DEL_002,28.6139046,77.2090072,5.0,115.93,0.761,0.131,0.95,1.0652,-0.6562,115.9272,0.53038,0.00978,0.00484,0.84769,-0.2518,-0.0276,-9.8259,0.1803,-1.0323,0.4099,0.1602,3,11,0.68,0.7,0.27,24.728,24.89,97.6,45.2,21479.0,8486,8379,8395,8425,63.6,62.9,63.4,64.6,2.859,3.1,2.809,2.834,4.07,326.4,37.2,47.8,1005.19,-28.19,0.1,1.37,30.4,42.6,41.8,0,no_anomaly,0.0,0,0,0,0,28.6139046,77.2090072,5.0,0.0
2024-02-11T08:55:02.300Z,MISSION_0051,23,0,takeoff,SITE_DEL_002,28.6139069,77.2090054,5.0,115.71,0.738,0.041,0.98,3.4311,-1.7002,115.7054,0.53142,0.02848,0.01745,0.84645,-0.0141,-0.0611,-9.8298,0.7771,0.2584,-0.1889,0.1873,3,16,0.87,0.99,0.21,24.713,15.65,97.6,45.3,21462.0,8375,8295,8440,8513,64.7,65.3,64.2,62.7,2.893,2.729,2.721,2.681,4.81,332.1,37.4,47.2,1005.55,-30.29,0.54,1.23,30.5,45.5,36.9,0,no_anomaly,0.0,0,0,0,0,28.6139069,77.2090054,5.0,0.0
2024-02-11T08:55:02.400Z,MISSION_0051,24,0,takeoff,SITE_DEL_002,28.6139097,77.2090084,5.0,117.15,0.245,0.179,1.42,1.252,0.8096,117.1452,0.52144,-0.00033,0.01301,0.85319,-0.0399,-0.0393,-9.7686,0.2038,-0.0847,-0.1244,0.1989,3,20,0.75,0.66,0.31,24.74,19.47,97.5,45.5,21445.0,8405,8639,8438,8429,59.3,67.4,61.0,62.7,3.086,2.575,2.738,2.893,4.34,320.7,36.7,47.9,1005.59,-32.35,0.12,1.8,31.8,53.6,40.8,0,no_anomaly,0.0,0,0,0,0,28.6139097,77.2090084,5.0,0.0
2024-02-11T08:55:02.500Z,MISSION_0051,25,0,takeoff,SITE_DEL_002,28.6139102,77.209012,5.0,117.95,0.0,0.15,1.76,-1.5898,-1.9484,117.9491,0.5155,0.00742,-0.02065,0.85661,0.0342,-0.0218,-9.7448,-0.2881,-1.1862,-0.3529,0.162,3,20,0.72,0.98,0.28,24.73,14.23,97.4,45.3,21428.0,8494,8406,8402,8491,60.2,62.4,63.7,62.9,2.811,2.908,2.406,2.976,4.46,322.7,37.0,47.6,1005.15,-32.88,0.3,1.76,32.4,48.9,41.5,0,no_anomaly,0.0,0,0,0,0,28.6139102,77.209012,5.0,0.0
2024-02-11T08:55:02.600Z,MISSION_0051,26,0,takeoff,SITE_DEL_002,28.6139161,77.2090038,5.0,119.36,0.091,0.126,1.84,1.1341,-1.8376,119.362,0.50459,0.01884,0.00045,0.86315,0.2091,0.0151,-9.8689,1.0222,0.652,-0.2653,0.1999,3,12,0.59,0.93,0.25,24.654,13.28,97.3,45.9,21411.0,8712,8799,8680,8530,59.0,60.4,62.5,59.4,2.834,2.891,2.775,2.842,4.77,321.1,37.0,47.7,1005.6,-31.6,0.72,1.66,30.9,50.2,41.8,0,no_anomaly,0.0,0,0,0,0,28.6139161,77.2090038,5.0,0.0
2024-02-11T08:55:02.700Z,MISSION_0051,27,0,takeoff,SITE_DEL_002,28.6139185,77.2090033,5.0,117.62,0.141,0.093,2.09,-3.556,-2.1866,117.6197,0.51804,0.00025,-0.03641,0.85458,0.0555,0.0081,-9.8028,0.3054,-0.4961,0.119,0.1415,3,20,0.71,0.71,0.35,24.646,20.08,97.2,46.0,21394.0,8585,8337,8576,8350,61.9,60.9,60.0,61.1,2.732,2.382,3.109,2.8,4.36,324.9,37.1,47.8,1005.79,-31.83,-0.31,1.7,34.9,47.6,43.3,0,no_anomaly,0.0,0,0,0,0,28.6139185,77.2090033,5.0,0.0
2024-02-11T08:55:02.800Z,MISSION_0051,28,0,takeoff,SITE_DEL_002,28.6139198,77.2090011,5.0,120.42,0.0,0.125,2.21,-8.3425,-1.032,120.4183,0.49607,-0.02834,-0.06759,0.86519,0.1906,-0.0456,-9.8276,0.3612,0.6171,-0.3118,0.2377,3,12,0.57,1.24,0.2,24.777,18.41,97.2,44.3,21377.0,8387,8605,8457,8438,62.0,62.3,57.5,65.8,3.058,2.733,2.647,3.136,4.06,320.2,37.2,48.9,1005.42,-33.96,1.08,1.72,31.5,49.8,39.7,0,no_anomaly,0.0,0,0,0,0,28.6139198,77.2090011,5.0,0.0
2024-02-11T08:55:02.900Z,MISSION_0051,29,0,takeoff,SITE_DEL_002,28.6139218,77.2090006,5.0,119.7,0.0,0.077,2.43,4.5895,-1.3079,119.7009,0.50143,0.02997,0.02889,0.8642,-0.307,0.0482,-9.8394,0.5649,-0.2319,-0.3913,0.187,3,20,0.76,0.89,0.39,24.694,16.73,97.1,45.4,21360.0,8369,8517,8242,8573,58.4,61.3,61.7,60.0,2.938,2.92,2.76,2.877,5.04,334.9,37.5,47.9,1005.61,-28.04,0.5,1.17,31.7,44.4,41.9,0,no_anomaly,0.0,0,0,0,0,28.6139218,77.2090006,5.0,0.0
2024-02-11T08:55:03.000Z,MISSION_0051,30,0,takeoff,SITE_DEL_002,28.613922,77.2090019,5.0,120.85,0.0,0.022,2.46,-0.3892,-5.0713,120.8461,0.49324,0.0368,-0.02479,0.86876,-0.2093,-0.0343,-9.7412,-0.1853,-0.265,-0.1461,0.1659,3,13,0.69,0.88,0.29,24.755,20.62,97.0,45.9,21343.0,8370,8518,8499,8275,64.4,61.8,61.8,61.3,2.466,2.88,2.751,2.795,3.9,318.6,37.3,48.6,1005.52,-34.75,1.56,1.0,29.9,47.6,37.8,0,no_anomaly,0.0,0,0,0,0,28.613922,77.2090019,5.0,0.0
2024-02-11T08:55:03.100Z,MISSION_0051,31,0,takeoff,SITE_DEL_002,28.6139241,77.2090011,5.0,119.63,0.003,0.1,2.69,0.0,0.3345,119.6342,0.50276,-0.00252,0.00147,0.86442,0.1969,0.0073,-9.7097,0.1791,-0.7523,-0.04,0.3009,3,16,0.74,0.84,0.3,24.746,17.95,96.9,45.5,21327.0,8278,8655,8662,8717,59.9,64.5,62.6,59.9,2.609,2.745,2.988,2.687,4.16,322.1,37.0,48.4,1005.43,-30.44,0.38,1.83,32.9,51.5,38.4,0,no_anomaly,0.0,0,0,0,0,28.6139241,77.2090011,5.0,0.0
2024-02-11T08:55:03.200Z,MISSION_0051,32,0,takeoff,SITE_DEL_002,28.6139271,77.2090021,5.0,123.21,0.0,0.064,3.02,-0.3353,-0.3587,123.2076,0.47557,0.00136,-0.00406,0.87967,-0.288,-0.0515,-9.8014,0.7508,0.5084,-0.1975,0.1249,3,17,0.6,1.04,0.25,24.708,15.09,96.9,45.7,21310.0,8401,8596,8362,8350,63.7,62.4,60.1,59.5,2.903,3.013,2.661,2.673,4.18,329.1,37.3,48.3,1005.64,-29.63,0.78,1.37,29.7,45.1,33.7,0,no_anomaly,0.0,0,0,0,0,28.6139271,77.2090021,5.0,0.0
2024-02-11T08:55:03.300Z,MISSION_0051,33,0,takeoff,SITE_DEL_002,28.6139285,77.2090012,5.0,122.53,0.0,0.191,3.17,0.2338,-3.6465,122.5285,0.48047,0.02888,-0.01351,0.87643,-0.0966,-0.0246,-9.8927,-0.9306,0.1636,-0.2196,0.1892,3,12,0.73,1.0,0.31,24.775,20.45,96.8,45.1,21293.0,8405,8193,8481,8631,64.4,64.5,63.7,60.8,2.655,2.733,2.936,2.855,3.62,332.8,37.2,48.2,1005.28,-29.99,-0.17,1.1,35.4,46.0,42.8,0,no_anomaly,0.0,0,0,0,0,28.6139285,77.2090012,5.0,0.0
2024-02-11T08:55:03.400Z,MISSION_0051,34,0,takeoff,SITE_DEL_002,28.6139273,77.2090015,5.0,121.5,0.0,0.12,3.04,-6.9549,-4.3373,121.5021,0.48936,0.00334,-0.07134,0.86915,-0.225,-0.0254,-9.8495,-0.2867,-0.6164,0.2058,0.1522,3,12,0.81,1.04,0.25,24.684,19.96,96.7,44.4,21276.0,8267,8550,8672,8442,65.6,62.4,64.4,62.6,2.62,2.532,2.838,2.753,3.65,324.6,37.1,47.8,1005.56,-32.11,-1.64,1.68,28.1,45.1,36.1,0,no_anomaly,0.0,0,0,0,0,28.6139273,77.2090015,5.0,0.0
2024-02-11T08:55:03.500Z,MISSION_0051,35,0,takeoff,SITE_DEL_002,28.6139258,77.2090021,5.0,119.44,0.0,0.131,2.88,5.724,-0.24,119.4386,0.50352,0.02698,0.04206,0.86254,0.0297,0.0051,-9.8301,-0.2293,0.0353,0.4553,0.1656,3,16,0.79,1.15,0.34,24.657,19.46,96.6,45.1,21259.0,8454,8507,8530,8763,60.5,60.6,64.2,63.6,2.747,2.795,2.701,2.788,4.25,323.0,37.6,46.9,1005.3,-31.84,-0.59,1.79,31.0,52.4,41.9,0,no_anomaly,0.0,0,0,0,0,28.6139258,77.2090021,5.0,0.0
2024-02-11T08:55:03.600Z,MISSION_0051,36,0,takeoff,SITE_DEL_002,28.6139317,77.2089975,5.0,118.35,0.296,0.122,3.53,2.0034,-1.867,118.3518,0.51201,0.02295,0.00666,0.85865,0.0958,0.0628,-9.745,0.9446,-0.6799,-0.1727,0.1034,3,14,0.72,0.8,0.31,24.688,20.25,96.6,44.0,21242.0,8378,8582,8329,8703,61.7,61.3,60.8,62.9,3.033,2.822,2.751,2.915,3.62,327.7,37.3,47.6,1005.52,-30.98,1.07,1.17,30.1,44.4,39.4,0,no_anomaly,0.0,0,0,0,0,28.6139317,77.2089975,5.0,0.0
2024-02-11T08:55:03.700Z,MISSION_0051,37,0,takeoff,SITE_DEL_002,28.6139317,77.2089914,5.0,120.2,0.695,0.104,3.65,-3.2039,-0.0446,120.2037,0.49827,-0.0136,-0.02443,0.86657,0.3023,-0.0315,-9.8636,0.6106,0.3424,-0.5095,0.1909,3,15,0.7,1.06,0.33,24.645,21.72,96.5,44.3,21225.0,8568,8675,8308,8626,63.8,60.2,64.1,62.1,2.688,3.064,2.812,2.722,5.31,320.3,36.9,47.2,1005.63,-33.16,-0.54,1.93,29.5,45.1,36.8,0,no_anomaly,0.0,0,0,0,0,28.6139317,77.2089914,5.0,0.0
2024-02-11T08:55:03.800Z,MISSION_0051,38,0,takeoff,SITE_DEL_002,28.613933,77.2089899,5.0,120.1,0.617,0.07,3.84,1.0564,-2.2278,120.0979,0.49899,0.02144,-0.00172,0.86634,0.2718,0.0316,-9.8138,-0.4997,0.1933,-0.047,0.0586,3,10,0.86,0.89,0.2,24.722,16.07,96.4,44.7,21208.0,8368,8326,8466,8293,65.1,60.1,63.0,62.1,2.768,2.873,2.918,2.885,3.4,321.9,37.3,47.3,1005.14,-29.58,0.53,1.28,33.0,48.6,41.3,0,no_anomaly,0.0,0,0,0,0,28.613933,77.2089899,5.0,0.0
2024-02-11T08:55:03.900Z,MISSION_0051,39,0,takeoff,SITE_DEL_002,28.6139324,77.2089946,5.0,121.87,0.818,0.145,3.66,3.0298,-4.8582,121.8737,0.48419,0.04986,0.00251,0.87354,0.1495,-0.041,-9.7671,0.3074,0.4421,0.1125,0.1927,3,10,0.79,0.92,0.34,24.755,16.57,96.3,46.2,21191.0,8496,8667,8450,8580,61.4,62.9,61.8,62.5,2.776,2.493,2.765,2.768,4.56,319.1,36.9,47.9,1005.62,-26.31,-0.78,1.49,32.4,47.2,38.8,0,no_anomaly,0.0,0,0,0,0,28.6139324,77.2089946,5.0,0.0
2024-02-11T08:55:04.000Z,MISSION_0051,40,0,takeoff,SITE_DEL_002,28.6139326,77.2089938,5.0,121.82,0.96,0.141,3.69,-3.2724,-2.6353,121.8228,0.48641,0.00621,-0.03612,0.87296,0.048,-0.007,-9.8091,0.5439,-0.5522,0.6294,0.1848,3,16,0.69,0.6,0.25,24.745,23.74,96.2,45.0,21174.0,8769,8640,8394,8702,61.1,62.1,62.4,61.7,2.754,2.886,2.787,2.97,4.01,327.0,37.3,47.2,1005.57,-26.12,1.91,1.43,31.1,52.8,41.6,0,no_anomaly,0.0,0,0,0,0,28.6139326,77.2089938,5.0,0.0
2024-02-11T08:55:04.100Z,MISSION_0051,41,0,takeoff,SITE_DEL_002,28.6139305,77.2089908,5.0,120.2,1.085,0.165,3.55,-0.766,-4.2557,120.2007,0.49834,0.02886,-0.0243,0.86616,0.0501,-0.0074,-9.7315,-0.5191,0.1383,0.0879,0.2794,3,17,0.54,0.75,0.25,24.643,23.54,96.2,45.7,21157.0,8444,8576,8373,8318,62.8,65.4,62.9,63.3,2.861,2.539,2.681,2.887,3.96,327.5,37.2,48.6,1005.26,-31.4,-0.63,1.3,33.4,41.9,37.4,0,no_anomaly,0.0,0,0,0,0,28.6139305,77.2089908,5.0,0.0
2024-02-11T08:55:04.200Z,MISSION_0051,42,0,takeoff,SITE_DEL_002,28.6139348,77.2089933,5.0,121.48,1.224,0.164,3.95,-4.2996,-3.97,121.4793,0.48928,0.01187,-0.04962,0.87064,-0.1322,0.0584,-9.7672,0.2674,-0.802,0.1705,0.2265,3,15,0.56,1.08,0.2,24.706,19.08,96.1,45.4,21140.0,8532,8701,8511,8164,55.8,61.7,61.3,61.5,3.005,2.777,2.952,2.897,3.81,327.0,37.4,48.2,1005.54,-28.17,0.92,1.68,30.1,49.0,40.8,0,no_anomaly,0.0,0,0,0,0,28.6139348,77.2089933,5.0,0.0
2024-02-11T08:55:04.300Z,MISSION_0051,43,0,takeoff,SITE_DEL_002,28.6139386,77.2089887,5.0,124.73,1.578,0.079,4.48,-2.753,-3.4301,124.7333,0.46411,0.01537,-0.03515,0.88495,-0.2576,0.0856,-9.7971,0.3797,0.9292,0.0238,0.2229,3,16,0.57,0.97,0.27,24.768,24.6,96.0,45.6,21123.0,8482,8453,8722,8552,65.1,63.0,62.0,62.2,2.803,2.824,2.833,2.527,4.46,327.7,37.0,47.4,1005.32,-30.53,-0.29,1.68,33.7,43.6,36.8,0,no_anomaly,0.0,0,0,0,0,28.6139386,77.2089887,5.0,0.0
2024-02-11T08:55:04.400Z,MISSION_0051,44,0,takeoff,SITE_DEL_002,28.6139372,77.2089934,5.0,127.18,1.533,0.125,4.21,1.6467,-0.0501,127.1847,0.4447,0.00678,0.01268,0.89556,0.1616,0.0408,-9.7439,0.4581,-0.2206,-0.1175,0.126,3,12,0.77,0.87,0.29,24.722,18.92,95.9,46.1,21106.0,8490,8574,8557,8447,60.9,63.6,58.8,60.0,2.755,2.819,2.879,2.986,3.69,321.6,37.3,48.2,1005.58,-32.1,1.55,1.43,32.3,47.4,38.7,0,no_anomaly,0.0,0,0,0,0,28.6139372,77.2089934,5.0,0.0
2024-02-11T08:55:04.500Z,MISSION_0051,45,0,takeoff,SITE_DEL_002,28.6139357,77.2089957,5.0,130.56,1.017,0.087,4.01,1.7513,-0.221,130.5622,0.41809,0.00814,0.01308,0.90827,-0.1684,0.035,-9.7992,-0.0189,0.672,0.1827,0.2639,3,16,0.72,0.99,0.2,24.708,22.56,95.9,46.0,21090.0,8739,8311,8482,8573,62.8,59.9,60.6,63.1,2.769,2.766,2.795,2.757,4.51,324.7,37.2,47.3,1005.38,-30.61,1.99,1.76,30.9,51.0,40.9,0,no_anomaly,0.0,0,0,0,0,28.6139357,77.2089957,5.0,0.0
2024-02-11T08:55:04.600Z,MISSION_0051,46,0,takeoff,SITE_DEL_002,28.6139311,77.2089991,5.0,130.85,0.88,0.101,3.46,1.8291,0.593,130.8548,0.41586,0.00193,0.01667,0.90927,-0.0953,0.0139,-9.8228,-0.347,-0.5404,0.4219,0.1834,3,15,0.75,0.99,0.23,24.767,17.68,95.8,45.3,21073.0,8359,8470,8531,8250,60.5,60.5,61.5,62.9,2.812,2.696,2.638,2.942,4.28,322.2,37.4,47.6,1005.3,-30.07,-0.66,1.66,32.6,50.2,40.9,0,no_anomaly,0.0,0,0,0,0,28.6139311,77.2089991,5.0,0.0
2024-02-11T08:55:04.700Z,MISSION_0051,47,0,transit,SITE_DEL_002,28.6139304,77.2089992,5.5,130.42,1.661,0.113,3.39,-0.7651,-0.9504,130.415,0.41936,0.00473,-0.00954,0.90776,0.0122,0.0065,-9.7936,0.183,-0.4118,0.1003,0.1623,3,10,0.86,0.62,0.32,24.714,9.32,95.7,45.5,21056.0,8382,8449,8357,8723,65.1,63.2,61.4,60.1,2.871,3.008,2.631,2.817,4.05,322.3,37.2,47.7,1005.28,-33.18,0.25,1.71,34.2,53.3,40.8,0,no_anomaly,0.0,0,0,0,0,28.6139304,77.2089992,5.5,0.0
2024-02-11T08:55:04.800Z,MISSION_0051,48,0,transit,SITE_DEL_002,28.6139307,77.2090023,6.0,129.67,2.08,0.13,3.43,1.0107,-3.1037,129.6726,0.42482,0.02826,-0.00353,0.90483,0.2808,0.047,-9.7838,-0.0162,-0.0585,0.214,0.1453,3,15,0.74,0.96,0.21,24.72,21.94,95.6,45.1,21039.0,8548,8421,8380,8047,61.1,62.6,60.7,60.8,2.892,2.645,2.719,2.903,4.71,316.4,37.2,48.4,1005.22,-30.0,0.89,1.6,30.7,44.7,39.0,0,no_anomaly,0.0,0,0,0,0,28.6139307,77.2090023,6.0,0.0
2024-02-11T08:55:04.900Z,MISSION_0051,49,0,transit,SITE_DEL_002,28.6139294,77.2090082,6.5,131.32,1.961,0.093,3.39,5.8419,-2.6195,131.3204,0.41044,0.0418,0.03701,0.91018,-0.1002,0.0069,-9.8148,0.9368,0.0492,0.6292,0.1007,3,10,0.68,1.23,0.25,24.756,24.64,95.6,45.3,21022.0,8418,8238,8717,8513,59.9,62.4,62.6,63.2,2.829,2.613,2.895,2.919,4.55,332.6,37.0,47.4,1005.65,-30.09,1.71,1.98,30.5,44.7,37.2,0,no_anomaly,0.0,0,0,0,0,28.6139294,77.2090082,6.5,0.0
2024-02-11T08:55:05.000Z,MISSION_0051,50,0,transit,SITE_DEL_002,28.6139222,77.2090063,7.0,131.15,2.43,0.069,2.57,0.8898,-2.5333,131.1526,0.41321,0.02334,-0.00207,0.91033,0.1468,0.023,-9.909,0.582,0.0235,0.2705,0.1569,3,12,0.79,1.02,0.39,24.726,19.9,95.5,45.3,21005.0,8397,8677,8502,8548,62.2,65.8,64.9,60.6,2.787,2.67,2.879,2.661,4.51,325.4,37.2,46.9,1005.4,-26.54,-0.07,1.76,33.4,40.8,36.9,0,no_anomaly,0.0,0,0,0,0,28.6139222,77.2090063,7.0,0.0
2024-02-11T08:55:05.100Z,MISSION_0051,51,0,transit,SITE_DEL_002,28.6139199,77.2090105,7.5,130.54,2.442,0.081,2.5,-1.1768,-1.61,130.5374,0.41843,0.00846,-0.0152,0.90808,-0.0045,-0.0675,-9.8913,-0.0206,0.0281,-0.0105,0.0534,3,20,0.67,0.96,0.3,24.698,17.02,95.4,45.2,20988.0,8432,8627,8248,8566,64.4,64.1,60.5,60.0,2.81,3.005,2.999,3.135,4.15,327.9,37.2,46.8,1005.6,-31.0,-0.83,1.65,28.4,44.8,40.7,0,no_anomaly,0.0,0,0,0,0,28.6139199,77.2090105,7.5,0.0
2024-02-11T08:55:05.200Z,MISSION_0051,52,0,transit,SITE_DEL_002,28.6139183,77.2090133,8.0,134.52,2.592,-0.023,2.51,-3.4769,-1.9242,134.5168,0.38681,0.00375,-0.03446,0.92151,-0.2349,-0.0508,-9.7511,0.2753,0.206,0.4996,0.2343,3,14,0.84,0.77,0.52,24.74,23.69,95.3,44.8,20971.0,8313,8556,8169,8638,59.9,63.3,60.7,63.4,2.666,2.777,2.843,2.623,4.39,324.9,37.1,46.9,1005.42,-27.56,1.07,1.52,33.7,46.0,39.7,0,no_anomaly,0.0,0,0,0,0,28.6139183,77.2090133,8.0,0.0
2024-02-11T08:55:05.300Z,MISSION_0051,53,0,transit,SITE_DEL_002,28.613918,77.2090102,8.5,135.45,2.867,0.057,2.31,-0.6627,-1.1817,135.4489,0.37909,0.00735,-0.00926,0.92528,-0.1324,0.0504,-9.8507,0.2633,0.1526,0.4793,0.2012,3,20,0.5,0.95,0.2,24.635,17.83,95.2,44.9,20954.0,8551,8543,8541,8486,61.7,65.5,58.8,62.2,2.696,2.608,2.841,2.621,4.43,327.6,37.4,47.0,1005.21,-31.22,-1.77,1.46,37.6,47.5,40.2,0,no_anomaly,0.0,0,0,0,0,28.613918,77.2090102,8.5,0.0
2024-02-11T08:55:05.400Z,MISSION_0051,54,0,transit,SITE_DEL_002,28.6139146,77.2090039,9.0,134.49,2.237,0.138,1.68,0.0172,-3.925,134.492,0.38654,0.03164,-0.01311,0.92164,-0.0632,-0.108,-9.7983,0.7682,0.1408,0.3484,0.238,3,18,0.68,0.92,0.34,24.709,15.06,95.2,45.6,20937.0,8663,8616,8492,8462,64.2,60.8,60.7,61.6,2.861,2.73,2.805,2.713,3.64,324.0,36.8,47.4,1005.65,-24.29,0.62,1.72,35.4,49.3,41.1,0,no_anomaly,0.0,0,0,0,0,28.6139146,77.2090039,9.0,0.0
2024-02-11T08:55:05.500Z,MISSION_0051,55,0,transit,SITE_DEL_002,28.6139104,77.2090018,9.5,133.64,2.291,0.054,1.17,3.2847,-1.0988,133.6361,0.39322,0.02009,0.02257,0.91895,-0.1588,0.035,-9.8548,0.3977,0.5974,0.259,0.2037,3,19,0.89,0.85,0.37,24.715,16.78,95.1,45.3,20920.0,8301,8417,8475,8552,62.0,61.0,63.9,60.2,2.875,2.975,3.052,3.064,4.82,318.5,36.9,48.3,1005.51,-28.02,-1.22,1.77,32.4,51.2,39.5,0,no_anomaly,0.0,0,0,0,0,28.6139104,77.2090018,9.5,0.0
2024-02-11T08:55:05.600Z,MISSION_0051,56,0,transit,SITE_DEL_002,28.6139087,77.2089975,10.0,132.96,2.282,0.144,1.0,-4.8163,-1.0237,132.9643,0.39901,-0.00858,-0.04209,0.91594,0.1843,0.1034,-9.8275,-0.7068,-1.0469,0.0427,0.154,3,11,0.7,1.14,0.4,24.603,21.55,95.0,45.2,20903.0,8489,8566,8311,8502,61.9,64.0,64.9,60.8,2.899,2.751,2.549,2.879,4.95,331.8,37.5,47.5,1005.51,-27.09,0.68,1.47,32.3,49.9,37.8,0,no_anomaly,0.0,0,0,0,0,28.6139087,77.2089975,10.0,0.0
2024-02-11T08:55:05.700Z,MISSION_0051,57,0,transit,SITE_DEL_002,28.6139072,77.2089998,10.5,132.78,2.305,0.142,0.8,3.7635,-1.9486,132.775,0.39976,0.02872,0.02328,0.91587,0.3015,0.0116,-9.7886,0.379,0.0403,0.3635,0.1589,3,12,0.58,1.02,0.25,24.499,21.19,94.9,45.6,20886.0,8794,8431,8690,8694,58.7,61.0,63.6,61.7,2.783,2.693,2.732,2.885,4.57,327.8,37.1,47.2,1005.53,-29.85,1.16,1.35,31.3,42.5,38.1,0,no_anomaly,0.0,0,0,0,0,28.6139072,77.2089998,10.5,0.0
2024-02-11T08:55:05.800Z,MISSION_0051,58,0,transit,SITE_DEL_002,28.6139093,77.209003,11.0,131.77,2.229,0.089,1.09,0.8955,0.9829,131.7682,0.40862,-0.00464,0.01064,0.91263,-0.0195,-0.0095,-9.8049,-0.4087,-0.1213,0.3409,0.2518,3,12,0.66,0.94,0.28,24.681,18.08,94.9,45.9,20869.0,8398,8227,8382,8362,63.2,63.9,63.3,63.0,2.741,2.685,2.97,3.085,3.41,320.9,37.3,48.8,1005.7,-34.6,-0.57,1.4,34.7,50.2,43.6,0,no_anomaly,0.0,0,0,0,0,28.6139093,77.209003,11.0,0.0
2024-02-11T08:55:05.900Z,MISSION_0051,59,0,transit,SITE_DEL_002,28.6139048,77.2090006,11.5,132.17,2.647,0.054,0.53,0.3779,-4.3584,132.1747,0.40493,0.0361,-0.0124,0.91355,-0.1013,0.0266,-9.7575,0.0446,0.2497,-0.2354,0.1257,3,16,0.78,0.75,0.33,24.498,15.82,94.8,45.0,20853.0,8362,8342,8575,8518,62.9,64.0,65.2,64.8,2.642,2.856,2.939,3.098,4.39,331.0,36.9,48.3,1005.42,-34.47,-0.17,1.75,34.4,52.6,42.9,0,no_anomaly,0.0,0,0,0,0,28.6139048,77.2090006,11.5,0.0
2024-02-11T08:55:06.000Z,MISSION_0051,60,0,transit,SITE_DEL_002,28.6139036,77.2090014,12.0,129.74,3.065,0.157,0.43,-1.2869,-4.1981,129.7392,0.42474,0.02839,-0.02571,0.9045,-0.0863,-0.0151,-9.8601,-0.6149,-0.8161,0.271,0.1306,3,11,0.66,0.93,0.36,24.63,17.44,94.7,45.5,20836.0,8258,8575,8364,8374,64.8,62.9,60.6,63.3,2.477,2.78,2.623,2.987,3.5,334.6,36.8,48.2,1005.94,-33.11,1.89,2.12,36.0,53.7,40.7,0,no_anomaly,0.0,0,0,0,0,28.6139036,77.2090014,12.0,0.0
2024-02-11T08:55:06.100Z,MISSION_0051,61,0,transit,SITE_DEL_002,28.6139049,77.2089975,12.5,129.16,3.392,0.093,0.61,-4.766,-2.6537,129.1576,0.42965,0.00305,-0.04747,0.90174,-0.1073,-0.0163,-9.8906,0.3668,-0.4954,-0.4188,0.1843,3,17,0.55,0.97,0.2,24.709,14.9,94.6,46.0,20819.0,8343,8631,8437,8502,67.2,63.5,64.5,65.2,2.766,2.826,2.851,2.716,4.13,322.0,37.2,47.3,1005.46,-24.52,0.61,1.54,32.0,46.1,42.1,0,no_anomaly,0.0,0,0,0,0,28.6139049,77.2089975,12.5,0.0
2024-02-11T08:55:06.200Z,MISSION_0051,62,0,transit,SITE_DEL_002,28.6139087,77.2089986,13.0,130.3,3.683,0.127,0.98,-0.8719,-0.9315,130.2973,0.4203,0.00418,-0.01032,0.90732,-0.1648,-0.1236,-9.8328,0.4795,0.4546,0.5319,0.2445,3,17,0.73,0.67,0.32,24.77,28.28,94.6,45.6,20802.0,8822,8401,8661,8488,59.1,58.1,65.1,65.7,2.744,2.556,2.644,2.716,4.03,318.3,37.3,47.7,1005.28,-34.13,0.43,1.78,34.6,42.8,39.2,0,no_anomaly,0.0,0,0,0,0,28.6139087,77.2089986,13.0,0.0
2024-02-11T08:55:06.300Z,MISSION_0051,63,0,transit,SITE_DEL_002,28.61391,77.208999,13.5,133.15,3.776,0.127,1.12,3.7323,-2.4055,133.1482,0.39664,0.03219,0.02153,0.91716,-0.0871,-0.02,-9.8008,-0.3549,0.2039,-0.2785,0.1118,3,20,0.82,0.87,0.24,24.684,16.48,94.5,45.4,20785.0,8547,8559,8591,8455,60.3,61.0,61.9,58.1,2.72,3.081,2.721,2.902,3.94,325.2,37.1,47.3,1005.71,-28.48,0.58,1.59,30.8,47.3,43.1,0,no_anomaly,0.0,0,0,0,0,28.61391,77.208999,13.5,0.0
2024-02-11T08:55:06.400Z,MISSION_0051,64,0,transit,SITE_DEL_002,28.6139088,77.2090017,14.0,131.48,4.074,0.067,1.0,-1.0586,-0.3042,131.4831,0.41086,-0.00138,-0.00951,0.91165,0.0932,-0.0085,-9.884,-0.6305,-0.3974,0.1705,0.178,3,14,0.69,0.93,0.2,24.683,15.6,94.4,45.1,20768.0,8667,8580,8586,8437,61.8,61.6,62.3,59.6,2.816,2.756,2.639,2.86,4.38,327.2,37.1,47.3,1004.77,-27.92,-0.33,2.17,33.7,52.4,42.4,0,no_anomaly,0.0,0,0,0,0,28.6139088,77.2090017,14.0,0.0
2024-02-11T08:55:06.500Z,MISSION_0051,65,0,transit,SITE_DEL_002,28.61391,77.2090053,14.0,129.77,4.327,0.078,1.26,4.1848,-4.7033,129.7693,0.42245,0.05261,0.01563,0.90473,0.2111,-0.0463,-9.9085,0.2116,0.476,-0.1692,0.2446,3,20,0.72,1.17,0.23,24.727,17.84,94.3,45.3,20751.0,8651,8449,8600,8589,61.1,61.5,64.8,58.6,2.453,2.716,2.822,2.85,3.86,324.6,37.4,47.8,1005.59,-27.56,-0.94,2.07,34.8,44.8,40.2,0,no_anomaly,0.0,0,0,0,0,28.61391,77.2090053,14.0,0.0
2024-02-11T08:55:06.600Z,MISSION_0051,66,0,transit,SITE_DEL_002,28.613911,77.2090066,14.0,128.77,4.014,0.106,1.42,-3.7402,-1.5542,128.7693,0.43246,-0.00188,-0.03528,0.90096,0.1389,0.0794,-9.7813,-0.2428,0.6707,0.5102,0.1311,3,14,0.67,0.68,0.33,24.609,18.37,94.2,45.2,20734.0,8365,8558,8328,8610,61.3,62.0,61.0,62.5,2.639,2.818,3.097,2.617,4.01,317.3,37.0,48.3,1005.09,-29.82,0.56,1.73,34.5,50.0,42.6,0,no_anomaly,0.0,0,0,0,0,28.613911,77.2090066,14.0,0.0
2024-02-11T08:55:06.700Z,MISSION_0051,67,0,transit,SITE_DEL_002,28.6139083,77.2090073,14.0,131.26,3.977,0.084,1.23,-0.014,-1.8205,131.2629,0.41255,0.01442,-0.00667,0.91079,-0.0192,-0.1029,-9.8246,0.1086,0.6325,0.0691,0.1182,3,18,0.76,0.95,0.29,24.766,24.57,94.2,44.8,20717.0,8675,8417,8466,8489,62.2,61.6,64.6,64.6,2.71,2.963,2.922,2.585,5.18,332.6,37.2,47.9,1005.56,-26.25,-0.79,1.93,35.4,52.1,40.0,0,no_anomaly,0.0,0,0,0,0,28.6139083,77.2090073,14.0,0.0
2024-02-11T08:55:06.800Z,MISSION_0051,68,0,transit,SITE_DEL_002,28.6139081,77.2090049,14.0,132.11,3.551,0.061,1.05,0.6747,-0.6139,132.1055,0.40585,0.00729,0.00321,0.9139,-0.0862,0.041,-9.713,-0.5342,0.0759,-0.3362,0.193,3,16,0.84,0.6,0.4,24.689,19.78,94.1,45.1,20700.0,8420,8335,8378,8469,62.8,62.0,62.2,63.7,2.725,2.959,2.626,2.628,4.3,325.0,36.9,47.2,1005.47,-30.92,0.24,1.04,35.2,51.5,42.4,0,no_anomaly,0.0,0,0,0,0,28.6139081,77.2090049,14.0,0.0
2024-02-11T08:55:06.900Z,MISSION_0051,69,0,transit,SITE_DEL_002,28.6139051,77.2090075,14.0,128.1,3.562,0.112,1.01,0.8113,-1.4785,128.0962,0.43749,0.0147,0.00072,0.8991,0.0918,0.0233,-9.9487,0.4295,0.0653,-0.1235,0.1946,3,11,0.66,0.71,0.3,24.689,19.32,94.0,45.7,20683.0,8452,8476,8540,8858,63.2,60.2,63.2,63.0,2.899,2.794,2.857,3.037,3.54,327.3,37.5,47.9,1005.55,-29.99,0.65,1.38,31.4,43.9,39.5,0,no_anomaly,0.0,0,0,0,0,28.6139051,77.2090075,14.0,0.0
2024-02-11T08:55:07.000Z,MISSION_0051,70,0,transit,SITE_DEL_002,28.6139032,77.209004,14.0,128.44,3.7,0.138,0.57,-0.0096,-1.8101,128.4415,0.43485,0.01419,-0.00695,0.90036,-0.0162,0.0401,-9.773,-0.2632,-0.8148,0.0142,0.2212,3,14,0.74,0.87,0.23,24.649,26.61,93.9,45.7,20666.0,8514,8314,8297,8585,64.8,59.8,63.2,61.4,2.763,2.918,2.854,2.919,4.09,326.5,37.5,48.1,1005.53,-28.69,1.74,1.51,35.7,51.1,42.8,0,no_anomaly,0.0,0,0,0,0,28.6139032,77.209004,14.0,0.0
2024-02-11T08:55:07.100Z,MISSION_0051,71,0,transit,SITE_DEL_002,28.6139051,77.2090041,14.0,128.35,3.224,0.113,0.73,0.0979,-0.8047,128.3527,0.43559,0.00669,-0.00229,0.90012,-0.0454,-0.0052,-9.8175,0.4689,-0.2484,0.4116,0.1705,3,13,0.89,0.81,0.26,24.669,23.92,93.9,45.0,20649.0,8379,8553,8838,8599,59.7,59.3,62.6,60.6,2.72,2.721,2.772,2.922,4.16,327.8,37.0,47.2,1005.64,-32.85,-0.78,1.59,34.8,51.0,43.4,0,no_anomaly,0.0,0,0,0,0,28.6139051,77.2090041,14.0,0.0
2024-02-11T08:55:07.200Z,MISSION_0051,72,0,transit,SITE_DEL_002,28.6139077,77.2090055,14.0,132.13,3.677,0.133,1.06,-0.8413,-2.7106,132.1255,0.40577,0.01864,-0.0163,0.91364,0.1222,-0.0757,-9.8383,-0.1193,-0.4237,-0.2513,0.1794,3,15,0.85,0.77,0.29,24.543,16.76,93.8,45.7,20632.0,8233,8443,8542,8375,60.1,60.0,65.1,62.5,3.107,2.531,2.732,2.864,4.02,328.8,37.0,47.4,1005.6,-25.85,0.25,1.76,35.9,48.0,38.6,0,no_anomaly,0.0,0,0,0,0,28.6139077,77.2090055,14.0,0.0
2024-02-11T08:55:07.300Z,MISSION_0051,73,0,transit,SITE_DEL_002,28.6139094,77.2090026,14.0,131.58,4.03,0.012,1.09,1.776,-4.4484,131.5845,0.40914,0.04174,-0.00179,0.91151,0.0008,-0.0085,-9.8601,1.0725,-0.1589,-0.6394,0.0811,3,15,0.69,1.03,0.36,24.676,22.65,93.7,45.1,20616.0,8519,8786,8846,8740,60.1,61.5,61.8,62.1,2.841,3.085,2.835,2.824,4.82,322.7,37.3,47.9,1005.21,-29.14,0.47,1.78,32.4,51.3,39.4,0,no_anomaly,0.0,0,0,0,0,28.6139094,77.2090026,14.0,0.0
2024-02-11T08:55:07.400Z,MISSION_0051,74,0,transit,SITE_DEL_002,28.6139057,77.2089992,14.0,135.0,4.124,0.131,0.64,0.3377,-1.9711,135.0027,0.38256,0.01702,-0.00386,0.92377,-0.0088,-0.1013,-9.8264,-0.0486,0.5072,-0.2655,0.2084,3,15,0.69,0.77,0.34,24.576,15.95,93.6,44.5,20599.0,8494,8442,8415,8541,61.8,61.1,62.4,60.2,2.903,3.026,2.864,2.984,4.16,323.0,36.9,47.7,1005.95,-32.32,1.12,1.89,29.7,48.0,38.1,0,no_anomaly,0.0,0,0,0,0,28.6139057,77.2089992,14.0,0.0
2024-02-11T08:55:07.500Z,MISSION_0051,75,0,transit,SITE_DEL_002,28.6139084,77.209,14.0,136.89,3.933,0.013,0.93,-1.1422,-2.7145,136.8897,0.36749,0.01837,-0.01797,0.92967,-0.0583,-0.0073,-9.8208,-0.2731,-0.4765,-0.3264,0.2331,3,19,0.84,1.01,0.37,24.677,22.49,93.6,44.2,20582.0,8602,8204,8326,8617,64.8,63.6,62.0,63.6,2.974,2.954,2.666,2.887,4.0,333.3,36.8,48.6,1005.14,-31.76,-0.09,1.21,34.9,52.5,42.0,0,no_anomaly,0.0,0,0,0,0,28.6139084,77.209,14.0,0.0
2024-02-11T08:55:07.600Z,MISSION_0051,76,0,transit,SITE_DEL_002,28.6139082,77.2089981,14.0,136.6,4.184,0.148,0.94,2.7591,-3.8664,136.6014,0.36866,0.04023,0.00989,0.92864,0.0772,-0.0718,-9.8421,-0.0858,-0.0605,-0.254,0.1919,3,17,0.66,0.78,0.2,24.722,17.26,93.5,45.5,20565.0,8719,8663,8337,8397,60.8,60.8,62.3,63.0,2.726,2.811,3.087,2.731,4.8,312.8,36.9,48.0,1005.73,-31.58,-0.68,1.14,34.2,44.0,40.4,0,no_anomaly,0.0,0,0,0,0,28.6139082,77.2089981,14.0,0.0
2024-02-11T08:55:07.700Z,MISSION_0051,77,0,transit,SITE_DEL_002,28.6139096,77.2089982,14.0,136.33,4.266,0.156,1.09,0.8129,-0.2872,136.3291,0.37192,0.00497,0.00565,0.92824,-0.1017,0.0403,-9.8491,-1.2957,-0.488,-0.1921,0.1909,3,10,0.58,0.77,0.23,24.65,23.59,93.4,45.5,20548.0,8395,8472,8390,8508,63.3,61.4,61.6,59.6,2.768,3.018,2.887,2.75,4.04,324.9,37.4,47.3,1005.48,-34.1,-1.79,1.53,34.9,46.5,43.1,0,no_anomaly,0.0,0,0,0,0,28.6139096,77.2089982,14.0,0.0
2024-02-11T08:55:07.800Z,MISSION_0051,78,0,transit,SITE_DEL_002,28.6139092,77.209004,14.0,136.53,3.99,0.109,1.12,-1.6,-3.7969,136.5298,0.37051,0.0256,-0.02523,0.92813,0.0137,-0.0628,-9.8557,0.0135,-0.0968,0.0442,0.1722,3,10,0.69,1.1,0.36,24.603,23.18,93.3,45.1,20531.0,8621,8507,8350,8626,64.7,63.4,62.0,64.7,2.857,2.829,2.687,2.785,4.01,330.0,37.2,47.8,1005.56,-30.43,-1.55,1.16,32.0,51.9,43.9,0,no_anomaly,0.0,0,0,0,0,28.6139092,77.209004,14.0,0.0
2024-02-11T08:55:07.900Z,MISSION_0051,79,0,transit,SITE_DEL_002,28.6139062,77.2090019,14.0,139.33,3.931,0.127,0.72,2.7303,-1.3985,139.3344,0.34708,0.01972,0.0181,0.93746,-0.0495,-0.0072,-9.75,0.8059,0.3806,0.6586,0.2028,3,20,0.55,1.02,0.23,24.54,19.14,93.2,45.7,20514.0,8420,8536,8804,8494,61.0,60.9,63.6,66.0,2.592,2.846,2.918,2.726,3.68,319.9,36.8,48.2,1005.6,-30.85,0.74,1.52,35.8,47.6,38.7,0,no_anomaly,0.0,0,0,0,0,28.6139062,77.2090019,14.0,0.0
2024-02-11T08:55:08.000Z,MISSION_0051,80,0,transit,SITE_DEL_002,28.6139096,77.2090006,14.0,139.4,3.912,0.106,1.07,-0.0225,-0.9949,139.3978,0.34694,0.00807,-0.0032,0.93785,0.0111,0.0121,-9.8273,0.0135,0.1574,0.1104,0.193,3,10,0.73,0.94,0.31,24.592,21.5,93.2,45.7,20497.0,8742,8650,8513,8576,60.8,62.3,64.4,60.5,2.759,2.897,2.872,2.665,3.93,331.5,37.0,48.4,1005.8,-29.08,0.04,1.7,31.4,47.9,39.4,0,no_anomaly,0.0,0,0,0,0,28.6139096,77.2090006,14.0,0.0
2024-02-11T08:55:08.100Z,MISSION_0051,81,0,transit,SITE_DEL_002,28.6139104,77.2089966,14.0,140.36,3.697,0.097,1.22,-1.9221,-1.5267,140.3597,0.3392,0.00685,-0.02029,0.94047,-0.1665,-0.0134,-9.8047,-0.8478,-0.8444,-0.1511,0.1588,3,17,0.64,0.99,0.31,24.679,19.52,93.1,45.8,20480.0,8484,8449,8462,8529,59.0,59.3,64.8,64.3,2.808,2.659,2.508,2.732,4.75,323.5,37.4,47.5,1005.46,-32.52,-0.91,1.72,33.8,43.9,38.7,0,no_anomaly,0.0,0,0,0,0,28.6139104,77.2089966,14.0,0.0
2024-02-11T08:55:08.200Z,MISSION_0051,82,0,transit,SITE_DEL_002,28.613917,77.2089998,14.0,138.48,3.252,0.042,1.9,-1.6438,-2.745,138.4844,0.3546,0.01731,-0.0219,0.9346,-0.0983,-0.0736,-9.7621,0.3587,0.2241,-0.2633,0.1262,3,16,0.5,0.76,0.2,24.561,21.86,93.0,45.5,20463.0,8943,8478,8821,8479,62.1,61.3,62.4,64.7,2.596,2.877,2.673,3.03,4.38,319.9,37.1,47.1,1005.13,-27.69,0.27,1.65,32.0,51.2,41.2,0,no_anomaly,0.0,0,0,0,0,28.613917,77.2089998,14.0,0.0
2024-02-11T08:55:08.300Z,MISSION_0051,83,0,transit,SITE_DEL_002,28.6139172,77.2089978,14.0,141.14,2.841,0.171,1.93,4.0173,-1.3196,141.1431,0.33202,0.02251,0.02922,0.94255,-0.0095,-0.0045,-9.7753,0.496,0.3689,0.2479,0.236,3,14,0.75,1.01,0.24,24.644,16.78,92.9,44.9,20446.0,8336,8582,8615,8841,61.2,63.4,62.3,60.8,2.655,2.837,2.74,2.9,4.02,321.0,36.8,47.7,1005.41,-34.62,-0.61,1.25,32.6,48.2,38.4,0,no_anomaly,0.0,0,0,0,0,28.6139172,77.2089978,14.0,0.0
2024-02-11T08:55:08.400Z,MISSION_0051,84,0,transit,SITE_DEL_002,28.613916,77.2089968,14.0,140.09,2.954,0.128,1.82,-2.6445,-3.4529,140.0926,0.34167,0.02044,-0.03196,0.93905,0.0253,0.0012,-9.8613,-0.0651,-0.5754,-0.4429,0.202,3,10,0.67,0.79,0.32,24.577,17.19,92.9,45.1,20429.0,8458,8768,8722,8813,60.9,58.4,60.5,60.3,2.914,2.721,2.623,2.748,5.31,320.1,37.1,47.4,1005.49,-30.25,0.9,1.76,34.1,50.5,40.8,0,no_anomaly,0.0,0,0,0,0,28.613916,77.2089968,14.0,0.0
2024-02-11T08:55:08.500Z,MISSION_0051,85,0,transit,SITE_DEL_002,28.6139185,77.2089971,14.0,141.35,2.538,0.187,2.08,-1.4276,-1.4843,141.3514,0.33101,0.0081,-0.01604,0.94345,0.0746,0.0217,-9.8189,0.2401,-0.2284,-0.4137,0.2327,3,16,0.71,0.79,0.29,24.636,20.61,92.8,44.5,20412.0,8695,8427,8408,8258,58.5,59.5,66.6,62.4,3.067,2.823,2.882,2.827,4.29,320.0,37.3,47.9,1005.14,-28.56,-0.61,1.33,33.3,48.3,42.1,0,no_anomaly,0.0,0,0,0,0,28.6139185,77.2089971,14.0,0.0
2024-02-11T08:55:08.600Z,MISSION_0051,86,0,transit,SITE_DEL_002,28.6139179,77.2089964,14.0,141.95,2.751,0.102,2.03,-0.2838,-1.1237,141.9537,0.32596,0.00846,-0.00554,0.94533,-0.0326,0.0531,-9.8376,0.3594,-0.7799,-0.1274,0.2077,3,11,0.83,0.78,0.29,24.544,19.23,92.7,44.8,20396.0,8547,8390,8353,8275,65.7,59.9,64.7,63.7,2.728,2.939,2.771,2.932,3.92,328.3,37.1,48.0,1005.31,-28.89,-0.24,1.98,30.9,43.3,38.3,0,no_anomaly,0.0,0,0,0,0,28.6139179,77.2089964,14.0,0.0
2024-02-11T08:55:08.700Z,MISSION_0051,87,0,transit,SITE_DEL_002,28.6139136,77.2089972,14.0,141.94,2.365,0.151,1.54,-5.0398,-0.015,141.9429,0.32573,-0.01421,-0.04161,0.94444,-0.0038,-0.0229,-9.8178,0.0543,-0.1283,-0.0549,0.1853,3,20,0.81,1.0,0.2,24.684,23.43,92.6,45.4,20379.0,8365,8510,8647,8461,60.6,61.0,64.6,65.1,2.56,2.695,2.801,2.742,4.34,319.8,37.4,48.0,1005.27,-24.31,0.69,1.52,29.8,42.4,39.7,0,no_anomaly,0.0,0,0,0,0,28.6139136,77.2089972,14.0,0.0
2024-02-11T08:55:08.800Z,MISSION_0051,88,0,transit,SITE_DEL_002,28.6139147,77.2089971,14.0,144.68,2.049,0.172,1.67,-0.8002,-0.5802,144.682,0.30337,0.00271,-0.00819,0.95283,-0.0663,-0.0283,-9.8548,-0.6546,0.0527,0.4124,0.1365,3,15,0.81,0.9,0.31,24.56,24.41,92.6,45.6,20362.0,8242,8669,8694,8440,64.8,61.3,65.8,65.2,2.724,2.98,2.75,2.922,3.76,322.1,37.1,47.9,1005.24,-30.18,-0.32,1.55,30.4,51.5,37.1,0,no_anomaly,0.0,0,0,0,0,28.6139147,77.2089971,14.0,0.0
2024-02-11T08:55:08.900Z,MISSION_0051,89,0,transit,SITE_DEL_002,28.6139149,77.2089944,14.0,145.7,2.257,0.109,1.78,-4.1272,-1.9225,145.696,0.29525,0.0054,-0.03935,0.95459,0.1825,-0.0654,-9.8689,0.42,0.0268,-0.01,0.1012,3,20,0.7,0.79,0.23,24.575,22.53,92.5,46.1,20345.0,8320,8757,8481,8573,63.8,63.4,61.8,57.5,2.966,2.888,2.732,2.803,3.72,336.1,37.0,48.0,1005.51,-32.63,-0.31,1.17,35.9,47.2,41.8,0,no_anomaly,0.0,0,0,0,0,28.6139149,77.2089944,14.0,0.0
2024-02-11T08:55:09.000Z,MISSION_0051,90,0,transit,SITE_DEL_002,28.6139099,77.2089905,14.0,142.35,2.529,0.088,1.53,1.4936,-4.5386,142.3488,0.32192,0.04168,-0.00045,0.94585,0.0942,-0.0131,-9.7988,0.5667,0.4021,-0.0026,0.1231,3,14,0.74,0.74,0.26,24.607,13.94,92.4,45.8,20328.0,8428,8620,8313,8688,63.0,63.4,63.0,62.5,3.011,3.051,3.015,2.704,5.34,334.3,37.1,46.9,1005.49,-24.86,-0.1,1.0,31.9,51.9,40.5,0,no_anomaly,0.0,0,0,0,0,28.6139099,77.2089905,14.0,0.0
2024-02-11T08:55:09.100Z,MISSION_0051,91,0,transit,SITE_DEL_002,28.6139127,77.2089958,14.0,141.74,2.311,0.036,1.49,-6.0552,-3.4826,141.7387,0.32863,0.01137,-0.05982,0.94249,-0.0281,0.0821,-9.8578,-0.3399,0.29,-0.2886,0.1952,3,14,0.64,0.66,0.22,24.623,19.29,92.3,45.4,20311.0,8416,8490,8373,8808,64.0,62.3,63.9,63.3,2.776,2.879,2.89,2.882,4.39,328.7,37.3,47.4,1005.72,-30.67,-1.16,1.7,29.7,44.7,41.4,0,no_anomaly,0.0,0,0,0,0,28.6139127,77.2089958,14.0,0.0
2024-02-11T08:55:09.200Z,MISSION_0051,92,0,transit,SITE_DEL_002,28.6139172,77.2089928,14.0,141.8,2.285,0.184,2.07,-2.2957,-3.0017,141.7957,0.32757,0.01819,-0.02749,0.94425,0.1227,-0.0333,-9.889,0.6,-0.5429,0.146,0.2005,3,11,0.74,0.74,0.32,24.636,19.88,92.2,45.1,20294.0,8417,8526,8630,8522,59.5,62.2,62.6,63.2,2.561,3.031,3.032,2.847,4.9,324.7,37.2,47.1,1005.07,-35.75,1.59,1.74,31.0,49.6,40.5,0,no_anomaly,0.0,0,0,0,0,28.6139172,77.2089928,14.0,0.0
2024-02-11T08:55:09.300Z,MISSION_0051,93,1,transit,SITE_DEL_002,28.6139156,77.2089847,14.0,141.39,2.091,0.124,2.43,-3.261,-3.428,141.3928,0.33109,0.01882,-0.03673,0.94269,-0.1971,0.0541,-9.7936,0.5246,-1.2239,0.3436,0.1814,3,15,0.64,0.86,0.25,24.623,15.28,92.2,45.2,20277.0,8695,8339,8707,8308,62.4,63.1,61.6,62.3,2.986,2.997,2.88,2.719,4.66,329.0,37.0,48.0,1005.62,-30.2,-0.58,1.46,33.9,47.6,37.2,0,no_anomaly,0.0,0,0,0,0,28.6139156,77.2089847,14.0,0.0
2024-02-11T08:55:09.400Z,MISSION_0051,94,1,transit,SITE_DEL_002,28.613915,77.2089805,14.0,139.12,2.096,0.079,2.74,-0.0796,-2.4084,139.1221,0.34915,0.01945,-0.00799,0.93683,0.0558,-0.0073,-9.9189,-1.0866,0.5414,0.0385,0.2363,3,12,0.82,0.98,0.21,24.639,22.99,92.1,44.5,20260.0,8520,8206,8382,8457,62.6,63.5,58.4,63.0,2.946,2.959,2.765,2.861,4.32,333.1,37.1,47.2,1005.51,-29.75,0.04,1.2,31.5,45.4,38.0,0,no_anomaly,0.0,0,0,0,0,28.613915,77.2089805,14.0,0.0
2024-02-11T08:55:09.500Z,MISSION_0051,95,1,transit,SITE_DEL_002,28.6139189,77.2089836,14.0,137.9,2.336,0.156,2.79,4.9595,-1.4348,137.8997,0.35831,0.02721,0.03588,0.93251,-0.1495,-0.0051,-9.8021,0.2535,0.0217,0.401,0.1975,3,16,0.79,0.79,0.3,24.504,21.14,92.0,45.3,20243.0,8474,8362,8487,8450,62.8,60.9,60.7,65.2,2.785,2.735,2.789,2.708,4.01,335.7,37.1,47.7,1005.54,-29.29,-1.08,1.55,34.2,48.5,40.8,0,no_anomaly,0.0,0,0,0,0,28.6139189,77.2089836,14.0,0.0
2024-02-11T08:55:09.600Z,MISSION_0051,96,1,transit,SITE_DEL_002,28.6139198,77.2089887,14.0,137.58,2.3,0.165,2.54,-2.1201,-1.0168,137.5758,0.3619,0.00158,-0.02046,0.93199,0.2254,0.0495,-9.847,1.096,-0.3174,0.0158,0.0955,3,15,0.67,1.02,0.42,24.547,20.1,91.9,45.1,20226.0,8799,8325,8754,8152,59.1,65.3,60.3,62.7,2.879,2.799,2.856,3.11,3.06,319.8,37.1,47.7,1005.34,-27.77,0.92,1.58,30.4,43.0,40.8,0,no_anomaly,0.0,0,0,0,0,28.6139198,77.2089887,14.0,0.0
2024-02-11T08:55:09.700Z,MISSION_0051,97,1,transit,SITE_DEL_002,28.6139245,77.2089872,14.0,138.1,2.145,0.086,3.07,2.3521,-3.2677,138.0964,0.35682,0.03396,0.00897,0.93351,0.0548,0.0382,-9.7298,0.1191,0.6142,-0.0268,0.1239,3,20,0.73,0.83,0.3,24.661,24.08,91.9,45.3,20209.0,8730,8575,8342,8538,63.0,60.8,61.5,60.7,3.02,2.873,2.851,2.484,3.56,323.1,37.0,48.1,1005.34,-31.33,-0.33,1.76,29.8,51.6,41.2,0,no_anomaly,0.0,0,0,0,0,28.6139245,77.2089872,14.0,0.0
2024-02-11T08:55:09.800Z,MISSION_0051,98,1,transit,SITE_DEL_002,28.6139224,77.2089871,14.0,140.62,2.199,0.093,2.88,1.0864,-1.0257,140.6163,0.33685,0.01162,0.00591,0.94147,-0.0405,0.0056,-9.8223,-0.3042,-0.0508,-0.4005,0.2553,3,13,0.67,1.08,0.29,24.549,14.68,91.8,45.9,20192.0,8484,8617,8543,8390,58.8,60.0,61.6,62.7,2.738,2.698,2.669,3.015,3.68,328.6,37.0,48.0,1005.61,-29.19,0.02,1.33,30.4,43.4,39.9,0,no_anomaly,0.0,0,0,0,0,28.6139224,77.2089871,14.0,0.0
2024-02-11T08:55:09.900Z,MISSION_0051,99,1,transit,SITE_DEL_002,28.6139222,77.2089899,14.0,140.21,2.478,-0.053,2.72,-1.3133,-2.6323,140.2084,0.34045,0.0177,-0.01859,0.93991,-0.0231,-0.0484,-9.8528,0.1342,-0.6622,0.3974,0.2685,3,18,0.62,0.69,0.2,24.628,21.28,91.7,46.4,20175.0,8469,8410,8642,8600,62.8,63.7,65.8,63.2,2.812,2.715,2.699,2.969,3.74,328.9,37.5,47.9,1005.31,-32.42,-1.41,1.37,36.5,51.2,42.4,0,no_anomaly,0.0,0,0,0,0,28.6139222,77.2089899,14.0,0.0
2024-02-11T08:55:10.000Z,MISSION_0051,100,1,transit,SITE_DEL_002,28.6139176,77.2089872,14.0,138.22,2.331,0.071,2.42,-1.4054,-1.5341,138.2239,0.35664,0.00813,-0.01623,0.93407,0.1566,0.1158,-9.8334,0.8512,-0.3031,-0.214,0.191,3,19,0.64,0.74,0.38,24.661,22.44,91.6,44.6,20159.0,8525,8388,8283,8677,62.4,63.2,68.0,64.9,2.787,2.723,3.099,2.936,3.83,331.2,37.0,47.5,1005.34,-28.76,0.12,1.75,32.7,44.7,42.1,0,no_anomaly,0.0,0,0,0,0,28.6139176,77.2089872,14.0,0.0
2024-02-11T08:55:10.100Z,MISSION_0051,101,1,transit,SITE_DEL_002,28.6139188,77.2089896,14.0,137.0,2.423,0.163,2.39,1.7241,-3.1729,137.0003,0.36593,0.03127,0.00385,0.93011,-0.1222,0.0629,-9.8117,0.5501,0.1801,-0.2013,0.1003,3,11,0.7,0.78,0.22,24.598,20.2,91.6,44.2,20142.0,8272,8450,8740,8583,59.4,57.0,66.6,66.7,2.662,2.527,2.786,3.207,4.57,320.5,37.0,48.3,1005.33,-25.94,-0.97,1.45,30.2,42.3,38.7,0,no_anomaly,0.0,0,0,0,0,28.6139188,77.2089896,14.0,0.0
2024-02-11T08:55:10.200Z,MISSION_0051,102,1,transit,SITE_DEL_002,28.6139232,77.2089875,14.0,137.38,2.139,0.127,2.93,0.2409,-2.1986,137.3766,0.36334,0.01864,-0.00501,0.93146,-0.139,0.025,-9.8171,-0.7732,0.0494,0.371,0.2127,3,19,0.88,0.81,0.41,24.537,17.53,91.5,45.5,20125.0,8637,8479,8560,8547,59.0,59.7,66.4,63.5,2.864,2.489,2.818,2.531,4.67,328.3,36.9,47.8,1005.38,-29.22,-0.68,1.9,33.0,46.9,38.8,0,no_anomaly,0.0,0,0,0,0,28.6139232,77.2089875,14.0,0.0
2024-02-11T08:55:10.300Z,MISSION_0051,103,1,transit,SITE_DEL_002,28.61392,77.2089889,14.0,138.92,2.59,0.12,2.55,2.9891,-1.8075,138.9231,0.35029,0.02391,0.01889,0.93615,0.2504,0.0335,-9.8005,0.2653,0.728,0.0405,0.2012,3,19,0.85,1.05,0.43,24.477,15.34,91.4,46.0,20108.0,8602,8513,8517,8756,58.6,63.3,61.5,62.3,2.994,3.005,2.837,2.426,4.1,323.5,37.3,47.8,1005.16,-32.49,-1.63,1.66,31.7,44.5,40.0,0,no_anomaly,0.0,0,0,0,0,28.61392,77.2089889,14.0,0.0
2024-02-11T08:55:10.400Z,MISSION_0051,104,1,transit,SITE_DEL_002,28.6139183,77.2089889,14.0,139.86,2.64,0.052,2.39,-1.9064,-1.5715,139.8622,0.34328,0.00717,-0.02033,0.93898,-0.0125,0.0325,-9.8412,-0.6442,-0.5848,-0.1066,0.1204,3,19,0.61,0.95,0.32,24.568,19.98,91.3,45.4,20091.0,8654,8404,8633,8606,61.4,64.4,62.8,62.5,2.802,2.95,2.841,2.645,3.28,317.6,37.0,47.8,1005.41,-27.51,1.18,1.84,30.7,48.4,39.5,0,no_anomaly,0.0,0,0,0,0,28.6139183,77.2089889,14.0,0.0
2024-02-11T08:55:10.500Z,MISSION_0051,105,1,transit,SITE_DEL_002,28.613917,77.2089888,14.0,138.99,2.349,0.097,2.27,-2.14,1.0946,138.9942,0.35001,-0.01549,-0.01415,0.93651,-0.0669,0.0091,-9.8669,0.1112,0.059,0.0884,0.1467,3,14,0.8,0.88,0.24,24.585,18.8,91.2,44.6,20074.0,8768,8265,8322,8405,59.7,63.4,60.2,59.5,2.772,2.901,2.91,2.557,4.53,325.1,37.2,47.6,1005.85,-35.91,-0.98,1.0,36.4,50.5,39.2,0,no_anomaly,0.0,0,0,0,0,28.613917,77.2089888,14.0,0.0
2024-02-11T08:55:10.600Z,MISSION_0051,106,1,transit,SITE_DEL_002,28.6139169,77.2089887,14.0,140.08,2.752,0.054,2.27,5.1608,-1.2177,140.0766,0.34058,0.02535,0.03869,0.93908,0.0426,0.0024,-9.7158,0.9985,-0.3057,-0.3023,0.2383,3,19,0.6,0.76,0.26,24.554,18.64,91.2,45.5,20057.0,8607,8680,8664,8428,61.2,61.0,66.6,66.1,2.917,2.88,2.825,2.515,4.14,325.2,36.7,48.2,1005.39,-28.64,1.27,1.81,32.4,45.6,41.0,0,no_anomaly,0.0,0,0,0,0,28.6139169,77.2089887,14.0,0.0
2024-02-11T08:55:10.700Z,MISSION_0051,107,1,transit,SITE_DEL_002,28.6139173,77.2089943,14.0,141.75,2.464,0.145,2.03,0.7412,-5.7781,141.7458,0.32693,0.04974,-0.01041,0.94368,0.0745,-0.0697,-9.7541,0.0515,0.4928,-0.0451,0.2209,3,17,0.64,0.87,0.28,24.585,18.55,91.1,45.7,20040.0,8485,8613,8418,8507,61.7,62.0,63.5,59.4,2.578,2.983,2.741,2.823,3.98,330.6,37.1,48.0,1005.49,-33.09,0.52,1.95,32.9,42.7,39.8,0,no_anomaly,0.0,0,0,0,0,28.6139173,77.2089943,14.0,0.0
2024-02-11T08:55:10.800Z,MISSION_0051,108,1,transit,SITE_DEL_002,28.6139187,77.2089958,14.0,142.71,2.413,0.068,2.14,1.9067,-3.9534,142.7143,0.31889,0.03799,0.00473,0.94702,-0.0482,0.0313,-9.8715,0.2493,-0.7261,-0.1851,0.1894,3,20,0.71,0.88,0.22,24.516,18.44,91.0,45.1,20023.0,8472,8496,8331,8574,61.0,60.8,63.4,59.8,2.808,2.893,2.871,2.886,3.84,326.5,37.2,47.6,1005.77,-29.63,1.28,1.53,34.4,43.9,39.4,0,no_anomaly,0.0,0,0,0,0,28.6139187,77.2089958,14.0,0.0
2024-02-11T08:55:10.900Z,MISSION_0051,109,1,transit,SITE_DEL_002,28.613916,77.2089975,14.0,144.93,2.616,0.113,1.8,-1.9006,-2.9009,144.9285,0.30156,0.01914,-0.02343,0.95297,0.0136,0.0266,-9.772,-0.5901,0.5266,-0.1411,0.1188,3,11,0.75,0.77,0.25,24.605,23.49,90.9,45.2,20006.0,8517,8727,8680,8698,63.0,66.2,63.7,62.8,2.681,2.706,2.679,2.633,3.8,329.3,37.4,47.9,1005.26,-29.6,-0.34,1.84,30.1,47.0,41.3,0,no_anomaly,0.0,0,0,0,0,28.613916,77.2089975,14.0,0.0
2024-02-11T08:55:11.000Z,MISSION_0051,110,1,transit,SITE_DEL_002,28.6139195,77.2089909,14.0,145.99,2.831,0.109,2.39,-1.5129,-3.1004,145.9887,0.29268,0.02201,-0.02053,0.95574,0.0747,-0.0257,-9.8095,-0.4981,0.9101,-0.7435,0.2456,3,19,0.61,0.81,0.31,24.607,15.99,90.9,45.5,19989.0,8661,8472,8352,8513,61.6,61.4,59.0,60.6,3.153,2.853,2.616,2.794,4.29,325.6,37.0,47.4,1005.49,-30.63,0.81,1.32,35.0,45.7,39.5,0,no_anomaly,0.0,0,0,0,0,28.6139195,77.2089909,14.0,0.0
2024-02-11T08:55:11.100Z,MISSION_0051,111,1,orbit_base,SITE_DEL_002,28.6138214,77.208985,14.3,146.82,2.671,0.111,8.91,-0.8519,-0.2704,146.8226,0.28551,0.00014,-0.0078,0.95834,-0.0364,0.0947,-9.8482,-0.4042,-1.0053,-0.0328,0.2731,3,15,0.87,0.8,0.36,24.554,23.0,90.8,45.2,19972.0,8507,8407,8754,8659,63.7,63.1,63.6,66.6,2.82,2.682,2.615,2.944,4.09,331.0,37.3,47.2,1005.54,-33.36,0.42,1.69,32.4,48.8,38.3,0,no_anomaly,0.0,0,0,0,0,28.6138214,77.208985,14.3,0.0
2024-02-11T08:55:11.200Z,MISSION_0051,112,1,orbit_base,SITE_DEL_002,28.6138219,77.2089827,14.6,144.82,2.905,0.068,8.91,3.3263,-6.7079,144.8195,0.29994,0.0645,0.00995,0.95172,-0.108,0.0669,-9.7594,0.5093,-0.6529,-0.6216,0.1042,3,17,0.67,1.02,0.31,24.579,19.99,90.7,46.0,19955.0,8608,8622,8612,8397,61.4,64.1,62.0,63.7,2.651,2.783,2.739,2.622,4.57,332.9,37.2,47.5,1005.69,-27.74,0.59,1.8,31.8,43.5,42.8,0,no_anomaly,0.0,0,0,0,0,28.6138219,77.2089827,14.6,0.0
2024-02-11T08:55:11.300Z,MISSION_0051,113,1,orbit_base,SITE_DEL_002,28.6138225,77.2089803,14.9,144.22,3.064,0.03,8.91,-1.7894,-1.0899,144.2181,0.3073,0.00425,-0.01778,0.95144,0.0496,-0.0097,-9.8372,0.089,-0.6407,0.0038,0.1254,3,20,0.63,0.92,0.2,24.633,19.24,90.6,45.6,19938.0,8573,8643,8843,8394,64.3,64.1,59.0,67.0,2.817,2.994,2.709,2.559,4.68,333.6,37.0,47.1,1005.67,-34.61,-1.62,1.33,31.0,51.8,39.9,0,no_anomaly,0.0,0,0,0,0,28.6138225,77.2089803,14.9,0.0
2024-02-11T08:55:11.400Z,MISSION_0051,114,1,orbit_base,SITE_DEL_002,28.6138231,77.208978,15.2,141.49,2.905,-0.006,8.91,1.6486,0.3672,141.4863,0.32981,0.00172,0.01464,0.94393,0.062,-0.0269,-9.8411,0.1541,0.2046,0.1621,0.2092,3,12,1.0,0.78,0.2,24.505,12.5,90.6,45.7,19922.0,8492,8431,8600,8514,61.2,60.6,61.3,63.5,2.896,2.956,2.536,2.622,4.49,322.7,37.1,48.2,1005.42,-27.29,-0.86,2.0,33.2,48.2,41.9,0,no_anomaly,0.0,0,0,0,0,28.6138231,77.208978,15.2,0.0
2024-02-11T08:55:11.500Z,MISSION_0051,115,1,orbit_base,SITE_DEL_002,28.6138238,77.2089757,15.5,142.06,3.032,0.107,8.91,-0.3177,-1.5087,142.0566,0.32511,0.01155,-0.0069,0.94558,-0.0916,0.0291,-9.8767,-0.8479,-0.3411,-0.1022,0.2106,3,16,0.8,1.18,0.2,24.543,18.78,90.5,44.8,19905.0,8361,8607,8628,8636,64.6,62.0,61.1,62.6,2.628,2.778,2.84,2.844,3.88,320.1,37.3,47.4,1004.9,-33.86,1.34,2.18,29.3,43.9,37.8,0,no_anomaly,0.0,0,0,0,0,28.6138238,77.2089757,15.5,0.0
2024-02-11T08:55:11.600Z,MISSION_0051,116,1,orbit_base,SITE_DEL_002,28.6138245,77.2089734,15.8,145.51,2.704,0.012,8.91,-0.4488,-1.7027,145.5086,0.29649,0.01303,-0.00815,0.95491,0.0887,0.0266,-9.7934,0.0713,0.0414,-0.3546,0.1349,3,11,0.65,1.2,0.25,24.604,14.15,90.4,45.3,19888.0,8536,8199,8519,8754,63.4,62.3,63.7,61.9,2.757,2.901,2.89,2.835,4.65,324.2,37.5,47.3,1005.23,-18.81,0.33,1.31,32.7,46.0,40.7,0,no_anomaly,0.0,0,0,0,0,28.6138245,77.2089734,15.8,0.0
2024-02-11T08:55:11.700Z,MISSION_0051,117,1,orbit_base,SITE_DEL_002,28.6138254,77.2089712,16.1,146.33,2.786,0.055,8.91,0.591,-2.844,146.3322,0.28938,0.02525,-0.00225,0.95688,-0.0458,-0.057,-9.7938,0.626,0.2251,0.2186,0.1954,3,19,0.78,0.86,0.38,24.554,18.18,90.3,46.0,19871.0,8706,8339,8723,8733,60.7,62.2,63.1,61.4,2.942,2.583,2.991,2.356,3.88,324.6,37.4,47.3,1005.2,-27.43,-0.13,1.12,32.1,53.4,41.1,0,no_anomaly,0.0,0,0,0,0,28.6138254,77.2089712,16.1,0.0
2024-02-11T08:55:11.800Z,MISSION_0051,118,1,orbit_base,SITE_DEL_002,28.6138263,77.208969,16.4,147.93,2.93,0.07,8.91,0.4142,-2.0317,147.9254,0.27616,0.01804,-0.00142,0.96094,0.0267,-0.0349,-9.7191,0.6042,0.4799,0.2511,0.1094,3,14,0.73,0.86,0.29,24.509,28.58,90.2,45.9,19854.0,8455,8281,8564,8515,60.8,61.8,61.3,62.2,2.952,2.774,2.588,2.673,3.83,332.1,37.3,48.1,1005.58,-27.06,0.35,1.1,29.3,49.8,39.3,0,no_anomaly,0.0,0,0,0,0,28.6138263,77.208969,16.4,0.0
2024-02-11T08:55:11.900Z,MISSION_0051,119,1,orbit_base,SITE_DEL_002,28.6138272,77.2089668,16.7,149.43,2.518,0.037,8.91,-0.7878,-3.0066,149.4285,0.26371,0.02349,-0.01355,0.96422,-0.1608,0.0202,-9.7887,0.3381,1.4563,-0.2042,0.2021,3,16,0.72,0.6,0.2,24.544,18.16,90.2,45.3,19837.0,8677,8484,8620,8645,66.0,61.0,63.6,61.0,2.538,2.762,2.558,2.982,4.66,328.7,37.1,47.7,1005.66,-32.77,0.26,1.56,35.9,48.1,40.3,0,no_anomaly,0.0,0,0,0,0,28.6138272,77.2089668,16.7,0.0
2024-02-11T08:55:12.000Z,MISSION_0051,120,1,orbit_base,SITE_DEL_002,28.6138283,77.2089646,17.0,149.76,2.719,0.141,8.91,-2.0458,-1.4433,149.7555,0.26103,0.0075,-0.02052,0.96508,-0.1465,0.0957,-9.6913,0.3797,-0.0531,-0.7814,0.1755,3,10,0.82,0.78,0.37,24.559,16.96,90.1,45.7,19820.0,8594,8589,8692,8654,63.1,63.1,62.9,64.7,2.803,2.796,2.91,2.44,4.91,318.6,37.3,48.8,1005.45,-29.3,0.31,1.3,31.7,48.9,41.7,0,no_anomaly,0.0,0,0,0,0,28.6138283,77.2089646,17.0,0.0
2024-02-11T08:55:12.100Z,MISSION_0051,121,1,orbit_base,SITE_DEL_002,28.6138294,77.2089625,17.3,151.35,2.975,0.189,8.91,-0.9219,-2.4514,151.3502,0.24752,0.01873,-0.01309,0.96861,-0.3723,0.0366,-9.7912,0.2735,0.5023,0.0793,0.1951,3,16,0.79,0.78,0.43,24.487,16.92,90.0,46.1,19803.0,8404,8366,8607,8690,61.0,62.1,63.4,62.1,2.869,2.971,2.707,2.452,5.02,327.6,37.3,47.2,1005.32,-32.56,1.16,1.46,33.4,48.9,37.9,0,no_anomaly,0.0,0,0,0,0,28.6138294,77.2089625,17.3,0.0
2024-02-11T08:55:12.200Z,MISSION_0051,122,1,orbit_base,SITE_DEL_002,28.6138305,77.2089604,17.6,151.36,2.813,0.066,8.91,5.2548,-3.5436,151.3571,0.24561,0.04126,0.03675,0.96779,-0.1397,0.0004,-9.7306,-0.7268,0.7292,0.345,0.2508,3,14,0.8,0.94,0.39,24.524,18.65,89.9,44.8,19786.0,8669,8602,8601,8537,61.3,59.0,62.6,64.4,2.673,2.71,3.022,2.724,4.14,321.4,37.4,47.2,1005.52,-29.62,0.37,1.0,30.7,44.1,40.3,0,no_anomaly,0.0,0,0,0,0,28.6138305,77.2089604,17.6,0.0
2024-02-11T08:55:12.300Z,MISSION_0051,123,1,orbit_base,SITE_DEL_002,28.6138317,77.2089583,17.9,152.18,2.532,0.108,8.91,3.4673,-3.6433,152.1816,0.23922,0.03811,0.02171,0.96997,-0.1639,-0.0288,-9.8197,0.8326,-0.047,-0.9233,0.1503,3,19,0.85,0.76,0.2,24.532,16.91,89.9,45.1,19769.0,8846,8617,8367,8491,58.8,59.3,64.4,58.3,2.835,2.8,2.899,3.044,4.0,329.5,37.4,46.7,1005.64,-30.69,0.13,1.41,33.6,50.9,39.1,0,no_anomaly,0.0,0,0,0,0,28.6138317,77.2089583,17.9,0.0
2024-02-11T08:55:12.400Z,MISSION_0051,124,1,orbit_base,SITE_DEL_002,28.613833,77.2089563,18.2,153.1,2.749,0.229,8.91,-0.1085,-2.0624,153.1024,0.23256,0.01728,-0.00511,0.97242,-0.02,0.0513,-9.8822,-0.7025,-0.2946,-0.355,0.1739,3,10,0.71,0.76,0.24,24.523,21.37,89.8,45.5,19752.0,8657,8725,8565,8463,61.6,63.0,65.1,65.4,2.958,2.857,2.8,2.931,4.05,328.1,37.3,48.5,1005.87,-32.49,0.91,1.2,33.1,51.3,43.2,0,no_anomaly,0.0,0,0,0,0,28.613833,77.2089563,18.2,0.0
2024-02-11T08:55:12.500Z,MISSION_0051,125,1,orbit_base,SITE_DEL_002,28.6138344,77.2089543,18.5,155.4,2.8,0.074,8.91,2.4454,-2.2295,155.4007,0.21253,0.02355,0.0167,0.97673,-0.1459,-0.0321,-9.8742,0.281,-0.1398,0.2909,0.1618,3,18,0.58,0.85,0.24,24.545,24.35,89.7,45.4,19735.0,8605,8610,8693,8505,61.6,57.9,65.1,63.5,2.781,2.689,2.855,2.994,4.15,321.4,36.9,47.8,1005.92,-28.41,0.1,1.45,35.5,55.2,44.5,0,no_anomaly,0.0,0,0,0,0,28.6138344,77.2089543,18.5,0.0
2024-02-11T08:55:12.600Z,MISSION_0051,126,1,orbit_base,SITE_DEL_002,28.6138358,77.2089523,18.8,154.1,2.375,0.016,8.91,0.5431,-2.3977,154.0968,0.22398,0.02145,-7e-05,0.97436,0.0284,0.0232,-9.7981,-0.049,-0.2305,-0.5229,0.2017,3,12,0.86,0.97,0.52,24.605,19.64,89.6,44.6,19718.0,8518,8512,8547,8462,61.3,63.5,64.9,64.2,2.994,2.836,2.916,2.642,4.22,326.7,37.2,47.4,1005.5,-27.55,0.88,1.0,29.9,46.9,42.3,0,no_anomaly,0.0,0,0,0,0,28.6138358,77.2089523,18.8,0.0
2024-02-11T08:55:12.700Z,MISSION_0051,127,1,orbit_base,SITE_DEL_002,28.6138372,77.2089504,19.1,155.5,2.178,0.074,8.91,-0.7771,-0.9931,155.4953,0.21226,0.00703,-0.00847,0.97715,0.1648,-0.0494,-9.8484,0.1988,0.6526,-0.446,0.2478,3,17,0.77,0.78,0.26,24.501,22.88,89.6,45.9,19701.0,8790,8506,8631,8711,62.3,61.3,63.0,63.2,2.982,2.823,2.559,2.824,4.87,324.2,36.9,48.0,1005.48,-30.45,0.34,1.49,32.2,44.0,41.9,0,no_anomaly,0.0,0,0,0,0,28.6138372,77.2089504,19.1,0.0
2024-02-11T08:55:12.800Z,MISSION_0051,128,1,orbit_base,SITE_DEL_002,28.6138387,77.2089486,19.4,157.36,1.935,0.118,8.91,0.0275,-1.4182,157.3603,0.19627,0.01218,-0.00219,0.98047,-0.0061,0.0116,-9.8221,0.6519,0.08,-0.0639,0.1625,3,11,0.75,1.06,0.24,24.532,17.51,89.5,45.4,19685.0,8536,8584,8449,8599,61.7,60.7,61.8,61.3,2.527,2.555,2.743,2.742,4.82,326.0,37.5,48.2,1005.36,-27.04,-0.68,1.46,30.0,47.2,40.8,0,no_anomaly,0.0,0,0,0,0,28.6138387,77.2089486,19.4,0.0
2024-02-11T08:55:12.900Z,MISSION_0051,129,1,orbit_base,SITE_DEL_002,28.6138403,77.2089467,19.7,157.06,1.437,-0.018,8.91,0.4882,-4.3519,157.0618,0.19854,0.03806,-0.00338,0.97935,-0.0622,-0.0181,-9.9038,0.3076,0.8332,0.0651,0.1887,3,15,0.62,0.6,0.23,24.486,20.63,89.4,44.9,19668.0,8476,8285,8487,8324,64.6,59.7,62.2,61.8,2.823,2.919,2.944,2.686,3.66,326.6,37.3,47.2,1005.68,-30.18,-1.73,1.59,33.4,47.2,39.8,0,no_anomaly,0.0,0,0,0,0,28.6138403,77.2089467,19.7,0.0
