timestamp_utc,mission_id,frame_id,waypoint_id,inspection_phase,site_id,latitude_deg,longitude_deg,altitude_m,heading_deg,ground_speed_ms,vertical_speed_ms,distance_to_tower_m,roll_deg,pitch_deg,yaw_deg,quat_w,quat_x,quat_y,quat_z,accel_x_ms2,accel_y_ms2,accel_z_ms2,gyro_x_rads,gyro_y_rads,gyro_z_rads,vibration_level,gps_fix_type,gps_satellite_count,gps_hdop,gps_vdop,position_error_m,battery_voltage_v,battery_current_a,battery_remaining_pct,battery_temp_c,battery_capacity_mah,motor_fl_rpm,motor_fr_rpm,motor_rl_rpm,motor_rr_rpm,motor_fl_temp_c,motor_fr_temp_c,motor_rl_temp_c,motor_rr_temp_c,motor_fl_thrust_n,motor_fr_thrust_n,motor_rl_thrust_n,motor_rr_thrust_n,wind_speed_ms,wind_dir_deg,air_temp_c,humidity_pct,pressure_hpa,gimbal_pitch_deg,gimbal_roll_deg,zoom_factor,ir_temp_min_c,ir_temp_max_c,ir_temp_avg_c,anomaly_detected,anomaly_class,anomaly_confidence,anomaly_bbox_x,anomaly_bbox_y,anomaly_bbox_w,anomaly_bbox_h,anomaly_gps_lat,anomaly_gps_lon,anomaly_gps_alt_m,ir_temp_delta_c
2024-08-07T11:35:00.000Z,MISSION_0017,0,0,takeoff,SITE_AMD_008,23.0224993,72.5713919,1.5,307.77,0.0,0.023,0.91,-0.1447,0.1678,307.7702,-0.89791,0.00049,-0.00187,0.44017,-0.2781,0.0165,-9.8897,0.3633,0.4818,-0.2394,0.1498,3,18,0.6,0.98,0.23,24.747,18.91,96.8,45.6,21294.0,7495,7410,7441,7150,63.0,62.5,64.1,66.5,2.71,3.046,2.725,2.717,0.84,116.4,37.8,37.3,1018.37,-28.88,2.5,1.86,34.3,47.1,43.0,0,no_anomaly,0.0,0,0,0,0,23.0224993,72.5713919,1.5,0.0
2024-08-07T11:35:00.100Z,MISSION_0017,1,0,takeoff,SITE_AMD_008,23.0225009,72.5713969,3.0,304.77,0.533,0.115,0.36,-5.0469,0.3241,304.7734,-0.88529,0.0377,-0.02291,0.46294,-0.0842,0.0366,-9.8956,-0.1134,1.3066,0.6407,0.1636,3,20,0.73,0.82,0.2,24.716,16.36,96.7,46.5,21277.0,7289,7146,7369,7093,63.6,63.3,61.0,63.3,2.81,2.92,2.75,2.672,2.06,103.3,37.9,38.1,1018.64,-33.31,-0.06,1.21,30.8,46.9,39.2,0,no_anomaly,0.0,0,0,0,0,23.0225009,72.5713969,3.0,0.0
2024-08-07T11:35:00.200Z,MISSION_0017,2,0,takeoff,SITE_AMD_008,23.0224968,72.5713987,4.5,303.17,0.868,0.036,0.39,0.988,-4.0283,303.1712,-0.8791,0.00915,0.03501,0.47527,-0.0599,0.0237,-9.7243,0.4513,0.2591,0.1458,0.0433,3,11,0.56,1.0,0.21,24.705,16.99,96.6,45.2,21260.0,7258,7724,7242,7203,63.6,65.5,61.2,63.2,2.562,2.689,3.014,2.665,2.27,102.3,37.6,38.3,1019.14,-29.56,-1.36,2.19,34.5,45.0,40.2,0,no_anomaly,0.0,0,0,0,0,23.0224968,72.5713987,4.5,0.0
2024-08-07T11:35:00.300Z,MISSION_0017,3,0,takeoff,SITE_AMD_008,23.0225021,72.571402,5.0,304.95,0.443,0.088,0.33,-1.8137,-4.8579,304.9519,-0.8856,0.03361,0.03027,0.46224,0.0692,-0.0285,-9.8468,0.1374,-0.0864,-0.2621,0.1607,3,15,0.76,0.6,0.26,24.744,19.67,96.6,45.9,21243.0,7324,7393,7350,7213,64.1,64.7,62.9,61.0,2.778,2.837,2.766,2.69,2.66,108.4,37.7,38.3,1018.56,-31.34,-0.71,1.58,30.2,43.4,39.7,0,no_anomaly,0.0,0,0,0,0,23.0225021,72.571402,5.0,0.0
2024-08-07T11:35:00.400Z,MISSION_0017,4,0,takeoff,SITE_AMD_008,23.0225012,72.5714021,5.0,306.88,0.633,0.175,0.28,-0.8274,-3.0976,306.8756,-0.89401,0.01854,0.02095,0.44717,0.1636,0.039,-9.7627,-0.7526,0.4831,-0.0697,0.0801,3,20,0.85,0.79,0.42,24.694,12.62,96.5,45.7,21226.0,7017,7248,7122,7466,64.5,64.4,61.1,63.9,3.038,2.775,3.217,2.813,0.88,112.4,37.6,37.0,1018.87,-38.26,-0.24,1.13,31.1,51.6,39.2,0,no_anomaly,0.0,0,0,0,0,23.0225012,72.5714021,5.0,0.0
2024-08-07T11:35:00.500Z,MISSION_0017,5,0,takeoff,SITE_AMD_008,23.0224956,72.5714017,5.0,307.65,0.657,0.156,0.53,1.2732,-3.2386,307.6522,-0.89718,0.0025,0.03026,0.44061,0.0675,-0.0179,-9.7937,-0.3445,0.4815,0.0915,0.1346,3,15,0.61,0.93,0.28,24.726,18.38,96.4,45.9,21209.0,7246,7278,7196,7520,66.2,61.8,64.2,61.7,2.63,2.715,2.918,2.512,3.7,112.3,37.9,38.7,1018.76,-27.86,-0.58,1.4,30.9,44.4,42.5,0,no_anomaly,0.0,0,0,0,0,23.0224956,72.5714017,5.0,0.0
2024-08-07T11:35:00.600Z,MISSION_0017,6,0,takeoff,SITE_AMD_008,23.022496,72.5714033,5.0,308.6,0.871,0.153,0.58,1.4849,-1.1491,308.6047,-0.90103,-0.00733,0.01465,0.43345,0.0197,-0.0702,-9.8921,-0.5844,-0.2101,0.2459,0.1184,3,18,0.59,0.84,0.25,24.682,16.02,96.3,46.2,21192.0,7426,7278,6953,7363,62.5,62.0,64.1,61.8,2.689,2.879,2.963,2.551,1.97,108.6,37.5,38.6,1018.78,-29.42,1.34,1.57,30.4,52.5,42.1,0,no_anomaly,0.0,0,0,0,0,23.022496,72.5714033,5.0,0.0
2024-08-07T11:35:00.700Z,MISSION_0017,7,0,takeoff,SITE_AMD_008,23.0224941,72.5713977,5.0,308.22,0.838,0.123,0.7,2.0662,-0.4914,308.2204,-0.89951,-0.01435,0.01173,0.4365,-0.0,0.0631,-9.8596,-0.4244,-0.7781,0.581,0.0519,3,10,0.6,1.19,0.21,24.66,12.79,96.2,45.7,21175.0,7462,7276,7325,7133,65.2,61.9,61.4,64.1,2.688,2.873,3.029,2.52,3.12,103.8,37.5,39.0,1018.85,-30.44,0.2,1.0,32.7,43.3,41.4,0,no_anomaly,0.0,0,0,0,0,23.0224941,72.5713977,5.0,0.0
2024-08-07T11:35:00.800Z,MISSION_0017,8,0,takeoff,SITE_AMD_008,23.0224924,72.5713967,5.0,307.18,0.864,0.104,0.92,-1.3946,-3.4453,307.1811,-0.895,0.02426,0.02151,0.44488,-0.0849,0.02,-9.7673,0.8176,0.2169,0.2425,0.1212,3,13,0.79,0.78,0.4,24.686,21.96,96.2,45.4,21158.0,7392,7342,7482,7449,60.1,62.7,61.7,66.2,2.835,2.859,2.803,2.868,2.31,105.9,37.3,38.0,1018.6,-29.74,0.86,1.64,34.3,51.8,40.8,0,no_anomaly,0.0,0,0,0,0,23.0224924,72.5713967,5.0,0.0
2024-08-07T11:35:00.900Z,MISSION_0017,9,0,takeoff,SITE_AMD_008,23.0224927,72.5713982,5.0,305.76,0.523,0.016,0.84,2.734,-1.829,305.7604,-0.88986,-0.01396,0.02508,0.45533,0.1362,0.0968,-9.8346,-0.3704,0.8017,0.2733,0.1879,3,12,0.79,0.73,0.41,24.718,18.33,96.1,45.3,21141.0,7342,7299,7386,7267,60.5,61.5,59.0,62.9,2.953,3.056,2.997,2.748,1.73,110.5,37.8,37.4,1018.61,-31.74,-0.95,1.26,31.3,48.1,41.2,0,no_anomaly,0.0,0,0,0,0,23.0224927,72.5713982,5.0,0.0
2024-08-07T11:35:01.000Z,MISSION_0017,10,0,takeoff,SITE_AMD_008,23.0224928,72.5713999,5.0,307.54,0.6,0.057,0.8,-4.6084,0.2283,307.5369,-0.89632,0.03518,-0.01956,0.44157,0.0224,-0.0381,-9.8882,-0.5342,-0.0778,-0.2654,0.0915,3,18,0.7,0.84,0.35,24.727,20.75,96.0,45.9,21124.0,7432,7345,7311,7464,61.2,62.7,62.8,65.1,2.598,3.122,2.954,2.836,2.18,103.8,37.8,38.3,1018.81,-28.44,-2.03,1.63,33.8,49.6,38.2,0,no_anomaly,0.0,0,0,0,0,23.0224928,72.5713999,5.0,0.0
2024-08-07T11:35:01.100Z,MISSION_0017,11,0,takeoff,SITE_AMD_008,23.0224906,72.5714007,5.0,303.77,0.877,-0.003,1.05,0.5034,-2.3791,303.7699,-0.88185,0.00591,0.02038,0.47106,-0.0643,-0.0755,-9.7788,-0.0845,-0.0891,0.1602,0.1659,3,13,0.73,0.91,0.3,24.652,18.89,95.9,47.0,21107.0,7607,7449,7433,7156,65.2,64.1,61.2,63.7,2.738,2.971,2.817,2.661,2.54,102.3,37.7,37.4,1018.68,-24.76,0.17,1.9,31.2,49.6,40.2,0,no_anomaly,0.0,0,0,0,0,23.0224906,72.5714007,5.0,0.0
2024-08-07T11:35:01.200Z,MISSION_0017,12,0,takeoff,SITE_AMD_008,23.0224941,72.5713998,5.0,304.69,0.922,0.136,0.66,-1.2869,-0.144,304.6936,-0.88571,0.01053,-0.0041,0.4641,0.0975,0.0815,-9.8651,-0.6644,-0.7042,-0.0273,0.1907,3,18,0.82,0.95,0.24,24.661,22.14,95.9,45.3,21090.0,7411,7331,7218,7393,63.4,63.5,62.5,63.8,2.914,2.793,2.747,2.619,2.55,107.5,37.7,38.5,1019.0,-27.75,0.99,1.68,34.2,43.2,39.4,0,no_anomaly,0.0,0,0,0,0,23.0224941,72.5713998,5.0,0.0
2024-08-07T11:35:01.300Z,MISSION_0017,13,0,takeoff,SITE_AMD_008,23.0224945,72.5714068,5.0,303.12,1.491,0.105,0.97,-0.0882,-1.3594,303.1235,-0.87926,0.00633,0.01006,0.47619,-0.0006,-0.0588,-9.8838,-0.1803,0.7104,-0.0677,0.2164,3,16,0.77,0.76,0.29,24.765,23.31,95.8,45.1,21073.0,7287,7302,7332,7540,59.6,63.2,65.1,56.8,2.817,2.823,2.908,3.056,1.27,110.0,37.6,38.1,1018.64,-32.26,0.29,1.48,28.8,43.6,39.5,0,no_anomaly,0.0,0,0,0,0,23.0224945,72.5714068,5.0,0.0
2024-08-07T11:35:01.400Z,MISSION_0017,14,0,takeoff,SITE_AMD_008,23.0224972,72.5714057,5.0,303.68,1.612,0.031,0.7,-0.554,-3.7162,303.6846,-0.8811,0.01956,0.02631,0.47178,-0.1195,-0.0276,-9.7847,-0.9839,0.3128,-0.1023,0.1195,3,19,0.84,0.84,0.21,24.651,19.1,95.7,45.4,21056.0,7230,7454,7359,7281,63.9,64.0,63.5,58.2,2.8,2.852,2.864,2.909,2.46,108.8,37.6,39.1,1018.83,-21.95,1.42,1.0,32.0,49.1,38.8,0,no_anomaly,0.0,0,0,0,0,23.0224972,72.5714057,5.0,0.0
2024-08-07T11:35:01.500Z,MISSION_0017,15,0,takeoff,SITE_AMD_008,23.0224963,72.5714044,5.0,303.25,1.68,0.122,0.64,0.8284,-1.8503,303.2456,-0.87976,0.00131,0.01764,0.4751,-0.064,0.0429,-9.8106,-0.5273,-0.2554,-0.1006,0.1045,3,10,0.62,0.73,0.2,24.708,18.71,95.6,45.4,21039.0,7170,7472,7485,7234,61.7,62.7,62.3,58.5,2.354,2.894,2.57,2.755,2.73,111.4,38.0,38.0,1019.04,-30.57,0.71,1.19,34.4,45.8,38.1,0,no_anomaly,0.0,0,0,0,0,23.0224963,72.5714044,5.0,0.0
2024-08-07T11:35:01.600Z,MISSION_0017,16,0,takeoff,SITE_AMD_008,23.022501,72.5713988,5.0,301.7,1.423,0.052,0.17,-2.6614,-1.6695,301.7032,-0.87287,0.02737,0.00141,0.48719,-0.0069,-0.0017,-9.8101,-1.0719,-0.7422,-0.0261,0.0629,3,20,0.77,0.93,0.25,24.65,19.97,95.6,45.3,21022.0,7261,7336,7240,7323,57.3,64.8,61.7,66.1,2.728,2.905,2.695,2.929,3.2,108.9,37.7,37.7,1018.63,-34.21,-0.76,1.4,36.5,52.7,39.2,0,no_anomaly,0.0,0,0,0,0,23.022501,72.5713988,5.0,0.0
2024-08-07T11:35:01.700Z,MISSION_0017,17,0,takeoff,SITE_AMD_008,23.0225016,72.5713986,5.0,300.33,1.034,0.087,0.24,5.8133,-2.4359,300.3284,-0.86668,-0.03342,0.04364,0.49583,0.1379,0.046,-9.7755,-0.109,0.0344,0.7106,0.1581,3,12,0.69,1.0,0.23,24.704,23.61,95.5,45.9,21005.0,7308,7619,7149,7488,64.4,62.8,62.8,66.0,2.81,2.748,2.693,2.932,2.3,109.4,37.4,36.9,1018.92,-31.39,-0.15,1.93,32.6,51.9,42.0,0,no_anomaly,0.0,0,0,0,0,23.0225016,72.5713986,5.0,0.0
2024-08-07T11:35:01.800Z,MISSION_0017,18,0,takeoff,SITE_AMD_008,23.0225061,72.5713977,5.0,298.05,0.747,0.049,0.72,-2.8399,-1.176,298.0487,-0.85695,0.02653,-0.00396,0.51471,0.0671,0.0121,-9.8436,-0.5366,-1.0552,0.1346,0.116,3,11,0.8,0.75,0.3,24.675,18.01,95.4,45.5,20988.0,7579,7316,7391,7147,64.0,63.1,60.8,63.5,3.105,2.925,2.734,2.847,1.39,108.8,37.7,38.2,1018.74,-33.17,1.27,1.78,32.8,49.5,39.6,0,no_anomaly,0.0,0,0,0,0,23.0225061,72.5713977,5.0,0.0
2024-08-07T11:35:01.900Z,MISSION_0017,19,0,takeoff,SITE_AMD_008,23.0225046,72.5713973,5.0,300.6,0.694,0.052,0.59,-0.3286,-2.0377,300.6022,-0.86847,0.0113,0.01402,0.49541,0.0595,-0.0504,-9.8492,-0.0113,0.1338,-0.1237,0.2441,3,15,0.65,0.95,0.2,24.611,19.61,95.3,45.3,20971.0,7201,7549,7372,7154,61.5,64.8,58.1,63.2,2.423,2.977,2.971,2.796,2.34,106.8,37.8,38.2,1018.71,-30.35,1.23,1.25,32.6,51.7,39.4,0,no_anomaly,0.0,0,0,0,0,23.0225046,72.5713973,5.0,0.0
2024-08-07T11:35:02.000Z,MISSION_0017,20,0,takeoff,SITE_AMD_008,23.022506,72.5714003,5.0,300.95,0.16,0.132,0.67,1.6558,-3.4633,300.9474,-0.86986,0.00232,0.03341,0.49217,0.0095,-0.0333,-9.8211,0.0259,0.0409,-0.6766,0.1779,3,17,0.86,0.96,0.43,24.666,18.42,95.2,44.4,20954.0,7676,7421,7314,7523,62.3,59.6,60.8,61.0,2.789,2.777,2.721,2.824,2.16,109.5,37.6,37.1,1018.65,-32.76,-1.67,1.68,32.2,46.2,41.1,0,no_anomaly,0.0,0,0,0,0,23.022506,72.5714003,5.0,0.0
2024-08-07T11:35:02.100Z,MISSION_0017,21,0,takeoff,SITE_AMD_008,23.0225054,72.5713996,5.0,301.57,0.0,0.122,0.6,0.9067,-3.1897,301.5684,-0.87253,0.00668,0.02815,0.4877,-0.0402,-0.0534,-9.7222,0.2389,0.1997,-0.5968,0.1106,3,14,0.75,0.95,0.42,24.624,14.42,95.2,45.6,20937.0,7232,7281,7366,7337,63.9,60.6,60.2,60.8,2.846,2.898,2.732,2.778,2.74,114.1,38.0,37.9,1019.1,-30.87,-1.64,2.23,33.0,52.0,40.7,0,no_anomaly,0.0,0,0,0,0,23.0225054,72.5713996,5.0,0.0
2024-08-07T11:35:02.200Z,MISSION_0017,22,0,takeoff,SITE_AMD_008,23.0225046,72.5713973,5.0,300.96,0.0,0.077,0.59,0.3649,-3.3821,300.9559,-0.86983,0.01177,0.02725,0.49246,-0.0976,-0.0416,-9.778,-0.7711,0.1932,-0.2853,0.2146,3,13,0.65,1.32,0.27,24.729,16.8,95.1,45.3,20920.0,7179,7080,7359,7168,62.2,62.8,64.0,61.4,2.433,2.806,2.861,2.687,1.84,104.4,37.8,38.1,1019.02,-31.47,-1.57,1.55,29.7,45.3,40.9,0,no_anomaly,0.0,0,0,0,0,23.0225046,72.5713973,5.0,0.0
2024-08-07T11:35:02.300Z,MISSION_0017,23,0,takeoff,SITE_AMD_008,23.0224989,72.5713967,5.0,300.3,0.0,0.143,0.39,2.0145,-2.6742,300.2975,-0.86715,-0.00363,0.02898,0.49718,0.0881,-0.0969,-9.8406,-0.4072,-0.4031,-0.0558,0.1333,3,10,0.67,0.95,0.22,24.67,16.91,95.0,46.2,20903.0,7493,7194,7500,7283,64.9,62.1,58.7,61.4,2.392,2.654,2.637,2.698,2.93,105.6,37.8,38.3,1019.1,-30.54,-1.37,1.03,32.0,44.9,43.1,0,no_anomaly,0.0,0,0,0,0,23.0224989,72.5713967,5.0,0.0
2024-08-07T11:35:02.400Z,MISSION_0017,24,0,takeoff,SITE_AMD_008,23.0224989,72.57139,5.0,299.06,0.233,0.159,1.12,-0.7442,-2.8757,299.0626,-0.86153,0.01832,0.01833,0.50704,-0.0592,0.01,-9.8696,-0.0101,-0.131,0.4234,0.2192,3,19,0.54,0.92,0.21,24.693,20.89,94.9,46.3,20886.0,7605,7382,7089,7416,66.5,61.3,65.7,59.2,3.124,2.644,2.862,2.829,2.3,107.5,37.7,38.0,1018.88,-24.12,0.24,2.05,34.5,45.9,41.8,0,no_anomaly,0.0,0,0,0,0,23.0224989,72.57139,5.0,0.0
2024-08-07T11:35:02.500Z,MISSION_0017,25,0,takeoff,SITE_AMD_008,23.0225002,72.5713837,5.0,296.99,0.165,0.039,1.82,3.4004,-0.4751,296.9899,-0.85228,-0.02313,0.01904,0.52223,-0.083,0.0558,-9.8746,-0.118,0.3744,0.0701,0.1627,3,17,0.69,1.04,0.36,24.647,19.28,94.9,45.7,20869.0,7266,7217,7144,7108,62.3,64.5,64.9,58.3,3.017,3.246,2.469,2.934,1.83,106.1,37.8,38.1,1019.05,-25.6,-0.37,1.7,29.9,46.8,36.6,0,no_anomaly,0.0,0,0,0,0,23.0225002,72.5713837,5.0,0.0
2024-08-07T11:35:02.600Z,MISSION_0017,26,0,takeoff,SITE_AMD_008,23.0225014,72.5713835,5.0,297.7,0.0,0.096,1.84,-2.6785,-2.5773,297.7016,-0.8551,0.03163,0.00715,0.51745,-0.0073,-0.0484,-9.8088,0.0924,-0.0971,-0.01,0.1314,3,17,0.61,1.15,0.31,24.683,17.44,94.8,45.7,20852.0,7207,7219,7332,7425,61.3,62.1,63.8,61.8,2.997,3.099,2.798,2.576,2.74,96.5,38.0,36.9,1018.91,-30.84,-0.12,1.04,29.1,42.1,39.4,0,no_anomaly,0.0,0,0,0,0,23.0225014,72.5713835,5.0,0.0
2024-08-07T11:35:02.700Z,MISSION_0017,27,0,takeoff,SITE_AMD_008,23.0225048,72.5713854,5.0,298.56,0.0,0.169,1.71,0.9838,-2.714,298.5586,-0.8595,0.00472,0.02474,0.51052,-0.1759,-0.0114,-9.8272,-0.2649,-0.0112,-0.1991,0.1763,3,14,0.61,0.9,0.28,24.651,13.97,94.7,45.7,20835.0,7414,7212,7403,7350,64.9,62.7,63.1,61.2,2.876,2.702,2.872,2.625,2.02,106.0,37.5,37.9,1018.82,-30.95,-1.4,1.03,30.1,45.0,39.2,0,no_anomaly,0.0,0,0,0,0,23.0225048,72.5713854,5.0,0.0
2024-08-07T11:35:02.800Z,MISSION_0017,28,0,takeoff,SITE_AMD_008,23.0225023,72.5713852,5.0,299.73,0.338,0.15,1.67,-0.0508,-1.7518,299.73,-0.86474,0.00806,0.013,0.50199,-0.024,0.0931,-9.837,0.3842,-0.3251,0.6176,0.2972,3,19,0.67,0.91,0.32,24.602,18.11,94.6,45.7,20818.0,7122,7031,7301,7634,62.2,63.8,59.5,62.5,2.822,2.326,2.927,2.884,3.46,104.4,37.7,37.9,1018.84,-26.51,-0.32,1.6,31.5,43.4,37.7,0,no_anomaly,0.0,0,0,0,0,23.0225023,72.5713852,5.0,0.0
2024-08-07T11:35:02.900Z,MISSION_0017,29,0,takeoff,SITE_AMD_008,23.0225013,72.5713858,5.0,301.12,0.406,0.045,1.58,2.4456,-1.8169,301.1233,-0.87074,-0.01079,0.02429,0.49102,0.0624,-0.0052,-9.7896,-0.2738,-0.0443,-0.1283,0.1192,3,14,0.65,1.01,0.2,24.718,18.89,94.6,45.3,20801.0,7539,7460,7248,7386,64.8,59.6,61.8,63.6,2.691,2.943,2.792,2.732,2.16,106.7,37.8,37.3,1018.85,-29.19,1.27,1.44,32.6,42.1,40.2,0,no_anomaly,0.0,0,0,0,0,23.0225013,72.5713858,5.0,0.0
2024-08-07T11:35:03.000Z,MISSION_0017,30,0,takeoff,SITE_AMD_008,23.0225002,72.5713873,5.0,300.17,0.268,0.147,1.41,-0.0898,-2.1788,300.1711,-0.86661,0.01016,0.01609,0.49863,-0.0865,0.0143,-9.8218,0.9245,-0.7675,0.1643,0.1287,3,19,0.59,0.89,0.23,24.703,14.84,94.5,45.6,20784.0,7410,7274,6916,7150,62.6,62.5,61.9,61.7,2.759,2.68,2.739,2.855,1.7,113.4,37.4,37.5,1019.02,-29.55,2.1,1.53,32.8,47.2,38.7,0,no_anomaly,0.0,0,0,0,0,23.0225002,72.5713873,5.0,0.0
2024-08-07T11:35:03.100Z,MISSION_0017,31,0,takeoff,SITE_AMD_008,23.0225025,72.5713897,5.0,303.44,0.116,0.068,1.18,-0.0734,0.4019,303.4396,-0.88064,-0.0011,-0.00339,0.47378,0.0511,-0.0111,-9.7619,0.0341,-0.0404,-0.1532,0.1689,3,20,0.77,0.95,0.3,24.667,18.9,94.4,46.1,20767.0,7539,7485,7180,7419,65.1,59.7,64.4,64.9,2.473,2.973,2.973,2.785,2.02,105.0,37.7,38.8,1018.8,-29.88,-0.25,1.21,32.1,43.8,40.5,0,no_anomaly,0.0,0,0,0,0,23.0225025,72.5713897,5.0,0.0
2024-08-07T11:35:03.200Z,MISSION_0017,32,0,takeoff,SITE_AMD_008,23.0225035,72.571394,5.0,305.47,0.651,0.175,0.77,0.6568,-1.125,305.4666,-0.88885,-0.0006,0.01135,0.45805,0.0085,0.096,-9.8378,0.0952,-0.5044,0.3617,0.1308,3,20,0.64,1.19,0.24,24.668,16.74,94.3,44.9,20750.0,7207,7370,7321,7680,63.7,60.3,63.9,62.0,2.915,2.684,2.729,2.865,2.15,104.6,37.1,37.7,1018.79,-30.79,-0.17,1.56,33.2,49.7,41.8,0,no_anomaly,0.0,0,0,0,0,23.0225035,72.571394,5.0,0.0
2024-08-07T11:35:03.300Z,MISSION_0017,33,0,takeoff,SITE_AMD_008,23.022505,72.5713957,5.0,302.53,0.89,0.096,0.73,0.0508,-2.8461,302.5289,-0.87658,0.01155,0.02199,0.48061,-0.0189,-0.0436,-9.7978,-1.1024,-0.3041,-0.4645,0.0916,3,14,0.73,1.26,0.32,24.598,13.38,94.2,46.1,20733.0,7536,7426,7285,7339,60.0,62.0,62.7,66.8,2.901,2.786,2.707,2.639,2.27,105.6,37.2,37.9,1018.74,-32.02,1.08,1.27,31.5,44.6,38.4,0,no_anomaly,0.0,0,0,0,0,23.022505,72.5713957,5.0,0.0
2024-08-07T11:35:03.400Z,MISSION_0017,34,0,takeoff,SITE_AMD_008,23.0225036,72.5714003,5.0,299.95,0.689,0.02,0.4,0.6433,-0.1263,299.9548,-0.86582,-0.00431,0.00376,0.50033,-0.0885,0.128,-9.8407,-0.1836,-1.107,0.2617,0.1568,3,15,0.75,0.73,0.26,24.717,16.93,94.2,46.0,20716.0,7394,7347,7418,7543,61.9,61.8,62.8,61.2,2.636,2.763,2.497,2.99,2.42,107.9,37.5,38.0,1018.77,-31.8,-1.07,1.35,34.8,44.5,41.1,0,no_anomaly,0.0,0,0,0,0,23.0225036,72.5714003,5.0,0.0
2024-08-07T11:35:03.500Z,MISSION_0017,35,0,takeoff,SITE_AMD_008,23.0225011,72.5714,5.0,299.66,0.546,0.127,0.13,-1.8627,-3.5423,299.662,-0.86377,0.02958,0.01855,0.50268,0.008,-0.0016,-9.7931,0.7447,0.101,-0.3626,0.2174,3,16,0.59,0.67,0.2,24.586,18.41,94.1,45.0,20699.0,7316,7612,7129,7286,60.5,61.8,62.0,58.4,2.924,2.822,2.951,3.077,2.24,108.5,37.7,37.9,1018.7,-31.61,0.3,1.32,29.9,43.5,40.5,0,no_anomaly,0.0,0,0,0,0,23.0225011,72.5714,5.0,0.0
2024-08-07T11:35:03.600Z,MISSION_0017,36,0,takeoff,SITE_AMD_008,23.0225038,72.5713984,5.0,296.68,0.966,0.149,0.46,2.9167,0.1033,296.6841,-0.85091,-0.02214,0.01259,0.5247,-0.0255,-0.0349,-9.8543,0.4625,-0.1486,-0.1562,0.2468,3,20,0.64,0.86,0.24,24.669,19.48,94.0,45.7,20682.0,7209,7317,7320,7432,61.6,63.2,64.9,62.8,2.832,2.849,2.758,2.746,2.25,103.3,37.9,37.7,1019.21,-25.57,-0.04,1.35,31.1,49.3,39.9,0,no_anomaly,0.0,0,0,0,0,23.0225038,72.5713984,5.0,0.0
2024-08-07T11:35:03.700Z,MISSION_0017,37,0,takeoff,SITE_AMD_008,23.0225037,72.5713974,5.0,298.26,1.464,0.083,0.5,-1.1459,-0.9439,298.2577,-0.85821,0.01281,0.00194,0.51314,0.0759,-0.0504,-9.8226,-0.5676,0.1148,0.4838,0.1768,3,15,0.83,0.81,0.2,24.606,18.37,93.9,46.1,20665.0,7349,7290,7150,7301,56.9,63.0,65.6,63.2,2.719,2.966,2.884,2.793,1.91,102.3,38.0,37.5,1018.98,-25.03,-0.71,1.5,30.6,49.5,39.3,0,no_anomaly,0.0,0,0,0,0,23.0225037,72.5713974,5.0,0.0
2024-08-07T11:35:03.800Z,MISSION_0017,38,0,takeoff,SITE_AMD_008,23.0225081,72.5713884,5.0,297.12,1.785,0.166,1.58,0.2359,-4.7464,297.115,-0.85248,0.01985,0.0364,0.52112,-0.0752,0.0369,-9.79,0.1097,0.0799,0.037,0.0777,3,13,0.54,0.81,0.2,24.676,14.44,93.9,45.7,20648.0,7260,7495,7125,7365,65.4,60.0,61.7,60.4,2.912,2.92,2.937,2.871,1.92,94.2,37.9,37.8,1018.7,-30.09,-0.24,1.43,34.2,50.7,41.2,0,no_anomaly,0.0,0,0,0,0,23.0225081,72.5713884,5.0,0.0
2024-08-07T11:35:03.900Z,MISSION_0017,39,0,takeoff,SITE_AMD_008,23.0225087,72.5713811,5.0,297.37,1.269,0.084,2.31,-0.8822,-2.7728,297.373,-0.85396,0.01915,0.01667,0.51971,-0.0291,-0.0399,-9.8793,-0.1047,0.6209,-0.5463,0.056,3,12,0.66,0.92,0.2,24.627,15.07,93.8,47.0,20631.0,7258,7781,7300,7194,63.1,63.7,62.7,61.2,2.967,2.805,2.986,2.914,2.04,109.8,37.8,37.7,1018.79,-32.6,0.72,1.33,31.9,45.6,37.4,0,no_anomaly,0.0,0,0,0,0,23.0225087,72.5713811,5.0,0.0
2024-08-07T11:35:04.000Z,MISSION_0017,40,0,transit,SITE_AMD_008,23.0225054,72.5713809,5.5,296.47,1.213,0.098,2.21,1.0529,-3.6673,296.4659,-0.84988,0.00904,0.03204,0.52593,-0.0702,0.035,-9.7081,0.0433,-0.8413,-0.3162,0.0548,3,15,0.67,0.71,0.34,24.72,16.83,93.7,46.4,20614.0,7318,7440,7451,7317,60.1,63.3,63.3,63.0,2.856,2.902,2.788,2.901,2.76,104.3,37.7,38.3,1018.92,-27.81,-0.51,2.1,30.3,46.1,38.8,0,no_anomaly,0.0,0,0,0,0,23.0225054,72.5713809,5.5,0.0
2024-08-07T11:35:04.100Z,MISSION_0017,41,0,transit,SITE_AMD_008,23.0225047,72.5713801,6.0,297.3,1.482,0.148,2.28,1.7498,-0.7985,297.2966,-0.85392,-0.00941,0.01389,0.52013,0.0305,-0.0332,-9.8909,-1.0389,0.4132,0.0462,0.1031,3,18,0.75,1.13,0.29,24.588,18.22,93.6,45.7,20597.0,7095,7223,7378,7159,61.1,63.9,64.6,66.2,2.695,2.912,2.889,2.942,1.89,102.2,37.5,37.2,1018.66,-26.48,0.75,1.0,32.9,51.4,39.4,0,no_anomaly,0.0,0,0,0,0,23.0225047,72.5713801,6.0,0.0
2024-08-07T11:35:04.200Z,MISSION_0017,42,0,transit,SITE_AMD_008,23.0225067,72.5713763,6.5,298.85,1.3,0.078,2.75,1.0239,-1.5605,298.8489,-0.86091,-0.00077,0.01627,0.5085,-0.1389,0.0118,-9.8562,0.2326,-0.1016,0.1679,0.1288,3,10,0.74,0.82,0.21,24.679,14.71,93.5,46.1,20580.0,7291,7148,7071,7353,62.6,62.4,64.2,65.0,2.908,2.699,2.813,2.9,2.01,108.0,37.5,37.8,1018.41,-28.73,-1.25,1.71,31.5,49.3,39.0,0,no_anomaly,0.0,0,0,0,0,23.0225067,72.5713763,6.5,0.0
2024-08-07T11:35:04.300Z,MISSION_0017,43,0,transit,SITE_AMD_008,23.0225055,72.5713727,7.0,298.28,1.185,0.153,3.1,-0.2363,-3.4322,298.285,-0.85803,0.01713,0.02465,0.51273,0.0446,-0.0276,-9.759,-0.7375,0.1866,-0.1859,0.1546,3,19,0.92,0.87,0.33,24.646,14.74,93.5,45.5,20563.0,7203,7514,7179,7120,63.9,64.7,65.0,64.1,3.118,2.989,2.837,3.037,2.71,105.7,37.6,37.7,1018.91,-30.14,-0.16,1.77,31.3,50.7,40.4,0,no_anomaly,0.0,0,0,0,0,23.0225055,72.5713727,7.0,0.0
2024-08-07T11:35:04.400Z,MISSION_0017,44,0,transit,SITE_AMD_008,23.0225047,72.5713754,7.5,300.6,0.978,0.1,2.78,-2.8372,-4.499,300.5965,-0.8672,0.04093,0.02183,0.4958,-0.0253,-0.0422,-9.7177,0.1456,-0.2025,-0.1935,0.0931,3,16,0.79,0.74,0.34,24.583,17.24,93.4,46.2,20546.0,7102,7450,7496,7281,65.1,60.5,64.6,65.2,2.89,2.664,2.672,2.785,2.62,114.6,37.5,38.6,1019.1,-31.1,-0.4,1.24,34.3,46.8,39.2,0,no_anomaly,0.0,0,0,0,0,23.0225047,72.5713754,7.5,0.0
2024-08-07T11:35:04.500Z,MISSION_0017,45,0,transit,SITE_AMD_008,23.0225058,72.5713794,8.0,300.82,1.541,0.163,2.38,1.7178,-2.3114,300.8202,-0.86946,-0.00307,0.02494,0.49337,0.0784,0.0205,-9.827,-0.3623,0.0232,0.2397,0.0788,3,14,0.58,0.89,0.3,24.648,18.09,93.3,46.2,20529.0,7401,7524,7374,7462,65.8,61.7,61.0,62.1,2.977,2.735,2.786,2.79,2.22,99.1,37.9,37.1,1018.62,-25.75,0.6,1.89,32.4,46.3,41.7,0,no_anomaly,0.0,0,0,0,0,23.0225058,72.5713794,8.0,0.0
2024-08-07T11:35:04.600Z,MISSION_0017,46,0,transit,SITE_AMD_008,23.0225039,72.5713781,8.5,304.52,1.359,0.183,2.47,2.2199,0.1842,304.5172,-0.88488,-0.01789,0.00759,0.46542,-0.2066,-0.1183,-9.7534,-0.6673,0.9231,0.7274,0.0903,3,19,0.71,0.83,0.2,24.573,18.24,93.2,45.9,20512.0,7356,7422,7375,7275,63.9,67.1,60.2,64.1,2.842,2.853,2.712,2.584,1.84,113.9,37.5,38.0,1019.09,-30.28,0.74,1.73,31.5,46.6,39.2,0,no_anomaly,0.0,0,0,0,0,23.0225039,72.5713781,8.5,0.0
2024-08-07T11:35:04.700Z,MISSION_0017,47,0,transit,SITE_AMD_008,23.0225052,72.5713785,9.0,307.46,1.359,0.107,2.46,1.1513,-2.3695,307.4606,-0.89658,0.00014,0.02299,0.44229,-0.044,0.0403,-9.895,1.1519,-0.3835,-0.0012,0.1585,3,14,0.62,1.03,0.26,24.569,18.01,93.2,45.3,20495.0,7255,7106,7451,7355,63.3,65.3,61.4,62.1,2.985,2.658,2.629,2.926,1.48,111.5,37.4,37.6,1018.65,-28.67,-0.86,1.56,31.7,45.5,41.3,0,no_anomaly,0.0,0,0,0,0,23.0225052,72.5713785,9.0,0.0
2024-08-07T11:35:04.800Z,MISSION_0017,48,0,transit,SITE_AMD_008,23.0225088,72.571377,9.5,308.25,2.025,0.198,2.74,0.7126,-1.001,308.2546,-0.89974,-0.00178,0.01057,0.4363,-0.021,-0.0589,-9.8457,0.5427,0.289,0.1552,0.133,3,15,0.84,1.17,0.27,24.54,22.31,93.1,45.2,20478.0,7728,7250,7288,7590,62.7,61.2,59.5,62.3,2.493,2.633,2.859,3.028,1.91,103.2,38.0,37.3,1018.96,-29.88,-0.2,1.0,30.1,41.5,37.3,0,no_anomaly,0.0,0,0,0,0,23.0225088,72.571377,9.5,0.0
2024-08-07T11:35:04.900Z,MISSION_0017,49,0,transit,SITE_AMD_008,23.0225134,72.5713771,10.0,309.87,2.762,0.146,2.96,-0.7018,-2.5562,309.8674,-0.90552,0.015,0.01761,0.42368,-0.0218,-0.0531,-9.8946,0.3574,0.0866,-0.3184,0.2095,3,10,0.67,0.76,0.37,24.658,17.74,93.0,46.1,20461.0,7320,7394,7259,7454,67.4,64.4,63.1,60.6,2.801,2.894,2.821,2.522,2.18,111.1,38.0,38.0,1019.18,-35.64,-0.27,1.35,32.1,49.3,42.5,0,no_anomaly,0.0,0,0,0,0,23.0225134,72.5713771,10.0,0.0
2024-08-07T11:35:05.000Z,MISSION_0017,50,0,transit,SITE_AMD_008,23.0225118,72.5713721,10.5,313.46,3.12,0.177,3.37,-0.4243,-1.6288,313.4621,-0.91854,0.00902,0.0116,0.39505,-0.1491,0.0078,-9.8483,-0.5384,0.0028,-0.1221,0.0855,3,19,0.64,0.94,0.32,24.632,24.06,92.9,45.6,20444.0,7117,7213,7394,7267,68.0,67.4,60.7,65.5,2.804,2.789,2.56,2.696,2.23,100.2,37.7,37.0,1019.02,-31.7,-0.55,1.1,30.3,49.7,41.7,0,no_anomaly,0.0,0,0,0,0,23.0225118,72.5713721,10.5,0.0
2024-08-07T11:35:05.100Z,MISSION_0017,51,0,transit,SITE_AMD_008,23.0225108,72.571366,11.0,312.5,3.942,0.06,3.97,-3.037,-1.2827,312.5041,-0.91483,0.02876,-0.00043,0.40282,0.1128,0.0029,-9.7305,0.0481,-0.5215,0.1289,0.0833,3,12,0.61,1.0,0.43,24.592,20.34,92.9,46.0,20427.0,7589,7206,7567,7362,62.7,59.6,60.8,62.2,2.681,2.836,2.839,3.056,2.52,108.5,37.7,36.9,1019.05,-28.03,-1.16,1.93,32.2,46.3,40.3,0,no_anomaly,0.0,0,0,0,0,23.0225108,72.571366,11.0,0.0
2024-08-07T11:35:05.200Z,MISSION_0017,52,0,transit,SITE_AMD_008,23.0225098,72.5713631,11.5,313.07,4.257,0.069,4.25,-1.147,-2.4474,313.0721,-0.91697,0.01768,0.0156,0.39826,-0.0014,-0.0426,-9.8497,0.5137,-0.6875,-0.6793,0.0899,3,12,0.64,0.72,0.26,24.703,19.41,92.8,45.3,20410.0,7196,7544,7245,7479,64.1,64.4,64.7,65.6,2.761,2.784,2.657,2.652,2.3,101.9,37.4,37.4,1018.83,-34.45,-0.31,1.66,31.8,47.4,39.2,0,no_anomaly,0.0,0,0,0,0,23.0225098,72.5713631,11.5,0.0
2024-08-07T11:35:05.300Z,MISSION_0017,53,0,transit,SITE_AMD_008,23.022509,72.5713553,12.0,312.14,3.72,0.086,5.08,-0.702,-3.9633,312.1385,-0.91339,0.01962,0.02912,0.40558,-0.0415,0.0187,-9.7861,0.2941,-1.0058,-0.4436,0.1705,3,10,0.93,0.99,0.44,24.609,20.13,92.7,46.0,20393.0,7507,7277,7065,7396,63.9,67.2,63.9,66.6,2.941,2.684,2.876,3.029,2.18,110.3,37.6,37.4,1018.81,-25.84,0.3,1.18,34.2,44.2,41.9,0,no_anomaly,0.0,0,0,0,0,23.022509,72.5713553,12.0,0.0
2024-08-07T11:35:05.400Z,MISSION_0017,54,0,transit,SITE_AMD_008,23.0225085,72.5713572,12.5,310.95,3.588,0.077,4.86,-0.096,-4.7255,310.9546,-0.90901,0.01787,0.03716,0.41473,-0.0691,0.0238,-9.8651,-0.4002,-0.668,-0.3011,0.2172,3,13,0.54,0.75,0.27,24.561,19.93,92.6,46.3,20376.0,7735,7264,7316,7364,63.7,63.3,60.7,63.4,3.088,2.857,3.021,2.761,1.92,101.6,37.5,38.2,1018.69,-29.25,-0.19,1.26,30.9,43.8,42.2,0,no_anomaly,0.0,0,0,0,0,23.0225085,72.5713572,12.5,0.0
2024-08-07T11:35:05.500Z,MISSION_0017,55,0,transit,SITE_AMD_008,23.0225057,72.5713549,13.0,310.62,3.678,0.088,5.06,-0.1502,0.5595,310.6236,-0.90859,-0.00085,-0.00498,0.41767,-0.035,0.0462,-9.873,0.0725,0.3911,0.1016,0.1022,3,13,0.92,0.77,0.31,24.547,17.38,92.5,45.3,20359.0,7089,7238,7398,7397,63.1,64.3,66.0,64.8,2.771,2.773,2.724,2.813,3.45,100.4,37.8,38.8,1018.59,-32.3,0.49,1.65,29.4,48.4,35.8,0,no_anomaly,0.0,0,0,0,0,23.0225057,72.5713549,13.0,0.0
2024-08-07T11:35:05.600Z,MISSION_0017,56,0,transit,SITE_AMD_008,23.0225099,72.5713578,13.5,314.8,3.825,0.095,4.82,1.6531,-0.8185,314.7995,-0.92313,-0.01057,0.01214,0.38415,0.1253,0.0157,-9.8398,-0.2699,-0.3817,-0.4167,0.1197,3,20,0.73,0.96,0.25,24.66,17.86,92.5,46.1,20342.0,7359,7288,7415,7216,64.4,65.3,65.0,65.5,2.765,2.906,2.766,2.491,2.19,107.5,37.4,36.5,1019.24,-35.27,-2.15,1.18,34.8,50.4,42.0,0,no_anomaly,0.0,0,0,0,0,23.0225099,72.5713578,13.5,0.0
2024-08-07T11:35:05.700Z,MISSION_0017,57,0,transit,SITE_AMD_008,23.0225167,72.5713586,14.0,313.92,3.879,0.198,4.97,-1.2657,-1.3198,313.9231,-0.92008,0.01467,0.00628,0.39142,0.133,0.0889,-9.8951,-0.1701,-0.7831,0.4374,0.1798,3,13,0.81,0.6,0.25,24.642,16.61,92.4,45.0,20325.0,7425,7193,7479,7438,63.8,64.3,65.3,62.7,2.969,3.196,2.679,2.75,2.16,111.0,37.8,37.5,1018.54,-30.5,0.27,1.78,36.0,53.3,40.0,0,no_anomaly,0.0,0,0,0,0,23.0225167,72.5713586,14.0,0.0
2024-08-07T11:35:05.800Z,MISSION_0017,58,0,transit,SITE_AMD_008,23.0225248,72.5713594,14.5,312.99,3.895,0.021,5.29,-1.2045,-4.0564,312.9872,-0.91624,0.02375,0.02826,0.39892,0.0506,-0.0146,-9.8436,-0.3068,-0.0018,0.2286,0.1658,3,18,0.58,0.66,0.22,24.567,21.62,92.3,46.2,20308.0,7450,7522,7455,7719,63.7,61.9,63.0,60.5,2.804,2.929,2.548,2.988,2.04,105.7,38.1,37.4,1018.74,-31.49,-1.12,1.52,32.9,48.4,41.2,0,no_anomaly,0.0,0,0,0,0,23.0225248,72.5713594,14.5,0.0
2024-08-07T11:35:05.900Z,MISSION_0017,59,0,transit,SITE_AMD_008,23.0225233,72.5713496,15.0,316.94,4.01,0.253,6.18,0.7344,1.3532,316.9438,-0.93013,-0.01029,-0.00863,0.36699,0.009,-0.0462,-9.7454,-0.3989,0.1907,-0.2861,0.1583,3,16,0.55,0.65,0.2,24.631,10.33,92.2,45.8,20291.0,7280,7664,7471,7241,65.1,59.9,65.2,65.1,2.74,2.529,2.891,2.726,2.63,101.5,37.8,38.0,1018.54,-32.13,-0.0,1.24,34.0,47.6,39.5,0,no_anomaly,0.0,0,0,0,0,23.0225233,72.5713496,15.0,0.0
2024-08-07T11:35:06.000Z,MISSION_0017,60,0,transit,SITE_AMD_008,23.0225194,72.5713516,15.5,316.96,3.919,0.1,5.81,2.8942,-3.3638,316.9607,-0.92987,-0.01272,0.03656,0.36586,0.0893,-0.0507,-9.798,-0.0545,-0.1694,0.192,0.1398,3,14,0.69,0.79,0.22,24.591,22.62,92.2,45.1,20274.0,7497,7282,7555,7310,60.1,64.8,62.5,59.2,2.812,2.723,2.841,2.692,2.45,106.4,37.6,37.8,1019.1,-28.14,0.57,1.47,32.4,45.0,40.5,0,no_anomaly,0.0,0,0,0,0,23.0225194,72.5713516,15.5,0.0
2024-08-07T11:35:06.100Z,MISSION_0017,61,0,transit,SITE_AMD_008,23.0225154,72.5713462,16.0,316.88,4.278,0.09,6.23,0.4291,-0.835,316.8792,-0.93001,-0.00081,0.00815,0.36744,-0.0109,0.0787,-9.8776,0.4818,-1.0119,0.3555,0.1364,3,13,0.81,0.91,0.3,24.591,23.43,92.1,45.8,20257.0,7768,7593,7121,7375,61.5,61.6,65.9,60.4,2.733,2.851,2.547,2.841,2.53,103.8,37.6,37.8,1018.47,-38.02,-0.08,1.57,32.3,54.7,43.8,0,no_anomaly,0.0,0,0,0,0,23.0225154,72.5713462,16.0,0.0
2024-08-07T11:35:06.200Z,MISSION_0017,62,0,transit,SITE_AMD_008,23.0225184,72.5713478,16.5,317.25,4.678,0.164,6.16,0.2275,-2.8672,317.2508,-0.93094,0.00727,0.02402,0.3643,-0.0043,0.0537,-9.7479,0.114,-0.3637,-0.2277,0.1981,3,12,0.53,1.07,0.34,24.575,22.24,92.0,46.0,20240.0,7167,7470,7678,7613,63.2,67.2,62.0,58.5,2.802,2.899,2.707,2.958,3.04,98.9,37.7,38.4,1019.11,-27.99,0.82,1.36,32.8,50.1,38.9,0,no_anomaly,0.0,0,0,0,0,23.0225184,72.5713478,16.5,0.0
2024-08-07T11:35:06.300Z,MISSION_0017,63,0,transit,SITE_AMD_008,23.0225152,72.5713497,17.0,317.67,4.78,0.099,5.84,-1.7075,-2.351,317.6748,-0.93215,0.0213,0.01375,0.36119,0.0553,-0.0011,-9.8182,0.5765,-0.3417,0.1551,0.1382,3,14,0.61,0.82,0.2,24.633,27.43,91.9,45.9,20223.0,7255,7300,7556,7416,64.7,63.4,64.7,64.2,2.583,2.749,2.858,2.786,2.34,106.4,37.6,37.8,1018.66,-31.59,0.23,1.38,34.3,51.6,40.8,0,no_anomaly,0.0,0,0,0,0,23.0225152,72.5713497,17.0,0.0
2024-08-07T11:35:06.400Z,MISSION_0017,64,0,transit,SITE_AMD_008,23.0225177,72.5713547,17.5,317.47,4.714,0.07,5.41,-0.6698,-0.7218,317.4651,-0.93185,0.00773,0.00375,0.36274,0.0513,-0.1094,-9.7563,-0.0501,0.8078,0.0944,0.0691,3,16,0.66,1.05,0.26,24.546,20.74,91.8,47.0,20206.0,7499,7563,7341,7381,60.0,64.9,65.1,63.9,2.841,2.663,2.805,2.545,2.71,105.3,37.6,38.6,1018.24,-27.15,0.13,1.23,35.5,45.9,40.6,0,no_anomaly,0.0,0,0,0,0,23.0225177,72.5713547,17.5,0.0
2024-08-07T11:35:06.500Z,MISSION_0017,65,0,transit,SITE_AMD_008,23.0225141,72.5713595,18.0,318.82,4.505,0.195,4.77,-1.9866,-1.8913,318.8228,-0.93576,0.02203,0.00935,0.35182,-0.0799,-0.0049,-9.7248,-0.0878,-0.3388,0.4019,0.175,3,14,0.85,1.07,0.36,24.595,20.5,91.8,46.2,20190.0,7447,7519,7558,7597,62.6,61.4,61.0,61.7,2.748,2.795,2.703,2.825,3.38,102.4,38.0,37.6,1018.74,-28.97,-0.82,1.64,32.3,47.9,43.3,0,no_anomaly,0.0,0,0,0,0,23.0225141,72.5713595,18.0,0.0
2024-08-07T11:35:06.600Z,MISSION_0017,66,0,transit,SITE_AMD_008,23.0225137,72.5713594,18.0,317.75,4.664,0.057,4.77,1.6121,-2.9731,317.7512,-0.93253,-0.00377,0.02926,0.3599,-0.0461,0.0351,-9.7655,0.3642,-0.1281,1.0614,0.1945,3,14,0.69,0.73,0.38,24.523,25.41,91.7,46.3,20173.0,7509,7402,7260,7530,63.0,65.1,62.4,62.1,2.751,2.668,2.716,2.774,2.03,106.8,37.5,38.4,1018.64,-26.67,1.47,1.54,30.8,44.5,40.6,0,no_anomaly,0.0,0,0,0,0,23.0225137,72.5713594,18.0,0.0
2024-08-07T11:35:06.700Z,MISSION_0017,67,0,transit,SITE_AMD_008,23.022514,72.5713618,18.0,318.1,4.803,0.047,4.53,1.2504,-6.0295,318.1015,-0.93275,0.00863,0.05301,0.35649,-0.1095,0.0013,-9.8458,0.3889,-1.6206,0.0969,0.2178,3,20,0.67,0.69,0.37,24.595,18.77,91.6,45.8,20156.0,7473,7247,7511,7692,63.5,59.8,62.7,63.3,2.936,2.73,2.695,2.722,2.61,104.4,37.6,37.8,1018.83,-28.29,-0.59,1.85,32.0,51.4,40.1,0,no_anomaly,0.0,0,0,0,0,23.022514,72.5713618,18.0,0.0
2024-08-07T11:35:06.800Z,MISSION_0017,68,0,transit,SITE_AMD_008,23.0225112,72.5713661,18.0,316.83,5.324,0.08,3.98,2.7281,-1.4209,316.831,-0.92965,-0.01757,0.02028,0.36747,0.0202,0.0048,-9.7447,0.4592,0.1265,0.3846,0.118,3,12,0.61,0.75,0.2,24.544,21.53,91.5,45.7,20139.0,7192,7485,7244,7400,61.4,67.1,61.9,63.7,2.892,2.693,2.647,2.797,2.02,111.2,37.8,38.5,1018.69,-28.02,1.49,1.84,33.0,51.1,39.0,0,no_anomaly,0.0,0,0,0,0,23.0225112,72.5713661,18.0,0.0
2024-08-07T11:35:06.900Z,MISSION_0017,69,0,transit,SITE_AMD_008,23.0225122,72.57137,18.0,316.0,5.076,0.127,3.61,-2.1174,-1.1672,316.003,-0.92692,0.02095,0.00252,0.37467,0.0365,-0.0052,-9.8624,-0.091,-0.2228,0.6685,0.2357,3,17,0.8,0.8,0.3,24.636,16.7,91.5,45.5,20122.0,7639,7159,7329,7386,64.6,62.8,68.2,63.3,3.047,2.884,2.937,2.857,2.26,111.1,37.6,37.8,1018.28,-26.0,-1.1,1.46,35.7,48.8,38.0,0,no_anomaly,0.0,0,0,0,0,23.0225122,72.57137,18.0,0.0
2024-08-07T11:35:07.000Z,MISSION_0017,70,0,transit,SITE_AMD_008,23.0225203,72.5713727,18.0,316.09,5.132,0.109,3.78,-0.3134,-1.8454,316.092,-0.92734,0.00856,0.01391,0.37385,-0.0466,0.0513,-9.847,0.1975,0.2843,-0.6282,0.1779,3,15,0.65,0.85,0.3,24.624,23.35,91.4,45.4,20105.0,7495,7594,7134,7494,62.5,61.8,60.9,61.1,2.928,2.956,2.784,2.889,1.95,110.6,37.8,37.8,1018.79,-26.51,0.69,1.37,33.6,50.5,38.0,0,no_anomaly,0.0,0,0,0,0,23.0225203,72.5713727,18.0,0.0
2024-08-07T11:35:07.100Z,MISSION_0017,71,0,transit,SITE_AMD_008,23.0225194,72.5713715,18.0,317.5,5.008,0.114,3.84,-1.0132,-1.5712,317.5024,-0.93185,0.01321,0.00957,0.36248,0.0013,-0.0136,-9.7441,0.5972,-0.2314,-0.1838,0.1595,3,16,0.62,0.95,0.22,24.643,25.02,91.3,46.5,20088.0,7571,7579,7214,7462,64.7,61.9,59.4,60.5,2.873,2.779,3.08,2.71,1.97,104.9,37.8,37.6,1018.9,-29.53,-1.06,1.48,30.7,50.3,37.8,0,no_anomaly,0.0,0,0,0,0,23.0225194,72.5713715,18.0,0.0
2024-08-07T11:35:07.200Z,MISSION_0017,72,0,transit,SITE_AMD_008,23.0225168,72.571372,18.0,315.7,5.219,0.053,3.63,-1.2106,-1.873,315.6968,-0.92595,0.01595,0.01115,0.37715,0.1765,0.0399,-9.8088,0.3246,0.1604,0.4857,0.1379,3,15,0.69,0.87,0.22,24.601,19.66,91.2,45.5,20071.0,7550,7278,7242,7293,63.9,63.0,63.9,63.0,2.762,2.6,2.708,2.99,2.61,108.5,37.7,37.7,1018.92,-30.47,-1.02,1.76,34.4,51.5,39.2,0,no_anomaly,0.0,0,0,0,0,23.0225168,72.571372,18.0,0.0
2024-08-07T11:35:07.300Z,MISSION_0017,73,0,transit,SITE_AMD_008,23.0225186,72.571367,18.0,314.07,5.181,0.096,4.22,1.5264,-0.4917,314.0707,-0.92068,-0.01059,0.00915,0.39007,0.0711,-0.0279,-9.8151,-0.4802,0.5342,0.1906,0.2014,3,10,0.83,0.75,0.42,24.578,23.71,91.2,45.7,20054.0,7672,7459,7229,7437,63.9,66.2,62.3,63.3,2.633,2.859,2.711,2.518,1.82,116.6,37.4,37.5,1018.72,-33.22,-0.39,1.0,33.7,49.0,38.7,0,no_anomaly,0.0,0,0,0,0,23.0225186,72.571367,18.0,0.0
2024-08-07T11:35:07.400Z,MISSION_0017,74,0,transit,SITE_AMD_008,23.0225206,72.5713705,18.0,314.03,5.426,0.126,4.0,0.8937,-5.9229,314.0269,-0.9195,0.013,0.0506,0.38961,-0.0117,-0.0303,-9.729,0.4866,0.309,0.313,0.1545,3,16,0.75,1.1,0.31,24.655,22.54,91.1,45.4,20037.0,7421,6997,7133,7412,64.2,63.6,62.9,60.1,2.831,2.826,2.652,2.804,2.61,116.8,37.3,37.9,1018.62,-27.63,0.28,1.9,34.1,50.2,42.1,0,no_anomaly,0.0,0,0,0,0,23.0225206,72.5713705,18.0,0.0
2024-08-07T11:35:07.500Z,MISSION_0017,75,0,transit,SITE_AMD_008,23.0225195,72.5713721,18.0,316.99,5.594,0.094,3.79,3.9199,-2.9284,316.9932,-0.92987,-0.02245,0.03629,0.36541,-0.0278,0.0556,-9.9064,0.2889,-0.9416,0.3194,0.1166,3,16,0.7,0.94,0.27,24.487,18.67,91.0,45.5,20020.0,7293,7261,7285,7620,58.3,60.7,62.0,65.8,2.709,2.853,2.827,3.104,2.13,102.5,37.3,37.5,1018.78,-28.34,0.2,1.44,34.8,49.0,41.1,0,no_anomaly,0.0,0,0,0,0,23.0225195,72.5713721,18.0,0.0
2024-08-07T11:35:07.600Z,MISSION_0017,76,0,transit,SITE_AMD_008,23.0225205,72.5713707,18.0,317.06,5.928,0.116,3.97,-1.4836,-0.5868,317.0569,-0.93049,0.01392,3e-05,0.36607,0.1953,0.0669,-9.7459,-0.1573,0.6381,-0.3615,0.1724,3,12,0.57,0.71,0.38,24.531,19.87,90.9,46.6,20003.0,7476,7270,7370,7487,63.1,64.3,64.7,62.8,2.8,2.69,2.751,2.949,2.55,103.5,37.5,37.9,1018.75,-35.27,0.07,1.0,32.5,43.0,38.0,0,no_anomaly,0.0,0,0,0,0,23.0225205,72.5713707,18.0,0.0
2024-08-07T11:35:07.700Z,MISSION_0017,77,0,transit,SITE_AMD_008,23.0225229,72.5713751,18.0,318.19,5.929,0.138,3.76,1.3109,-1.2103,318.1946,-0.93412,-0.00692,0.01395,0.35663,0.0953,0.041,-9.7862,-0.7667,0.39,-0.2177,0.1287,3,14,0.78,1.13,0.36,24.571,25.12,90.8,46.1,19986.0,7285,7361,7513,7292,65.4,65.1,62.1,58.7,2.772,2.724,2.933,2.679,2.38,112.1,37.8,38.5,1018.95,-30.98,-0.27,1.52,30.1,48.8,39.5,0,no_anomaly,0.0,0,0,0,0,23.0225229,72.5713751,18.0,0.0
2024-08-07T11:35:07.800Z,MISSION_0017,78,0,transit,SITE_AMD_008,23.0225226,72.5713789,18.0,321.79,5.728,0.117,3.44,0.4253,-4.0004,321.7886,-0.94438,0.00792,0.03419,0.32699,-0.0819,-0.0176,-9.8121,0.2978,-0.6886,-0.2458,0.2366,3,17,0.63,0.84,0.31,24.621,21.08,90.8,45.9,19969.0,7421,7220,7399,7578,64.3,65.1,63.7,63.4,2.919,2.853,2.999,2.845,2.32,101.8,37.8,38.8,1018.8,-31.92,0.13,1.08,33.8,51.2,43.8,0,no_anomaly,0.0,0,0,0,0,23.0225226,72.5713789,18.0,0.0
2024-08-07T11:35:07.900Z,MISSION_0017,79,0,transit,SITE_AMD_008,23.0225208,72.5713744,18.0,320.8,6.009,0.059,3.67,0.6138,-4.9611,320.7967,-0.94123,0.00948,0.04257,0.33494,0.0304,-0.1235,-9.7879,0.4208,0.0794,0.2181,0.1266,3,15,0.85,0.81,0.25,24.538,19.77,90.7,46.1,19952.0,7664,7605,7436,7443,65.3,61.9,65.7,63.2,2.758,2.723,2.946,2.498,1.71,99.7,37.6,37.6,1018.6,-25.95,-1.06,1.39,32.2,52.6,39.1,0,no_anomaly,0.0,0,0,0,0,23.0225208,72.5713744,18.0,0.0
2024-08-07T11:35:08.000Z,MISSION_0017,80,1,transit,SITE_AMD_008,23.0225168,72.5713728,18.0,317.96,5.511,0.064,3.56,-1.6757,-4.6265,317.9561,-0.93237,0.02812,0.03243,0.35895,-0.0412,0.0335,-9.8784,0.3019,-1.3809,0.0631,0.1525,3,18,0.62,0.69,0.27,24.497,19.39,90.6,45.9,19935.0,7381,7501,7309,7282,62.7,64.3,62.4,62.8,2.804,2.874,2.519,2.786,1.83,106.1,37.8,37.8,1018.99,-34.78,1.01,1.62,35.4,52.2,42.5,0,no_anomaly,0.0,0,0,0,0,23.0225168,72.5713728,18.0,0.0
2024-08-07T11:35:08.100Z,MISSION_0017,81,1,transit,SITE_AMD_008,23.0225158,72.5713756,18.0,317.54,6.054,0.065,3.23,0.1156,-4.513,317.5369,-0.93142,0.01332,0.03707,0.36182,0.0337,-0.0274,-9.747,0.296,0.285,0.1989,0.2318,3,11,0.68,0.92,0.34,24.539,16.72,90.5,45.3,19918.0,7100,7527,7454,7323,65.0,61.6,61.4,62.9,2.782,2.576,2.789,3.028,2.54,109.8,38.2,37.5,1018.71,-27.72,1.37,1.52,33.1,43.7,40.7,0,no_anomaly,0.0,0,0,0,0,23.0225158,72.5713756,18.0,0.0
2024-08-07T11:35:08.200Z,MISSION_0017,82,1,transit,SITE_AMD_008,23.0225175,72.5713777,18.0,317.92,6.559,0.032,3.15,3.8251,-0.8875,317.9157,-0.93286,-0.02837,0.01921,0.3586,0.1121,0.0568,-9.8199,-0.0462,-0.0705,0.0797,0.1568,3,12,0.8,0.93,0.32,24.578,25.96,90.5,45.7,19901.0,7393,7181,7416,7542,61.7,65.6,62.9,61.9,2.951,2.819,3.144,2.972,1.42,101.5,37.9,38.6,1019.11,-29.93,0.42,2.01,30.7,47.6,40.0,0,no_anomaly,0.0,0,0,0,0,23.0225175,72.5713777,18.0,0.0
2024-08-07T11:35:08.300Z,MISSION_0017,83,1,transit,SITE_AMD_008,23.0225219,72.5713804,18.0,315.84,7.182,0.092,3.27,-1.8067,-1.398,315.836,-0.92639,0.01919,0.00538,0.37604,0.1797,-0.0512,-9.8336,-0.0286,0.7372,-0.1369,0.0791,3,10,0.77,0.86,0.47,24.579,20.75,90.4,46.0,19884.0,7137,7164,7364,7507,63.8,62.5,59.5,64.3,2.823,2.698,2.824,2.722,2.34,111.8,38.0,36.8,1018.55,-30.02,-1.31,1.51,33.4,49.6,42.0,0,no_anomaly,0.0,0,0,0,0,23.0225219,72.5713804,18.0,0.0
2024-08-07T11:35:08.400Z,MISSION_0017,84,1,transit,SITE_AMD_008,23.0225206,72.5713762,18.0,314.05,7.319,0.094,3.5,-3.4266,-2.7455,314.0517,-0.91973,0.03687,0.01038,0.39069,0.0116,-0.0528,-9.7992,0.062,-0.18,-0.0448,0.1496,3,12,0.83,0.8,0.46,24.57,22.63,90.3,45.3,19867.0,7345,7506,7146,7709,63.6,59.5,61.6,61.9,2.857,2.914,2.841,2.834,2.49,102.4,37.4,38.3,1018.92,-27.87,2.52,1.61,35.4,44.9,41.3,0,no_anomaly,0.0,0,0,0,0,23.0225206,72.5713762,18.0,0.0
2024-08-07T11:35:08.500Z,MISSION_0017,85,1,transit,SITE_AMD_008,23.0225158,72.5713763,18.0,316.16,7.048,0.102,3.17,-0.8673,-2.5587,316.1581,-0.92738,0.01535,0.01789,0.37338,-0.0145,0.0094,-9.7617,-0.3853,-0.3449,0.3967,0.186,3,20,0.67,1.07,0.34,24.631,18.41,90.2,47.1,19850.0,7419,7169,7381,7439,62.8,63.9,61.5,66.1,2.976,2.781,3.042,2.916,2.07,106.2,37.9,37.9,1019.21,-26.11,-0.92,1.74,30.7,52.7,42.7,0,no_anomaly,0.0,0,0,0,0,23.0225158,72.5713763,18.0,0.0
2024-08-07T11:35:08.600Z,MISSION_0017,86,1,transit,SITE_AMD_008,23.0225159,72.5713762,18.0,315.61,6.696,0.08,3.19,2.1261,-1.76,315.6114,-0.92575,-0.01138,0.02123,0.37738,-0.1155,-0.023,-9.8129,-0.3967,-0.1696,0.0676,0.1585,3,16,0.66,1.01,0.2,24.584,24.66,90.1,46.2,19833.0,7191,7467,7309,7577,60.0,60.1,61.9,64.7,2.685,2.74,2.616,2.671,1.69,116.2,37.6,37.9,1018.78,-24.54,-1.42,2.1,28.0,45.7,39.4,0,no_anomaly,0.0,0,0,0,0,23.0225159,72.5713762,18.0,0.0
2024-08-07T11:35:08.700Z,MISSION_0017,87,1,transit,SITE_AMD_008,23.0225173,72.5713768,18.0,317.96,6.632,0.159,3.22,-2.1959,-0.2647,317.9649,-0.93328,0.01871,-0.00472,0.35863,-0.0721,0.0303,-9.8233,-0.0475,1.2694,-0.5228,0.1401,3,14,0.62,0.99,0.24,24.62,20.1,90.1,46.2,19816.0,7189,7473,7488,7504,61.2,62.2,64.9,63.7,2.573,2.777,2.609,2.787,2.08,104.6,37.2,38.0,1018.89,-31.07,-0.09,1.0,29.9,50.7,39.6,0,no_anomaly,0.0,0,0,0,0,23.0225173,72.5713768,18.0,0.0
2024-08-07T11:35:08.800Z,MISSION_0017,88,1,transit,SITE_AMD_008,23.0225257,72.5713695,18.0,318.27,6.485,0.176,4.43,-1.2379,-0.6983,318.2742,-0.93434,0.01226,0.00185,0.35617,-0.014,-0.024,-9.7854,0.0109,-0.0045,-0.1606,0.0993,3,11,0.73,0.81,0.4,24.588,22.83,90.0,45.7,19799.0,7255,7495,7361,7440,63.0,63.3,62.8,63.2,2.578,2.634,2.831,2.662,2.97,115.3,37.4,37.7,1018.85,-27.68,-1.13,1.96,30.1,49.9,39.9,0,no_anomaly,0.0,0,0,0,0,23.0225257,72.5713695,18.0,0.0
2024-08-07T11:35:08.900Z,MISSION_0017,89,1,transit,SITE_AMD_008,23.0225289,72.5713734,18.0,322.54,6.566,0.112,4.37,-1.4382,-1.7896,322.5364,-0.94678,0.0169,0.01076,0.32126,-0.0874,-0.0159,-9.8741,-0.1156,0.0988,0.0081,0.1039,3,18,0.66,0.73,0.32,24.554,24.63,89.9,46.6,19782.0,7422,7329,7505,7284,64.1,64.9,64.7,63.7,2.549,2.706,2.756,2.56,2.73,114.0,37.3,37.2,1018.53,-26.14,-0.67,1.85,31.7,43.6,41.4,0,no_anomaly,0.0,0,0,0,0,23.0225289,72.5713734,18.0,0.0
2024-08-07T11:35:09.000Z,MISSION_0017,90,1,transit,SITE_AMD_008,23.0225249,72.5713773,18.0,321.94,6.501,0.153,3.75,-0.9901,-1.7205,321.937,-0.94516,0.01306,0.01137,0.32616,0.0674,-0.041,-9.7593,1.2079,-0.2477,0.2711,0.1373,3,13,0.63,0.97,0.29,24.573,20.73,89.8,45.5,19765.0,7435,7126,7277,7395,62.5,61.0,63.0,62.2,2.766,2.707,3.01,2.789,1.89,102.8,37.8,38.8,1018.91,-28.19,1.35,1.42,29.3,50.7,41.3,0,no_anomaly,0.0,0,0,0,0,23.0225249,72.5713773,18.0,0.0
2024-08-07T11:35:09.100Z,MISSION_0017,91,1,transit,SITE_AMD_008,23.0225252,72.5713735,18.0,319.5,6.555,0.17,4.08,0.8335,-2.5469,319.5032,-0.938,0.00087,0.02337,0.34584,0.0025,0.0815,-9.8997,-0.3122,-0.2205,0.0493,0.0927,3,13,0.6,0.77,0.24,24.538,16.54,89.8,46.0,19748.0,7536,7446,7315,7485,61.9,63.9,59.4,62.2,2.94,2.956,2.684,2.793,2.48,109.7,37.8,37.2,1019.09,-34.76,-0.62,1.38,32.6,50.3,40.8,0,no_anomaly,0.0,0,0,0,0,23.0225252,72.5713735,18.0,0.0
2024-08-07T11:35:09.200Z,MISSION_0017,92,1,transit,SITE_AMD_008,23.0225248,72.571374,18.0,322.19,6.216,0.099,4.0,1.4744,-1.6,322.1909,-0.94595,-0.00765,0.01738,0.32376,0.0321,0.0385,-9.8609,0.3196,0.7778,-0.039,0.1732,3,18,0.66,0.77,0.26,24.561,17.74,89.7,45.7,19731.0,7445,7220,7333,7177,61.3,66.1,62.8,64.6,2.822,2.786,2.671,2.813,2.06,108.6,37.9,37.6,1018.72,-26.25,0.83,1.38,34.1,43.9,36.7,0,no_anomaly,0.0,0,0,0,0,23.0225248,72.571374,18.0,0.0
2024-08-07T11:35:09.300Z,MISSION_0017,93,1,transit,SITE_AMD_008,23.0225248,72.571374,18.0,322.34,6.125,0.208,4.0,-2.4452,-1.808,322.3361,-0.94603,0.02528,0.00804,0.323,0.0328,0.0547,-9.8284,-0.181,0.2629,0.0473,0.2366,3,11,0.73,0.78,0.2,24.609,21.42,89.6,45.9,19714.0,7718,7411,7376,7465,63.5,63.2,63.0,61.8,2.628,2.634,2.799,2.765,1.25,109.2,37.7,37.8,1018.89,-28.65,-0.47,1.4,32.1,45.0,39.2,0,no_anomaly,0.0,0,0,0,0,23.0225248,72.571374,18.0,0.0
2024-08-07T11:35:09.400Z,MISSION_0017,94,1,transit,SITE_AMD_008,23.0225302,72.5713764,18.0,320.15,6.091,0.162,4.27,0.6229,-1.7309,320.1507,-0.94005,4e-05,0.01605,0.34066,0.2278,-0.0714,-9.7917,-0.1626,0.4163,-0.0105,0.1278,3,19,0.73,0.8,0.28,24.527,19.18,89.5,44.9,19697.0,7400,7475,7322,7523,65.2,63.8,60.9,60.1,3.146,2.91,2.941,2.782,2.79,104.0,37.7,37.5,1018.95,-35.82,0.69,1.71,30.8,44.8,38.6,0,no_anomaly,0.0,0,0,0,0,23.0225302,72.5713764,18.0,0.0
2024-08-07T11:35:09.500Z,MISSION_0017,95,1,transit,SITE_AMD_008,23.0225259,72.5713775,18.0,320.64,6.059,0.187,3.82,2.4521,-2.5216,320.6449,-0.94132,-0.01274,0.02792,0.33612,0.0905,0.0878,-9.7609,0.6463,-0.4811,-0.1848,0.1035,3,17,0.6,0.81,0.2,24.536,18.18,89.5,46.0,19680.0,7329,7370,7524,7505,57.0,59.3,64.2,62.0,2.69,2.652,3.02,2.876,1.35,113.6,37.9,38.6,1018.91,-28.8,0.39,1.56,36.5,44.6,40.2,0,no_anomaly,0.0,0,0,0,0,23.0225259,72.5713775,18.0,0.0
2024-08-07T11:35:09.600Z,MISSION_0017,96,1,orbit_base,SITE_AMD_008,23.0224227,72.5714207,18.3,319.88,5.662,0.156,8.91,-0.3788,-2.6812,319.8794,-0.93904,0.01113,0.02084,0.34299,0.055,-0.0248,-9.829,-0.5415,0.1717,-0.0179,0.1869,3,10,0.86,1.07,0.49,24.512,21.55,89.4,47.1,19663.0,7270,7712,7271,7493,62.9,61.7,63.2,61.0,2.959,2.929,2.891,2.6,2.23,114.0,37.7,38.0,1019.01,-33.99,0.48,1.67,35.4,49.4,40.7,0,no_anomaly,0.0,0,0,0,0,23.0224227,72.5714207,18.3,0.0
2024-08-07T11:35:09.700Z,MISSION_0017,97,1,orbit_base,SITE_AMD_008,23.0224221,72.5714184,18.6,321.62,5.621,0.095,8.91,1.2528,-2.3031,321.6204,-0.94426,-0.00372,0.02257,0.3284,0.1193,-0.061,-9.8505,1.2421,0.0723,0.3812,0.1123,3,16,0.78,0.89,0.5,24.513,23.15,89.3,46.9,19646.0,7326,7589,7360,7614,64.6,67.1,58.8,58.8,2.786,2.817,2.755,2.913,2.51,111.9,37.8,38.1,1019.08,-32.25,2.61,1.62,30.9,49.5,39.0,0,no_anomaly,0.0,0,0,0,0,23.0224221,72.5714184,18.6,0.0
2024-08-07T11:35:09.800Z,MISSION_0017,98,1,orbit_base,SITE_AMD_008,23.0224216,72.571416,18.9,323.05,5.607,0.042,8.91,-0.2679,-2.9485,323.0527,-0.94813,0.01037,0.02366,0.31682,0.0771,-0.0672,-9.8357,-0.2764,-0.3861,0.1708,0.1225,3,15,0.54,0.89,0.25,24.493,23.92,89.2,45.7,19629.0,7299,7436,7406,7304,62.5,62.0,65.0,61.7,2.689,2.682,2.573,2.859,2.14,104.0,37.9,37.2,1018.81,-28.41,-0.85,1.24,34.2,52.5,37.8,0,no_anomaly,0.0,0,0,0,0,23.0224216,72.571416,18.9,0.0
2024-08-07T11:35:09.900Z,MISSION_0017,99,1,orbit_base,SITE_AMD_008,23.0224212,72.5714137,19.2,324.43,4.807,0.133,8.91,-3.8055,-1.4173,324.4319,-0.95149,0.03539,0.00163,0.30563,-0.0644,0.0348,-9.7935,0.2365,0.646,0.1885,0.1537,3,17,0.67,0.98,0.32,24.561,21.93,89.1,46.5,19612.0,7398,7360,7124,7475,59.9,62.0,63.1,63.7,3.063,2.831,2.801,2.85,2.06,110.6,37.6,37.8,1018.78,-30.6,-2.17,1.52,37.5,54.5,44.0,0,no_anomaly,0.0,0,0,0,0,23.0224212,72.5714137,19.2,0.0
2024-08-07T11:35:10.000Z,MISSION_0017,100,1,orbit_base,SITE_AMD_008,23.0224208,72.5714113,19.5,325.03,5.301,0.148,8.91,0.5428,-2.0499,325.0332,-0.95367,0.00086,0.01848,0.3003,-0.1986,0.0957,-9.8447,-0.772,-0.2545,0.1584,0.1926,3,16,0.84,0.85,0.37,24.543,24.93,89.1,44.8,19595.0,7461,7135,7412,7214,66.0,65.0,62.0,63.5,2.834,2.786,2.8,2.75,2.98,115.0,37.6,37.8,1018.74,-30.24,-2.52,1.22,32.9,42.9,39.4,0,no_anomaly,0.0,0,0,0,0,23.0224208,72.5714113,19.5,0.0
2024-08-07T11:35:10.100Z,MISSION_0017,101,1,orbit_base,SITE_AMD_008,23.0224205,72.5714089,19.8,323.08,5.118,0.127,8.91,-0.6839,-3.8744,323.08,-0.94792,0.01636,0.03018,0.31665,-0.1316,-0.0576,-9.7878,0.5184,-1.1061,0.075,0.1569,3,18,0.57,1.06,0.3,24.517,18.57,89.0,46.4,19578.0,7508,7459,7425,7498,63.5,59.8,61.9,61.1,2.858,2.822,2.66,3.047,1.93,108.7,37.5,37.7,1018.58,-23.38,1.57,2.01,32.8,52.0,40.9,0,no_anomaly,0.0,0,0,0,0,23.0224205,72.5714089,19.8,0.0
2024-08-07T11:35:10.200Z,MISSION_0017,102,1,orbit_base,SITE_AMD_008,23.0224203,72.5714065,20.1,322.96,5.324,0.065,8.91,-3.1652,-2.4059,322.9594,-0.94746,0.03285,0.01113,0.318,0.0149,-0.0581,-9.9028,-0.928,0.5221,0.1578,0.1992,3,11,0.64,0.87,0.32,24.536,19.97,88.9,46.7,19561.0,7343,7333,7548,7262,65.2,59.7,60.5,62.0,2.659,2.971,3.06,2.751,1.42,111.8,37.3,39.2,1018.58,-27.1,1.82,1.45,34.4,46.7,43.2,0,no_anomaly,0.0,0,0,0,0,23.0224203,72.5714065,20.1,0.0
2024-08-07T11:35:10.300Z,MISSION_0017,103,1,orbit_base,SITE_AMD_008,23.0224201,72.5714041,20.4,324.34,5.246,0.05,8.91,3.0413,-4.42,324.3408,-0.95124,-0.01344,0.04482,0.30488,-0.1081,-0.0369,-9.8201,-0.4522,-0.3736,0.3506,0.198,3,16,0.73,0.75,0.3,24.432,17.37,88.8,45.5,19544.0,7393,7444,7380,7559,63.8,63.1,63.2,61.9,2.797,2.701,2.864,2.877,2.01,103.9,37.6,37.8,1018.99,-25.47,-0.29,1.78,32.6,46.1,42.6,0,no_anomaly,0.0,0,0,0,0,23.0224201,72.5714041,20.4,0.0
2024-08-07T11:35:10.400Z,MISSION_0017,104,1,orbit_base,SITE_AMD_008,23.02242,72.5714017,20.7,325.08,5.229,0.036,8.91,-2.1342,-1.3161,325.0817,-0.95364,0.02121,0.00537,0.30016,0.0299,-0.0402,-9.8117,-0.1694,-1.0156,-0.3277,0.2091,3,20,0.69,0.86,0.27,24.529,23.68,88.8,45.5,19527.0,7411,7285,7687,7447,62.6,64.0,63.4,65.9,3.048,2.619,2.583,2.624,2.0,102.6,37.8,37.2,1018.6,-28.61,-0.47,1.2,31.2,48.9,36.6,0,no_anomaly,0.0,0,0,0,0,23.02242,72.5714017,20.7,0.0
2024-08-07T11:35:10.500Z,MISSION_0017,105,1,orbit_base,SITE_AMD_008,23.02242,72.5713993,21.0,323.63,5.085,0.034,8.91,-2.4632,-3.762,323.6255,-0.94909,0.03065,0.02447,0.31255,-0.0019,-0.0656,-9.798,-0.3842,-0.0989,0.0187,0.1556,3,15,0.79,0.93,0.4,24.515,21.32,88.7,45.8,19510.0,7390,7641,7259,7269,63.9,65.0,62.9,61.4,3.023,2.894,2.701,2.853,2.22,101.9,37.9,38.2,1019.07,-31.32,0.82,1.64,31.9,48.3,39.7,0,no_anomaly,0.0,0,0,0,0,23.02242,72.5713993,21.0,0.0
2024-08-07T11:35:10.600Z,MISSION_0017,106,1,orbit_base,SITE_AMD_008,23.0224201,72.5713969,21.3,321.36,5.245,0.118,8.91,1.0079,-2.1498,321.3646,-0.94355,-0.00209,0.02061,0.33058,-0.0419,0.0141,-9.7091,0.069,-0.4298,0.0732,0.0557,3,16,0.78,1.05,0.41,24.561,24.38,88.6,46.6,19493.0,7311,7627,7196,7536,64.0,61.7,61.7,63.2,2.629,2.431,2.792,2.829,2.37,100.9,37.7,37.3,1019.09,-27.87,0.41,2.0,31.1,49.9,42.0,0,no_anomaly,0.0,0,0,0,0,23.0224201,72.5713969,21.3,0.0
2024-08-07T11:35:10.700Z,MISSION_0017,107,1,orbit_base,SITE_AMD_008,23.0224202,72.5713945,21.6,320.81,5.498,0.163,8.91,-2.1512,-3.0001,320.8115,-0.94144,0.02646,0.01836,0.33565,-0.1016,0.0058,-9.7423,-0.0886,-0.0502,-0.5652,0.1037,3,13,0.69,0.85,0.21,24.455,20.9,88.5,47.2,19476.0,7560,7266,7444,7577,63.2,63.8,65.0,65.7,2.984,2.945,2.791,3.009,2.97,103.1,37.5,37.9,1018.88,-30.4,-0.59,1.63,36.5,49.0,43.9,0,no_anomaly,0.0,0,0,0,0,23.0224202,72.5713945,21.6,0.0
2024-08-07T11:35:10.800Z,MISSION_0017,108,1,orbit_base,SITE_AMD_008,23.0224204,72.5713921,21.9,321.58,5.725,0.091,8.91,-1.78,-1.9652,321.5808,-0.94398,0.02031,0.01108,0.32919,0.0,0.0135,-9.9373,-0.3673,-0.2919,-0.3622,0.1065,3,15,0.62,0.97,0.27,24.5,15.84,88.4,46.0,19459.0,7318,7440,7406,7767,64.8,62.9,59.8,63.8,2.796,2.741,2.793,2.693,2.23,101.6,37.8,37.5,1018.65,-29.91,0.29,1.34,35.6,46.5,40.7,0,no_anomaly,0.0,0,0,0,0,23.0224204,72.5713921,21.9,0.0
2024-08-07T11:35:10.900Z,MISSION_0017,109,1,orbit_base,SITE_AMD_008,23.0224207,72.5713898,22.2,321.71,5.696,0.089,8.91,-0.5687,-2.4423,321.7091,-0.94443,0.01168,0.01851,0.32799,0.0156,-0.0212,-9.8267,-0.4631,-0.2878,-0.005,0.1032,3,17,0.65,0.94,0.24,24.577,20.95,88.4,46.3,19442.0,7463,7399,7274,7594,63.6,62.5,65.6,60.5,3.031,2.787,2.459,2.724,2.63,106.6,37.8,38.1,1018.78,-27.05,1.34,1.8,33.4,49.7,43.3,0,no_anomaly,0.0,0,0,0,0,23.0224207,72.5713898,22.2,0.0
2024-08-07T11:35:11.000Z,MISSION_0017,110,1,orbit_base,SITE_AMD_008,23.022421,72.5713874,22.5,320.74,5.204,0.184,8.91,-1.7791,2.5359,320.7388,-0.94165,0.00719,-0.02605,0.33551,0.0015,0.0126,-9.793,-0.4138,0.4667,-0.2298,0.0806,3,15,0.68,0.87,0.33,24.521,20.33,88.3,46.5,19425.0,7233,7667,7564,7454,63.5,61.4,62.8,63.9,2.858,2.813,2.663,2.92,1.96,101.0,37.8,37.4,1018.59,-29.39,0.96,1.8,30.7,46.1,42.5,0,no_anomaly,0.0,0,0,0,0,23.022421,72.5713874,22.5,0.0
2024-08-07T11:35:11.100Z,MISSION_0017,111,1,orbit_base,SITE_AMD_008,23.0224214,72.571385,22.8,322.31,4.914,0.11,8.91,-0.3636,-0.6829,322.3095,-0.94637,0.00493,0.00461,0.32302,-0.0143,-0.0545,-9.8114,-0.3038,-0.3303,-0.1873,0.2688,3,11,0.88,0.87,0.37,24.503,20.8,88.2,47.0,19408.0,7654,7315,7605,7323,60.4,61.6,62.2,61.1,2.767,2.776,2.583,2.725,1.49,112.5,37.9,38.1,1018.71,-28.71,-1.14,1.9,32.4,49.4,38.8,0,no_anomaly,0.0,0,0,0,0,23.0224214,72.571385,22.8,0.0
2024-08-07T11:35:11.200Z,MISSION_0017,112,1,orbit_base,SITE_AMD_008,23.0224219,72.5713827,23.1,322.47,4.876,0.014,8.91,-3.8118,-0.6331,322.4732,-0.94626,0.03327,-0.00547,0.32165,-0.0957,-0.0141,-9.7835,-0.0626,0.2665,-0.1261,0.1073,3,11,0.66,0.6,0.2,24.454,19.62,88.1,45.5,19391.0,7404,7439,7177,7442,61.6,61.6,62.5,62.4,2.682,2.836,3.155,2.753,2.35,102.9,37.7,37.6,1018.69,-33.89,1.24,1.6,36.3,47.3,40.2,0,no_anomaly,0.0,0,0,0,0,23.0224219,72.5713827,23.1,0.0
2024-08-07T11:35:11.300Z,MISSION_0017,113,1,orbit_base,SITE_AMD_008,23.0224225,72.5713803,23.4,323.01,4.973,0.164,8.91,-3.1966,-3.6554,323.0083,-0.94721,0.03655,0.02139,0.31779,0.0664,0.0567,-9.8476,-0.4908,-0.5473,0.3602,0.1732,3,20,0.77,1.1,0.4,24.59,24.43,88.1,46.1,19374.0,7825,7527,7704,7416,63.3,64.1,67.2,66.1,2.857,2.883,2.736,2.723,2.65,104.5,37.9,37.8,1018.74,-30.97,-2.85,1.92,30.6,46.6,42.3,0,no_anomaly,0.0,0,0,0,0,23.0224225,72.5713803,23.4,0.0
2024-08-07T11:35:11.400Z,MISSION_0017,114,1,orbit_base,SITE_AMD_008,23.0224231,72.571378,23.7,321.88,5.216,0.133,8.91,1.5681,-2.207,321.8762,-0.94499,-0.00664,0.02267,0.32625,0.0587,0.0376,-9.8735,-1.1783,-0.1045,0.4912,0.1828,3,12,0.72,0.92,0.31,24.442,15.51,88.0,45.5,19357.0,7443,7662,7296,7613,62.2,64.3,60.6,63.7,2.872,2.77,2.624,3.007,2.23,110.5,37.8,37.8,1018.54,-26.76,0.61,1.51,34.0,52.0,41.6,0,no_anomaly,0.0,0,0,0,0,23.0224231,72.571378,23.7,0.0
2024-08-07T11:35:11.500Z,MISSION_0017,115,1,orbit_base,SITE_AMD_008,23.0224238,72.5713757,24.0,321.4,5.054,0.1,8.91,-0.2808,-4.4511,321.4031,-0.94306,0.01515,0.03584,0.33033,-0.0737,0.0023,-9.8318,-0.1841,-1.5154,0.5847,0.1115,3,19,0.53,0.81,0.23,24.482,17.8,87.9,46.4,19340.0,7525,7343,7457,7551,63.3,61.6,64.4,61.5,2.601,2.797,2.788,2.922,1.77,106.3,38.0,37.6,1018.57,-26.85,0.11,1.65,33.6,52.5,42.0,0,no_anomaly,0.0,0,0,0,0,23.0224238,72.5713757,24.0,0.0
2024-08-07T11:35:11.600Z,MISSION_0017,116,1,orbit_base,SITE_AMD_008,23.0224245,72.5713734,24.3,322.44,5.422,0.151,8.91,-1.7328,-1.7667,322.4371,-0.94646,0.01928,0.00973,0.3221,-0.0231,-0.0099,-9.7432,0.677,-0.5355,-0.0371,0.1541,3,19,0.62,0.83,0.24,24.51,17.31,87.8,46.2,19323.0,7300,7643,7667,7287,61.1,61.0,64.9,63.8,2.49,2.797,2.959,2.859,2.94,109.6,37.3,38.7,1018.59,-38.85,0.05,1.44,29.1,46.2,39.3,0,no_anomaly,0.0,0,0,0,0,23.0224245,72.5713734,24.3,0.0
2024-08-07T11:35:11.700Z,MISSION_0017,117,1,orbit_base,SITE_AMD_008,23.0224254,72.5713712,24.6,324.14,5.79,0.055,8.91,-1.4584,-3.6627,324.1372,-0.95074,0.02194,0.02649,0.30808,-0.1136,0.0531,-9.845,-0.4965,-0.2578,0.2903,0.1286,3,19,0.55,1.02,0.25,24.54,18.96,87.8,45.7,19306.0,7301,7506,7876,7435,60.6,64.2,63.1,62.7,2.827,2.932,2.749,2.397,2.93,109.7,37.5,38.5,1018.67,-28.92,0.05,1.52,30.6,50.5,37.6,0,no_anomaly,0.0,0,0,0,0,23.0224254,72.5713712,24.6,0.0
2024-08-07T11:35:11.800Z,MISSION_0017,118,1,orbit_base,SITE_AMD_008,23.0224263,72.571369,24.9,325.51,5.587,0.077,8.91,-0.8194,-0.8028,325.5113,-0.95499,0.00891,0.00457,0.29648,-0.0066,0.0034,-9.8208,0.7966,0.6612,-0.3119,0.162,3,17,0.81,0.98,0.35,24.519,21.69,87.7,45.3,19289.0,7327,7457,7400,7432,62.7,63.9,59.5,61.2,2.575,2.77,2.532,3.067,1.79,113.2,37.6,38.6,1018.93,-34.35,-0.92,1.7,34.2,49.6,44.2,0,no_anomaly,0.0,0,0,0,0,23.0224263,72.571369,24.9,0.0
2024-08-07T11:35:11.900Z,MISSION_0017,119,1,orbit_base,SITE_AMD_008,23.0224272,72.5713668,25.2,327.07,5.361,0.211,8.91,-0.6229,-4.483,327.0747,-0.9582,0.01629,0.03597,0.28337,-0.0114,0.0112,-9.8662,0.2303,0.1214,0.0325,0.2005,3,16,0.67,0.78,0.2,24.488,21.13,87.6,46.1,19272.0,7675,7403,7553,7452,62.6,60.0,65.9,61.3,2.81,2.825,2.841,2.504,2.45,96.3,37.8,37.1,1019.2,-31.73,-2.22,1.65,30.5,42.6,38.0,0,no_anomaly,0.0,0,0,0,0,23.0224272,72.5713668,25.2,0.0
2024-08-07T11:35:12.000Z,MISSION_0017,120,1,orbit_base,SITE_AMD_008,23.0224283,72.5713646,25.5,325.65,5.622,0.08,8.91,1.4248,-1.6269,325.6461,-0.95528,-0.00769,0.01723,0.2951,-0.0868,0.0585,-9.8261,-0.5661,0.0622,-0.0569,0.0907,3,13,0.68,0.92,0.33,24.459,19.34,87.5,45.7,19255.0,7433,7497,7559,7473,63.7,63.6,62.2,61.3,2.701,2.858,2.919,2.602,2.88,117.2,37.4,37.9,1018.91,-27.48,1.13,1.22,31.8,50.5,40.0,0,no_anomaly,0.0,0,0,0,0,23.0224283,72.5713646,25.5,0.0
2024-08-07T11:35:12.100Z,MISSION_0017,121,1,orbit_base,SITE_AMD_008,23.0224294,72.5713625,25.8,326.48,5.622,0.086,8.91,-0.3692,-2.4459,326.4785,-0.95727,0.00924,0.01951,0.28837,0.1051,-0.0031,-9.8874,-0.3755,-0.3106,0.2234,0.1936,3,14,0.73,0.64,0.25,24.475,22.36,87.4,45.8,19238.0,7449,7249,7180,7539,62.1,63.1,63.2,60.7,2.775,2.773,2.855,3.029,1.61,106.8,37.6,37.9,1018.44,-33.65,1.72,1.79,30.2,44.2,39.1,0,no_anomaly,0.0,0,0,0,0,23.0224294,72.5713625,25.8,0.0
2024-08-07T11:35:12.200Z,MISSION_0017,122,1,orbit_base,SITE_AMD_008,23.0224305,72.5713604,26.1,326.6,6.016,0.062,8.91,-2.8726,-0.9589,326.6012,-0.95743,0.02641,0.00081,0.28745,0.0736,-0.0021,-9.7623,0.213,-0.404,0.1099,0.1945,3,17,0.71,0.91,0.37,24.526,24.51,87.4,45.6,19221.0,7439,7438,7467,7333,57.1,65.3,59.6,60.8,2.755,2.757,2.824,2.873,2.53,104.0,37.5,37.9,1018.66,-33.49,-0.55,1.78,37.1,49.8,40.9,0,no_anomaly,0.0,0,0,0,0,23.0224305,72.5713604,26.1,0.0
2024-08-07T11:35:12.300Z,MISSION_0017,123,1,orbit_base,SITE_AMD_008,23.0224317,72.5713583,26.4,329.58,5.999,0.056,8.91,-0.5151,-4.8213,329.5766,-0.96405,0.01537,0.03941,0.26233,0.0306,-0.1128,-9.8131,0.3631,0.0389,0.7885,0.0958,3,10,0.63,0.8,0.2,24.445,20.22,87.3,45.5,19204.0,7488,7397,7579,7706,57.5,62.0,65.5,64.0,2.88,2.685,2.66,2.677,3.33,111.8,37.7,37.2,1019.22,-29.37,-0.44,1.44,34.2,51.4,38.0,0,no_anomaly,0.0,0,0,0,0,23.0224317,72.5713583,26.4,0.0
2024-08-07T11:35:12.400Z,MISSION_0017,124,1,orbit_base,SITE_AMD_008,23.022433,72.5713563,26.7,332.11,5.523,0.114,8.91,2.4978,-2.493,332.1091,-0.97018,-0.01591,0.02636,0.24042,-0.0084,0.007,-9.7368,-0.6895,0.2089,0.2337,0.144,3,15,0.64,0.86,0.24,24.434,24.02,87.2,46.4,19187.0,7110,7596,7416,7306,64.7,61.3,64.5,64.5,2.694,2.657,2.903,2.593,1.42,108.1,37.7,38.4,1018.83,-33.25,0.15,1.57,30.5,46.8,37.9,0,no_anomaly,0.0,0,0,0,0,23.022433,72.5713563,26.7,0.0
2024-08-07T11:35:12.500Z,MISSION_0017,125,1,orbit_base,SITE_AMD_008,23.0224344,72.5713543,27.0,333.3,5.663,0.008,8.91,3.3014,-2.9766,333.299,-0.97242,-0.02202,0.03191,0.23001,0.1593,-0.0632,-9.7672,0.7675,-0.3329,-0.5664,0.1357,3,11,0.56,0.9,0.2,24.494,21.76,87.1,45.2,19170.0,7428,7423,7485,7441,59.2,66.7,62.8,64.5,2.853,2.65,2.947,2.795,1.78,101.8,37.6,37.5,1018.94,-29.35,0.08,1.93,31.4,41.7,40.1,0,no_anomaly,0.0,0,0,0,0,23.0224344,72.5713543,27.0,0.0
2024-08-07T11:35:12.600Z,MISSION_0017,126,1,orbit_base,SITE_AMD_008,23.0224358,72.5713523,27.3,335.41,5.797,0.028,8.91,1.5463,-0.7623,335.4093,-0.97697,-0.01177,0.00937,0.21284,-0.107,-0.1838,-9.8036,0.2953,0.2903,-0.0764,0.1329,3,17,0.73,1.09,0.42,24.475,21.95,87.1,46.0,19153.0,7668,7587,7256,7215,63.4,62.8,58.3,63.3,2.648,2.663,2.853,2.818,1.74,111.0,37.4,38.4,1018.7,-31.82,0.81,1.32,34.6,50.7,39.7,0,no_anomaly,0.0,0,0,0,0,23.0224358,72.5713523,27.3,0.0
2024-08-07T11:35:12.700Z,MISSION_0017,127,1,orbit_base,SITE_AMD_008,23.0224372,72.5713504,27.6,335.37,5.759,0.181,8.91,-0.3654,-2.2349,335.3674,-0.97678,0.00728,0.01837,0.21333,-0.0203,-0.0629,-9.8096,0.3523,-0.9498,-0.2587,0.1341,3,12,0.56,0.99,0.2,24.472,21.33,87.0,46.4,19136.0,7635,7686,7503,7400,66.3,62.7,64.5,61.7,2.804,3.085,2.805,2.787,2.3,110.3,37.3,38.5,1018.69,-29.68,-0.75,2.21,29.9,51.4,38.3,0,no_anomaly,0.0,0,0,0,0,23.0224372,72.5713504,27.6,0.0
2024-08-07T11:35:12.800Z,MISSION_0017,128,1,orbit_base,SITE_AMD_008,23.0224387,72.5713486,27.9,335.05,5.384,0.153,8.91,0.7537,-1.7522,335.0456,-0.97627,-0.00312,0.01635,0.21592,0.1381,0.0708,-9.7139,0.5883,0.1403,-0.012,0.0931,3,20,0.7,0.78,0.31,24.504,22.94,86.9,45.9,19119.0,7246,7359,7327,7682,65.2,63.3,66.1,63.2,2.872,2.702,2.724,2.927,2.04,99.7,37.5,38.0,1018.99,-27.96,-0.02,1.64,29.8,48.0,41.4,0,no_anomaly,0.0,0,0,0,0,23.0224387,72.5713486,27.9,0.0
