timestamp_utc,mission_id,frame_id,waypoint_id,inspection_phase,site_id,latitude_deg,longitude_deg,altitude_m,heading_deg,ground_speed_ms,vertical_speed_ms,distance_to_tower_m,roll_deg,pitch_deg,yaw_deg,quat_w,quat_x,quat_y,quat_z,accel_x_ms2,accel_y_ms2,accel_z_ms2,gyro_x_rads,gyro_y_rads,gyro_z_rads,vibration_level,gps_fix_type,gps_satellite_count,gps_hdop,gps_vdop,position_error_m,battery_voltage_v,battery_current_a,battery_remaining_pct,battery_temp_c,battery_capacity_mah,motor_fl_rpm,motor_fr_rpm,motor_rl_rpm,motor_rr_rpm,motor_fl_temp_c,motor_fr_temp_c,motor_rl_temp_c,motor_rr_temp_c,motor_fl_thrust_n,motor_fr_thrust_n,motor_rl_thrust_n,motor_rr_thrust_n,wind_speed_ms,wind_dir_deg,air_temp_c,humidity_pct,pressure_hpa,gimbal_pitch_deg,gimbal_roll_deg,zoom_factor,ir_temp_min_c,ir_temp_max_c,ir_temp_avg_c,anomaly_detected,anomaly_class,anomaly_confidence,anomaly_bbox_x,anomaly_bbox_y,anomaly_bbox_w,anomaly_bbox_h,anomaly_gps_lat,anomaly_gps_lon,anomaly_gps_alt_m,ir_temp_delta_c
2024-05-16T06:18:00.000Z,MISSION_0043,0,0,takeoff,SITE_CHE_004,13.0826984,80.2706994,1.5,24.65,0.137,0.022,0.19,1.6263,-0.4391,24.6498,0.97684,0.01468,-0.00071,0.21348,0.058,-0.0853,-9.8345,-0.0273,-1.1156,-0.1025,0.1151,3,14,0.65,0.85,0.32,24.751,19.14,98.9,47.4,21762.0,8745,8822,8855,8661,62.1,66.0,65.1,63.7,3.004,2.761,2.774,2.875,0.0,35.4,39.2,82.1,1018.78,-30.54,-0.8,1.32,31.1,44.2,40.5,0,no_anomaly,0.0,0,0,0,0,13.0826984,80.2706994,1.5,0.0
2024-05-16T06:18:00.100Z,MISSION_0043,1,0,takeoff,SITE_CHE_004,13.0826991,80.2706968,3.0,25.37,0.0,0.19,0.37,-2.9962,-1.095,25.3687,0.97527,-0.02341,-0.01506,0.21925,-0.0511,0.0679,-9.8303,0.5913,0.108,-0.3601,0.0518,3,14,0.6,0.9,0.2,24.772,14.0,98.9,47.3,21748.0,8709,8598,8782,9030,63.7,65.5,63.3,67.8,2.808,2.836,2.632,2.735,0.0,46.4,39.4,82.6,1018.74,-26.01,-1.39,1.39,33.6,46.4,39.3,0,no_anomaly,0.0,0,0,0,0,13.0826991,80.2706968,3.0,0.0
2024-05-16T06:18:00.200Z,MISSION_0043,2,0,takeoff,SITE_CHE_004,13.0826935,80.2706954,4.5,23.96,0.0,0.079,0.89,0.5238,-2.0175,23.9625,0.97804,0.00812,-0.01627,0.20764,0.0188,-0.0023,-9.7425,0.1479,-0.5799,-0.1316,0.1192,3,20,0.61,0.92,0.27,24.744,17.96,98.8,46.8,21734.0,8738,8789,8837,9091,62.0,67.0,62.7,60.6,2.708,2.687,2.82,2.836,0.03,39.9,38.9,82.6,1018.64,-32.1,-0.25,1.32,32.1,46.2,37.6,0,no_anomaly,0.0,0,0,0,0,13.0826935,80.2706954,4.5,0.0
2024-05-16T06:18:00.300Z,MISSION_0043,3,0,takeoff,SITE_CHE_004,13.0826946,80.2706962,5.0,26.26,0.0,0.061,0.74,-0.4124,-2.881,26.2584,0.97357,0.00221,-0.0253,0.22699,-0.0348,0.0124,-9.7492,-0.4601,0.2423,0.4208,0.1558,3,19,0.58,0.9,0.2,24.784,17.41,98.7,47.7,21720.0,8679,8596,8788,8661,66.7,61.6,63.6,62.3,2.782,2.85,2.836,2.966,0.79,29.1,39.1,83.3,1018.51,-30.25,-0.02,1.36,34.4,50.3,38.7,0,no_anomaly,0.0,0,0,0,0,13.0826946,80.2706962,5.0,0.0
2024-05-16T06:18:00.400Z,MISSION_0043,4,0,takeoff,SITE_CHE_004,13.0826942,80.2707006,5.0,23.3,0.0,0.094,0.65,0.5959,-4.1045,23.2994,0.97872,0.01232,-0.03402,0.20198,-0.0264,0.0291,-9.8632,0.046,0.6393,-0.356,0.0399,3,20,0.54,1.17,0.25,24.803,18.82,98.7,47.5,21706.0,8673,8884,8742,8499,61.7,65.5,63.8,63.7,2.997,2.864,2.929,2.874,0.24,32.0,38.8,82.2,1018.45,-28.61,-0.28,1.53,33.9,45.9,39.6,0,no_anomaly,0.0,0,0,0,0,13.0826942,80.2707006,5.0,0.0
2024-05-16T06:18:00.500Z,MISSION_0043,5,0,takeoff,SITE_CHE_004,13.0826966,80.2706997,5.0,22.44,0.0,0.097,0.38,3.6371,-0.4935,22.4374,0.98036,0.03196,0.00195,0.19459,-0.0696,0.0442,-9.7959,-1.1471,1.5162,-0.1622,0.1047,3,11,0.54,1.08,0.25,24.804,18.05,98.6,47.0,21692.0,8932,8690,8494,8778,61.1,64.3,64.6,61.8,2.814,2.928,2.873,2.717,0.0,33.2,38.8,81.3,1018.45,-33.94,2.08,1.42,36.0,45.1,41.3,0,no_anomaly,0.0,0,0,0,0,13.0826966,80.2706997,5.0,0.0
2024-05-16T06:18:00.600Z,MISSION_0043,6,0,takeoff,SITE_CHE_004,13.0826998,80.2706971,5.0,18.62,0.0,0.058,0.32,1.3152,-1.8141,18.6173,0.98661,0.01389,-0.01376,0.1619,0.0196,0.0523,-9.8141,0.4408,0.0469,0.1653,0.161,3,20,0.6,1.14,0.21,24.763,20.49,98.5,48.3,21678.0,8848,8609,8719,8806,68.3,64.8,61.8,64.0,2.928,2.93,2.761,2.697,0.06,30.7,39.0,81.8,1018.7,-26.9,0.02,1.11,30.5,50.5,40.6,0,no_anomaly,0.0,0,0,0,0,13.0826998,80.2706971,5.0,0.0
2024-05-16T06:18:00.700Z,MISSION_0043,7,0,takeoff,SITE_CHE_004,13.0826995,80.2706999,5.0,17.93,0.212,0.099,0.05,1.8629,-1.897,17.934,0.98747,0.01864,-0.01382,0.15609,0.0215,0.0237,-9.7322,1.0553,-0.3267,-0.3039,0.1521,3,17,0.76,0.88,0.37,24.726,14.15,98.5,47.2,21665.0,8724,8442,8759,8500,61.8,65.7,67.2,63.9,2.848,2.789,2.833,2.874,0.0,35.6,39.5,82.8,1018.62,-34.69,0.08,1.11,34.6,50.1,40.2,0,no_anomaly,0.0,0,0,0,0,13.0826995,80.2706999,5.0,0.0
2024-05-16T06:18:00.800Z,MISSION_0043,8,0,takeoff,SITE_CHE_004,13.0826982,80.2707008,5.0,17.02,0.491,0.083,0.22,2.2852,-1.059,17.0226,0.98872,0.02109,-0.00619,0.14815,-0.0452,0.0382,-9.8084,-0.4596,1.3174,-0.0327,0.1376,3,10,0.71,0.88,0.32,24.802,18.21,98.4,47.0,21651.0,8683,8776,8663,8683,62.8,63.3,67.0,62.1,2.789,2.784,2.714,2.716,0.21,24.2,38.9,81.9,1018.57,-27.85,0.02,1.5,38.7,51.0,42.8,0,no_anomaly,0.0,0,0,0,0,13.0826982,80.2707008,5.0,0.0
2024-05-16T06:18:00.900Z,MISSION_0043,9,0,takeoff,SITE_CHE_004,13.0826954,80.2707009,5.0,17.22,0.191,0.033,0.52,0.0902,-1.9647,17.2194,0.98858,0.00334,-0.01683,0.14969,0.0363,-0.0658,-9.8392,0.0893,-0.636,-0.1114,0.1102,3,15,0.85,1.05,0.31,24.76,17.1,98.3,46.7,21637.0,8780,8729,8947,8707,64.6,62.1,63.2,65.1,2.624,2.861,2.801,2.574,0.27,33.4,38.9,82.1,1018.39,-26.35,0.66,1.3,35.0,52.8,41.7,0,no_anomaly,0.0,0,0,0,0,13.0826954,80.2707009,5.0,0.0
2024-05-16T06:18:01.000Z,MISSION_0043,10,0,takeoff,SITE_CHE_004,13.0826901,80.2706946,5.0,17.21,0.44,0.098,1.25,2.0212,-3.7339,17.2081,0.98798,0.0223,-0.02957,0.15007,0.0311,0.0303,-9.8252,-0.0609,-0.054,0.2694,0.1165,3,19,0.68,0.78,0.21,24.725,14.95,98.3,48.1,21623.0,8656,8673,8793,8786,63.1,63.3,64.5,62.3,2.806,3.026,2.889,3.072,0.0,29.6,39.3,81.8,1018.44,-29.22,0.88,2.29,31.1,52.7,41.6,0,no_anomaly,0.0,0,0,0,0,13.0826901,80.2706946,5.0,0.0
2024-05-16T06:18:01.100Z,MISSION_0043,11,0,takeoff,SITE_CHE_004,13.082686,80.2706914,5.0,17.37,0.391,0.116,1.83,0.3109,-2.7194,17.3748,0.98824,0.00627,-0.02305,0.15106,-0.0355,-0.0183,-9.8311,-0.4362,-0.4445,-0.5486,0.1391,3,19,0.8,0.85,0.21,24.775,18.63,98.2,46.5,21609.0,8820,8581,9007,8857,63.2,64.2,61.8,62.4,2.857,2.702,2.402,2.681,0.05,33.9,39.3,81.2,1018.89,-29.8,-2.29,1.33,35.9,50.4,42.9,0,no_anomaly,0.0,0,0,0,0,13.082686,80.2706914,5.0,0.0
2024-05-16T06:18:01.200Z,MISSION_0043,12,0,takeoff,SITE_CHE_004,13.0826873,80.2706945,5.0,19.78,0.453,0.183,1.54,-2.6265,-3.5256,19.778,0.98454,-0.01729,-0.03423,0.17092,-0.0161,-0.0025,-9.8272,0.0373,-1.0302,-0.2279,0.0809,3,15,0.7,0.76,0.32,24.799,16.72,98.2,45.9,21595.0,8457,8878,8769,8903,63.4,66.3,65.0,62.2,2.786,2.825,2.738,2.511,0.06,30.3,39.1,81.5,1018.5,-32.94,2.91,1.4,35.9,45.8,40.6,0,no_anomaly,0.0,0,0,0,0,13.0826873,80.2706945,5.0,0.0
2024-05-16T06:18:01.300Z,MISSION_0043,13,0,takeoff,SITE_CHE_004,13.0826862,80.2706923,5.0,20.5,0.63,0.127,1.76,3.2146,-0.5547,20.495,0.98363,0.02846,0.00023,0.17796,-0.0399,-0.1041,-9.8217,0.6683,-0.1242,0.2402,0.0505,3,13,0.5,0.96,0.2,24.768,21.13,98.1,47.4,21581.0,8837,8727,8609,8824,63.0,61.0,63.8,65.7,2.765,2.688,2.91,2.763,0.11,34.9,39.1,81.8,1018.8,-27.21,1.0,1.01,32.5,51.5,45.2,0,no_anomaly,0.0,0,0,0,0,13.0826862,80.2706923,5.0,0.0
2024-05-16T06:18:01.400Z,MISSION_0043,14,0,takeoff,SITE_CHE_004,13.0826848,80.2706946,5.0,20.93,0.657,0.104,1.8,3.3472,-1.6132,20.9267,0.98278,0.03127,-0.00853,0.18192,0.0039,-0.0232,-9.8352,0.3169,0.7532,-0.025,0.1101,3,14,0.51,1.06,0.28,24.847,18.34,98.0,45.6,21567.0,8971,8713,9078,8791,64.9,63.4,60.8,65.1,2.979,2.817,2.963,2.783,0.62,29.6,38.9,82.5,1018.77,-31.62,-1.68,1.43,33.8,47.9,42.4,0,no_anomaly,0.0,0,0,0,0,13.0826848,80.2706946,5.0,0.0
2024-05-16T06:18:01.500Z,MISSION_0043,15,0,takeoff,SITE_CHE_004,13.0826852,80.2706994,5.0,22.65,0.431,0.086,1.65,0.1557,-1.2388,22.6534,0.98046,0.00346,-0.01033,0.19641,0.0581,0.0177,-9.7833,-0.497,-0.3659,-0.1801,0.0696,3,18,0.57,1.08,0.28,24.778,18.48,98.0,47.0,21553.0,8832,8966,8878,8525,66.2,65.3,65.8,65.0,3.0,3.125,2.79,2.865,0.16,33.3,39.1,82.5,1018.36,-27.31,0.3,2.15,37.1,51.5,42.3,0,no_anomaly,0.0,0,0,0,0,13.0826852,80.2706994,5.0,0.0
2024-05-16T06:18:01.600Z,MISSION_0043,16,0,takeoff,SITE_CHE_004,13.0826873,80.270697,5.0,23.31,0.144,0.132,1.45,0.0938,-2.6599,23.3107,0.97911,0.00549,-0.02257,0.20199,-0.068,0.07,-9.8325,-0.1692,-0.0815,0.0943,0.1214,3,12,0.73,0.94,0.3,24.769,19.29,97.9,46.9,21539.0,8441,8976,8757,8715,63.8,64.2,65.3,64.7,2.782,2.623,2.855,2.525,0.43,39.7,38.9,81.6,1018.45,-35.03,-0.99,1.87,35.3,53.9,40.2,0,no_anomaly,0.0,0,0,0,0,13.0826873,80.270697,5.0,0.0
2024-05-16T06:18:01.700Z,MISSION_0043,17,0,takeoff,SITE_CHE_004,13.0826886,80.2706961,5.0,22.8,0.0,0.051,1.34,1.099,-2.745,22.7991,0.9799,0.01413,-0.02158,0.19781,-0.0884,-0.0315,-9.8076,0.439,-0.7541,-0.0496,0.1342,3,18,0.66,0.82,0.28,24.713,20.5,97.8,47.8,21525.0,8705,8635,8724,8691,66.0,65.1,64.3,68.1,2.892,2.683,2.86,2.613,0.5,32.6,39.2,82.0,1018.17,-30.61,-1.54,1.53,36.7,45.4,43.5,0,no_anomaly,0.0,0,0,0,0,13.0826886,80.2706961,5.0,0.0
2024-05-16T06:18:01.800Z,MISSION_0043,18,0,takeoff,SITE_CHE_004,13.0826885,80.270694,5.0,22.95,0.0,0.15,1.45,-2.2715,-2.2704,22.9476,0.97971,-0.01548,-0.02335,0.19846,-0.0855,0.0965,-9.7841,0.1553,0.4527,0.1725,0.0786,3,15,0.67,0.83,0.22,24.757,18.07,97.8,47.1,21511.0,8557,8688,8907,8769,62.5,60.3,61.8,66.2,2.988,2.954,2.656,2.944,0.46,35.4,39.1,82.1,1018.37,-30.35,-1.57,1.63,36.6,52.1,43.8,0,no_anomaly,0.0,0,0,0,0,13.0826885,80.270694,5.0,0.0
2024-05-16T06:18:01.900Z,MISSION_0043,19,0,takeoff,SITE_CHE_004,13.0826864,80.2706932,5.0,22.33,0.0,0.134,1.69,-2.0017,-1.0854,22.3273,0.98092,-0.0153,-0.01267,0.19341,-0.0108,0.0349,-9.7499,-0.8349,0.2653,0.3029,0.1269,3,19,0.73,0.89,0.34,24.76,23.0,97.7,47.4,21497.0,8627,9045,8807,8650,65.3,65.9,64.3,63.1,2.813,3.17,2.645,2.935,0.0,30.6,38.8,83.0,1018.37,-32.19,-0.86,1.38,35.8,46.7,38.7,0,no_anomaly,0.0,0,0,0,0,13.0826864,80.2706932,5.0,0.0
2024-05-16T06:18:02.000Z,MISSION_0043,20,0,takeoff,SITE_CHE_004,13.082684,80.2706931,5.0,23.46,0.0,0.039,1.94,2.1612,-0.3093,23.4611,0.97893,0.01901,0.00119,0.20332,-0.0063,0.083,-9.8011,0.426,0.9465,0.4159,0.0629,3,18,0.87,1.2,0.35,24.737,19.14,97.7,46.5,21484.0,8777,8870,8604,8673,66.8,62.5,64.9,63.6,2.786,2.61,2.708,3.068,0.0,49.9,39.2,82.5,1018.51,-34.73,0.59,1.51,36.5,56.8,45.1,0,no_anomaly,0.0,0,0,0,0,13.082684,80.2706931,5.0,0.0
2024-05-16T06:18:02.100Z,MISSION_0043,21,0,takeoff,SITE_CHE_004,13.0826833,80.2706874,5.0,23.37,0.0,0.205,2.33,1.4898,-1.223,23.3698,0.97911,0.01489,-0.00782,0.20264,-0.0059,0.018,-9.8793,-0.1206,0.1485,0.3535,0.1506,3,16,0.61,0.81,0.2,24.722,27.11,97.6,46.5,21470.0,8632,8797,8609,8480,63.7,62.8,66.9,61.9,2.975,2.662,2.913,3.02,0.42,31.1,39.3,81.3,1018.45,-27.58,1.97,1.35,35.9,48.0,43.8,0,no_anomaly,0.0,0,0,0,0,13.0826833,80.2706874,5.0,0.0
2024-05-16T06:18:02.200Z,MISSION_0043,22,0,takeoff,SITE_CHE_004,13.0826836,80.270688,5.0,25.7,0.0,0.096,2.26,-1.4996,-0.5629,25.6973,0.97488,-0.01167,-0.0077,0.22229,0.0972,-0.0122,-9.7669,0.6062,-0.0502,-0.8228,0.1224,3,14,0.53,0.61,0.31,24.749,22.22,97.5,46.4,21456.0,8762,8751,8778,8889,61.1,65.1,68.2,62.0,2.616,2.714,2.872,2.827,0.0,34.0,39.3,82.2,1018.73,-28.95,-0.34,1.46,31.5,52.8,44.1,0,no_anomaly,0.0,0,0,0,0,13.0826836,80.270688,5.0,0.0
2024-05-16T06:18:02.300Z,MISSION_0043,23,0,takeoff,SITE_CHE_004,13.0826813,80.2706853,5.0,25.22,0.178,0.018,2.65,0.5121,-1.8923,25.2152,0.97573,0.00796,-0.01514,0.21831,0.0165,-0.0594,-9.8899,-0.4939,-0.5515,0.0305,0.1695,3,20,0.69,1.04,0.32,24.769,23.06,97.5,48.3,21442.0,8670,8828,8717,8879,64.5,63.3,67.1,62.1,3.007,2.664,2.591,2.914,0.19,39.8,38.8,82.6,1018.51,-32.69,-0.05,1.34,37.9,53.5,45.3,0,no_anomaly,0.0,0,0,0,0,13.0826813,80.2706853,5.0,0.0
2024-05-16T06:18:02.400Z,MISSION_0043,24,0,takeoff,SITE_CHE_004,13.0826884,80.2706811,5.0,25.64,0.0,0.165,2.46,-1.1174,-4.2308,25.644,0.97443,-0.00131,-0.03815,0.22141,0.006,0.0222,-9.8174,-0.4381,-0.524,-0.1271,0.1698,3,14,0.73,0.76,0.27,24.751,13.82,97.4,47.9,21428.0,8812,8736,8694,8995,62.6,68.1,63.3,63.4,2.858,2.833,2.95,3.032,0.53,33.9,39.0,82.2,1018.23,-36.35,-0.73,1.36,36.3,52.7,40.9,0,no_anomaly,0.0,0,0,0,0,13.0826884,80.2706811,5.0,0.0
2024-05-16T06:18:02.500Z,MISSION_0043,25,0,takeoff,SITE_CHE_004,13.0826897,80.2706787,5.0,26.73,0.0,0.107,2.63,-3.4628,-2.1577,26.7268,0.97244,-0.02504,-0.02529,0.23043,-0.0272,0.0545,-9.8223,-0.2209,0.021,-0.2174,0.0768,3,13,0.5,0.64,0.28,24.79,16.76,97.3,47.4,21414.0,8847,8891,8746,9113,61.6,65.6,62.4,63.6,2.967,2.917,2.694,2.547,0.0,32.0,38.9,81.1,1018.22,-31.69,-0.34,1.14,33.0,45.7,40.9,0,no_anomaly,0.0,0,0,0,0,13.0826897,80.2706787,5.0,0.0
2024-05-16T06:18:02.600Z,MISSION_0043,26,0,takeoff,SITE_CHE_004,13.0826877,80.2706719,5.0,30.14,0.0,0.003,3.42,0.1399,-1.1059,30.1406,0.96556,0.00369,-0.009,0.26,0.1098,-0.0454,-9.808,-0.6298,-0.9343,-0.2304,0.1379,3,20,0.51,0.65,0.2,24.767,22.37,97.3,47.6,21400.0,8981,8813,8523,8677,67.1,66.1,62.7,63.1,3.048,2.739,2.599,2.564,0.24,33.5,39.0,82.1,1018.59,-30.47,-1.14,1.35,32.4,51.2,43.4,0,no_anomaly,0.0,0,0,0,0,13.0826877,80.2706719,5.0,0.0
2024-05-16T06:18:02.700Z,MISSION_0043,27,0,takeoff,SITE_CHE_004,13.0826858,80.2706721,5.0,28.0,0.0,0.06,3.48,2.6863,0.4076,28.0004,0.97004,0.02188,0.00912,0.24178,-0.0219,0.0397,-9.7835,-0.6158,0.3115,-0.0376,0.0823,3,16,0.65,0.92,0.2,24.766,15.32,97.2,47.3,21386.0,9010,8733,8824,8845,62.8,60.5,63.2,64.4,2.77,2.895,2.707,2.79,0.06,34.6,39.1,82.7,1018.73,-33.46,1.04,1.5,33.5,49.1,39.7,0,no_anomaly,0.0,0,0,0,0,13.0826858,80.2706721,5.0,0.0
2024-05-16T06:18:02.800Z,MISSION_0043,28,0,takeoff,SITE_CHE_004,13.0826857,80.2706709,5.0,26.67,0.0,0.111,3.61,-0.6374,-2.6815,26.6707,0.97279,-1e-05,-0.02405,0.23046,-0.0519,0.0559,-9.7662,-0.11,0.7132,0.1707,0.0739,3,11,0.7,0.6,0.39,24.76,17.57,97.1,47.1,21372.0,8826,8629,8696,8751,66.4,69.0,62.5,62.9,2.701,2.733,2.555,2.728,0.34,36.2,39.3,81.8,1018.54,-31.86,0.74,1.84,33.7,47.5,39.8,0,no_anomaly,0.0,0,0,0,0,13.0826857,80.2706709,5.0,0.0
2024-05-16T06:18:02.900Z,MISSION_0043,29,0,takeoff,SITE_CHE_004,13.0826845,80.2706674,5.0,28.11,0.0,0.074,4.02,-0.0299,-0.901,28.1109,0.97003,0.00166,-0.00769,0.24285,-0.0053,-0.0277,-9.8181,-0.9383,0.8215,0.5595,0.162,3,16,0.75,1.1,0.44,24.73,15.34,97.1,46.5,21358.0,8810,8756,8617,8890,63.8,67.4,63.8,63.7,2.826,2.973,2.69,2.729,0.0,23.2,39.5,82.8,1018.52,-30.06,0.52,1.96,35.6,50.2,41.0,0,no_anomaly,0.0,0,0,0,0,13.0826845,80.2706674,5.0,0.0
2024-05-16T06:18:03.000Z,MISSION_0043,30,0,takeoff,SITE_CHE_004,13.0826804,80.2706676,5.0,27.26,0.0,0.153,4.22,-0.8946,-3.3661,27.2624,0.97144,-0.00066,-0.03038,0.23534,0.0024,0.1057,-9.7552,-0.1819,-0.4055,0.3964,0.1359,3,13,0.8,0.89,0.38,24.722,18.39,97.0,46.5,21344.0,8631,8676,8688,8983,65.3,63.0,63.6,67.2,2.774,3.013,2.686,2.874,0.39,35.8,39.2,82.5,1018.76,-26.87,-0.05,1.36,32.5,52.3,40.6,0,no_anomaly,0.0,0,0,0,0,13.0826804,80.2706676,5.0,0.0
2024-05-16T06:18:03.100Z,MISSION_0043,31,0,takeoff,SITE_CHE_004,13.0826814,80.2706671,5.0,27.16,0.375,0.153,4.21,-4.5111,-2.2995,27.1624,0.97127,-0.03354,-0.02873,0.23383,-0.072,-0.0581,-9.7142,0.6114,0.2498,0.1992,0.162,3,17,0.65,0.86,0.2,24.672,24.09,97.0,47.3,21330.0,8566,8704,8723,9017,61.5,61.8,64.6,66.1,2.432,2.673,2.722,2.783,0.46,37.6,39.2,81.6,1018.32,-27.96,1.25,1.16,31.9,53.0,41.6,0,no_anomaly,0.0,0,0,0,0,13.0826814,80.2706671,5.0,0.0
2024-05-16T06:18:03.200Z,MISSION_0043,32,0,takeoff,SITE_CHE_004,13.0826797,80.2706657,5.0,26.26,0.513,0.01,4.44,0.7661,-2.8371,26.2646,0.97349,0.01213,-0.02259,0.22729,-0.0266,-0.0313,-9.7471,1.3036,0.3802,-0.8103,0.0933,3,11,0.98,0.82,0.34,24.722,19.54,96.9,46.4,21317.0,8902,8896,8948,8783,64.8,65.0,64.8,62.7,2.767,2.48,2.956,2.799,0.0,29.7,39.3,81.7,1018.3,-26.37,0.21,1.12,35.8,46.3,40.8,0,no_anomaly,0.0,0,0,0,0,13.0826797,80.2706657,5.0,0.0
2024-05-16T06:18:03.300Z,MISSION_0043,33,0,takeoff,SITE_CHE_004,13.0826822,80.2706679,5.0,25.55,0.744,0.066,4.09,-1.694,-2.3597,25.5527,0.97499,-0.00986,-0.02335,0.22078,-0.0793,-0.0304,-9.8851,0.042,-0.46,0.6624,0.062,3,20,0.79,0.7,0.39,24.683,16.62,96.8,47.0,21303.0,8733,8665,8788,8902,67.2,67.9,65.2,66.5,2.7,2.922,3.132,2.995,0.01,35.3,39.4,81.7,1018.51,-30.69,-2.25,1.57,34.7,52.4,41.5,0,no_anomaly,0.0,0,0,0,0,13.0826822,80.2706679,5.0,0.0
2024-05-16T06:18:03.400Z,MISSION_0043,34,0,takeoff,SITE_CHE_004,13.0826837,80.2706664,5.0,22.65,1.24,0.146,4.15,1.5,0.1943,22.6509,0.98045,0.0125,0.00423,0.19634,-0.0054,0.0568,-9.8048,-0.3926,0.2105,-0.2203,0.0694,3,16,0.77,0.68,0.33,24.685,21.72,96.8,47.4,21289.0,8678,8779,9014,8588,64.0,67.1,64.4,68.8,2.834,2.868,2.805,2.75,0.0,27.2,39.0,82.5,1018.72,-27.57,-0.49,1.95,36.4,47.4,40.7,0,no_anomaly,0.0,0,0,0,0,13.0826837,80.2706664,5.0,0.0
2024-05-16T06:18:03.500Z,MISSION_0043,35,0,takeoff,SITE_CHE_004,13.0826857,80.2706688,5.0,19.3,0.859,0.131,3.82,-2.3371,-0.1467,19.2955,0.98566,-0.01989,-0.00468,0.16753,0.0697,0.0479,-9.8421,-0.5114,0.4887,-0.1791,0.1168,3,20,0.84,0.6,0.61,24.766,17.67,96.7,47.0,21275.0,8557,8750,8614,8930,66.2,62.2,64.1,65.4,2.935,2.536,2.639,2.905,0.0,36.8,39.0,81.7,1018.64,-35.2,-1.16,1.43,36.0,47.9,41.7,0,no_anomaly,0.0,0,0,0,0,13.0826857,80.2706688,5.0,0.0
2024-05-16T06:18:03.600Z,MISSION_0043,36,0,takeoff,SITE_CHE_004,13.0826877,80.2706724,5.0,19.76,0.673,0.09,3.37,-0.5774,-1.5388,19.7608,0.98508,-0.00266,-0.01409,0.17151,-0.036,0.0555,-9.8549,1.093,0.437,0.1856,0.1188,3,19,0.77,0.9,0.25,24.763,14.79,96.6,48.1,21261.0,8970,8733,8997,8736,61.9,64.8,68.1,67.8,2.651,2.677,2.595,2.534,0.4,35.0,39.5,82.2,1018.33,-35.67,-1.05,1.58,34.9,49.1,42.3,0,no_anomaly,0.0,0,0,0,0,13.0826877,80.2706724,5.0,0.0
2024-05-16T06:18:03.700Z,MISSION_0043,37,0,takeoff,SITE_CHE_004,13.0826872,80.2706792,5.0,20.05,0.814,0.128,2.71,-0.0806,-3.0739,20.0545,0.98437,0.00398,-0.02653,0.17404,-0.0947,0.0492,-9.8141,0.1456,1.0875,0.3557,0.0196,3,16,0.66,0.94,0.2,24.696,15.78,96.6,47.0,21247.0,8548,8880,8753,8692,63.7,60.8,61.5,62.7,2.96,2.672,2.599,2.944,0.0,34.5,39.1,81.7,1018.69,-27.38,0.17,2.01,34.1,53.4,42.1,0,no_anomaly,0.0,0,0,0,0,13.0826872,80.2706792,5.0,0.0
2024-05-16T06:18:03.800Z,MISSION_0043,38,0,takeoff,SITE_CHE_004,13.0826898,80.2706817,5.0,22.1,0.997,0.125,2.34,-0.7234,-2.2605,22.1014,0.98127,-0.00241,-0.02057,0.19151,0.0179,0.0194,-9.9024,-0.2578,-1.2671,0.3296,0.1383,3,19,0.68,0.88,0.22,24.749,21.31,96.5,48.0,21233.0,9106,8967,8893,8983,59.8,65.1,64.2,65.1,2.806,2.738,2.829,2.699,0.0,30.9,39.3,82.2,1018.19,-27.6,0.56,1.26,37.5,46.7,40.8,0,no_anomaly,0.0,0,0,0,0,13.0826898,80.2706817,5.0,0.0
2024-05-16T06:18:03.900Z,MISSION_0043,39,0,takeoff,SITE_CHE_004,13.0826902,80.2706792,5.0,23.37,0.965,0.095,2.56,-0.2248,-4.2352,23.3743,0.97861,0.00557,-0.03658,0.20236,0.0937,-0.0762,-9.856,-0.3787,0.4485,0.2375,0.1871,3,12,0.57,0.9,0.2,24.796,17.26,96.5,46.9,21219.0,8888,8835,8791,8889,65.5,63.4,64.7,63.6,3.067,2.617,2.866,2.876,0.09,32.6,39.4,81.4,1018.28,-30.5,-1.29,1.46,32.6,47.3,39.9,0,no_anomaly,0.0,0,0,0,0,13.0826902,80.2706792,5.0,0.0
2024-05-16T06:18:04.000Z,MISSION_0043,40,0,takeoff,SITE_CHE_004,13.0826897,80.2706795,5.0,22.45,0.653,0.13,2.55,-3.5569,-4.4078,22.4493,0.97991,-0.02294,-0.04374,0.19325,0.0024,-0.0777,-9.8212,-0.1931,0.0407,-0.0152,0.0146,3,12,0.79,0.81,0.37,24.663,19.93,96.4,47.0,21205.0,9003,8734,8573,9010,66.2,62.6,61.3,63.1,2.674,2.91,2.767,2.663,0.16,40.6,39.2,82.2,1018.6,-27.07,-1.13,1.46,33.7,43.5,37.4,0,no_anomaly,0.0,0,0,0,0,13.0826897,80.2706795,5.0,0.0
2024-05-16T06:18:04.100Z,MISSION_0043,41,0,takeoff,SITE_CHE_004,13.0826878,80.2706793,5.0,22.42,0.786,0.031,2.67,-0.1786,-3.3478,22.424,0.9805,0.00415,-0.02896,0.19431,-0.0412,-0.049,-9.8532,0.2284,-0.7121,-0.312,0.1549,3,17,0.63,0.72,0.3,24.732,23.18,96.3,46.8,21191.0,9014,8952,8645,9112,64.7,64.3,62.1,64.7,2.77,2.799,2.909,2.924,0.0,42.0,39.3,82.5,1018.75,-28.21,-1.44,1.88,32.9,49.5,38.7,0,no_anomaly,0.0,0,0,0,0,13.0826878,80.2706793,5.0,0.0
2024-05-16T06:18:04.200Z,MISSION_0043,42,0,takeoff,SITE_CHE_004,13.0826923,80.2706827,5.0,24.89,1.364,0.036,2.11,-1.1448,-1.6429,24.8917,0.97638,-0.00667,-0.01615,0.21534,0.0226,0.035,-9.7817,-0.7518,-0.375,0.2065,0.2266,3,12,0.75,0.84,0.32,24.695,23.31,96.3,47.5,21177.0,8915,8855,8793,8751,63.8,63.9,63.7,63.3,2.849,2.795,2.554,2.527,0.05,26.6,39.1,81.9,1018.7,-24.38,0.9,1.4,34.2,47.3,44.5,0,no_anomaly,0.0,0,0,0,0,13.0826923,80.2706827,5.0,0.0
2024-05-16T06:18:04.300Z,MISSION_0043,43,0,takeoff,SITE_CHE_004,13.0826924,80.2706836,5.0,25.16,1.282,0.101,2.01,-2.0711,-0.5281,25.1615,0.97584,-0.01664,-0.00843,0.2177,0.0262,0.0168,-9.797,-1.0843,0.4286,-0.2417,0.1166,3,13,0.76,0.73,0.2,24.702,15.5,96.2,47.5,21163.0,9182,8716,8850,8832,62.3,65.2,62.3,59.7,2.859,2.7,2.958,2.775,0.04,26.0,39.0,81.0,1018.64,-32.29,-1.38,1.06,33.8,53.4,44.4,0,no_anomaly,0.0,0,0,0,0,13.0826924,80.2706836,5.0,0.0
2024-05-16T06:18:04.400Z,MISSION_0043,44,0,takeoff,SITE_CHE_004,13.0826947,80.2706788,5.0,27.07,1.714,0.021,2.43,1.4229,-1.745,27.0726,0.97199,0.01563,-0.0119,0.2342,0.0017,0.1273,-9.8187,0.5439,-0.4172,-0.0664,0.0806,3,15,0.87,0.77,0.29,24.692,15.75,96.1,47.7,21150.0,8856,8641,8816,8967,65.9,63.3,62.3,65.1,2.714,3.044,2.989,2.889,0.31,29.2,38.7,82.7,1018.78,-29.21,-0.37,1.6,31.5,46.0,40.5,0,no_anomaly,0.0,0,0,0,0,13.0826947,80.2706788,5.0,0.0
2024-05-16T06:18:04.500Z,MISSION_0043,45,0,takeoff,SITE_CHE_004,13.0826979,80.2706738,5.0,29.92,1.837,0.078,2.93,1.7312,-1.0853,29.9217,0.96591,0.01704,-0.00525,0.25826,0.0176,-0.0693,-9.8667,-0.4527,0.9571,0.3413,0.0756,3,20,0.58,0.86,0.2,24.752,20.47,96.1,47.2,21136.0,8924,9081,8933,8977,65.6,67.4,66.3,64.2,2.869,2.689,2.797,2.893,0.0,34.7,39.0,82.2,1018.84,-31.96,0.04,1.42,34.9,51.8,42.3,0,no_anomaly,0.0,0,0,0,0,13.0826979,80.2706738,5.0,0.0
2024-05-16T06:18:04.600Z,MISSION_0043,46,0,takeoff,SITE_CHE_004,13.0827001,80.2706717,5.0,30.39,1.569,0.057,3.15,-0.2761,-4.1803,30.3928,0.96441,0.00724,-0.03583,0.26187,-0.04,-0.0309,-9.9106,0.2665,-0.2862,-0.3647,0.0541,3,16,0.81,0.73,0.32,24.623,19.63,96.0,47.7,21122.0,8768,8739,8634,8859,64.2,64.9,62.6,67.3,2.777,2.513,2.754,2.848,0.0,44.0,39.3,81.8,1018.48,-24.74,-1.23,1.32,37.0,53.1,41.0,0,no_anomaly,0.0,0,0,0,0,13.0827001,80.2706717,5.0,0.0
2024-05-16T06:18:04.700Z,MISSION_0043,47,0,takeoff,SITE_CHE_004,13.082701,80.2706762,5.0,31.41,1.847,0.098,2.65,1.6323,-2.1426,31.4127,0.96232,0.01877,-0.01414,0.27089,0.0228,-0.0488,-9.8466,-0.8441,-0.7518,0.5616,0.0697,3,20,0.67,0.85,0.22,24.782,17.38,95.9,47.3,21108.0,8928,8646,8746,8647,62.3,65.3,61.6,64.3,2.99,2.657,3.157,2.816,0.46,29.0,39.3,82.0,1018.34,-30.67,0.6,1.65,34.0,48.2,43.5,0,no_anomaly,0.0,0,0,0,0,13.082701,80.2706762,5.0,0.0
2024-05-16T06:18:04.800Z,MISSION_0043,48,0,takeoff,SITE_CHE_004,13.0826983,80.2706788,5.0,29.58,2.077,0.046,2.37,0.8555,-2.9424,29.5806,0.96647,0.01377,-0.02292,0.25538,0.057,0.1025,-9.8157,-0.426,0.5909,-0.0382,0.1123,3,16,0.69,0.76,0.41,24.671,15.23,95.9,47.8,21094.0,8797,8829,8759,8869,67.3,64.1,65.8,60.4,2.91,2.713,2.992,2.585,0.0,32.8,38.8,82.7,1018.75,-34.27,1.03,1.86,30.3,43.6,38.6,0,no_anomaly,0.0,0,0,0,0,13.0826983,80.2706788,5.0,0.0
2024-05-16T06:18:04.900Z,MISSION_0043,49,0,takeoff,SITE_CHE_004,13.0827028,80.2706727,5.0,29.41,2.716,0.02,3.05,1.0684,-3.0732,29.4068,0.9668,0.01582,-0.02357,0.25395,0.0692,-0.0306,-9.7693,0.1895,0.7908,-0.3169,0.0576,3,16,0.81,1.02,0.38,24.793,19.53,95.8,46.9,21080.0,8860,8775,8686,8974,62.2,66.0,61.8,61.8,2.826,2.765,2.872,2.827,0.0,37.3,38.9,82.2,1018.55,-29.21,1.16,1.03,34.4,54.5,40.4,0,no_anomaly,0.0,0,0,0,0,13.0827028,80.2706727,5.0,0.0
2024-05-16T06:18:05.000Z,MISSION_0043,50,0,takeoff,SITE_CHE_004,13.0827031,80.2706788,5.0,30.17,2.395,0.106,2.39,-0.5245,-4.4533,30.1654,0.96486,0.00569,-0.0387,0.25984,-0.0249,-0.0158,-9.7706,-0.5019,-0.7,-0.4102,0.09,3,20,0.67,0.8,0.28,24.735,18.4,95.8,47.1,21066.0,8841,8982,8898,8988,61.4,65.3,64.5,63.7,2.83,2.966,2.893,2.864,0.2,30.5,39.2,81.9,1018.58,-30.97,-1.46,1.35,33.7,44.6,39.5,0,no_anomaly,0.0,0,0,0,0,13.0827031,80.2706788,5.0,0.0
2024-05-16T06:18:05.100Z,MISSION_0043,51,0,takeoff,SITE_CHE_004,13.0827009,80.27068,5.0,29.64,2.798,0.094,2.22,-0.1644,-0.6546,29.6359,0.96673,7e-05,-0.00589,0.25574,-0.0008,0.0563,-9.7532,0.426,-0.4888,-0.2771,0.0814,3,18,0.66,1.17,0.29,24.728,15.49,95.7,47.6,21052.0,8752,8781,8892,8857,66.5,63.2,68.6,64.0,3.02,2.795,2.753,2.585,0.2,30.8,38.7,81.3,1018.36,-33.64,-2.01,1.5,30.8,45.3,41.4,0,no_anomaly,0.0,0,0,0,0,13.0827009,80.27068,5.0,0.0
2024-05-16T06:18:05.200Z,MISSION_0043,52,0,takeoff,SITE_CHE_004,13.0827052,80.2706791,5.0,32.17,2.998,0.118,2.4,-3.6314,-2.5539,32.174,0.96032,-0.02426,-0.03018,0.27621,-0.0854,0.0225,-9.7919,-0.6775,-0.0688,0.3458,0.0581,3,14,0.73,0.69,0.34,24.662,26.31,95.6,47.0,21038.0,8799,8813,8777,8741,63.2,60.1,63.0,65.3,2.872,2.907,2.798,2.713,0.4,33.2,39.0,81.5,1018.51,-30.4,-0.99,1.34,29.8,47.4,40.2,0,no_anomaly,0.0,0,0,0,0,13.0827052,80.2706791,5.0,0.0
2024-05-16T06:18:05.300Z,MISSION_0043,53,0,takeoff,SITE_CHE_004,13.0827075,80.2706775,5.0,31.83,2.95,0.155,2.64,-1.9549,-2.1217,31.8251,0.96146,-0.01133,-0.02248,0.27378,-0.046,0.0378,-9.834,0.2071,0.3106,0.3559,0.0875,3,11,0.67,0.83,0.24,24.68,22.62,95.6,46.7,21024.0,8814,8519,8770,8834,61.5,65.7,65.0,62.0,2.443,2.82,2.841,2.826,0.02,37.2,39.1,82.6,1018.63,-32.9,1.56,1.58,32.7,50.4,42.3,0,no_anomaly,0.0,0,0,0,0,13.0827075,80.2706775,5.0,0.0
2024-05-16T06:18:05.400Z,MISSION_0043,54,0,transit,SITE_CHE_004,13.0827087,80.270677,5.5,32.57,3.002,0.068,2.73,-1.8195,0.1365,32.565,0.95976,-0.01557,-0.00331,0.28036,-0.0487,0.0635,-9.7635,-0.0321,0.1015,0.2213,0.1161,3,15,0.6,0.84,0.25,24.598,25.18,95.5,47.5,21010.0,8639,8771,8794,8753,63.4,68.1,63.7,62.0,2.8,2.725,2.967,2.571,0.0,31.7,39.0,81.7,1018.89,-28.63,0.02,1.25,36.0,52.3,43.0,0,no_anomaly,0.0,0,0,0,0,13.0827087,80.270677,5.5,0.0
2024-05-16T06:18:05.500Z,MISSION_0043,55,0,transit,SITE_CHE_004,13.0827115,80.2706748,6.0,30.81,3.395,0.162,3.09,-0.3493,-1.2062,30.8148,0.96401,-0.00014,-0.01096,0.26563,0.0441,0.0061,-9.7473,-0.1323,0.5176,0.3608,0.1133,3,15,0.56,1.01,0.27,24.636,23.7,95.4,47.0,20996.0,8715,8856,8803,8790,67.6,63.7,68.7,62.3,2.807,2.79,3.053,2.787,0.19,33.8,39.2,82.8,1018.92,-30.37,2.16,1.36,33.8,45.7,41.6,0,no_anomaly,0.0,0,0,0,0,13.0827115,80.2706748,6.0,0.0
2024-05-16T06:18:05.600Z,MISSION_0043,56,0,transit,SITE_CHE_004,13.0827132,80.2706753,6.5,27.24,3.025,0.113,3.12,-0.8421,-3.9888,27.2395,0.97133,0.00106,-0.03555,0.23508,0.0299,-0.0062,-9.7768,-1.0293,-0.2364,-0.1869,0.1125,3,15,0.73,0.82,0.24,24.72,19.48,95.4,47.2,20983.0,8891,8672,8758,8977,62.2,64.0,66.6,62.9,3.129,2.797,2.695,2.94,0.43,32.7,39.1,81.2,1018.82,-26.44,0.87,1.71,33.6,47.3,40.4,0,no_anomaly,0.0,0,0,0,0,13.0827132,80.2706753,6.5,0.0
2024-05-16T06:18:05.700Z,MISSION_0043,57,0,transit,SITE_CHE_004,13.0827167,80.2706756,7.0,25.58,3.349,0.12,3.29,1.4788,-1.5103,25.5811,0.97498,0.0155,-0.00999,0.22152,-0.0545,-0.0478,-9.7079,-0.5894,0.4179,-0.4155,0.1738,3,13,0.78,0.97,0.28,24.653,18.31,95.3,47.1,20969.0,8673,8726,8596,8891,61.8,65.9,61.5,68.0,2.854,3.058,2.833,3.015,0.34,32.2,39.1,81.9,1018.41,-28.36,0.28,1.32,32.3,48.4,42.0,0,no_anomaly,0.0,0,0,0,0,13.0827167,80.2706756,7.0,0.0
2024-05-16T06:18:05.800Z,MISSION_0043,58,0,transit,SITE_CHE_004,13.0827164,80.2706713,7.5,27.92,3.352,-0.017,3.68,-0.7569,-0.646,27.9155,0.97045,-0.00505,-0.00706,0.24116,0.006,-0.0028,-9.8,-0.0382,0.0083,0.7543,0.038,3,13,0.75,1.0,0.2,24.65,22.55,95.2,47.7,20955.0,8593,8879,8471,8762,62.4,64.7,62.8,63.5,2.803,2.805,2.943,2.827,0.0,35.1,39.1,81.9,1018.68,-27.74,-0.51,1.72,34.6,51.0,44.8,0,no_anomaly,0.0,0,0,0,0,13.0827164,80.2706713,7.5,0.0
2024-05-16T06:18:05.900Z,MISSION_0043,59,0,transit,SITE_CHE_004,13.0827119,80.2706689,8.0,29.93,3.543,0.107,3.71,-0.2503,0.4708,29.9301,0.96607,-0.00317,0.0034,0.25824,-0.0451,0.0514,-9.8127,-1.1365,0.5559,0.0675,0.1221,3,16,0.7,0.98,0.36,24.655,18.74,95.2,47.7,20941.0,8851,8817,8571,8822,69.1,66.6,62.0,64.0,2.823,2.769,2.49,2.665,0.12,43.9,39.3,81.7,1018.69,-28.63,0.63,1.72,37.0,49.0,44.8,0,no_anomaly,0.0,0,0,0,0,13.0827119,80.2706689,8.0,0.0
2024-05-16T06:18:06.000Z,MISSION_0043,60,0,transit,SITE_CHE_004,13.0827139,80.2706706,8.5,27.01,3.535,0.137,3.62,2.8764,-2.51,27.0075,0.97169,0.02951,-0.01543,0.23391,0.008,-0.0534,-9.8901,0.2305,0.0122,0.4363,0.1513,3,17,0.7,1.11,0.29,24.658,22.69,95.1,46.3,20927.0,8525,8757,8640,9107,63.1,63.8,65.7,59.2,2.884,2.811,2.605,2.642,0.0,31.4,39.4,81.5,1018.51,-31.92,0.06,1.62,30.8,44.1,42.6,0,no_anomaly,0.0,0,0,0,0,13.0827139,80.2706706,8.5,0.0
2024-05-16T06:18:06.100Z,MISSION_0043,61,0,transit,SITE_CHE_004,13.0827072,80.2706745,9.0,25.44,3.282,0.098,2.95,1.513,-2.3986,25.4426,0.97509,0.01748,-0.01751,0.22041,0.1274,0.0326,-9.8035,-1.0984,0.0282,0.2197,0.0378,3,11,0.71,1.14,0.39,24.695,21.29,95.1,47.0,20913.0,8452,8723,8646,8811,63.4,63.1,63.6,61.8,2.498,2.849,2.972,2.707,0.01,29.4,39.1,82.2,1018.48,-33.89,0.66,1.59,31.4,48.1,40.3,0,no_anomaly,0.0,0,0,0,0,13.0827072,80.2706745,9.0,0.0
2024-05-16T06:18:06.200Z,MISSION_0043,62,0,transit,SITE_CHE_004,13.0827065,80.2706724,9.5,26.96,3.365,0.122,3.15,1.2676,-2.731,26.959,0.97206,0.01631,-0.02059,0.23327,-0.0738,-0.0258,-9.7504,-0.4609,0.7241,0.5855,0.1043,3,20,0.9,0.96,0.22,24.66,19.87,95.0,48.3,20899.0,8661,8946,8835,8435,63.0,62.7,63.7,67.9,2.851,2.693,2.604,2.72,0.0,35.7,39.2,82.6,1018.48,-27.31,1.2,1.48,36.3,52.0,40.4,0,no_anomaly,0.0,0,0,0,0,13.0827065,80.2706724,9.5,0.0
2024-05-16T06:18:06.300Z,MISSION_0043,63,0,transit,SITE_CHE_004,13.0827058,80.2706685,10.0,25.72,3.237,0.178,3.57,2.3132,-4.6347,25.7167,0.97375,0.02866,-0.03492,0.22311,-0.0643,-0.002,-9.8295,0.8786,0.176,-0.4141,0.1832,3,18,0.59,0.89,0.24,24.633,16.34,94.9,47.6,20885.0,9070,8595,8812,8847,64.4,64.0,65.2,64.8,2.68,2.881,2.769,2.744,0.0,20.1,39.0,83.0,1018.2,-27.9,-1.29,1.53,33.4,46.7,41.6,0,no_anomaly,0.0,0,0,0,0,13.0827058,80.2706685,10.0,0.0
2024-05-16T06:18:06.400Z,MISSION_0043,64,0,transit,SITE_CHE_004,13.082705,80.2706686,10.5,26.23,3.217,-0.005,3.54,2.7457,-0.5744,26.2272,0.9736,0.02447,0.00056,0.22693,-0.0784,0.0142,-9.8235,-0.8992,0.6555,-0.2945,0.0572,3,11,0.56,0.87,0.34,24.613,20.11,94.9,47.6,20871.0,8918,8880,8948,8757,65.0,61.5,65.4,63.5,2.862,2.755,2.747,2.743,0.9,38.2,39.3,82.6,1018.39,-25.98,-0.56,1.0,36.6,45.4,39.6,0,no_anomaly,0.0,0,0,0,0,13.082705,80.2706686,10.5,0.0
2024-05-16T06:18:06.500Z,MISSION_0043,65,0,transit,SITE_CHE_004,13.0827048,80.2706684,11.0,28.12,3.054,0.095,3.56,-0.5145,-1.3815,28.1193,0.96998,-0.00143,-0.01278,0.24286,-0.0947,0.0521,-9.8915,0.9267,-0.1448,-0.309,0.0283,3,12,0.63,0.78,0.25,24.705,19.56,94.8,47.2,20857.0,8795,8885,8871,8677,60.8,64.6,63.0,66.3,2.88,2.769,2.746,2.751,0.09,31.7,39.0,81.6,1018.4,-26.4,-0.43,1.96,32.1,44.8,42.3,0,no_anomaly,0.0,0,0,0,0,13.0827048,80.2706684,11.0,0.0
2024-05-16T06:18:06.600Z,MISSION_0043,66,0,transit,SITE_CHE_004,13.0827078,80.2706686,11.5,25.88,2.973,0.129,3.6,1.4406,1.155,25.8818,0.9745,0.00999,0.01264,0.22379,0.0098,-0.1331,-9.7744,-0.3021,-0.7129,0.1804,0.096,3,12,0.69,0.94,0.39,24.675,17.4,94.7,48.1,20843.0,8565,8847,8919,8783,61.1,64.5,66.1,63.8,2.829,2.656,2.983,2.587,0.66,32.5,39.4,82.5,1018.58,-23.3,-0.89,1.25,36.0,44.8,39.8,0,no_anomaly,0.0,0,0,0,0,13.0827078,80.2706686,11.5,0.0
2024-05-16T06:18:06.700Z,MISSION_0043,67,0,transit,SITE_CHE_004,13.0827078,80.2706703,12.0,24.99,3.288,0.121,3.42,-3.223,-0.7721,24.9908,0.97595,-0.026,-0.01266,0.21609,0.0437,0.0501,-9.8149,0.0586,0.2632,-0.2898,0.0421,3,18,0.81,0.92,0.33,24.664,21.49,94.7,47.6,20829.0,8827,8819,8742,8555,61.3,65.1,61.7,66.6,2.743,2.583,2.718,2.579,0.05,36.7,39.0,82.3,1018.35,-29.28,1.03,2.09,34.8,47.2,41.3,0,no_anomaly,0.0,0,0,0,0,13.0827078,80.2706703,12.0,0.0
2024-05-16T06:18:06.800Z,MISSION_0043,68,0,transit,SITE_CHE_004,13.0827066,80.2706684,12.5,26.84,3.041,0.149,3.59,2.043,-2.1202,26.8362,0.97231,0.02163,-0.01386,0.2323,-0.0294,-0.001,-9.7482,-0.1874,0.7503,-0.1331,0.1487,3,19,0.57,1.0,0.26,24.683,17.59,94.6,47.3,20815.0,8985,8825,8850,8817,64.4,60.4,65.5,62.6,2.81,2.597,2.603,2.789,0.0,40.5,39.0,83.1,1018.18,-31.09,0.92,1.17,32.6,48.1,40.6,0,no_anomaly,0.0,0,0,0,0,13.0827066,80.2706684,12.5,0.0
2024-05-16T06:18:06.900Z,MISSION_0043,69,0,transit,SITE_CHE_004,13.0827088,80.2706672,13.0,24.91,3.398,0.143,3.78,2.7189,-0.3645,24.9134,0.97616,0.02385,0.00201,0.21571,-0.0003,0.042,-9.7917,-0.0233,0.4763,-0.1533,0.0053,3,12,0.77,0.79,0.27,24.572,19.29,94.6,47.0,20802.0,9065,8645,8850,8864,61.5,63.4,67.1,66.3,2.593,2.737,2.681,2.905,0.0,29.8,39.4,82.4,1018.39,-28.32,-0.25,1.81,35.8,46.6,41.4,0,no_anomaly,0.0,0,0,0,0,13.0827088,80.2706672,13.0,0.0
2024-05-16T06:18:07.000Z,MISSION_0043,70,0,transit,SITE_CHE_004,13.0827136,80.2706686,13.5,26.19,3.627,0.172,3.81,1.0961,-0.4185,26.1933,0.97393,0.01014,-0.00139,0.22662,-0.0702,0.033,-9.7895,-1.0035,-0.5357,-0.0024,0.0892,3,20,0.73,0.99,0.3,24.654,15.24,94.5,47.2,20788.0,8675,8724,8885,8999,64.0,71.0,61.4,63.8,2.773,2.727,2.598,2.889,0.51,30.4,39.0,81.8,1018.56,-28.01,0.71,1.59,32.3,51.0,38.9,0,no_anomaly,0.0,0,0,0,0,13.0827136,80.2706686,13.5,0.0
2024-05-16T06:18:07.100Z,MISSION_0043,71,0,transit,SITE_CHE_004,13.0827119,80.2706696,14.0,24.86,3.423,0.059,3.63,1.6341,-3.0179,24.8595,0.97604,0.01959,-0.02265,0.21551,0.0519,0.0012,-9.7911,-0.35,-0.427,-0.5575,0.1493,3,18,0.69,0.8,0.38,24.596,22.74,94.4,46.9,20774.0,8805,8982,8844,8939,64.0,62.9,64.6,61.9,2.596,2.856,2.707,2.771,0.25,38.1,39.2,82.6,1018.46,-32.52,0.53,1.73,31.6,50.2,40.0,0,no_anomaly,0.0,0,0,0,0,13.0827119,80.2706696,14.0,0.0
2024-05-16T06:18:07.200Z,MISSION_0043,72,0,transit,SITE_CHE_004,13.0827179,80.2706715,14.5,23.21,3.219,0.04,3.75,-0.4541,-2.5622,23.2107,0.97932,0.00062,-0.0227,0.20103,-0.0371,0.0061,-9.8415,-0.1632,-0.3523,0.4284,0.1637,3,16,0.66,0.93,0.28,24.714,16.65,94.4,47.3,20760.0,8822,8788,8875,8956,59.5,66.9,64.4,62.1,2.736,2.952,2.985,2.993,0.0,32.5,39.3,82.5,1018.47,-27.17,0.13,1.61,35.9,52.8,42.6,0,no_anomaly,0.0,0,0,0,0,13.0827179,80.2706715,14.5,0.0
2024-05-16T06:18:07.300Z,MISSION_0043,73,0,transit,SITE_CHE_004,13.0827194,80.2706667,15.0,23.9,3.434,0.073,4.29,-2.2251,-3.1334,23.9017,0.97789,-0.01333,-0.03076,0.20644,0.006,-0.0803,-9.8039,-0.5144,-0.4979,-0.2567,0.0646,3,10,0.66,0.99,0.3,24.563,16.1,94.3,47.5,20746.0,8967,8908,8966,8780,62.3,65.8,61.6,65.2,3.008,2.961,3.009,2.626,0.0,34.4,39.2,81.9,1018.55,-33.22,-0.38,1.48,33.4,45.6,44.6,0,no_anomaly,0.0,0,0,0,0,13.0827194,80.2706667,15.0,0.0
2024-05-16T06:18:07.400Z,MISSION_0043,74,0,transit,SITE_CHE_004,13.0827179,80.2706703,15.2,20.75,3.447,0.148,3.86,2.0885,-2.5781,20.7467,0.98317,0.02197,-0.01884,0.18039,-0.0321,-0.0397,-9.8453,0.0583,0.3716,0.2894,0.0725,3,14,0.81,0.94,0.26,24.647,20.08,94.2,47.2,20732.0,9018,8776,8636,9053,60.0,61.8,66.6,64.9,2.837,2.799,2.68,2.874,0.0,29.7,39.1,83.0,1018.52,-28.75,-0.38,1.32,31.9,52.7,44.3,0,no_anomaly,0.0,0,0,0,0,13.0827179,80.2706703,15.2,0.0
2024-05-16T06:18:07.500Z,MISSION_0043,75,0,transit,SITE_CHE_004,13.0827194,80.2706672,15.2,21.63,3.205,0.04,4.25,-2.1695,-3.2662,21.634,0.98176,-0.01324,-0.03154,0.18703,0.069,0.0517,-9.8321,0.1755,-0.3771,-0.4905,0.14,3,14,0.66,1.08,0.26,24.628,19.88,94.2,47.4,20718.0,8659,8574,8963,8672,68.0,65.6,67.1,63.2,2.983,2.701,2.98,2.811,0.17,32.0,39.3,82.2,1018.72,-26.35,-0.92,1.25,32.8,45.4,37.3,0,no_anomaly,0.0,0,0,0,0,13.0827194,80.2706672,15.2,0.0
2024-05-16T06:18:07.600Z,MISSION_0043,76,0,transit,SITE_CHE_004,13.0827196,80.2706655,15.2,20.38,3.335,0.062,4.42,-1.3094,-0.2918,20.3797,0.98416,-0.0108,-0.00453,0.17687,-0.0167,-0.0146,-9.8614,0.086,0.2157,0.3326,0.1136,3,14,0.91,0.74,0.34,24.645,13.74,94.1,47.4,20704.0,8520,9011,8906,8832,64.8,63.0,61.6,65.2,2.728,2.962,3.066,2.922,0.29,32.4,39.1,81.5,1018.28,-29.76,-1.06,1.75,36.9,55.0,45.0,0,no_anomaly,0.0,0,0,0,0,13.0827196,80.2706655,15.2,0.0
2024-05-16T06:18:07.700Z,MISSION_0043,77,0,transit,SITE_CHE_004,13.0827191,80.2706626,15.2,20.5,3.22,0.084,4.67,1.1717,-2.2591,20.5015,0.98376,0.01357,-0.01758,0.17811,-0.0541,-0.0274,-9.8386,0.0859,0.5555,-0.0941,0.0822,3,17,0.73,0.89,0.27,24.681,24.65,94.0,47.1,20690.0,8695,8748,8628,8910,64.1,65.1,64.4,65.6,2.69,2.859,2.737,2.647,0.24,28.1,39.2,82.5,1018.39,-26.06,2.08,1.18,37.8,48.5,41.9,0,no_anomaly,0.0,0,0,0,0,13.0827191,80.2706626,15.2,0.0
2024-05-16T06:18:07.800Z,MISSION_0043,78,0,transit,SITE_CHE_004,13.082722,80.2706598,15.2,20.21,2.957,0.012,5.1,0.26,-2.7854,20.2099,0.98418,0.0065,-0.02353,0.17545,-0.0347,-0.0076,-9.8393,-0.0684,-0.6838,-0.274,0.0514,3,11,0.76,1.06,0.33,24.67,25.91,94.0,47.4,20676.0,9051,8843,8777,9040,62.0,67.1,65.1,66.0,2.705,2.583,2.866,2.835,0.0,28.5,39.4,82.2,1018.69,-32.3,-1.24,1.81,33.4,44.6,43.2,0,no_anomaly,0.0,0,0,0,0,13.082722,80.2706598,15.2,0.0
2024-05-16T06:18:07.900Z,MISSION_0043,79,0,transit,SITE_CHE_004,13.0827209,80.2706571,15.2,19.64,2.888,0.147,5.31,-2.9389,-3.8449,19.6404,0.98462,-0.01953,-0.03742,0.16956,-0.0773,-0.031,-9.8486,0.125,-0.2504,0.1722,0.0993,3,20,0.57,0.99,0.25,24.582,17.49,93.9,47.1,20662.0,9006,8873,8901,8951,63.3,64.0,68.1,64.8,3.083,2.896,2.683,2.612,0.81,32.2,39.5,81.7,1018.52,-34.0,-0.03,1.22,33.6,44.1,40.2,0,no_anomaly,0.0,0,0,0,0,13.0827209,80.2706571,15.2,0.0
2024-05-16T06:18:08.000Z,MISSION_0043,80,0,transit,SITE_CHE_004,13.0827171,80.2706605,15.2,18.06,2.629,0.09,4.79,-0.3953,-0.4233,18.0569,0.9876,-0.00283,-0.00419,0.15691,-0.0072,-0.0111,-9.7729,0.7748,-0.2226,-0.1382,0.1091,3,10,0.52,1.04,0.2,24.587,19.56,93.9,47.8,20648.0,8703,8657,9155,8890,61.4,61.0,60.5,65.0,2.494,2.802,2.749,2.993,0.0,35.1,39.3,81.6,1018.59,-24.71,-0.11,1.67,32.4,52.2,39.5,0,no_anomaly,0.0,0,0,0,0,13.0827171,80.2706605,15.2,0.0
2024-05-16T06:18:08.100Z,MISSION_0043,81,0,transit,SITE_CHE_004,13.0827202,80.2706592,15.2,16.57,3.255,0.034,5.07,1.34,0.4098,16.565,0.9895,0.01106,0.00522,0.144,-0.0536,-0.0312,-9.78,0.1076,0.0497,-0.1322,0.0562,3,16,0.83,0.91,0.46,24.676,21.81,93.8,47.7,20635.0,8736,9048,8772,8983,62.3,66.5,62.9,63.3,2.644,3.103,2.63,2.627,0.11,31.7,39.1,82.1,1018.41,-28.16,1.18,1.11,36.5,51.7,40.4,0,no_anomaly,0.0,0,0,0,0,13.0827202,80.2706592,15.2,0.0
2024-05-16T06:18:08.200Z,MISSION_0043,82,0,transit,SITE_CHE_004,13.0827214,80.2706529,15.2,16.78,3.622,0.063,5.76,-1.0239,-1.0986,16.7848,0.98922,-0.00744,-0.01079,0.14585,-0.0544,-0.0104,-9.8867,0.2847,-0.3831,0.1394,0.1387,3,10,0.7,0.6,0.27,24.656,23.66,93.7,47.0,20621.0,8764,8946,8764,8844,60.7,59.1,63.7,65.0,2.862,2.852,2.726,2.898,0.0,40.3,38.9,81.8,1018.45,-30.07,-1.27,2.04,36.0,53.7,40.9,0,no_anomaly,0.0,0,0,0,0,13.0827214,80.2706529,15.2,0.0
2024-05-16T06:18:08.300Z,MISSION_0043,83,0,transit,SITE_CHE_004,13.0827211,80.2706519,15.2,17.86,3.699,0.147,5.85,1.4373,-3.0929,17.8611,0.98739,0.01658,-0.02471,0.1555,0.0171,0.0026,-9.7413,-0.2416,0.6669,-0.5998,0.0456,3,14,0.77,0.84,0.27,24.614,22.19,93.7,47.3,20607.0,8678,8820,8775,9070,64.9,64.0,62.8,61.5,2.712,2.532,2.849,2.69,0.0,34.5,39.1,81.4,1018.46,-30.47,1.06,1.84,33.2,47.0,41.7,0,no_anomaly,0.0,0,0,0,0,13.0827211,80.2706519,15.2,0.0
2024-05-16T06:18:08.400Z,MISSION_0043,84,0,transit,SITE_CHE_004,13.082718,80.2706491,15.2,17.59,3.674,0.116,6.0,2.7886,-3.351,17.5918,0.98742,0.02851,-0.02517,0.15351,-0.0551,-0.0004,-9.7574,0.2362,-0.6246,0.5274,0.0841,3,12,0.77,0.93,0.25,24.572,16.91,93.6,48.1,20593.0,8743,8673,8915,8556,62.4,60.4,64.6,64.4,2.799,2.655,2.607,3.002,0.0,35.4,39.1,82.2,1018.7,-22.41,-1.33,2.08,31.3,49.2,39.3,0,no_anomaly,0.0,0,0,0,0,13.082718,80.2706491,15.2,0.0
2024-05-16T06:18:08.500Z,MISSION_0043,85,0,transit,SITE_CHE_004,13.0827193,80.2706514,15.2,19.47,4.262,0.112,5.82,0.2149,-1.7266,19.4718,0.98548,0.0044,-0.01453,0.16912,-0.01,0.0524,-9.8406,-1.0773,0.088,0.006,0.1302,3,17,0.65,1.02,0.3,24.648,18.36,93.5,47.1,20579.0,8730,9187,8999,8612,68.5,61.9,69.2,62.3,3.009,2.804,2.831,2.654,0.12,32.5,39.1,82.9,1018.47,-28.9,-0.68,1.28,32.7,47.0,43.3,0,no_anomaly,0.0,0,0,0,0,13.0827193,80.2706514,15.2,0.0
2024-05-16T06:18:08.600Z,MISSION_0043,86,0,transit,SITE_CHE_004,13.0827175,80.270654,15.2,19.4,4.048,0.097,5.48,-0.5287,-2.0619,19.401,0.98555,-0.00152,-0.01851,0.16839,-0.1384,0.0637,-9.8346,-0.2073,0.0161,0.124,0.1499,3,17,0.87,0.89,0.45,24.514,19.89,93.5,47.1,20565.0,8825,8913,8839,9099,63.5,64.7,63.9,62.6,2.824,2.769,2.73,2.966,0.45,36.3,39.2,81.3,1018.71,-30.14,-1.35,1.0,33.1,43.7,42.2,0,no_anomaly,0.0,0,0,0,0,13.0827175,80.270654,15.2,0.0
2024-05-16T06:18:08.700Z,MISSION_0043,87,0,transit,SITE_CHE_004,13.0827188,80.270658,15.2,19.4,4.076,0.089,5.12,-0.2085,-0.3519,19.3992,0.9857,-0.00128,-0.00333,0.16848,-0.0048,0.0866,-9.7855,0.1627,-0.6247,-0.2122,0.1112,3,16,0.86,0.74,0.39,24.616,20.14,93.4,48.5,20551.0,8834,8692,8850,8916,64.3,69.6,64.2,59.8,2.585,2.808,2.768,2.873,1.16,27.1,39.1,80.5,1018.37,-29.72,0.37,1.42,36.6,50.5,40.5,0,no_anomaly,0.0,0,0,0,0,13.0827188,80.270658,15.2,0.0
2024-05-16T06:18:08.800Z,MISSION_0043,88,0,transit,SITE_CHE_004,13.0827192,80.2706578,15.2,18.19,4.036,0.14,5.16,-0.4132,-0.3185,18.186,0.98742,-0.00312,-0.00331,0.15803,-0.1215,0.0598,-9.8298,-0.667,-0.1128,0.1797,0.0612,3,19,0.76,1.04,0.2,24.57,24.09,93.4,47.3,20537.0,8840,8676,9122,8707,63.6,61.8,66.1,62.9,2.659,2.791,2.75,2.706,0.0,36.6,38.9,81.3,1018.69,-33.65,-1.67,1.27,33.6,53.3,41.4,0,no_anomaly,0.0,0,0,0,0,13.0827192,80.2706578,15.2,0.0
2024-05-16T06:18:08.900Z,MISSION_0043,89,0,transit,SITE_CHE_004,13.0827166,80.2706604,15.2,17.79,3.557,0.077,4.78,1.1742,-3.6044,17.7941,0.98738,0.01498,-0.02949,0.15489,-0.056,0.1232,-9.9022,-0.0344,-0.8561,-0.1949,0.0674,3,13,0.79,0.93,0.4,24.598,18.3,93.3,47.0,20523.0,8742,8806,8849,8859,65.1,64.9,62.9,68.5,2.838,2.702,2.859,2.791,0.0,29.0,39.0,81.9,1018.27,-31.49,0.84,1.34,31.0,51.7,37.5,0,no_anomaly,0.0,0,0,0,0,13.0827166,80.2706604,15.2,0.0
2024-05-16T06:18:09.000Z,MISSION_0043,90,0,transit,SITE_CHE_004,13.0827153,80.2706563,15.2,17.01,3.618,0.166,5.15,-0.3285,-0.3925,17.0117,0.98899,-0.00233,-0.00381,0.1479,-0.0359,0.06,-9.8708,0.147,0.2498,-0.4508,0.2057,3,20,0.65,1.01,0.28,24.629,19.08,93.2,46.9,20509.0,8908,8779,9178,8777,63.7,63.4,65.0,61.5,3.206,2.789,2.763,2.701,0.0,33.0,39.2,81.6,1018.72,-31.36,-0.49,1.04,36.5,53.6,39.8,0,no_anomaly,0.0,0,0,0,0,13.0827153,80.2706563,15.2,0.0
2024-05-16T06:18:09.100Z,MISSION_0043,91,0,transit,SITE_CHE_004,13.0827152,80.2706527,15.2,15.99,3.12,0.089,5.53,-0.7793,-3.9436,15.9931,0.9897,-0.00194,-0.03502,0.1388,-0.0172,-0.0232,-9.8114,0.172,-0.8451,-0.2032,0.0611,3,19,0.73,0.94,0.44,24.668,16.34,93.2,47.6,20495.0,8623,8703,8734,8810,66.3,61.9,64.7,64.6,2.885,2.8,2.814,2.588,0.0,39.6,39.3,81.6,1018.56,-26.98,0.6,1.84,31.5,52.1,40.4,0,no_anomaly,0.0,0,0,0,0,13.0827152,80.2706527,15.2,0.0
2024-05-16T06:18:09.200Z,MISSION_0043,92,0,transit,SITE_CHE_004,13.0827201,80.2706509,15.2,15.9,3.435,0.181,5.91,1.2609,-0.7459,15.9015,0.9903,0.0118,-0.00492,0.13838,0.0034,-0.0226,-9.7916,0.2431,-0.2213,-0.1776,0.2044,3,16,0.5,1.04,0.2,24.543,17.9,93.1,46.9,20481.0,8862,8849,8680,8891,64.1,65.5,69.0,64.0,2.923,2.97,2.637,2.883,0.0,28.5,39.1,82.8,1018.65,-24.54,0.91,1.16,35.4,47.8,45.0,0,no_anomaly,0.0,0,0,0,0,13.0827201,80.2706509,15.2,0.0
2024-05-16T06:18:09.300Z,MISSION_0043,93,0,transit,SITE_CHE_004,13.0827182,80.2706502,15.2,16.75,3.252,0.088,5.9,0.8689,-5.8151,16.7517,0.98798,0.01488,-0.04908,0.14585,0.0218,0.0321,-9.8108,0.3465,0.7636,0.096,0.0718,3,13,0.79,0.89,0.24,24.586,21.49,93.0,46.9,20468.0,8828,9003,8629,9039,66.3,65.5,61.6,62.0,2.758,3.045,2.813,2.815,1.2,25.2,38.8,81.9,1018.67,-30.79,0.66,1.84,30.5,49.4,42.2,0,no_anomaly,0.0,0,0,0,0,13.0827182,80.2706502,15.2,0.0
2024-05-16T06:18:09.400Z,MISSION_0043,94,0,transit,SITE_CHE_004,13.0827169,80.2706541,15.2,15.36,3.509,0.171,5.44,-3.1148,-2.6556,15.3631,0.99048,-0.02383,-0.02659,0.13296,-0.0774,0.0234,-9.8331,-0.227,0.1367,0.4469,0.1587,3,11,0.64,0.76,0.2,24.539,20.46,93.0,47.2,20454.0,8915,8667,8633,8787,64.0,70.0,60.6,63.6,3.037,2.805,2.597,2.605,0.04,28.7,39.0,81.6,1018.78,-33.86,-0.35,1.62,34.5,45.7,40.8,0,no_anomaly,0.0,0,0,0,0,13.0827169,80.2706541,15.2,0.0
2024-05-16T06:18:09.500Z,MISSION_0043,95,0,transit,SITE_CHE_004,13.0827136,80.2706543,15.2,15.45,3.865,0.103,5.3,0.0733,-3.9682,15.4465,0.99033,0.00529,-0.03422,0.13433,-0.0077,0.0213,-9.8487,0.0008,0.5046,0.0157,0.0502,3,18,0.73,0.71,0.27,24.67,24.78,92.9,46.7,20440.0,8820,9163,9061,9002,63.5,64.9,65.4,62.2,2.8,2.837,2.986,2.915,0.18,31.6,39.2,82.2,1018.82,-33.52,0.49,1.13,33.0,50.3,38.9,0,no_anomaly,0.0,0,0,0,0,13.0827136,80.2706543,15.2,0.0
2024-05-16T06:18:09.600Z,MISSION_0043,96,0,transit,SITE_CHE_004,13.0827099,80.2706555,15.2,17.69,3.922,0.02,5.08,1.2286,-2.1857,17.6898,0.98784,0.01352,-0.0172,0.15393,0.0582,-0.0593,-9.7933,-0.9738,-0.1274,-0.094,0.1659,3,12,0.73,0.81,0.32,24.598,15.37,92.8,47.2,20426.0,8733,8746,8733,9050,65.5,62.3,68.3,63.1,2.858,2.828,3.04,2.904,0.94,49.6,39.0,82.1,1018.37,-27.15,-0.22,1.74,31.3,50.0,41.9,0,no_anomaly,0.0,0,0,0,0,13.0827099,80.2706555,15.2,0.0
2024-05-16T06:18:09.700Z,MISSION_0043,97,0,transit,SITE_CHE_004,13.082706,80.2706565,15.2,18.38,3.555,0.112,4.88,2.1327,-1.768,18.3815,0.98683,0.02083,-0.01226,0.15996,0.0296,0.0458,-9.6985,-0.3689,-0.4532,0.2844,0.0881,3,20,0.64,1.05,0.28,24.464,23.89,92.8,47.2,20412.0,8844,9173,8906,8670,62.7,65.5,62.8,64.3,2.602,2.855,2.761,2.49,0.38,32.4,38.9,81.8,1018.43,-28.11,-0.41,1.85,37.2,55.0,41.3,0,no_anomaly,0.0,0,0,0,0,13.082706,80.2706565,15.2,0.0
2024-05-16T06:18:09.800Z,MISSION_0043,98,0,transit,SITE_CHE_004,13.0827053,80.2706549,15.2,21.01,3.439,0.149,5.05,0.2347,-3.2797,21.0118,0.98282,0.00723,-0.02776,0.18232,0.035,-0.0455,-9.852,0.3657,0.5482,0.3082,0.0653,3,10,0.7,1.06,0.32,24.609,20.01,92.7,48.1,20398.0,8981,8714,8677,8889,62.7,63.6,63.8,64.4,2.707,2.833,2.803,2.634,0.0,33.9,38.5,83.2,1018.66,-33.75,0.19,1.32,33.0,54.1,40.9,0,no_anomaly,0.0,0,0,0,0,13.0827053,80.2706549,15.2,0.0
2024-05-16T06:18:09.900Z,MISSION_0043,99,0,transit,SITE_CHE_004,13.082706,80.2706528,15.2,22.4,3.301,0.187,5.3,-2.4718,-5.6725,22.3959,0.97974,-0.01153,-0.05271,0.19287,0.0275,-0.1093,-9.7597,1.1821,0.3359,0.3035,0.127,3,17,0.77,0.95,0.41,24.611,21.08,92.7,47.8,20384.0,8896,8930,9045,8805,64.4,65.7,63.7,62.1,2.96,2.895,2.7,2.789,0.62,32.1,39.2,81.3,1018.19,-37.64,-1.97,1.34,32.5,49.4,38.4,0,no_anomaly,0.0,0,0,0,0,13.082706,80.2706528,15.2,0.0
2024-05-16T06:18:10.000Z,MISSION_0043,100,0,transit,SITE_CHE_004,13.0827119,80.2706581,15.2,22.69,2.899,0.068,4.85,-2.1632,-1.102,22.6924,0.98027,-0.01661,-0.01314,0.19651,-0.0343,-0.0244,-9.7973,-0.8324,-0.347,-0.3371,0.0166,3,19,0.72,0.9,0.26,24.626,23.1,92.6,47.4,20370.0,8959,8654,8818,8843,65.5,60.6,65.1,67.1,2.596,2.872,2.678,2.724,1.17,30.6,39.0,81.9,1018.85,-30.39,1.12,1.0,31.7,45.9,41.5,0,no_anomaly,0.0,0,0,0,0,13.0827119,80.2706581,15.2,0.0
2024-05-16T06:18:10.100Z,MISSION_0043,101,0,transit,SITE_CHE_004,13.0827128,80.2706546,15.2,24.86,3.269,0.176,5.25,0.7472,-4.1119,24.8644,0.97585,0.01409,-0.03363,0.21537,-0.003,0.0315,-9.7499,0.3485,0.0495,-0.1836,0.1298,3,10,0.66,1.01,0.34,24.623,12.91,92.5,47.0,20356.0,8814,8740,8985,8740,62.1,62.3,63.8,61.3,2.848,2.778,2.908,2.666,0.0,36.7,39.4,81.7,1018.63,-26.8,1.03,1.05,32.5,48.8,41.8,0,no_anomaly,0.0,0,0,0,0,13.0827128,80.2706546,15.2,0.0
2024-05-16T06:18:10.200Z,MISSION_0043,102,0,transit,SITE_CHE_004,13.0827128,80.2706566,15.2,25.03,3.32,0.104,5.04,1.1963,-1.7101,25.0338,0.97604,0.01342,-0.01231,0.21684,0.0225,-0.0286,-9.8068,-0.3573,0.2319,0.2351,0.085,3,19,0.65,0.92,0.2,24.648,23.16,92.5,46.9,20342.0,8397,8962,8982,8797,64.3,65.2,65.4,63.4,2.929,2.849,2.689,2.659,0.35,33.1,39.1,81.8,1018.47,-24.77,1.1,1.75,38.7,45.9,45.1,0,no_anomaly,0.0,0,0,0,0,13.0827128,80.2706566,15.2,0.0
2024-05-16T06:18:10.300Z,MISSION_0043,103,0,transit,SITE_CHE_004,13.0827107,80.270656,15.2,24.04,3.308,0.08,5.04,-1.4174,-1.0878,24.0398,0.97798,-0.01012,-0.01186,0.20811,-0.0365,0.0309,-9.7884,0.6098,-0.0429,-0.1825,0.1049,3,10,0.65,0.84,0.3,24.678,22.16,92.4,47.3,20328.0,8671,8788,8752,8592,64.4,66.1,65.3,62.9,3.0,2.595,2.723,3.017,0.57,29.4,39.4,82.1,1018.53,-28.55,0.6,1.96,34.1,50.5,38.9,0,no_anomaly,0.0,0,0,0,0,13.0827107,80.270656,15.2,0.0
2024-05-16T06:18:10.400Z,MISSION_0043,104,0,transit,SITE_CHE_004,13.0827118,80.2706624,15.2,23.48,3.146,0.036,4.39,-0.0822,-1.2576,23.4834,0.97902,0.00153,-0.01089,0.20348,-0.1018,0.0477,-9.883,0.7007,-0.1418,0.5405,0.1062,3,17,0.78,0.93,0.36,24.544,19.45,92.3,47.1,20314.0,9065,8684,8908,8709,67.2,63.1,64.8,62.7,2.75,2.884,2.552,3.039,0.27,37.1,39.1,82.2,1018.41,-32.84,1.0,1.41,36.7,46.3,41.0,0,no_anomaly,0.0,0,0,0,0,13.0827118,80.2706624,15.2,0.0
2024-05-16T06:18:10.500Z,MISSION_0043,105,0,transit,SITE_CHE_004,13.0827091,80.2706611,15.2,22.59,2.944,0.095,4.45,-1.0582,-2.175,22.587,0.98045,-0.00534,-0.02042,0.19562,-0.0433,-0.0795,-9.8224,-0.747,0.6644,-0.0927,0.1342,3,11,0.77,1.09,0.28,24.612,25.29,92.3,47.5,20301.0,8997,8802,8856,8658,61.5,64.6,66.4,65.5,2.824,2.942,2.989,3.019,0.84,26.1,39.3,81.8,1018.63,-31.54,1.66,1.73,33.3,48.6,43.7,0,no_anomaly,0.0,0,0,0,0,13.0827091,80.2706611,15.2,0.0
2024-05-16T06:18:10.600Z,MISSION_0043,106,0,transit,SITE_CHE_004,13.0827065,80.2706636,15.2,25.63,3.18,0.061,4.11,-0.964,-2.4167,25.6289,0.97488,-0.00352,-0.02243,0.22156,-0.0222,-0.0323,-9.817,0.0608,0.5857,-0.7894,0.1798,3,17,0.67,0.71,0.27,24.474,16.08,92.2,46.3,20287.0,9111,8779,8777,8675,65.6,64.6,60.3,62.6,2.845,2.555,2.853,3.026,0.49,25.9,38.5,81.6,1018.69,-31.28,-2.14,1.51,33.2,46.3,43.1,0,no_anomaly,0.0,0,0,0,0,13.0827065,80.2706636,15.2,0.0
2024-05-16T06:18:10.700Z,MISSION_0043,107,1,transit,SITE_CHE_004,13.0827074,80.2706622,15.2,28.56,3.469,0.143,4.28,1.8619,-0.2754,28.5581,0.96897,0.01634,0.00168,0.24665,0.0608,-0.0248,-9.7672,0.677,-0.8479,0.2748,0.154,3,11,0.58,0.78,0.25,24.603,17.9,92.1,47.9,20273.0,8889,8878,8813,8732,64.0,63.7,66.0,65.1,2.73,2.92,2.759,2.699,0.52,49.0,38.8,82.7,1018.42,-32.54,-0.52,1.38,32.4,51.7,40.2,0,no_anomaly,0.0,0,0,0,0,13.0827074,80.2706622,15.2,0.0
2024-05-16T06:18:10.800Z,MISSION_0043,108,1,transit,SITE_CHE_004,13.0827069,80.2706594,15.2,28.05,3.912,0.11,4.58,-1.2348,-4.4806,28.0476,0.9695,-0.00097,-0.04053,0.24172,0.035,-0.0262,-9.699,-0.0115,-0.5722,0.1927,0.0472,3,20,0.7,1.01,0.28,24.632,20.15,92.1,47.8,20259.0,9153,9171,8609,8882,66.9,65.7,60.7,63.4,2.698,2.759,2.987,2.428,0.28,41.7,39.3,83.0,1018.61,-33.38,1.89,1.91,33.9,53.6,38.9,0,no_anomaly,0.0,0,0,0,0,13.0827069,80.2706594,15.2,0.0
2024-05-16T06:18:10.900Z,MISSION_0043,109,1,transit,SITE_CHE_004,13.0827163,80.2706583,15.2,28.89,3.801,0.185,4.99,-0.1475,-0.6514,28.8949,0.96836,0.00017,-0.00583,0.24948,-0.0032,0.0176,-9.7355,0.1526,0.0747,0.1648,0.1341,3,13,0.72,0.74,0.26,24.636,17.89,92.0,47.5,20245.0,8628,8784,8905,8931,66.1,65.4,64.9,65.5,2.912,2.757,2.957,2.908,0.0,36.4,38.9,82.7,1018.24,-33.71,0.84,1.5,32.0,47.0,41.5,0,no_anomaly,0.0,0,0,0,0,13.0827163,80.2706583,15.2,0.0
2024-05-16T06:18:11.000Z,MISSION_0043,110,1,transit,SITE_CHE_004,13.0827174,80.2706606,15.2,25.89,3.78,0.076,4.8,1.5,-0.804,25.8885,0.97446,0.01433,-0.00391,0.22407,0.0152,0.032,-9.7913,0.221,-0.0017,-0.0895,0.0973,3,11,0.81,0.98,0.34,24.547,18.93,92.0,48.0,20231.0,8786,8784,8685,8796,63.1,64.7,63.9,64.5,2.63,2.816,2.96,2.811,0.48,26.7,39.3,81.3,1018.57,-31.13,0.95,1.65,32.0,51.9,41.7,0,no_anomaly,0.0,0,0,0,0,13.0827174,80.2706606,15.2,0.0
2024-05-16T06:18:11.100Z,MISSION_0043,111,1,transit,SITE_CHE_004,13.0827132,80.2706594,15.2,24.78,3.564,0.109,4.76,-0.9992,-2.9316,24.7796,0.9764,-0.00303,-0.02685,0.21426,-0.0438,-0.0675,-9.8308,-0.5983,-0.2945,-0.0615,0.1431,3,18,0.85,0.64,0.33,24.64,19.6,91.9,47.3,20217.0,9056,8878,8712,8689,63.3,62.6,64.3,59.5,2.624,2.79,2.826,2.826,0.15,38.7,39.2,81.7,1018.16,-30.69,-0.67,1.66,37.1,47.7,42.4,0,no_anomaly,0.0,0,0,0,0,13.0827132,80.2706594,15.2,0.0
2024-05-16T06:18:11.200Z,MISSION_0043,112,1,transit,SITE_CHE_004,13.0827128,80.2706598,15.2,26.14,3.795,0.163,4.7,-0.9819,-3.2715,26.1426,0.97371,-0.00189,-0.02974,0.22582,-0.0125,0.0252,-9.7871,0.1307,0.027,-0.6807,0.1134,3,11,0.8,0.84,0.34,24.609,22.76,91.8,47.7,20203.0,9107,8919,8823,8557,63.1,62.5,67.4,61.6,2.597,3.112,2.556,2.875,0.0,38.1,39.5,80.6,1018.47,-30.03,-0.22,1.32,36.2,49.3,41.2,0,no_anomaly,0.0,0,0,0,0,13.0827128,80.2706598,15.2,0.0
2024-05-16T06:18:11.300Z,MISSION_0043,113,1,transit,SITE_CHE_004,13.0827117,80.2706615,15.2,26.71,3.706,0.182,4.48,-0.9512,-4.0215,26.7138,0.97238,3e-05,-0.03605,0.23058,-0.043,0.0573,-9.8565,-0.5311,0.6456,0.1552,0.1316,3,19,0.83,0.87,0.2,24.581,17.58,91.8,46.9,20189.0,9091,8734,8865,8936,62.3,68.4,64.5,63.8,2.8,2.827,2.345,2.94,0.39,40.9,39.7,82.6,1018.42,-29.89,0.05,1.0,31.8,51.9,40.5,0,no_anomaly,0.0,0,0,0,0,13.0827117,80.2706615,15.2,0.0
2024-05-16T06:18:11.400Z,MISSION_0043,114,1,transit,SITE_CHE_004,13.0827162,80.2706619,15.2,26.15,3.571,0.119,4.61,-0.723,-3.305,26.1504,0.97369,0.00038,-0.02952,0.22595,-0.0756,-0.1067,-9.7769,0.3336,0.3518,0.3239,0.0571,3,14,0.81,1.07,0.24,24.604,17.95,91.7,47.4,20175.0,8694,8893,8893,8971,65.2,67.0,64.8,62.9,2.69,2.71,2.724,2.999,0.28,29.1,38.8,82.1,1018.52,-32.29,0.0,1.77,33.3,52.1,39.2,0,no_anomaly,0.0,0,0,0,0,13.0827162,80.2706619,15.2,0.0
2024-05-16T06:18:11.500Z,MISSION_0043,115,1,transit,SITE_CHE_004,13.082722,80.2706647,15.2,23.7,3.777,0.138,4.63,-1.5528,-0.0208,23.7037,0.97859,-0.01322,-0.00296,0.20536,0.0411,-0.094,-9.8246,-0.0202,0.6206,0.3429,0.1549,3,18,0.82,0.68,0.37,24.567,21.55,91.6,47.7,20161.0,8747,8703,8955,8673,66.5,65.3,61.4,63.2,2.72,2.519,2.989,2.748,0.0,36.5,39.3,81.5,1018.19,-28.58,-0.44,1.35,32.0,48.0,42.5,0,no_anomaly,0.0,0,0,0,0,13.082722,80.2706647,15.2,0.0
2024-05-16T06:18:11.600Z,MISSION_0043,116,1,transit,SITE_CHE_004,13.0827188,80.2706638,15.2,25.16,3.794,0.087,4.54,1.5522,0.4772,25.156,0.97591,0.01231,0.00701,0.21769,-0.0884,0.0578,-9.7341,-0.4057,0.0425,0.4172,0.0578,3,20,0.79,0.72,0.29,24.494,16.3,91.6,47.5,20147.0,8791,8725,8943,8745,66.0,66.4,65.1,65.6,3.017,2.615,2.653,2.839,1.07,33.7,38.8,82.1,1018.75,-30.1,1.34,1.45,31.3,44.0,40.8,0,no_anomaly,0.0,0,0,0,0,13.0827188,80.2706638,15.2,0.0
2024-05-16T06:18:11.700Z,MISSION_0043,117,1,transit,SITE_CHE_004,13.0827208,80.2706621,15.2,23.9,3.657,0.076,4.81,-1.446,-1.3102,23.8996,0.97822,-0.00998,-0.0138,0.20688,0.0449,-0.0599,-9.7553,-0.4721,0.8418,-0.0213,0.0938,3,13,0.55,1.27,0.2,24.544,15.53,91.5,47.2,20134.0,8938,8497,9003,9105,68.7,67.1,63.7,63.7,2.661,2.874,2.782,2.754,0.0,30.0,39.0,82.6,1018.61,-26.46,0.14,1.35,37.0,47.5,40.1,0,no_anomaly,0.0,0,0,0,0,13.0827208,80.2706621,15.2,0.0
2024-05-16T06:18:11.800Z,MISSION_0043,118,1,transit,SITE_CHE_004,13.082724,80.2706632,15.2,23.62,3.493,0.116,4.89,3.9462,-0.8098,23.6237,0.97817,0.03515,0.00013,0.20481,0.0202,0.0064,-9.8681,0.1757,0.2593,0.3194,0.1239,3,19,0.83,0.85,0.23,24.572,20.32,91.5,48.1,20120.0,8651,8745,8795,8632,62.6,64.8,64.8,62.6,2.907,2.571,2.725,2.855,0.0,37.1,39.5,82.2,1018.62,-26.49,0.48,1.36,32.5,48.8,43.0,0,no_anomaly,0.0,0,0,0,0,13.082724,80.2706632,15.2,0.0
2024-05-16T06:18:11.900Z,MISSION_0043,119,1,transit,SITE_CHE_004,13.0827222,80.2706588,15.2,24.06,3.693,0.071,5.21,-0.245,-3.818,24.0626,0.9775,0.00485,-0.03303,0.20826,-0.0383,0.0397,-9.8394,-0.5086,0.1174,0.4957,0.0878,3,17,0.61,1.22,0.26,24.561,18.03,91.4,47.1,20106.0,8908,9010,8862,9118,66.1,60.9,64.5,65.5,2.743,3.012,2.508,2.968,0.24,29.3,39.2,82.7,1018.33,-31.31,-0.57,1.75,36.4,45.9,40.7,0,no_anomaly,0.0,0,0,0,0,13.0827222,80.2706588,15.2,0.0
2024-05-16T06:18:12.000Z,MISSION_0043,120,1,transit,SITE_CHE_004,13.082722,80.2706626,15.2,25.3,3.653,0.108,4.83,1.4168,-3.9667,25.3021,0.97497,0.01964,-0.03106,0.21928,-0.0837,-0.028,-9.8699,0.2169,0.4723,0.4326,0.1599,3,10,0.85,0.97,0.33,24.548,16.85,91.3,47.3,20092.0,8893,8865,8924,8740,65.2,65.4,67.8,63.0,2.815,3.071,2.682,2.874,0.0,33.9,39.2,82.5,1018.44,-28.33,0.98,1.0,37.1,47.1,40.6,0,no_anomaly,0.0,0,0,0,0,13.082722,80.2706626,15.2,0.0
2024-05-16T06:18:12.100Z,MISSION_0043,121,1,transit,SITE_CHE_004,13.0827225,80.2706625,15.2,26.25,3.58,0.06,4.87,-0.6033,1.3202,26.2481,0.97379,-0.00774,0.01002,0.2271,-0.0452,0.1172,-9.8737,0.4425,-0.0906,0.0136,0.2168,3,14,0.73,0.99,0.31,24.488,16.69,91.3,47.6,20078.0,8968,8809,8704,9059,62.9,66.4,59.5,62.6,2.67,2.642,2.905,2.591,0.53,31.6,38.7,81.9,1018.77,-27.94,-0.65,1.0,35.4,50.2,40.5,0,no_anomaly,0.0,0,0,0,0,13.0827225,80.2706625,15.2,0.0
2024-05-16T06:18:12.200Z,MISSION_0043,122,1,transit,SITE_CHE_004,13.0827259,80.2706635,15.2,25.88,3.386,0.113,4.99,-0.3341,-1.8544,25.8783,0.97449,0.00078,-0.01642,0.22384,0.0475,0.0222,-9.852,0.0821,-0.1651,0.0265,0.0769,3,16,0.7,0.86,0.25,24.632,19.75,91.2,47.5,20064.0,8752,8904,8687,8641,63.7,62.7,60.8,64.5,2.84,2.928,2.544,2.66,0.31,30.2,39.3,81.3,1018.94,-32.99,1.32,1.07,37.1,50.0,42.8,0,no_anomaly,0.0,0,0,0,0,13.0827259,80.2706635,15.2,0.0
2024-05-16T06:18:12.300Z,MISSION_0043,123,1,transit,SITE_CHE_004,13.0827245,80.2706591,15.2,23.08,3.398,0.204,5.3,-0.0696,-0.214,23.0764,0.97979,-0.00022,-0.00195,0.20002,0.0454,-0.0209,-9.7911,0.21,0.9513,-0.2935,0.1301,3,13,0.66,1.07,0.23,24.585,18.89,91.1,48.2,20050.0,8690,8888,8567,8736,66.1,61.6,65.1,65.2,2.952,2.93,2.619,2.734,0.27,34.4,39.0,82.9,1018.66,-30.69,0.93,1.4,35.9,46.4,39.8,0,no_anomaly,0.0,0,0,0,0,13.0827245,80.2706591,15.2,0.0
2024-05-16T06:18:12.400Z,MISSION_0043,124,1,transit,SITE_CHE_004,13.0827184,80.27066,15.2,24.43,3.288,0.04,4.9,2.0461,0.2486,24.4277,0.97721,0.01699,0.0059,0.21149,0.0547,-0.0749,-9.8253,-0.5191,0.5999,-0.1505,0.0836,3,10,0.89,0.82,0.43,24.533,17.33,91.1,46.9,20036.0,8954,8933,8846,8953,64.4,60.2,66.3,64.2,2.829,2.494,2.997,2.583,0.26,24.1,39.1,82.1,1018.53,-29.72,-1.2,1.54,33.6,49.2,39.9,0,no_anomaly,0.0,0,0,0,0,13.0827184,80.27066,15.2,0.0
2024-05-16T06:18:12.500Z,MISSION_0043,125,1,transit,SITE_CHE_004,13.0827219,80.2706562,15.2,21.17,3.319,0.147,5.46,-0.0365,-4.7193,21.1715,0.98215,0.00725,-0.04053,0.18354,-0.1062,0.0109,-9.8481,-0.164,0.1525,-0.0583,0.1444,3,17,0.61,1.01,0.25,24.618,21.86,91.0,47.4,20022.0,8791,8605,8833,8739,64.3,64.4,63.9,63.4,2.865,2.59,2.842,2.816,0.6,33.9,38.7,82.6,1018.53,-29.71,-1.36,1.85,33.0,45.3,42.7,0,no_anomaly,0.0,0,0,0,0,13.0827219,80.2706562,15.2,0.0
2024-05-16T06:18:12.600Z,MISSION_0043,126,1,transit,SITE_CHE_004,13.0827168,80.2706521,15.2,21.29,3.387,0.186,5.65,2.3943,0.1141,21.2881,0.98258,0.02035,0.00484,0.18465,-0.0536,0.0182,-9.7928,0.4794,0.1684,0.3169,0.1593,3,14,0.75,1.07,0.29,24.57,16.31,90.9,47.4,20008.0,8829,8743,8747,8884,60.2,62.6,65.8,61.4,2.757,2.849,2.781,2.874,0.27,32.4,39.2,81.7,1018.38,-31.83,0.3,1.98,36.6,54.2,43.6,0,no_anomaly,0.0,0,0,0,0,13.0827168,80.2706521,15.2,0.0
2024-05-16T06:18:12.700Z,MISSION_0043,127,1,transit,SITE_CHE_004,13.0827161,80.2706512,15.2,20.17,3.573,0.16,5.72,0.6135,-2.3031,20.1725,0.98431,0.00879,-0.01885,0.1752,0.0296,0.044,-9.7751,-0.8815,-0.2219,0.43,0.126,3,16,0.61,1.21,0.29,24.594,25.05,90.9,47.8,19994.0,8607,8742,8882,8890,66.3,67.1,64.3,61.4,2.782,3.063,2.551,2.476,0.36,34.8,38.8,81.9,1018.4,-29.32,0.9,1.71,33.4,45.3,41.3,0,no_anomaly,0.0,0,0,0,0,13.0827161,80.2706512,15.2,0.0
2024-05-16T06:18:12.800Z,MISSION_0043,128,1,orbit_base,SITE_CHE_004,13.0826387,80.2706486,15.5,17.88,4.129,0.073,8.91,-1.6459,-3.7383,17.8776,0.9873,-0.00911,-0.03445,0.15482,0.0564,0.1067,-9.854,-0.3684,-0.1603,-0.0821,0.112,3,15,0.97,1.04,0.28,24.54,19.85,90.8,47.7,19980.0,9041,8862,8639,8660,61.7,66.6,62.9,64.0,2.815,3.203,2.467,2.831,0.03,39.2,38.7,81.3,1018.45,-30.5,-1.38,1.69,32.9,45.3,40.4,0,no_anomaly,0.0,0,0,0,0,13.0826387,80.2706486,15.5,0.0
2024-05-16T06:18:12.900Z,MISSION_0043,129,1,orbit_base,SITE_CHE_004,13.0826403,80.2706467,15.8,20.1,4.209,0.154,8.91,-0.8002,-1.2186,20.0997,0.98459,-0.00502,-0.01169,0.17442,0.061,-0.001,-9.8749,-0.0408,-0.6295,0.2034,0.0939,3,17,0.67,0.86,0.29,24.514,25.42,90.8,46.4,19966.0,8553,8824,8622,8935,66.9,61.1,64.7,63.0,2.811,2.662,2.704,2.859,0.0,31.7,38.9,82.2,1018.44,-32.3,-0.45,1.19,33.2,51.8,40.1,0,no_anomaly,0.0,0,0,0,0,13.0826403,80.2706467,15.8,0.0
2024-05-16T06:18:13.000Z,MISSION_0043,130,1,orbit_base,SITE_CHE_004,13.0826419,80.270645,16.1,19.94,4.193,0.05,8.91,0.984,-1.2813,19.9351,0.98479,0.01039,-0.00953,0.17317,0.0112,-0.0201,-9.807,-0.5815,1.179,0.5512,0.1076,3,19,0.69,0.8,0.21,24.556,21.52,90.7,46.9,19953.0,8716,8895,9192,8919,64.1,63.7,65.0,64.8,2.851,2.667,2.714,2.864,0.0,35.2,39.1,82.8,1018.71,-29.85,1.58,1.67,33.9,51.0,43.9,0,no_anomaly,0.0,0,0,0,0,13.0826419,80.270645,16.1,0.0
