timestamp_utc,mission_id,frame_id,waypoint_id,inspection_phase,site_id,latitude_deg,longitude_deg,altitude_m,heading_deg,ground_speed_ms,vertical_speed_ms,distance_to_tower_m,roll_deg,pitch_deg,yaw_deg,quat_w,quat_x,quat_y,quat_z,accel_x_ms2,accel_y_ms2,accel_z_ms2,gyro_x_rads,gyro_y_rads,gyro_z_rads,vibration_level,gps_fix_type,gps_satellite_count,gps_hdop,gps_vdop,position_error_m,battery_voltage_v,battery_current_a,battery_remaining_pct,battery_temp_c,battery_capacity_mah,motor_fl_rpm,motor_fr_rpm,motor_rl_rpm,motor_rr_rpm,motor_fl_temp_c,motor_fr_temp_c,motor_rl_temp_c,motor_rr_temp_c,motor_fl_thrust_n,motor_fr_thrust_n,motor_rl_thrust_n,motor_rr_thrust_n,wind_speed_ms,wind_dir_deg,air_temp_c,humidity_pct,pressure_hpa,gimbal_pitch_deg,gimbal_roll_deg,zoom_factor,ir_temp_min_c,ir_temp_max_c,ir_temp_avg_c,anomaly_detected,anomaly_class,anomaly_confidence,anomaly_bbox_x,anomaly_bbox_y,anomaly_bbox_w,anomaly_bbox_h,anomaly_gps_lat,anomaly_gps_lon,anomaly_gps_alt_m,ir_temp_delta_c
2024-06-20T11:02:00.000Z,MISSION_0039,0,0,takeoff,SITE_LKN_010,26.8466975,80.9462074,1.5,193.47,0.313,0.009,0.87,-1.2549,-2.065,193.4696,-0.11705,0.01918,-0.00876,0.9929,0.2387,-0.0247,-9.8914,0.1661,-0.9897,-0.3861,0.276,3,20,0.81,0.6,0.42,24.797,14.0,98.7,30.4,21718.0,7956,8032,7952,8296,49.8,50.1,50.7,46.4,3.043,2.672,2.841,2.762,7.77,179.3,23.0,58.6,1007.12,-33.77,-1.26,1.36,19.7,33.0,25.9,0,no_anomaly,0.0,0,0,0,0,26.8466975,80.9462074,1.5,0.0
2024-06-20T11:02:00.100Z,MISSION_0039,1,0,takeoff,SITE_LKN_010,26.8466986,80.9462067,3.0,196.04,0.443,0.105,0.76,0.4364,-2.7419,196.0442,-0.1396,0.02316,0.00711,0.98991,0.2948,-0.01,-9.8297,0.8399,-1.2581,0.0055,0.2464,3,11,0.76,0.76,0.24,24.784,17.11,98.6,31.0,21700.0,7740,7989,8104,8003,52.0,50.3,51.3,45.3,2.925,2.565,2.643,2.947,7.96,180.4,22.7,58.7,1007.58,-29.92,-0.12,1.6,19.7,32.7,24.8,0,no_anomaly,0.0,0,0,0,0,26.8466986,80.9462067,3.0,0.0
2024-06-20T11:02:00.200Z,MISSION_0039,2,0,takeoff,SITE_LKN_010,26.8466974,80.9462058,4.5,197.2,0.224,0.123,0.71,1.0623,-3.5707,197.2032,-0.14977,0.02942,0.01382,0.98819,0.2608,0.118,-9.8164,-0.7524,0.1243,-0.0154,0.2923,3,10,0.66,0.92,0.2,24.816,11.33,98.6,32.3,21681.0,8299,7977,8153,8351,47.7,49.2,48.4,47.9,2.831,2.848,2.986,2.813,7.72,191.8,22.9,59.1,1007.45,-34.48,0.92,1.28,20.9,32.8,23.9,0,no_anomaly,0.0,0,0,0,0,26.8466974,80.9462058,4.5,0.0
2024-06-20T11:02:00.300Z,MISSION_0039,3,0,takeoff,SITE_LKN_010,26.8467035,80.9462068,5.0,198.43,0.464,0.054,0.85,-2.9013,0.1672,198.4283,-0.16011,0.00261,-0.02522,0.98677,0.0163,-0.0097,-9.936,-0.1342,-0.8787,0.4801,0.2156,3,11,0.62,0.75,0.23,24.828,12.14,98.5,31.8,21663.0,8029,8203,8135,8117,47.0,47.2,45.1,45.3,2.576,3.021,2.643,3.067,7.99,177.1,23.0,59.7,1007.66,-27.49,0.15,1.07,20.2,31.6,28.7,0,no_anomaly,0.0,0,0,0,0,26.8467035,80.9462068,5.0,0.0
2024-06-20T11:02:00.400Z,MISSION_0039,4,0,takeoff,SITE_LKN_010,26.8467077,80.9462107,5.0,199.9,0.616,0.099,1.47,3.1694,1.1578,199.9013,-0.17245,-0.01473,0.02549,0.98458,0.1161,0.0527,-9.8508,-0.4743,0.6311,0.4347,0.1566,3,15,0.57,0.6,0.25,24.755,19.66,98.4,31.1,21644.0,8311,7971,8109,8082,46.4,47.7,50.2,43.6,2.753,2.737,2.525,2.606,7.64,186.5,23.0,58.6,1007.11,-29.67,1.26,1.83,20.2,36.8,23.9,0,no_anomaly,0.0,0,0,0,0,26.8467077,80.9462107,5.0,0.0
2024-06-20T11:02:00.500Z,MISSION_0039,5,0,takeoff,SITE_LKN_010,26.8467079,80.9462101,5.0,200.58,0.891,0.187,1.42,-1.6991,-3.9187,200.5768,-0.17798,0.03628,-0.00847,0.98333,-0.1123,0.0359,-9.8066,-0.1269,0.0501,0.2954,0.2552,3,12,0.58,0.74,0.2,24.736,19.45,98.3,31.6,21626.0,8194,7913,7771,8009,45.8,47.6,49.2,49.1,2.833,2.545,2.578,2.851,7.95,176.6,22.8,58.7,1007.43,-28.95,-0.44,1.57,16.5,35.7,25.5,0,no_anomaly,0.0,0,0,0,0,26.8467079,80.9462101,5.0,0.0
2024-06-20T11:02:00.600Z,MISSION_0039,6,0,takeoff,SITE_LKN_010,26.8467118,80.9462162,5.0,201.23,0.769,0.15,2.23,3.9115,0.5281,201.2277,-0.18393,-0.01081,0.0327,0.98234,0.1492,0.0288,-9.8137,0.5163,0.0331,-0.0883,0.2775,3,16,0.81,0.73,0.32,24.804,16.79,98.2,31.4,21608.0,8272,8231,8145,7970,48.4,45.8,51.0,45.6,2.775,2.882,2.873,2.822,8.69,181.5,22.9,59.5,1007.61,-33.55,-0.16,1.63,15.8,37.0,27.8,0,no_anomaly,0.0,0,0,0,0,26.8467118,80.9462162,5.0,0.0
2024-06-20T11:02:00.700Z,MISSION_0039,7,0,takeoff,SITE_LKN_010,26.8467109,80.9462149,5.0,203.68,0.455,0.153,2.06,-3.276,-3.8027,203.6781,-0.20404,0.03832,-0.02116,0.97798,-0.1587,0.0059,-9.8194,0.0037,-0.174,0.5812,0.2983,3,19,0.71,0.92,0.46,24.714,18.61,98.1,31.8,21589.0,8063,8262,8069,7967,44.9,45.9,47.1,47.4,2.952,3.152,2.685,2.763,7.51,182.2,23.0,59.1,1007.37,-32.4,1.08,1.23,18.2,28.8,27.3,0,no_anomaly,0.0,0,0,0,0,26.8467109,80.9462149,5.0,0.0
2024-06-20T11:02:00.800Z,MISSION_0039,8,0,takeoff,SITE_LKN_010,26.8467099,80.9462174,5.0,204.79,0.764,0.119,2.23,-0.8384,-3.0837,204.7902,-0.21438,0.02785,-0.00137,0.97635,0.1978,-0.0204,-9.863,-0.5118,-0.0619,0.1483,0.2137,3,16,0.78,0.9,0.36,24.823,18.55,98.0,30.7,21571.0,7885,7846,8365,8164,48.4,46.8,51.1,48.1,2.425,2.754,3.073,2.86,7.58,180.0,22.8,58.6,1007.7,-34.02,0.24,1.39,19.1,29.4,21.8,0,no_anomaly,0.0,0,0,0,0,26.8467099,80.9462174,5.0,0.0
2024-06-20T11:02:00.900Z,MISSION_0039,9,0,takeoff,SITE_LKN_010,26.8467094,80.9462173,5.0,206.8,0.411,-0.003,2.19,-2.8955,-2.3697,206.796,-0.23108,0.02596,-0.01978,0.97239,0.1036,-0.0588,-9.8364,0.6504,-0.9404,-0.3691,0.3567,3,20,0.76,0.78,0.32,24.769,19.77,98.0,30.9,21552.0,8058,8026,8133,8145,48.4,52.0,48.7,48.8,2.628,2.815,2.552,3.065,8.33,176.4,22.9,58.6,1007.49,-33.94,-0.18,1.7,19.9,33.2,24.3,0,no_anomaly,0.0,0,0,0,0,26.8467094,80.9462173,5.0,0.0
2024-06-20T11:02:01.000Z,MISSION_0039,10,0,takeoff,SITE_LKN_010,26.8467141,80.9462166,5.0,207.05,0.073,0.118,2.42,-0.7694,-3.7013,207.0515,-0.23354,0.03297,0.00103,0.97179,0.1057,0.0348,-9.7829,-0.8771,0.3266,0.2029,0.2697,3,10,0.9,0.64,0.35,24.776,25.86,97.9,30.6,21534.0,8159,8131,8097,8323,49.5,47.6,45.0,45.9,2.756,2.899,2.872,2.735,7.89,180.8,23.2,58.7,1007.62,-27.72,-0.22,1.43,17.8,34.6,23.9,0,no_anomaly,0.0,0,0,0,0,26.8467141,80.9462166,5.0,0.0
2024-06-20T11:02:01.100Z,MISSION_0039,11,0,takeoff,SITE_LKN_010,26.8467156,80.9462179,5.0,205.25,0.028,0.086,2.64,-1.4519,-2.0394,205.2526,-0.21832,0.02013,-0.00847,0.97563,0.1707,0.0231,-9.7522,0.8673,0.0293,0.1717,0.1323,3,10,0.7,0.96,0.32,24.783,19.38,97.8,31.3,21516.0,8039,8016,7855,8033,47.9,48.2,46.2,44.8,2.833,2.615,2.716,2.695,7.13,187.8,23.0,58.1,1007.28,-28.58,1.52,1.8,19.6,34.1,24.7,0,no_anomaly,0.0,0,0,0,0,26.8467156,80.9462179,5.0,0.0
2024-06-20T11:02:01.200Z,MISSION_0039,12,0,takeoff,SITE_LKN_010,26.8467173,80.9462183,5.0,207.64,0.0,0.106,2.81,-2.4015,-1.8553,207.6365,-0.23843,0.02072,-0.01648,0.9708,-0.2922,0.0647,-9.7791,0.497,-1.058,0.3008,0.3289,3,12,0.81,0.83,0.37,24.728,16.71,97.7,30.6,21497.0,8001,8130,7870,8161,49.6,47.1,49.9,45.8,2.948,2.834,2.813,2.773,8.11,173.9,22.3,58.5,1007.46,-32.16,1.28,1.79,16.8,36.5,26.8,0,no_anomaly,0.0,0,0,0,0,26.8467173,80.9462183,5.0,0.0
2024-06-20T11:02:01.300Z,MISSION_0039,13,0,takeoff,SITE_LKN_010,26.8467142,80.946224,5.0,207.19,0.0,0.196,3.11,1.9884,-3.6933,207.1883,-0.23543,0.02724,0.02443,0.9712,0.1059,0.056,-9.8009,0.6692,-0.6673,0.0191,0.2191,3,17,0.5,0.79,0.21,24.848,17.19,97.6,31.2,21479.0,8052,8397,7877,8183,46.1,49.6,50.7,46.5,2.752,2.971,2.764,2.601,8.09,179.5,22.8,58.3,1007.2,-29.88,2.11,1.46,15.6,29.4,28.2,0,no_anomaly,0.0,0,0,0,0,26.8467142,80.946224,5.0,0.0
2024-06-20T11:02:01.400Z,MISSION_0039,14,0,takeoff,SITE_LKN_010,26.8467147,80.9462203,5.0,207.42,0.036,0.047,2.79,0.9216,-0.8133,207.4179,-0.23703,0.00499,0.0095,0.97144,-0.0169,0.0473,-9.7894,-0.01,0.5364,0.0891,0.3327,3,16,0.5,0.82,0.22,24.763,17.76,97.5,31.4,21460.0,7914,8219,8381,7904,44.8,48.9,51.5,50.3,2.753,2.822,2.82,2.87,7.82,174.0,23.2,59.5,1007.55,-30.02,0.8,1.65,18.8,28.8,26.1,0,no_anomaly,0.0,0,0,0,0,26.8467147,80.9462203,5.0,0.0
2024-06-20T11:02:01.500Z,MISSION_0039,15,0,takeoff,SITE_LKN_010,26.8467142,80.9462164,5.0,207.91,0.193,0.186,2.41,-3.887,0.1962,207.9075,-0.24106,0.00652,-0.03333,0.96992,0.0134,-0.0937,-9.8743,-0.1328,-0.3923,-0.1938,0.245,3,13,0.6,0.92,0.26,24.791,15.72,97.5,30.8,21442.0,8126,7987,8292,7952,43.0,47.1,49.1,45.3,3.019,2.557,3.065,2.894,7.05,174.5,22.9,58.5,1006.99,-32.19,-1.11,1.67,18.3,33.1,25.5,0,no_anomaly,0.0,0,0,0,0,26.8467142,80.9462164,5.0,0.0
2024-06-20T11:02:01.600Z,MISSION_0039,16,0,takeoff,SITE_LKN_010,26.8467163,80.9462191,5.0,207.7,0.0,0.105,2.79,-3.4045,-1.3174,207.7033,-0.23896,0.01827,-0.02609,0.97051,0.0032,-0.0187,-9.8027,-0.3869,0.627,0.0054,0.2021,3,14,0.69,0.84,0.32,24.776,13.94,97.4,30.5,21424.0,7776,7988,8015,7993,48.3,44.9,47.9,50.3,2.899,2.867,2.658,2.893,7.15,178.3,22.9,58.5,1007.08,-30.91,0.36,1.19,21.1,29.7,24.2,0,no_anomaly,0.0,0,0,0,0,26.8467163,80.9462191,5.0,0.0
2024-06-20T11:02:01.700Z,MISSION_0039,17,0,takeoff,SITE_LKN_010,26.8467161,80.9462206,5.0,207.08,0.464,0.119,2.91,-3.1947,0.5409,207.084,-0.23419,0.00194,-0.02821,0.97178,-0.0443,0.0447,-9.7283,0.4764,0.5197,-0.7468,0.2456,3,10,0.73,0.87,0.2,24.788,20.03,97.3,30.7,21405.0,7971,8251,8057,7943,47.1,51.0,43.2,47.0,2.828,2.6,2.96,2.832,8.42,179.3,23.2,59.0,1007.3,-27.8,0.36,1.75,15.3,30.3,26.1,0,no_anomaly,0.0,0,0,0,0,26.8467161,80.9462206,5.0,0.0
2024-06-20T11:02:01.800Z,MISSION_0039,18,0,takeoff,SITE_LKN_010,26.8467171,80.9462219,5.0,205.77,1.022,0.075,3.09,-1.8334,-1.2764,205.7669,-0.22275,0.01442,-0.01311,0.97468,-0.4757,-0.0083,-9.7691,0.5789,-0.2018,-0.4091,0.1837,3,20,0.5,1.06,0.2,24.73,15.98,97.2,31.0,21387.0,8494,7885,7948,8202,51.4,47.6,46.1,49.3,2.838,2.853,2.491,2.657,7.87,185.7,23.1,59.2,1007.19,-28.36,0.09,1.72,15.7,33.3,27.3,0,no_anomaly,0.0,0,0,0,0,26.8467171,80.9462219,5.0,0.0
2024-06-20T11:02:01.900Z,MISSION_0039,19,0,takeoff,SITE_LKN_010,26.8467211,80.9462206,5.0,205.49,0.957,0.13,3.28,-8.0323,-3.4348,205.4934,-0.21795,0.04461,-0.06168,0.97299,0.0093,-0.0489,-9.7866,0.7508,0.1859,0.3768,0.2146,3,20,0.83,1.06,0.36,24.692,17.68,97.1,30.7,21369.0,8202,8102,8058,7916,46.3,45.0,48.0,47.3,2.824,2.979,2.661,2.852,8.07,187.1,22.9,59.3,1007.66,-32.03,0.51,1.98,16.8,36.8,27.0,0,no_anomaly,0.0,0,0,0,0,26.8467211,80.9462206,5.0,0.0
2024-06-20T11:02:02.000Z,MISSION_0039,20,0,takeoff,SITE_LKN_010,26.8467258,80.9462205,5.0,206.22,0.754,0.187,3.67,6.9864,-2.2769,206.2238,-0.22757,0.00549,0.06383,0.97165,0.136,-0.0026,-9.8473,-0.1258,-0.5548,-0.5532,0.2284,3,19,0.72,0.93,0.21,24.753,18.53,97.0,30.8,21350.0,8050,8281,8077,8043,48.8,47.9,45.4,49.3,2.398,2.684,2.723,2.909,8.99,185.6,22.8,59.5,1007.16,-31.47,-0.26,1.23,17.7,30.8,25.8,0,no_anomaly,0.0,0,0,0,0,26.8467258,80.9462205,5.0,0.0
2024-06-20T11:02:02.100Z,MISSION_0039,21,0,takeoff,SITE_LKN_010,26.8467251,80.9462224,5.0,206.52,0.924,0.046,3.75,-4.0394,-0.5267,206.5221,-0.22909,0.01256,-0.03325,0.97276,0.1569,-0.0314,-9.8222,-0.5852,0.0752,-0.0558,0.2152,3,15,0.58,0.92,0.27,24.69,16.72,97.0,31.1,21332.0,8283,7989,8106,7964,44.8,48.7,51.8,48.9,2.92,3.151,2.65,2.793,7.86,179.1,22.5,59.8,1007.44,-32.93,-1.57,1.58,19.3,30.0,25.5,0,no_anomaly,0.0,0,0,0,0,26.8467251,80.9462224,5.0,0.0
2024-06-20T11:02:02.200Z,MISSION_0039,22,0,takeoff,SITE_LKN_010,26.8467255,80.9462276,5.0,206.42,0.771,0.14,4.18,-3.9,-3.7553,206.4186,-0.22717,0.03965,-0.02563,0.97271,-0.1263,-0.0702,-9.8151,-0.3538,0.2325,0.3534,0.3206,3,19,0.8,0.66,0.3,24.709,17.75,96.9,31.3,21313.0,7983,7938,8095,8057,49.4,46.0,48.7,45.4,3.022,2.758,2.564,2.846,8.7,184.4,22.7,59.5,1007.35,-31.63,1.32,1.14,18.1,28.5,25.4,0,no_anomaly,0.0,0,0,0,0,26.8467255,80.9462276,5.0,0.0
2024-06-20T11:02:02.300Z,MISSION_0039,23,0,takeoff,SITE_LKN_010,26.8467312,80.9462273,5.0,204.6,0.085,-0.007,4.61,1.8451,-3.2601,204.6006,-0.21337,0.02436,0.02178,0.97642,0.0668,0.0332,-9.8653,-0.0888,0.0549,0.0022,0.1851,3,14,0.79,0.95,0.32,24.691,14.16,96.8,32.1,21295.0,8009,7988,8274,8033,47.1,48.0,49.2,46.1,2.821,2.579,2.666,2.528,7.8,191.6,23.0,58.6,1007.25,-29.98,-0.92,1.71,20.2,33.6,23.4,0,no_anomaly,0.0,0,0,0,0,26.8467312,80.9462273,5.0,0.0
2024-06-20T11:02:02.400Z,MISSION_0039,24,0,takeoff,SITE_LKN_010,26.8467271,80.9462231,5.0,203.74,0.0,0.151,3.97,10.2701,-0.5793,203.7413,-0.20532,-0.01348,0.08862,0.97458,0.0385,0.0156,-9.8492,-0.4489,0.3121,0.2099,0.2365,3,17,0.77,0.72,0.3,24.731,22.26,96.7,30.1,21277.0,8094,8012,7859,8220,49.6,47.4,50.3,46.6,2.73,2.599,2.899,2.867,7.29,186.8,22.7,59.4,1007.56,-27.31,-0.29,1.5,18.7,37.9,23.6,0,no_anomaly,0.0,0,0,0,0,26.8467271,80.9462231,5.0,0.0
2024-06-20T11:02:02.500Z,MISSION_0039,25,0,takeoff,SITE_LKN_010,26.8467244,80.9462214,5.0,202.59,0.0,0.037,3.61,0.4581,-2.5106,202.5873,-0.19587,0.0207,0.00821,0.98038,-0.1964,-0.135,-9.8464,0.2176,-0.1015,0.3354,0.2441,3,10,0.54,1.22,0.24,24.71,19.11,96.6,31.2,21258.0,8251,8235,8103,7871,50.0,48.0,49.9,48.9,2.808,2.834,2.912,2.907,7.36,178.7,22.9,59.8,1007.39,-31.43,0.97,1.85,14.6,28.4,23.7,0,no_anomaly,0.0,0,0,0,0,26.8467244,80.9462214,5.0,0.0
2024-06-20T11:02:02.600Z,MISSION_0039,26,0,takeoff,SITE_LKN_010,26.8467226,80.9462226,5.0,202.53,0.049,0.131,3.56,-3.2523,-2.8153,202.5258,-0.19449,0.02962,-0.02303,0.98019,0.1083,0.0182,-9.863,0.4272,-0.6329,0.0371,0.2497,3,11,0.68,0.7,0.34,24.709,16.3,96.5,31.7,21240.0,7980,7989,8146,8117,47.8,45.2,44.1,45.4,2.774,2.967,2.751,2.939,7.85,180.5,22.8,58.4,1007.05,-34.01,0.99,1.37,20.1,38.4,24.8,0,no_anomaly,0.0,0,0,0,0,26.8467226,80.9462226,5.0,0.0
2024-06-20T11:02:02.700Z,MISSION_0039,27,0,takeoff,SITE_LKN_010,26.8467182,80.9462211,5.0,199.91,0.0,0.131,3.1,1.5133,-1.7284,199.9056,-0.173,0.01257,0.01561,0.98472,0.1722,-0.0283,-9.8192,0.4986,-0.3798,-0.292,0.2526,3,13,0.72,0.77,0.32,24.698,17.66,96.5,30.7,21221.0,7960,8091,8002,8183,51.5,45.9,47.2,46.4,2.736,2.912,2.844,2.886,7.62,188.5,22.6,58.7,1007.04,-28.76,-0.2,1.27,16.1,31.1,25.3,0,no_anomaly,0.0,0,0,0,0,26.8467182,80.9462211,5.0,0.0
2024-06-20T11:02:02.800Z,MISSION_0039,28,0,takeoff,SITE_LKN_010,26.8467179,80.9462238,5.0,201.79,0.0,0.044,3.31,-2.085,-2.7932,201.7917,-0.1885,0.02737,-0.01325,0.9816,0.2623,0.0006,-9.7952,-0.098,-0.3002,-0.206,0.3241,3,15,0.55,0.75,0.27,24.706,18.55,96.4,31.4,21203.0,8260,8081,7806,7987,47.6,47.5,49.9,48.7,2.786,2.831,2.786,2.738,7.49,175.1,23.1,58.5,1007.42,-27.47,-1.75,1.16,21.0,28.6,25.7,0,no_anomaly,0.0,0,0,0,0,26.8467179,80.9462238,5.0,0.0
2024-06-20T11:02:02.900Z,MISSION_0039,29,0,takeoff,SITE_LKN_010,26.8467199,80.9462172,5.0,200.57,0.0,0.085,2.93,-1.9349,-1.3144,200.5664,-0.17829,0.0143,-0.01457,0.98377,-0.1062,0.013,-9.8121,0.3629,-0.3461,-0.1373,0.2521,3,19,0.64,0.83,0.23,24.666,11.39,96.3,31.0,21185.0,8005,8428,8086,8142,47.1,41.7,48.2,44.2,3.251,2.939,2.763,2.872,8.81,180.7,22.7,58.9,1007.23,-28.14,0.38,1.22,14.8,30.7,23.7,0,no_anomaly,0.0,0,0,0,0,26.8467199,80.9462172,5.0,0.0
2024-06-20T11:02:03.000Z,MISSION_0039,30,0,takeoff,SITE_LKN_010,26.8467141,80.9462159,5.0,204.08,0.0,0.08,2.37,2.5559,-0.9143,204.0842,-0.20875,0.00315,0.02348,0.97768,0.2017,-0.0459,-9.7765,-0.9294,-0.6027,0.1543,0.28,3,15,0.71,0.75,0.28,24.68,18.53,96.2,31.7,21166.0,8140,8315,7823,8089,48.7,48.2,48.8,48.5,2.865,2.93,2.918,2.847,8.19,191.1,23.1,59.4,1007.06,-32.66,0.23,1.38,14.8,31.9,26.5,0,no_anomaly,0.0,0,0,0,0,26.8467141,80.9462159,5.0,0.0
2024-06-20T11:02:03.100Z,MISSION_0039,31,0,takeoff,SITE_LKN_010,26.8467139,80.9462136,5.0,205.38,0.0,0.07,2.16,2.979,-0.9727,205.3801,-0.21981,0.00257,0.02722,0.97516,-0.1865,0.0339,-9.8702,-0.3717,0.0437,0.1226,0.2615,3,19,0.79,0.92,0.2,24.816,19.98,96.1,31.0,21148.0,7976,7833,8053,8179,49.0,46.3,48.6,44.9,2.935,3.074,2.835,2.901,7.77,191.2,23.1,58.8,1007.24,-30.29,-2.23,1.48,19.5,29.3,25.7,0,no_anomaly,0.0,0,0,0,0,26.8467139,80.9462136,5.0,0.0
2024-06-20T11:02:03.200Z,MISSION_0039,32,0,takeoff,SITE_LKN_010,26.8467122,80.9462175,5.0,207.0,0.0,0.062,2.37,-2.3634,-4.8781,207.0006,-0.23234,0.04618,-0.0101,0.97149,-0.1985,-0.027,-9.8078,1.1897,-0.777,-0.2031,0.2062,3,13,0.88,0.71,0.28,24.682,16.38,96.0,29.6,21129.0,7843,8201,7975,8018,50.2,48.6,49.9,47.9,2.719,2.866,2.623,2.961,8.59,184.9,22.7,58.0,1007.37,-26.42,-0.83,1.74,19.6,28.8,25.2,0,no_anomaly,0.0,0,0,0,0,26.8467122,80.9462175,5.0,0.0
2024-06-20T11:02:03.300Z,MISSION_0039,33,0,takeoff,SITE_LKN_010,26.8467093,80.9462187,5.0,207.25,0.0,0.041,2.33,-8.0493,-3.6445,207.2466,-0.23267,0.04735,-0.0607,0.9695,-0.0078,0.0197,-9.7394,0.9667,0.0703,0.0742,0.2539,3,14,0.72,1.08,0.25,24.706,19.79,96.0,30.5,21111.0,8163,8181,7973,8142,49.2,50.5,50.1,47.5,2.723,2.713,2.673,2.722,8.3,195.7,22.8,59.8,1007.19,-28.25,-0.68,1.13,19.0,35.4,24.5,0,no_anomaly,0.0,0,0,0,0,26.8467093,80.9462187,5.0,0.0
2024-06-20T11:02:03.400Z,MISSION_0039,34,0,takeoff,SITE_LKN_010,26.8467083,80.9462154,5.0,205.66,0.0,0.1,1.94,1.1367,-0.476,205.6562,-0.22205,0.00185,0.01059,0.97497,0.0918,0.004,-9.768,-0.0658,0.0916,0.1721,0.1786,3,17,0.99,0.6,0.29,24.783,20.68,95.9,30.7,21093.0,7928,8126,8309,7868,48.7,50.5,47.2,49.1,3.014,2.993,2.832,2.744,7.8,180.9,23.0,59.1,1007.09,-27.89,-1.81,1.82,19.2,29.0,24.5,0,no_anomaly,0.0,0,0,0,0,26.8467083,80.9462154,5.0,0.0
2024-06-20T11:02:03.500Z,MISSION_0039,35,0,takeoff,SITE_LKN_010,26.8467096,80.9462154,5.0,205.77,0.0,0.08,2.02,-2.0975,-2.346,205.7735,-0.22257,0.02403,-0.01327,0.97453,-0.0954,0.0223,-9.8476,0.0844,0.2499,0.1082,0.2655,3,10,0.64,0.97,0.34,24.852,16.56,95.8,31.1,21074.0,7848,7901,8077,8002,47.9,49.6,46.7,48.4,2.795,2.737,2.843,2.893,8.07,190.0,23.0,57.8,1007.47,-26.23,-0.77,1.82,18.2,36.5,26.6,0,no_anomaly,0.0,0,0,0,0,26.8467096,80.9462154,5.0,0.0
2024-06-20T11:02:03.600Z,MISSION_0039,36,0,takeoff,SITE_LKN_010,26.8467058,80.9462208,5.0,206.09,0.352,0.049,2.4,0.0444,-2.5051,206.0927,-0.22569,0.02121,0.00531,0.97395,-0.0074,-0.0467,-9.852,-0.5097,0.2472,-0.4386,0.2743,3,19,0.81,0.7,0.3,24.652,16.38,95.7,31.3,21056.0,7967,8232,8256,7982,48.0,47.9,50.0,47.5,2.921,2.514,2.843,2.913,8.02,179.4,23.0,58.1,1007.54,-31.54,0.32,1.08,15.6,29.3,22.3,0,no_anomaly,0.0,0,0,0,0,26.8467058,80.9462208,5.0,0.0
2024-06-20T11:02:03.700Z,MISSION_0039,37,0,takeoff,SITE_LKN_010,26.8467064,80.9462234,5.0,204.03,0.393,0.088,2.71,-2.5199,1.1083,204.0286,-0.2083,-0.00488,-0.02352,0.97777,0.4008,0.0707,-9.7841,-0.8825,0.538,0.2398,0.2388,3,15,0.84,0.84,0.55,24.656,21.46,95.6,31.4,21037.0,8210,8108,8015,8599,45.9,48.6,47.5,48.5,2.663,2.825,2.96,2.795,7.32,190.9,22.8,59.1,1007.41,-29.34,0.61,1.74,18.7,28.2,25.5,0,no_anomaly,0.0,0,0,0,0,26.8467064,80.9462234,5.0,0.0
2024-06-20T11:02:03.800Z,MISSION_0039,38,0,takeoff,SITE_LKN_010,26.8467036,80.9462298,5.0,204.48,0.196,0.125,3.34,-2.1142,-1.4231,204.4801,-0.21173,0.01605,-0.0154,0.97707,-0.1186,0.0295,-9.8207,-0.4209,0.9824,0.0398,0.2518,3,15,0.84,0.87,0.43,24.6,22.34,95.5,30.8,21019.0,8283,8130,8209,8129,49.9,44.2,47.6,46.6,2.859,2.977,3.086,2.789,8.01,181.3,23.0,58.5,1007.2,-36.81,-1.26,1.0,15.8,33.8,26.8,0,no_anomaly,0.0,0,0,0,0,26.8467036,80.9462298,5.0,0.0
2024-06-20T11:02:03.900Z,MISSION_0039,39,0,takeoff,SITE_LKN_010,26.8467074,80.9462237,5.0,201.82,0.0,0.142,2.76,1.9108,-3.9215,201.8161,-0.18966,0.03044,0.02284,0.98111,-0.0505,0.0012,-9.8365,-0.1446,-0.5527,0.3303,0.2211,3,12,0.57,0.82,0.2,24.62,15.13,95.5,30.8,21001.0,7934,7948,8257,8056,48.1,46.8,48.9,49.1,2.521,2.999,2.788,2.737,7.77,194.0,22.7,58.3,1007.35,-29.09,0.46,2.13,19.1,32.7,24.0,0,no_anomaly,0.0,0,0,0,0,26.8467074,80.9462237,5.0,0.0
2024-06-20T11:02:04.000Z,MISSION_0039,40,0,takeoff,SITE_LKN_010,26.8467082,80.9462221,5.0,201.36,0.0,0.152,2.63,0.2818,-2.1877,201.3561,-0.1853,0.0183,0.00595,0.98249,0.2302,0.0454,-9.809,-1.5493,0.1124,-0.0151,0.2878,3,16,0.64,0.98,0.2,24.749,19.03,95.4,30.6,20982.0,8035,7984,7911,8051,49.0,45.1,51.4,44.9,2.876,2.849,2.954,2.66,7.73,182.4,23.0,59.9,1007.08,-32.74,-1.39,1.5,19.6,32.4,25.3,0,no_anomaly,0.0,0,0,0,0,26.8467082,80.9462221,5.0,0.0
2024-06-20T11:02:04.100Z,MISSION_0039,41,0,takeoff,SITE_LKN_010,26.846709,80.9462197,5.0,203.11,0.0,0.104,2.41,2.543,-0.1202,203.1133,-0.20031,-0.00342,0.02195,0.97948,0.2177,-0.0185,-9.7912,0.1583,-0.85,-0.0433,0.2825,3,13,0.5,0.77,0.22,24.574,17.58,95.3,30.8,20964.0,8305,8112,8285,8026,46.1,50.2,46.3,52.1,2.904,3.17,2.875,2.598,7.9,188.4,23.1,58.9,1007.45,-28.38,0.04,1.66,16.2,31.1,26.4,0,no_anomaly,0.0,0,0,0,0,26.846709,80.9462197,5.0,0.0
2024-06-20T11:02:04.200Z,MISSION_0039,42,0,takeoff,SITE_LKN_010,26.846708,80.9462197,5.0,205.19,0.275,0.036,2.37,2.0378,-1.4632,205.1921,-0.21825,0.00858,0.02014,0.97565,-0.2529,-0.1136,-9.7389,0.6615,-0.4899,0.0954,0.2835,3,18,0.75,0.73,0.4,24.716,14.78,95.2,31.3,20945.0,8379,8326,7862,8040,47.9,50.9,48.9,47.6,2.728,2.792,2.545,2.8,8.35,192.2,23.0,59.2,1006.92,-32.13,0.74,1.32,19.1,34.4,24.7,0,no_anomaly,0.0,0,0,0,0,26.846708,80.9462197,5.0,0.0
2024-06-20T11:02:04.300Z,MISSION_0039,43,0,takeoff,SITE_LKN_010,26.8467072,80.9462206,5.0,204.01,0.014,0.077,2.43,3.2845,-3.8582,204.0061,-0.2087,0.02696,0.03501,0.97698,-0.0135,-0.0914,-9.757,0.0301,-0.6926,-0.2681,0.2951,3,10,0.87,0.92,0.37,24.631,19.38,95.1,32.3,20927.0,8168,8059,8088,7973,47.5,48.8,51.1,46.4,2.646,2.785,2.89,2.688,7.48,184.4,23.1,59.3,1007.57,-28.87,0.57,1.47,17.6,37.8,28.3,0,no_anomaly,0.0,0,0,0,0,26.8467072,80.9462206,5.0,0.0
2024-06-20T11:02:04.400Z,MISSION_0039,44,0,takeoff,SITE_LKN_010,26.846708,80.9462196,5.0,205.58,0.057,0.183,2.36,0.2356,-2.7206,205.5822,-0.22138,0.0227,0.00726,0.9749,0.3296,-0.0879,-9.7721,-0.2072,-0.6106,0.1619,0.2482,3,16,0.77,1.26,0.44,24.649,20.29,95.0,31.1,20909.0,8161,7905,8009,8296,48.3,46.7,46.0,50.4,2.939,2.877,2.771,3.006,7.59,186.5,22.9,59.8,1007.09,-30.65,-0.75,1.58,17.3,36.4,25.2,0,no_anomaly,0.0,0,0,0,0,26.846708,80.9462196,5.0,0.0
2024-06-20T11:02:04.500Z,MISSION_0039,45,0,takeoff,SITE_LKN_010,26.8467126,80.9462197,5.0,205.37,0.114,0.181,2.6,-3.2028,-5.3442,205.3693,-0.21799,0.05159,-0.017,0.97444,-0.2228,-0.0074,-9.858,-0.3274,0.8312,0.1806,0.3306,3,14,0.66,1.07,0.24,24.747,21.07,95.0,31.1,20890.0,7934,8427,7992,8060,47.5,47.7,44.7,46.5,2.962,3.055,2.522,2.873,7.25,175.5,22.7,58.1,1007.19,-33.25,-0.63,2.13,19.3,39.0,25.9,0,no_anomaly,0.0,0,0,0,0,26.8467126,80.9462197,5.0,0.0
2024-06-20T11:02:04.600Z,MISSION_0039,46,0,takeoff,SITE_LKN_010,26.8467154,80.9462173,5.0,205.33,0.0,0.092,2.58,6.1634,-1.4946,205.3287,-0.21959,0.00092,0.0553,0.97402,0.052,-0.0239,-9.7876,-0.9553,-0.1133,-0.3069,0.2333,3,14,0.71,0.79,0.26,24.744,18.58,94.9,31.3,20872.0,7871,8008,8033,8276,46.8,48.3,50.8,51.7,2.612,2.841,2.853,2.587,8.87,187.6,22.7,58.9,1007.12,-26.12,0.77,1.86,16.8,34.6,25.8,0,no_anomaly,0.0,0,0,0,0,26.8467154,80.9462173,5.0,0.0
2024-06-20T11:02:04.700Z,MISSION_0039,47,0,takeoff,SITE_LKN_010,26.8467143,80.9462177,5.0,201.89,0.027,0.125,2.53,-1.6801,-0.5073,201.893,-0.18981,0.00713,-0.01355,0.9817,-0.0021,-0.0402,-9.8348,-0.7492,-0.0527,0.473,0.1791,3,16,0.5,0.77,0.2,24.624,16.43,94.8,31.9,20853.0,8244,8155,8185,7945,51.4,46.0,49.5,48.6,2.772,2.657,2.816,2.953,8.26,172.3,22.9,59.4,1007.47,-33.3,-1.17,1.18,16.7,29.6,26.7,0,no_anomaly,0.0,0,0,0,0,26.8467143,80.9462177,5.0,0.0
2024-06-20T11:02:04.800Z,MISSION_0039,48,0,takeoff,SITE_LKN_010,26.846713,80.9462183,5.0,203.11,0.0,0.129,2.5,0.3116,-3.9763,203.1071,-0.20025,0.03345,0.00961,0.97913,0.0918,-0.0365,-9.7922,-0.4683,0.0984,0.1649,0.3485,3,11,0.64,1.28,0.3,24.656,21.85,94.7,30.3,20835.0,8031,8299,7878,8023,50.8,49.8,46.9,47.6,2.942,2.866,2.922,2.689,7.78,189.0,22.5,58.5,1007.17,-33.14,1.24,1.0,18.7,32.9,24.7,0,no_anomaly,0.0,0,0,0,0,26.846713,80.9462183,5.0,0.0
2024-06-20T11:02:04.900Z,MISSION_0039,49,0,takeoff,SITE_LKN_010,26.8467126,80.9462206,5.0,201.57,0.0,0.119,2.69,0.8612,-0.6318,201.5656,-0.18712,0.00401,0.00841,0.98229,0.0197,0.0651,-9.7958,0.1843,-0.0564,0.5201,0.3092,3,12,0.56,1.07,0.29,24.721,16.79,94.6,30.7,20817.0,8097,8000,8147,8037,46.2,49.7,48.4,47.5,2.807,2.745,2.69,2.774,8.11,183.5,22.5,58.7,1007.36,-33.88,-0.45,2.1,17.2,31.4,26.4,0,no_anomaly,0.0,0,0,0,0,26.8467126,80.9462206,5.0,0.0
2024-06-20T11:02:05.000Z,MISSION_0039,50,0,takeoff,SITE_LKN_010,26.8467103,80.9462152,5.0,200.6,0.085,0.094,2.05,0.6927,-2.2756,200.6045,-0.17892,0.01846,0.0095,0.98364,-0.169,0.0304,-9.8033,0.4184,0.1425,-0.2969,0.2063,3,14,0.93,0.9,0.42,24.705,21.44,94.5,31.1,20798.0,7873,8005,8021,8047,50.2,47.9,46.8,47.1,2.749,2.563,2.794,2.757,7.86,189.6,23.0,59.0,1007.41,-29.84,0.39,1.76,21.5,38.7,26.1,0,no_anomaly,0.0,0,0,0,0,26.8467103,80.9462152,5.0,0.0
2024-06-20T11:02:05.100Z,MISSION_0039,51,0,takeoff,SITE_LKN_010,26.8467084,80.9462161,5.0,199.44,0.0,0.172,2.02,-4.2918,-2.4378,199.4429,-0.16792,0.02727,-0.03331,0.98486,-0.3994,-0.0518,-9.7225,0.5421,0.2193,0.2492,0.2238,3,16,0.64,0.97,0.29,24.689,17.4,94.5,32.1,20780.0,8020,7887,7965,8228,51.8,46.5,47.6,47.0,2.649,2.732,2.953,2.638,7.44,181.1,22.8,57.7,1007.09,-31.26,-1.86,1.82,18.6,34.1,26.7,0,no_anomaly,0.0,0,0,0,0,26.8467084,80.9462161,5.0,0.0
2024-06-20T11:02:05.200Z,MISSION_0039,52,0,takeoff,SITE_LKN_010,26.8467088,80.9462189,5.0,199.26,0.588,0.086,2.32,3.6856,-1.9293,199.2575,-0.16769,0.01121,0.03451,0.98517,-0.1051,0.0331,-9.8047,0.6644,0.1182,-0.0963,0.3651,3,11,0.6,1.08,0.23,24.689,12.65,94.4,31.3,20761.0,8214,8251,8082,8109,45.1,45.5,44.4,47.3,2.499,2.498,2.89,2.876,7.96,180.6,23.4,58.6,1007.53,-29.15,-1.27,1.21,17.4,32.9,28.3,0,no_anomaly,0.0,0,0,0,0,26.8467088,80.9462189,5.0,0.0
2024-06-20T11:02:05.300Z,MISSION_0039,53,0,takeoff,SITE_LKN_010,26.8467076,80.9462206,5.0,198.57,0.819,0.156,2.45,-1.6233,0.2654,198.5669,-0.16133,-0.0,-0.01435,0.9868,0.155,0.0063,-9.8199,0.3077,-0.6576,-0.2997,0.2691,3,16,0.79,1.2,0.22,24.703,15.04,94.3,31.5,20743.0,7877,8208,8030,7863,46.5,44.2,45.9,47.6,2.875,2.523,2.856,2.443,7.53,194.4,22.8,59.6,1007.17,-28.85,0.81,2.04,16.5,33.7,22.5,0,no_anomaly,0.0,0,0,0,0,26.8467076,80.9462206,5.0,0.0
2024-06-20T11:02:05.400Z,MISSION_0039,54,0,takeoff,SITE_LKN_010,26.8467095,80.9462177,5.0,199.99,0.163,0.11,2.24,8.1428,-1.1655,199.9921,-0.17384,-0.00233,0.07168,0.98216,-0.1596,0.0368,-9.8467,-0.1904,-0.448,-0.3929,0.2765,3,13,0.67,0.97,0.24,24.619,14.97,94.2,31.4,20725.0,8406,8126,8325,8133,50.2,48.6,47.2,47.9,2.896,2.977,2.924,2.838,7.01,183.1,23.0,59.0,1007.37,-31.84,-2.2,1.41,17.8,27.9,24.0,0,no_anomaly,0.0,0,0,0,0,26.8467095,80.9462177,5.0,0.0
2024-06-20T11:02:05.500Z,MISSION_0039,55,0,takeoff,SITE_LKN_010,26.846714,80.9462222,5.0,199.9,0.374,0.059,2.93,2.1482,-2.8653,199.9019,-0.17318,0.02138,0.02278,0.98439,-0.1191,-0.0035,-9.9064,-0.168,0.0277,-0.131,0.1838,3,18,0.53,0.93,0.2,24.692,17.02,94.1,30.7,20706.0,8334,8267,7989,8161,43.6,48.4,46.1,47.8,2.98,2.325,2.92,2.876,7.84,182.3,22.5,59.3,1007.03,-27.12,-0.57,1.52,14.5,30.9,23.2,0,no_anomaly,0.0,0,0,0,0,26.846714,80.9462222,5.0,0.0
2024-06-20T11:02:05.600Z,MISSION_0039,56,0,takeoff,SITE_LKN_010,26.846717,80.9462263,5.0,199.97,0.744,0.097,3.49,-4.4384,-2.0218,199.9664,-0.17253,0.02407,-0.03507,0.98409,0.033,-0.0372,-9.8595,0.3904,0.3605,-0.3985,0.2152,3,19,0.72,0.89,0.25,24.692,16.83,94.0,31.4,20688.0,8116,8229,8161,8183,48.0,49.4,45.5,45.6,2.804,2.786,2.806,3.095,7.63,188.9,23.1,58.6,1007.19,-26.47,-0.46,1.65,19.9,30.2,27.4,0,no_anomaly,0.0,0,0,0,0,26.846717,80.9462263,5.0,0.0
2024-06-20T11:02:05.700Z,MISSION_0039,57,0,takeoff,SITE_LKN_010,26.84672,80.9462261,5.0,199.38,0.86,0.024,3.66,4.8947,-1.1934,199.3815,-0.16861,0.00307,0.04384,0.9847,0.054,-0.044,-9.7973,-0.6828,0.0009,0.1161,0.2436,3,20,0.67,1.13,0.27,24.636,14.19,94.0,31.2,20669.0,8147,8214,7829,8048,47.1,50.2,47.7,44.5,3.044,3.062,3.007,2.898,8.07,181.3,22.9,58.8,1007.16,-29.67,1.11,1.51,15.7,37.4,28.0,0,no_anomaly,0.0,0,0,0,0,26.84672,80.9462261,5.0,0.0
2024-06-20T11:02:05.800Z,MISSION_0039,58,0,takeoff,SITE_LKN_010,26.846728,80.9462263,5.0,201.91,0.907,0.187,4.28,0.3882,-1.1102,201.9146,-0.1901,0.00887,0.00517,0.98171,-0.0181,0.0446,-9.7835,-0.474,-0.3564,0.2385,0.2007,3,19,0.62,1.07,0.27,24.583,23.19,93.9,31.2,20651.0,7948,8170,8093,7891,48.5,50.3,45.9,47.9,3.295,2.704,2.905,3.012,7.82,179.3,23.1,59.4,1007.33,-35.53,1.12,1.25,17.7,36.4,27.6,0,no_anomaly,0.0,0,0,0,0,26.846728,80.9462263,5.0,0.0
2024-06-20T11:02:05.900Z,MISSION_0039,59,0,takeoff,SITE_LKN_010,26.8467267,80.9462236,5.0,202.08,0.955,0.027,3.96,-0.536,-2.6129,202.0797,-0.19134,0.02327,-0.00022,0.98125,-0.082,0.0797,-9.8908,0.4018,-0.692,-0.1181,0.2435,3,17,0.54,0.8,0.26,24.612,17.29,93.8,31.4,20633.0,8070,8423,7968,8348,48.0,48.2,48.3,48.0,3.018,2.688,2.948,2.649,7.6,182.4,22.8,59.4,1007.36,-26.21,0.86,1.67,19.3,32.7,28.2,0,no_anomaly,0.0,0,0,0,0,26.8467267,80.9462236,5.0,0.0
2024-06-20T11:02:06.000Z,MISSION_0039,60,0,takeoff,SITE_LKN_010,26.8467255,80.9462215,5.0,202.76,0.773,0.123,3.71,4.5699,-3.0261,202.7621,-0.19814,0.018,0.04428,0.97901,-0.1378,0.0692,-9.8436,0.9206,0.1552,-0.0042,0.2322,3,10,0.67,0.76,0.24,24.692,17.28,93.7,30.7,20614.0,8127,8166,8042,7760,49.8,49.4,49.1,48.9,2.703,2.747,2.665,2.79,7.67,176.9,23.2,59.3,1007.33,-27.6,-0.67,1.59,15.1,32.3,26.2,0,no_anomaly,0.0,0,0,0,0,26.8467255,80.9462215,5.0,0.0
2024-06-20T11:02:06.100Z,MISSION_0039,61,0,takeoff,SITE_LKN_010,26.8467246,80.946221,5.0,201.82,0.724,0.09,3.6,5.2395,2.2666,201.8161,-0.18811,-0.02805,0.04113,0.98089,0.0796,0.0583,-9.8016,0.7835,0.1692,0.1537,0.2045,3,10,0.73,1.12,0.36,24.567,16.47,93.6,31.4,20596.0,7858,8305,8017,8018,45.1,50.6,47.6,48.4,3.079,2.632,2.852,2.947,7.52,174.7,23.0,58.3,1007.35,-28.34,-1.68,1.81,21.0,31.3,25.2,0,no_anomaly,0.0,0,0,0,0,26.8467246,80.946221,5.0,0.0
2024-06-20T11:02:06.200Z,MISSION_0039,62,0,takeoff,SITE_LKN_010,26.8467226,80.946223,5.0,201.47,0.745,0.11,3.59,-3.0297,0.8783,201.4723,-0.18641,-0.0026,-0.0274,0.98209,-0.1285,-0.0243,-9.8645,0.4088,1.2969,0.3035,0.273,3,14,0.77,0.81,0.45,24.593,14.9,93.5,31.1,20577.0,8129,8045,8267,8050,48.9,43.7,50.5,48.7,2.706,2.867,2.751,2.673,8.16,175.0,23.3,59.4,1007.26,-32.46,-0.28,1.48,16.0,34.3,24.2,0,no_anomaly,0.0,0,0,0,0,26.8467226,80.946223,5.0,0.0
2024-06-20T11:02:06.300Z,MISSION_0039,63,0,takeoff,SITE_LKN_010,26.8467197,80.9462207,5.0,203.45,0.54,0.184,3.18,-7.0793,0.8375,203.4454,-0.20322,0.0054,-0.06193,0.97716,0.0235,0.0075,-9.8418,-0.1546,0.1247,-0.0277,0.3139,3,14,0.7,1.1,0.32,24.699,18.38,93.5,31.0,20559.0,8076,8086,8089,8022,53.7,44.7,47.3,50.5,3.003,2.739,2.97,2.86,7.4,177.7,23.3,58.9,1007.14,-30.31,-0.34,1.29,15.9,32.4,26.1,0,no_anomaly,0.0,0,0,0,0,26.8467197,80.9462207,5.0,0.0
2024-06-20T11:02:06.400Z,MISSION_0039,64,0,takeoff,SITE_LKN_010,26.8467213,80.9462165,5.0,202.0,0.336,0.066,3.0,-2.3517,-2.1888,201.9998,-0.19035,0.02266,-0.0165,0.98132,-0.066,-0.0389,-9.7969,-0.2622,0.1612,-0.2047,0.2801,3,10,0.79,1.24,0.38,24.61,21.13,93.4,31.4,20541.0,8091,8039,7906,7995,44.7,51.9,49.1,49.8,2.984,2.922,2.8,2.954,8.77,180.5,23.1,58.6,1007.38,-34.42,-1.57,1.28,17.7,35.8,26.9,0,no_anomaly,0.0,0,0,0,0,26.8467213,80.9462165,5.0,0.0
2024-06-20T11:02:06.500Z,MISSION_0039,65,0,takeoff,SITE_LKN_010,26.8467196,80.9462153,5.0,201.49,0.0,0.082,2.77,8.5187,-1.698,201.4855,-0.18695,0.00067,0.07572,0.97945,0.0363,-0.0259,-9.8092,0.849,0.9583,-0.3475,0.2644,3,10,0.61,1.13,0.2,24.632,13.33,93.3,30.7,20522.0,8254,7863,8024,8445,47.0,48.1,47.2,43.5,2.492,2.721,2.711,2.885,7.96,185.3,23.0,57.9,1007.16,-28.92,0.36,1.69,17.1,35.6,25.0,0,no_anomaly,0.0,0,0,0,0,26.8467196,80.9462153,5.0,0.0
2024-06-20T11:02:06.600Z,MISSION_0039,66,0,takeoff,SITE_LKN_010,26.8467146,80.9462148,5.0,201.83,0.325,0.048,2.32,-7.2952,-0.1992,201.8266,-0.18883,0.01375,-0.06214,0.97995,0.0224,-0.0836,-9.7952,0.2994,0.4341,-0.0099,0.3371,3,17,0.75,0.92,0.29,24.672,20.62,93.2,31.2,20504.0,8003,8036,8312,8039,49.1,48.8,48.7,51.5,2.581,2.734,2.771,2.797,7.8,180.6,23.1,58.7,1007.37,-28.17,1.53,1.71,16.9,30.9,23.4,0,no_anomaly,0.0,0,0,0,0,26.8467146,80.9462148,5.0,0.0
2024-06-20T11:02:06.700Z,MISSION_0039,67,0,takeoff,SITE_LKN_010,26.8467148,80.9462179,5.0,203.0,0.0,0.085,2.59,9.525,-2.5521,202.9971,-0.20042,0.0052,0.08576,0.97594,0.3373,-0.0498,-9.8122,-0.3371,-0.0184,0.2978,0.2501,3,20,0.69,0.69,0.2,24.564,24.46,93.1,30.8,20485.0,8310,8315,8056,7964,50.5,49.3,48.2,47.2,2.813,2.769,2.699,2.702,8.26,173.7,22.8,58.6,1007.44,-28.77,1.85,1.01,18.5,30.2,26.6,0,no_anomaly,0.0,0,0,0,0,26.8467148,80.9462179,5.0,0.0
2024-06-20T11:02:06.800Z,MISSION_0039,68,0,takeoff,SITE_LKN_010,26.8467097,80.9462149,5.0,200.9,0.0,0.168,1.97,3.4411,-0.6969,200.9045,-0.18151,0.00053,0.03063,0.98291,-0.1146,-0.0238,-9.758,0.2568,-0.1153,0.0065,0.2757,3,13,0.74,0.88,0.32,24.623,14.06,93.0,31.0,20467.0,7980,8130,8026,7893,48.9,44.5,47.5,51.3,2.737,3.129,2.985,2.735,8.7,193.8,23.0,58.0,1007.12,-25.22,-0.74,1.04,19.1,27.5,24.9,0,no_anomaly,0.0,0,0,0,0,26.8467097,80.9462149,5.0,0.0
2024-06-20T11:02:06.900Z,MISSION_0039,69,0,takeoff,SITE_LKN_010,26.8467115,80.9462157,5.0,202.09,0.133,0.028,2.16,0.0013,0.0641,202.0858,-0.19154,-0.00055,-0.0001,0.98148,-0.2487,0.0582,-9.8469,-0.3304,0.3901,-0.0224,0.2232,3,14,0.75,0.94,0.25,24.544,16.49,92.9,30.8,20449.0,8062,8172,8312,8079,50.0,45.4,50.7,43.4,3.011,2.814,2.959,2.565,7.18,183.9,23.2,58.8,1007.27,-31.95,0.99,1.36,15.2,29.9,24.0,0,no_anomaly,0.0,0,0,0,0,26.8467115,80.9462157,5.0,0.0
2024-06-20T11:02:07.000Z,MISSION_0039,70,0,takeoff,SITE_LKN_010,26.8467136,80.9462137,5.0,201.35,0.0,0.068,2.15,-0.6205,-0.5141,201.3548,-0.18525,0.00541,-0.00449,0.98267,-0.0166,-0.0164,-9.8204,0.4799,-0.4821,-0.3825,0.2167,3,16,0.76,1.15,0.26,24.623,17.69,92.9,31.7,20430.0,8133,8143,8066,8146,49.8,46.7,51.3,47.0,2.827,2.626,2.883,2.682,7.91,188.0,22.9,59.2,1007.62,-28.31,0.53,1.13,18.6,32.1,25.8,0,no_anomaly,0.0,0,0,0,0,26.8467136,80.9462137,5.0,0.0
2024-06-20T11:02:07.100Z,MISSION_0039,71,0,takeoff,SITE_LKN_010,26.8467125,80.9462136,5.0,199.56,0.0,0.025,2.05,0.2768,0.0199,199.5612,-0.16987,-0.00058,0.00235,0.98546,0.3365,0.0961,-9.8468,0.9137,-0.0889,0.0048,0.2449,3,15,0.83,0.77,0.4,24.625,13.81,92.8,31.4,20412.0,8164,8263,7923,8004,46.0,47.8,47.8,46.6,2.55,2.683,2.876,2.943,7.44,189.4,22.7,58.3,1007.7,-28.08,-1.16,1.3,16.4,29.2,26.8,0,no_anomaly,0.0,0,0,0,0,26.8467125,80.9462136,5.0,0.0
2024-06-20T11:02:07.200Z,MISSION_0039,72,0,transit,SITE_LKN_010,26.8467079,80.9462158,5.5,199.73,0.131,0.136,1.97,1.8812,-1.7235,199.7282,-0.17151,0.012,0.01875,0.98493,0.2959,-0.02,-9.9748,-0.1545,-0.2268,0.0323,0.2723,3,10,0.5,0.99,0.2,24.652,19.44,92.7,30.0,20394.0,7770,8206,8197,7899,46.3,45.9,43.9,48.8,2.868,2.682,3.253,2.89,7.82,173.3,23.2,58.4,1007.13,-29.73,-0.32,1.72,15.5,33.1,24.0,0,no_anomaly,0.0,0,0,0,0,26.8467079,80.9462158,5.5,0.0
2024-06-20T11:02:07.300Z,MISSION_0039,73,0,transit,SITE_LKN_010,26.8467049,80.946214,6.0,198.35,0.402,0.035,1.65,0.4842,0.9009,198.3512,-0.15942,-0.00843,0.00292,0.98717,0.2196,-0.1026,-9.8431,-0.2076,0.4366,0.2365,0.2122,3,18,0.65,1.16,0.21,24.724,17.09,92.6,32.0,20375.0,8159,8271,7938,8164,50.5,50.1,46.1,49.0,2.598,3.152,2.92,2.602,7.68,181.8,22.5,58.9,1007.31,-33.55,-1.17,1.42,16.4,29.0,26.5,0,no_anomaly,0.0,0,0,0,0,26.8467049,80.946214,6.0,0.0
2024-06-20T11:02:07.400Z,MISSION_0039,74,0,transit,SITE_LKN_010,26.8467047,80.9462173,6.5,199.79,0.301,0.141,2.0,-0.8701,-1.8322,199.7901,-0.1717,0.01705,-0.00473,0.98499,-0.0406,-0.0672,-9.8225,0.473,0.6507,0.5889,0.2662,3,20,0.57,1.26,0.29,24.554,23.6,92.5,31.1,20357.0,8222,7796,8026,7957,48.8,45.9,48.3,47.7,2.884,2.733,2.652,2.967,8.24,170.2,22.9,58.7,1007.62,-31.81,0.07,1.06,22.2,32.2,26.0,0,no_anomaly,0.0,0,0,0,0,26.8467047,80.9462173,6.5,0.0
2024-06-20T11:02:07.500Z,MISSION_0039,75,0,transit,SITE_LKN_010,26.8467058,80.9462151,7.0,199.73,0.316,0.012,1.8,0.0976,-1.8325,199.7286,-0.17131,0.01561,0.00358,0.98509,-0.3119,-0.0294,-9.8422,-0.0018,0.4414,0.0849,0.3125,3,13,0.78,1.37,0.42,24.59,21.45,92.4,31.1,20338.0,7955,8009,7882,8258,44.3,51.5,49.1,47.8,2.749,2.902,2.879,2.748,7.92,189.6,23.1,58.9,1007.23,-33.73,1.65,1.68,17.1,29.1,23.7,0,no_anomaly,0.0,0,0,0,0,26.8467058,80.9462151,7.0,0.0
2024-06-20T11:02:07.600Z,MISSION_0039,76,0,transit,SITE_LKN_010,26.8467023,80.9462193,7.5,200.73,0.281,0.141,2.17,0.625,-1.4249,200.7251,-0.17993,0.01125,0.0076,0.98359,0.0936,-0.0284,-9.7165,0.2137,0.1619,-0.2985,0.2072,3,10,0.78,0.74,0.2,24.611,19.34,92.4,31.5,20320.0,8029,8040,7984,8271,45.6,46.4,48.6,49.3,2.958,2.874,2.934,3.012,7.5,177.0,22.7,58.6,1006.93,-30.18,-1.36,1.88,16.0,29.8,22.5,0,no_anomaly,0.0,0,0,0,0,26.8467023,80.9462193,7.5,0.0
2024-06-20T11:02:07.700Z,MISSION_0039,77,0,transit,SITE_LKN_010,26.8467058,80.9462209,8.0,201.1,0.366,0.09,2.41,-1.9001,-1.9627,201.1022,-0.18278,0.01987,-0.01316,0.98286,-0.2695,0.0159,-9.7671,0.5393,0.1542,-0.3912,0.2499,3,19,0.57,0.7,0.2,24.57,20.57,92.3,31.6,20302.0,7847,7971,8186,8023,48.7,45.8,45.3,53.0,2.811,2.751,2.804,3.008,7.6,186.9,23.0,58.7,1007.16,-23.49,0.01,1.67,16.1,30.8,22.7,0,no_anomaly,0.0,0,0,0,0,26.8467058,80.9462209,8.0,0.0
2024-06-20T11:02:07.800Z,MISSION_0039,78,0,transit,SITE_LKN_010,26.8467113,80.946227,8.5,198.84,0.225,0.09,3.26,-2.8432,-2.8211,198.8381,-0.16295,0.02834,-0.02044,0.98602,-0.3483,0.0796,-9.8054,-0.3821,0.0017,-0.0323,0.255,3,16,0.83,0.63,0.42,24.637,16.69,92.2,31.4,20283.0,7960,8129,8105,8187,52.9,46.9,50.9,46.2,2.712,3.175,2.951,2.784,6.89,182.6,22.7,58.9,1007.23,-29.39,1.23,1.33,16.4,32.2,24.3,0,no_anomaly,0.0,0,0,0,0,26.8467113,80.946227,8.5,0.0
2024-06-20T11:02:07.900Z,MISSION_0039,79,0,transit,SITE_LKN_010,26.846712,80.9462247,9.0,199.88,0.212,0.011,3.05,5.3176,-1.7014,199.8833,-0.17312,0.0066,0.04825,0.9837,-0.0561,-0.0506,-9.8193,-0.625,-0.0587,-0.1248,0.3114,3,18,0.88,0.83,0.41,24.594,19.96,92.1,31.1,20265.0,8245,8089,8127,8008,50.8,52.4,47.0,48.7,2.957,2.763,2.586,2.812,8.35,184.3,22.8,58.3,1007.34,-27.1,1.64,1.65,15.3,31.4,23.5,0,no_anomaly,0.0,0,0,0,0,26.846712,80.9462247,9.0,0.0
2024-06-20T11:02:08.000Z,MISSION_0039,80,0,transit,SITE_LKN_010,26.8467168,80.9462239,9.5,202.29,0.443,0.082,3.25,-5.722,-5.3178,202.292,-0.19059,0.0551,-0.03996,0.97931,0.2616,0.0102,-9.7989,0.7849,1.3066,-0.4254,0.247,3,19,0.61,0.81,0.26,24.528,15.73,92.0,29.7,20246.0,7985,8056,8089,8045,49.7,48.2,48.7,47.0,2.72,2.698,2.691,2.715,7.29,180.4,22.8,60.0,1007.17,-26.77,0.5,1.38,19.2,33.7,24.5,0,no_anomaly,0.0,0,0,0,0,26.8467168,80.9462239,9.5,0.0
2024-06-20T11:02:08.100Z,MISSION_0039,81,0,transit,SITE_LKN_010,26.8467183,80.9462247,10.0,201.68,1.113,0.123,3.42,0.778,-1.4442,201.6846,-0.18817,0.0111,0.00904,0.98203,-0.0755,0.0695,-9.8088,-0.0483,0.1749,-0.1369,0.3273,3,11,0.58,1.07,0.21,24.567,21.37,91.9,31.5,20228.0,8151,8137,7999,8141,45.8,50.6,45.3,47.0,2.735,2.75,2.818,2.66,6.91,178.8,22.8,59.0,1007.48,-21.88,-0.89,1.63,19.5,30.7,27.6,0,no_anomaly,0.0,0,0,0,0,26.8467183,80.9462247,10.0,0.0
2024-06-20T11:02:08.200Z,MISSION_0039,82,0,transit,SITE_LKN_010,26.8467172,80.9462249,10.5,200.22,1.226,0.086,3.37,-2.7401,-0.3298,200.2158,-0.17538,0.00703,-0.02303,0.98421,0.3685,-0.0135,-9.7716,-0.393,-0.8242,0.3238,0.334,3,11,0.78,0.99,0.36,24.588,17.16,91.9,30.5,20210.0,8191,8064,8291,8266,47.9,50.3,47.9,47.1,2.785,2.791,2.466,3.1,8.54,183.9,22.8,58.2,1007.09,-30.83,-0.7,1.33,19.2,38.2,25.4,0,no_anomaly,0.0,0,0,0,0,26.8467172,80.9462249,10.5,0.0
2024-06-20T11:02:08.300Z,MISSION_0039,83,0,transit,SITE_LKN_010,26.8467224,80.9462265,11.0,200.86,1.228,0.071,3.86,2.7911,-3.9124,200.8581,-0.18168,0.02916,0.03012,0.98246,0.0692,0.0652,-9.8176,0.0021,0.4856,-0.091,0.2832,3,11,0.73,0.92,0.38,24.645,16.14,91.8,32.1,20191.0,8020,8145,8147,7931,47.7,46.6,48.3,49.4,2.961,2.882,2.79,2.724,8.36,183.0,22.5,58.1,1007.14,-30.78,-2.07,1.32,18.5,37.9,25.9,0,no_anomaly,0.0,0,0,0,0,26.8467224,80.9462265,11.0,0.0
2024-06-20T11:02:08.400Z,MISSION_0039,84,0,transit,SITE_LKN_010,26.8467239,80.946228,11.5,202.92,1.197,0.144,4.1,-8.575,-1.623,202.9209,-0.19708,0.02869,-0.07046,0.97743,-0.495,-0.011,-9.8025,-0.0901,-0.6391,0.075,0.3227,3,18,0.81,0.69,0.47,24.593,15.88,91.7,31.3,20173.0,8186,8037,8177,7729,50.7,48.1,48.0,48.5,2.714,2.748,2.755,2.971,8.0,183.0,22.7,59.3,1007.32,-35.0,0.29,1.22,20.4,35.6,24.7,0,no_anomaly,0.0,0,0,0,0,26.8467239,80.946228,11.5,0.0
2024-06-20T11:02:08.500Z,MISSION_0039,85,0,transit,SITE_LKN_010,26.8467244,80.9462326,12.0,201.19,1.624,0.175,4.54,4.3005,-3.5929,201.1941,-0.18484,0.0239,0.04262,0.98155,-0.1412,-0.0167,-9.8652,-0.1822,0.6739,-0.2344,0.2275,3,20,0.67,0.97,0.29,24.637,21.13,91.6,31.3,20154.0,8091,8098,8293,8439,47.8,49.3,47.5,47.2,2.802,3.165,2.706,2.895,8.48,184.0,23.0,59.0,1007.41,-26.86,-0.08,1.18,15.0,34.7,25.8,0,no_anomaly,0.0,0,0,0,0,26.8467244,80.9462326,12.0,0.0
2024-06-20T11:02:08.600Z,MISSION_0039,86,0,transit,SITE_LKN_010,26.8467321,80.9462392,12.5,200.77,1.447,0.142,5.64,5.7498,-2.0632,200.7704,-0.1809,0.00865,0.05257,0.98206,-0.0757,0.0688,-9.8157,0.6104,0.1931,0.2998,0.2171,3,10,0.88,1.21,0.29,24.534,16.53,91.5,31.5,20136.0,8090,7988,7919,8025,52.6,47.9,49.2,45.8,2.775,2.567,2.991,2.777,7.2,179.2,22.7,58.9,1007.19,-29.4,-0.43,1.89,19.6,29.5,24.1,0,no_anomaly,0.0,0,0,0,0,26.8467321,80.9462392,12.5,0.0
2024-06-20T11:02:08.700Z,MISSION_0039,87,0,transit,SITE_LKN_010,26.8467337,80.9462419,13.0,200.52,1.553,0.126,5.99,1.7087,-4.802,200.525,-0.1786,0.03856,0.02212,0.98292,-0.0898,0.0038,-9.8095,0.3025,0.118,-0.4688,0.2328,3,20,0.8,1.1,0.36,24.669,15.31,91.4,32.0,20118.0,8208,8260,8132,7819,47.9,45.5,45.4,44.9,2.968,2.737,2.633,2.566,7.49,178.1,23.0,58.6,1007.22,-30.52,1.42,1.28,18.0,31.3,25.9,0,no_anomaly,0.0,0,0,0,0,26.8467337,80.9462419,13.0,0.0
2024-06-20T11:02:08.800Z,MISSION_0039,88,0,transit,SITE_LKN_010,26.8467305,80.9462437,13.5,200.62,0.927,0.101,5.93,-2.385,0.1798,200.6198,-0.17897,0.00218,-0.02076,0.98363,0.2368,0.0028,-9.8232,-0.909,-0.3447,-0.7011,0.283,3,11,0.79,0.96,0.25,24.644,28.55,91.4,31.9,20099.0,8213,8255,8175,8360,46.2,49.0,45.5,49.4,2.597,2.739,2.732,2.692,7.06,181.8,22.8,58.9,1007.35,-33.06,-0.97,1.7,14.7,32.6,22.0,0,no_anomaly,0.0,0,0,0,0,26.8467305,80.9462437,13.5,0.0
2024-06-20T11:02:08.900Z,MISSION_0039,89,0,transit,SITE_LKN_010,26.8467346,80.94624,14.0,202.69,0.905,0.044,5.89,-3.1319,-1.924,202.6924,-0.19619,0.02183,-0.02349,0.98004,-0.3598,0.0326,-9.7479,-0.6453,0.189,0.1344,0.1882,3,19,0.82,0.62,0.2,24.57,19.01,91.3,31.2,20081.0,8098,8086,8200,8346,49.7,49.3,51.6,47.3,2.555,2.616,2.806,2.559,7.69,177.0,23.1,58.9,1007.01,-28.51,-1.36,1.47,16.8,29.6,27.7,0,no_anomaly,0.0,0,0,0,0,26.8467346,80.94624,14.0,0.0
2024-06-20T11:02:09.000Z,MISSION_0039,90,0,transit,SITE_LKN_010,26.8467379,80.9462352,14.5,202.54,0.712,0.079,5.76,4.2287,-1.7755,202.5413,-0.19585,0.00797,0.0392,0.97982,0.6114,-0.0317,-9.8995,-0.196,0.466,-0.156,0.1199,3,20,0.65,1.09,0.21,24.58,15.52,91.2,32.0,20062.0,8405,8114,8231,8157,49.1,47.2,49.8,48.3,2.898,2.777,2.856,2.945,8.03,179.5,22.7,58.4,1007.17,-31.4,-0.38,1.41,18.7,35.3,28.1,0,no_anomaly,0.0,0,0,0,0,26.8467379,80.9462352,14.5,0.0
2024-06-20T11:02:09.100Z,MISSION_0039,91,0,transit,SITE_LKN_010,26.8467344,80.9462351,15.0,204.44,0.657,0.085,5.47,1.9502,-6.0658,204.4352,-0.21218,0.04811,0.0278,0.97565,0.0677,-0.0619,-9.8329,-0.0424,0.6356,-0.2871,0.2516,3,10,0.5,0.9,0.2,24.643,17.95,91.1,30.3,20044.0,7916,8261,8378,8003,50.4,49.4,47.4,49.0,2.94,2.822,2.841,2.601,7.36,188.0,22.7,58.6,1007.22,-25.49,1.52,1.42,21.9,30.4,26.7,0,no_anomaly,0.0,0,0,0,0,26.8467344,80.9462351,15.0,0.0
2024-06-20T11:02:09.200Z,MISSION_0039,92,0,transit,SITE_LKN_010,26.8467359,80.946231,15.5,204.51,0.968,-0.003,5.27,3.5761,-1.9855,204.5063,-0.21262,0.0103,0.03416,0.97648,-0.0589,-0.065,-9.8443,-0.3692,0.7907,0.6109,0.1002,3,20,0.73,0.87,0.31,24.529,16.93,91.0,31.9,20026.0,8030,7913,8242,8222,48.2,47.3,50.5,48.7,2.774,2.978,3.008,2.769,7.72,184.1,22.7,59.3,1007.08,-31.07,-0.55,1.51,19.9,33.5,26.8,0,no_anomaly,0.0,0,0,0,0,26.8467359,80.946231,15.5,0.0
2024-06-20T11:02:09.300Z,MISSION_0039,93,0,transit,SITE_LKN_010,26.8467392,80.946236,16.0,204.99,0.742,0.103,5.93,0.4872,-2.1378,204.9876,-0.21637,0.01729,0.00819,0.97612,-0.1941,-0.024,-9.8183,0.5084,-0.6881,-0.1784,0.349,3,17,0.76,1.02,0.25,24.649,15.54,90.9,31.3,20007.0,8016,8112,7970,7931,48.1,50.5,47.0,45.3,2.667,3.12,2.999,2.883,8.15,186.4,23.0,59.0,1007.33,-28.93,-0.73,1.47,15.5,30.4,24.2,0,no_anomaly,0.0,0,0,0,0,26.8467392,80.946236,16.0,0.0
2024-06-20T11:02:09.400Z,MISSION_0039,94,0,transit,SITE_LKN_010,26.8467457,80.9462365,16.5,204.46,1.013,0.103,6.5,0.4133,-3.0879,204.4622,-0.21187,0.02557,0.00923,0.97692,0.2926,0.0905,-9.8125,-0.1774,0.2711,-0.3294,0.2807,3,17,0.5,0.83,0.2,24.636,15.73,90.9,31.3,19989.0,8221,7952,8052,7802,46.3,51.9,45.9,48.6,2.71,2.813,2.782,2.68,7.62,184.1,23.0,59.1,1007.79,-29.09,-0.64,2.16,19.0,30.8,24.6,0,no_anomaly,0.0,0,0,0,0,26.8467457,80.9462365,16.5,0.0
2024-06-20T11:02:09.500Z,MISSION_0039,95,0,transit,SITE_LKN_010,26.8467428,80.9462368,17.0,206.87,0.722,0.089,6.29,-1.8338,-1.4589,206.869,-0.23209,0.0161,-0.01261,0.97248,0.1566,0.0092,-9.7514,-0.6354,0.8058,0.116,0.2542,3,16,0.86,0.86,0.26,24.598,21.63,90.8,30.6,19970.0,8340,8138,8270,8413,47.6,49.7,49.5,46.5,2.998,2.955,2.749,2.725,7.22,185.2,22.8,59.3,1007.12,-31.19,-0.26,1.8,16.7,35.4,27.3,0,no_anomaly,0.0,0,0,0,0,26.8467428,80.9462368,17.0,0.0
2024-06-20T11:02:09.600Z,MISSION_0039,96,0,transit,SITE_LKN_010,26.8467395,80.9462324,17.5,207.31,0.915,0.076,5.69,0.1681,-0.5978,207.3149,-0.23612,0.00472,0.00266,0.97171,0.22,-0.0079,-9.7855,-0.475,1.1401,-0.2835,0.2172,3,15,0.87,0.82,0.32,24.417,18.02,90.7,32.0,19952.0,8204,8202,8255,8197,48.3,48.3,48.7,50.5,3.13,2.861,2.632,2.68,7.58,181.6,22.9,58.6,1007.03,-31.8,-0.61,1.25,17.7,35.3,25.4,0,no_anomaly,0.0,0,0,0,0,26.8467395,80.9462324,17.5,0.0
2024-06-20T11:02:09.700Z,MISSION_0039,97,0,transit,SITE_LKN_010,26.8467355,80.946232,18.0,207.36,0.396,0.127,5.32,7.2199,-1.4905,207.3573,-0.23678,-0.00228,0.06424,0.96943,0.0174,-0.0385,-9.8928,0.1873,0.1656,-0.3023,0.3058,3,17,0.61,0.92,0.22,24.571,17.68,90.6,32.2,19934.0,8040,8318,8027,8180,46.7,48.2,43.7,48.4,2.909,2.642,2.829,2.784,7.71,190.6,22.9,58.7,1007.4,-30.7,-2.06,1.64,20.3,37.4,26.4,0,no_anomaly,0.0,0,0,0,0,26.8467355,80.946232,18.0,0.0
2024-06-20T11:02:09.800Z,MISSION_0039,98,0,transit,SITE_LKN_010,26.8467332,80.9462336,18.5,209.76,0.228,0.109,5.26,-2.5141,-1.4026,209.7624,-0.25648,0.01746,-0.01806,0.96622,-0.0538,0.0428,-9.7832,0.3614,0.4366,0.3721,0.2476,3,13,0.67,0.91,0.2,24.538,21.45,90.5,31.0,19915.0,8057,7676,8202,8420,53.0,46.1,48.1,49.2,2.604,2.77,3.049,2.907,8.25,186.7,22.9,59.3,1007.5,-33.39,0.45,1.35,16.9,32.5,24.1,0,no_anomaly,0.0,0,0,0,0,26.8467332,80.9462336,18.5,0.0
2024-06-20T11:02:09.900Z,MISSION_0039,99,0,transit,SITE_LKN_010,26.8467392,80.9462336,19.0,208.57,0.0,0.083,5.74,5.2402,-3.9957,208.567,-0.24786,0.02248,0.05287,0.96709,0.0497,0.051,-9.7774,0.1145,-0.1633,-0.4705,0.2021,3,20,0.76,0.6,0.34,24.569,19.29,90.4,31.6,19897.0,8190,8058,8404,8116,51.7,49.7,47.3,48.7,2.606,2.745,3.065,3.006,8.17,181.9,23.1,59.2,1007.31,-30.21,-0.47,1.09,14.3,34.4,26.5,0,no_anomaly,0.0,0,0,0,0,26.8467392,80.9462336,19.0,0.0
2024-06-20T11:02:10.000Z,MISSION_0039,100,0,transit,SITE_LKN_010,26.8467393,80.9462315,19.5,211.39,0.004,0.104,5.61,-3.2413,-1.4089,211.3905,-0.27006,0.01948,-0.0239,0.96235,-0.142,0.0574,-9.7923,0.3681,-0.2846,-0.377,0.1932,3,17,0.74,1.0,0.35,24.545,12.37,90.4,30.4,19878.0,8294,8341,8189,8236,44.6,43.1,50.1,46.3,2.836,3.068,2.937,3.036,8.48,184.8,22.8,58.5,1007.47,-34.16,1.75,1.28,20.4,35.4,26.1,0,no_anomaly,0.0,0,0,0,0,26.8467393,80.9462315,19.5,0.0
2024-06-20T11:02:10.100Z,MISSION_0039,101,0,transit,SITE_LKN_010,26.8467362,80.9462248,20.0,209.92,0.0,0.138,4.88,-0.5362,-4.4394,209.9246,-0.25781,0.03862,0.00548,0.96541,0.2713,-0.0271,-9.8508,0.6287,-0.3368,0.4738,0.1768,3,19,0.77,1.01,0.36,24.6,16.92,90.3,32.8,19860.0,8269,8128,8022,8291,46.5,46.8,45.5,46.6,2.835,2.689,2.858,2.826,7.52,186.7,22.9,58.6,1007.49,-30.51,0.15,1.47,19.0,38.4,24.6,0,no_anomaly,0.0,0,0,0,0,26.8467362,80.9462248,20.0,0.0
2024-06-20T11:02:10.200Z,MISSION_0039,102,0,transit,SITE_LKN_010,26.8467348,80.9462226,20.5,210.93,0.0,0.105,4.61,1.4184,-2.6458,210.9307,-0.26684,0.01895,0.01808,0.96339,-0.3654,-0.0262,-9.7735,0.8169,-0.4511,-0.0235,0.2352,3,10,0.6,0.68,0.2,24.596,20.46,90.2,31.5,19842.0,8433,8090,8084,7617,50.9,47.3,49.5,49.5,2.935,2.656,2.892,2.56,7.75,190.4,22.8,58.5,1007.51,-28.12,0.36,1.4,18.2,32.6,23.1,0,no_anomaly,0.0,0,0,0,0,26.8467348,80.9462226,20.5,0.0
2024-06-20T11:02:10.300Z,MISSION_0039,103,0,transit,SITE_LKN_010,26.846734,80.9462239,20.8,212.85,0.0,0.036,4.63,1.3089,-2.5854,212.8454,-0.28288,0.01841,0.01733,0.95882,-0.1559,0.0552,-9.742,-0.2225,-0.9476,0.22,0.2748,3,18,0.57,0.66,0.2,24.6,20.43,90.1,30.7,19823.0,7966,8112,8282,8128,51.7,48.4,46.4,51.4,2.758,2.568,2.804,2.898,7.6,173.8,22.8,59.2,1007.15,-30.73,-1.15,1.78,17.5,31.5,25.2,0,no_anomaly,0.0,0,0,0,0,26.846734,80.9462239,20.8,0.0
2024-06-20T11:02:10.400Z,MISSION_0039,104,0,transit,SITE_LKN_010,26.8467371,80.9462211,20.8,213.02,0.102,0.018,4.75,-3.3107,-0.1996,213.0229,-0.28404,0.00988,-0.0272,0.95838,-0.4966,0.0082,-9.8945,0.2386,0.4445,0.0636,0.2452,3,20,0.88,0.68,0.33,24.559,21.76,90.0,31.0,19805.0,8249,8007,8368,7956,47.1,50.2,48.5,49.6,2.947,2.791,2.964,2.706,8.5,195.1,22.7,58.8,1007.3,-30.31,-0.12,1.35,20.7,37.0,27.8,0,no_anomaly,0.0,0,0,0,0,26.8467371,80.9462211,20.8,0.0
2024-06-20T11:02:10.500Z,MISSION_0039,105,0,transit,SITE_LKN_010,26.8467423,80.9462255,20.8,214.07,0.0,0.183,5.5,0.6566,-2.7533,214.0655,-0.29296,0.02129,0.01251,0.95581,0.0667,0.0755,-9.9158,0.531,0.8343,-0.223,0.2726,3,15,0.88,0.89,0.32,24.505,15.2,89.9,31.9,19786.0,8145,8248,8161,8285,46.9,48.9,47.0,50.2,2.537,2.875,2.735,2.926,7.43,182.2,23.0,59.5,1006.85,-28.86,-0.9,1.29,17.7,33.1,25.2,0,no_anomaly,0.0,0,0,0,0,26.8467423,80.9462255,20.8,0.0
2024-06-20T11:02:10.600Z,MISSION_0039,106,0,transit,SITE_LKN_010,26.8467449,80.9462188,20.8,215.24,0.0,0.048,5.41,-6.1415,-2.6427,215.2397,-0.30101,0.03816,-0.04407,0.95184,0.124,-0.0156,-9.7081,-0.7823,-0.1971,0.0632,0.2266,3,19,0.53,0.98,0.21,24.485,14.34,89.9,32.3,19768.0,8029,8128,8227,8042,48.4,46.1,44.7,45.4,2.628,2.914,2.67,3.188,7.97,190.6,23.0,58.8,1007.49,-28.89,-1.24,1.72,20.5,37.2,25.3,0,no_anomaly,0.0,0,0,0,0,26.8467449,80.9462188,20.8,0.0
2024-06-20T11:02:10.700Z,MISSION_0039,107,0,transit,SITE_LKN_010,26.84674,80.9462165,20.8,214.48,0.333,0.105,4.82,3.0538,-2.0986,214.4836,-0.29672,0.00959,0.03087,0.95442,-0.0544,0.0718,-9.8697,-0.0255,-0.0206,-0.3516,0.1931,3,17,0.68,1.02,0.29,24.506,16.0,89.8,32.1,19750.0,8163,8154,8215,8302,46.7,51.4,47.3,50.4,2.958,2.856,3.003,2.635,7.78,182.5,22.9,59.4,1007.25,-30.18,1.24,1.76,14.0,31.9,24.1,0,no_anomaly,0.0,0,0,0,0,26.84674,80.9462165,20.8,0.0
2024-06-20T11:02:10.800Z,MISSION_0039,108,0,transit,SITE_LKN_010,26.8467377,80.9462181,20.8,214.78,0.487,0.14,4.65,1.7552,-4.4418,214.7826,-0.2992,0.0324,0.02619,0.95328,-0.1807,0.0505,-9.851,0.1523,0.1853,-0.0197,0.217,3,16,0.6,0.92,0.2,24.502,16.53,89.7,32.1,19731.0,8339,8384,8387,8183,49.0,43.9,49.8,47.3,2.508,2.809,2.77,2.593,6.84,185.5,23.1,59.1,1007.05,-26.74,0.41,1.38,15.6,33.8,24.8,0,no_anomaly,0.0,0,0,0,0,26.8467377,80.9462181,20.8,0.0
2024-06-20T11:02:10.900Z,MISSION_0039,109,0,transit,SITE_LKN_010,26.8467373,80.9462157,20.8,211.74,0.936,0.046,4.5,-2.7037,-1.3835,211.7438,-0.27312,0.01806,-0.01939,0.96162,-0.0675,0.0394,-9.8448,0.5514,0.878,0.346,0.198,3,17,0.86,0.6,0.32,24.466,16.61,89.6,31.0,19713.0,8235,8225,8232,8218,46.8,47.6,46.6,45.2,2.84,2.823,2.883,2.947,7.51,180.5,22.4,58.9,1007.2,-31.09,0.26,2.0,21.4,37.1,29.0,0,no_anomaly,0.0,0,0,0,0,26.8467373,80.9462157,20.8,0.0
2024-06-20T11:02:11.000Z,MISSION_0039,110,0,transit,SITE_LKN_010,26.8467369,80.9462091,20.8,213.71,1.468,0.175,4.23,3.0899,-0.3375,213.7139,-0.28995,-0.005,0.02666,0.95666,-0.0831,0.006,-9.8764,0.1824,-0.0067,0.2432,0.1692,3,15,0.73,0.82,0.26,24.475,17.67,89.5,31.4,19694.0,8273,8065,8209,8262,46.0,47.9,46.3,51.4,2.851,2.911,2.814,2.506,7.99,189.0,22.9,58.4,1007.47,-30.07,-0.28,1.28,17.4,28.7,23.4,0,no_anomaly,0.0,0,0,0,0,26.8467369,80.9462091,20.8,0.0
2024-06-20T11:02:11.100Z,MISSION_0039,111,0,transit,SITE_LKN_010,26.8467422,80.9462145,20.8,214.02,1.162,0.103,4.97,-5.629,-1.9571,214.0163,-0.29131,0.03067,-0.04196,0.95522,0.1981,0.0002,-9.8289,0.644,-0.5261,0.1162,0.2319,3,10,0.85,0.89,0.33,24.572,21.61,89.4,31.1,19676.0,8019,8071,7812,8109,47.1,50.4,43.1,48.1,2.582,3.233,2.888,2.937,7.52,184.0,22.9,58.3,1007.21,-38.3,-0.39,1.0,14.5,30.6,26.2,0,no_anomaly,0.0,0,0,0,0,26.8467422,80.9462145,20.8,0.0
2024-06-20T11:02:11.200Z,MISSION_0039,112,0,transit,SITE_LKN_010,26.8467378,80.9462117,20.8,214.12,1.05,0.154,4.4,2.3027,-3.0644,214.1192,-0.29372,0.01966,0.02705,0.95531,-0.097,0.0277,-9.7877,0.7402,-0.2533,-0.2136,0.2906,3,19,0.97,1.07,0.42,24.485,15.71,89.4,31.5,19658.0,8103,8261,8341,7982,50.7,47.6,46.6,47.4,2.631,2.793,3.128,2.951,7.54,177.6,23.0,59.2,1006.84,-24.23,1.65,1.27,17.2,31.3,24.4,0,no_anomaly,0.0,0,0,0,0,26.8467378,80.9462117,20.8,0.0
2024-06-20T11:02:11.300Z,MISSION_0039,113,0,transit,SITE_LKN_010,26.8467373,80.9462159,20.8,215.18,1.147,0.094,4.52,0.653,-2.2751,215.1754,-0.30221,0.0172,0.01143,0.95302,-0.0094,0.065,-9.7604,0.1907,-1.0199,-0.095,0.2229,3,17,0.79,0.98,0.44,24.506,18.85,89.3,31.6,19639.0,8047,8132,8240,8154,45.9,47.3,47.0,44.2,2.739,2.648,2.853,2.789,7.26,177.4,22.8,58.5,1007.39,-32.62,-0.75,1.63,21.9,31.1,27.5,0,no_anomaly,0.0,0,0,0,0,26.8467373,80.9462159,20.8,0.0
2024-06-20T11:02:11.400Z,MISSION_0039,114,0,transit,SITE_LKN_010,26.8467376,80.946215,20.8,218.77,1.335,0.16,4.5,0.0394,-1.6148,218.7654,-0.33185,0.01318,0.005,0.94323,0.2478,0.1099,-9.8248,-0.0454,-0.0541,0.2883,0.2668,3,19,0.74,0.75,0.3,24.543,17.45,89.2,31.5,19621.0,7943,8059,8207,8245,49.9,47.5,47.8,51.4,2.791,2.756,2.993,2.977,7.96,184.3,22.9,59.1,1007.54,-30.93,-0.31,1.05,16.2,31.1,22.6,0,no_anomaly,0.0,0,0,0,0,26.8467376,80.946215,20.8,0.0
2024-06-20T11:02:11.500Z,MISSION_0039,115,0,transit,SITE_LKN_010,26.8467418,80.94622,20.8,214.0,1.118,0.176,5.16,1.7323,-0.8429,214.004,-0.29247,0.00261,0.01661,0.95613,-0.0684,0.0669,-9.7654,0.2534,0.0157,-0.3289,0.2416,3,18,0.8,0.98,0.24,24.453,14.46,89.1,30.7,19602.0,8091,8172,8428,8310,48.9,50.0,49.7,47.8,2.794,2.861,2.962,2.95,8.59,187.3,23.0,59.0,1007.45,-28.02,1.43,1.75,17.7,28.5,24.9,0,no_anomaly,0.0,0,0,0,0,26.8467418,80.94622,20.8,0.0
2024-06-20T11:02:11.600Z,MISSION_0039,116,0,transit,SITE_LKN_010,26.8467438,80.9462206,20.8,213.4,1.056,0.057,5.39,2.0019,-2.4498,213.3973,-0.28759,0.01545,0.02287,0.95736,0.1432,0.0099,-9.9232,0.0392,-0.3751,-0.591,0.2687,3,20,0.77,0.97,0.29,24.443,11.76,89.0,31.4,19584.0,8239,8285,8214,8066,46.9,48.1,45.4,48.2,2.66,2.775,2.732,2.955,8.87,180.0,23.0,58.8,1007.53,-30.74,-1.25,1.64,16.5,32.5,25.3,0,no_anomaly,0.0,0,0,0,0,26.8467438,80.9462206,20.8,0.0
2024-06-20T11:02:11.700Z,MISSION_0039,117,0,transit,SITE_LKN_010,26.8467429,80.9462161,20.8,210.87,1.296,0.05,5.1,0.129,-2.307,210.8709,-0.26612,0.0191,0.00644,0.96373,-0.0577,-0.0455,-9.9159,0.3047,0.2967,-0.0872,0.2836,3,18,0.74,0.9,0.47,24.532,23.26,88.9,31.5,19566.0,8191,8256,8091,8212,50.3,48.5,45.7,48.8,2.871,2.927,2.85,2.703,7.66,179.0,22.9,59.0,1007.29,-30.3,0.48,1.35,21.8,37.3,28.3,0,no_anomaly,0.0,0,0,0,0,26.8467429,80.9462161,20.8,0.0
2024-06-20T11:02:11.800Z,MISSION_0039,118,0,transit,SITE_LKN_010,26.8467415,80.9462153,20.8,211.9,1.172,0.156,4.93,-2.3323,-0.2015,211.8979,-0.27469,0.00728,-0.01908,0.96132,-0.3357,-0.051,-9.8091,-0.543,-0.2375,-0.2168,0.2654,3,17,0.82,1.0,0.3,24.541,19.79,88.9,31.1,19547.0,8322,8039,8284,8002,49.9,47.7,47.1,50.2,2.792,2.874,2.924,3.006,7.58,191.1,22.5,59.2,1007.11,-24.84,0.54,1.05,14.6,35.1,23.7,0,no_anomaly,0.0,0,0,0,0,26.8467415,80.9462153,20.8,0.0
2024-06-20T11:02:11.900Z,MISSION_0039,119,0,transit,SITE_LKN_010,26.846741,80.9462112,20.8,210.09,1.492,0.034,4.74,-0.1614,-1.9378,210.0854,-0.25948,0.0167,0.00303,0.9656,0.0515,-0.0902,-9.8085,-0.035,-0.8114,-0.4986,0.2439,3,14,0.6,0.61,0.2,24.463,22.94,88.8,31.1,19529.0,8349,8139,8491,8034,47.6,47.8,53.3,46.3,3.16,2.749,2.955,2.732,8.74,178.2,23.0,58.6,1007.43,-30.58,0.73,1.65,15.9,33.0,23.4,0,no_anomaly,0.0,0,0,0,0,26.846741,80.9462112,20.8,0.0
2024-06-20T11:02:12.000Z,MISSION_0039,120,0,transit,SITE_LKN_010,26.8467388,80.946206,20.8,210.59,2.176,0.139,4.37,-0.704,-1.4493,210.5901,-0.26369,0.01382,-0.00259,0.96451,-0.1799,0.0599,-9.8561,0.2485,-0.8683,-0.2393,0.3336,3,16,0.54,0.95,0.28,24.568,18.68,88.7,31.1,19510.0,8135,8095,8252,8052,49.8,46.2,43.8,46.0,2.738,2.733,2.961,2.664,6.9,186.8,23.3,59.2,1007.63,-26.77,1.68,1.9,20.1,34.8,27.5,0,no_anomaly,0.0,0,0,0,0,26.8467388,80.946206,20.8,0.0
2024-06-20T11:02:12.100Z,MISSION_0039,121,0,transit,SITE_LKN_010,26.8467405,80.9462037,20.8,210.12,2.425,0.125,4.52,-6.4576,0.7562,210.1227,-0.25979,0.00827,-0.0561,0.964,-0.1861,-0.0123,-9.7187,0.6554,0.1756,0.436,0.3109,3,19,0.58,0.91,0.2,24.436,20.54,88.6,31.5,19492.0,8261,8064,8128,8311,43.9,48.1,47.8,49.9,2.723,2.965,2.811,3.042,7.7,185.9,22.6,60.2,1007.27,-34.4,2.04,1.52,17.1,38.0,25.3,0,no_anomaly,0.0,0,0,0,0,26.8467405,80.9462037,20.8,0.0
2024-06-20T11:02:12.200Z,MISSION_0039,122,0,transit,SITE_LKN_010,26.8467417,80.9462018,20.8,211.82,2.623,0.16,4.64,0.6264,-4.7335,211.8201,-0.27411,0.03822,0.01657,0.9608,0.4939,0.0105,-9.8536,0.0714,-0.0694,0.0815,0.275,3,15,0.72,1.06,0.29,24.51,18.13,88.5,31.0,19474.0,7995,8043,8347,8274,48.3,48.1,46.9,45.2,2.691,2.784,2.883,2.783,8.03,179.7,23.0,58.5,1007.25,-31.47,0.07,1.53,20.1,28.5,23.9,0,no_anomaly,0.0,0,0,0,0,26.8467417,80.9462018,20.8,0.0
2024-06-20T11:02:12.300Z,MISSION_0039,123,0,transit,SITE_LKN_010,26.8467448,80.9461998,20.8,213.81,2.685,0.123,4.99,-5.1534,-3.4697,213.8056,-0.28902,0.042,-0.0342,0.95579,0.4066,-0.1165,-9.949,-0.2063,-0.7024,-0.0983,0.2258,3,11,0.5,1.27,0.2,24.519,17.66,88.4,31.0,19455.0,8189,8421,8246,8301,45.2,49.2,45.4,49.6,2.801,2.775,2.461,2.603,7.12,185.6,22.9,59.2,1006.93,-37.31,-0.24,1.88,16.0,27.6,25.3,0,no_anomaly,0.0,0,0,0,0,26.8467448,80.9461998,20.8,0.0
2024-06-20T11:02:12.400Z,MISSION_0039,124,0,transit,SITE_LKN_010,26.846748,80.9461974,20.8,212.79,2.668,0.098,5.35,0.0198,-0.0365,212.7857,-0.28222,0.00026,0.00026,0.95935,-0.1507,0.0295,-9.7362,0.1512,0.3427,0.3396,0.2711,3,20,0.68,0.91,0.26,24.529,23.4,88.3,31.5,19437.0,8212,8369,8282,8133,51.1,48.8,47.2,46.5,2.755,2.833,2.825,3.036,7.76,178.3,23.0,58.7,1007.4,-29.42,1.28,1.36,18.4,29.2,25.7,0,no_anomaly,0.0,0,0,0,0,26.846748,80.9461974,20.8,0.0
2024-06-20T11:02:12.500Z,MISSION_0039,125,0,transit,SITE_LKN_010,26.8467524,80.9461968,20.8,213.95,3.075,0.063,5.84,6.5953,0.1279,213.9488,-0.2914,-0.01786,0.05469,0.95487,-0.0447,-0.0749,-9.8159,0.6244,-0.024,-0.1875,0.1774,3,20,0.69,0.77,0.37,24.499,25.76,88.3,31.5,19419.0,8184,7947,8292,8357,48.9,48.7,46.3,45.6,2.978,3.18,3.008,2.97,7.68,190.0,23.0,59.1,1007.22,-29.73,0.51,1.56,17.3,30.1,25.9,0,no_anomaly,0.0,0,0,0,0,26.8467524,80.9461968,20.8,0.0
2024-06-20T11:02:12.600Z,MISSION_0039,126,0,transit,SITE_LKN_010,26.8467545,80.9461968,20.8,213.76,2.919,0.138,6.08,8.5672,-3.2464,213.7585,-0.29145,0.00535,0.07965,0.95325,0.0315,-0.0311,-9.8507,-0.6051,-0.3027,-0.2738,0.2334,3,12,0.87,0.64,0.28,24.52,21.05,88.2,30.9,19400.0,7942,8364,8308,8103,47.5,47.8,51.7,48.8,2.528,2.71,2.693,2.869,7.69,179.0,22.7,58.7,1007.42,-31.04,0.13,1.54,14.1,35.0,22.5,0,no_anomaly,0.0,0,0,0,0,26.8467545,80.9461968,20.8,0.0
2024-06-20T11:02:12.700Z,MISSION_0039,127,0,transit,SITE_LKN_010,26.8467566,80.9461955,20.8,213.18,3.16,0.018,6.32,-2.462,-2.4493,213.1817,-0.28496,0.02661,-0.01448,0.95806,-0.1251,0.0115,-9.8332,0.7806,-0.2455,0.5732,0.2546,3,15,0.53,1.04,0.2,24.534,24.31,88.1,30.9,19382.0,8044,8119,8236,8191,46.1,49.7,45.7,46.3,2.92,2.719,2.748,2.842,8.58,192.1,23.2,59.6,1007.34,-30.48,0.82,1.82,18.5,32.5,24.9,0,no_anomaly,0.0,0,0,0,0,26.8467566,80.9461955,20.8,0.0
2024-06-20T11:02:12.800Z,MISSION_0039,128,0,transit,SITE_LKN_010,26.8467515,80.9461939,20.8,212.19,3.062,0.124,5.77,-0.9059,-3.7887,212.1872,-0.2768,0.03395,0.00157,0.96033,0.0919,-0.0287,-9.7847,0.1366,0.8911,0.0044,0.2157,3,18,0.74,0.93,0.27,24.53,16.05,88.0,31.1,19363.0,8012,8397,8084,8257,50.7,49.0,49.7,48.5,2.995,2.879,2.802,2.665,8.52,184.2,22.8,59.1,1007.29,-33.24,-0.23,1.59,20.4,37.1,24.2,0,no_anomaly,0.0,0,0,0,0,26.8467515,80.9461939,20.8,0.0
2024-06-20T11:02:12.900Z,MISSION_0039,129,0,transit,SITE_LKN_010,26.8467541,80.946188,20.8,211.25,2.812,0.087,6.17,-0.7961,-3.1096,211.2509,-0.26906,0.028,0.00062,0.96272,0.0303,0.0213,-9.8679,-0.2808,-0.052,0.2936,0.2622,3,14,0.8,1.14,0.36,24.492,25.02,87.9,30.4,19345.0,8142,8215,8117,8282,45.5,50.7,48.6,49.0,2.735,2.535,2.574,2.718,7.98,174.9,22.8,58.6,1007.54,-24.48,-0.2,1.41,16.0,36.6,24.6,0,no_anomaly,0.0,0,0,0,0,26.8467541,80.946188,20.8,0.0
