timestamp_utc,mission_id,frame_id,waypoint_id,inspection_phase,site_id,latitude_deg,longitude_deg,altitude_m,heading_deg,ground_speed_ms,vertical_speed_ms,distance_to_tower_m,roll_deg,pitch_deg,yaw_deg,quat_w,quat_x,quat_y,quat_z,accel_x_ms2,accel_y_ms2,accel_z_ms2,gyro_x_rads,gyro_y_rads,gyro_z_rads,vibration_level,gps_fix_type,gps_satellite_count,gps_hdop,gps_vdop,position_error_m,battery_voltage_v,battery_current_a,battery_remaining_pct,battery_temp_c,battery_capacity_mah,motor_fl_rpm,motor_fr_rpm,motor_rl_rpm,motor_rr_rpm,motor_fl_temp_c,motor_fr_temp_c,motor_rl_temp_c,motor_rr_temp_c,motor_fl_thrust_n,motor_fr_thrust_n,motor_rl_thrust_n,motor_rr_thrust_n,wind_speed_ms,wind_dir_deg,air_temp_c,humidity_pct,pressure_hpa,gimbal_pitch_deg,gimbal_roll_deg,zoom_factor,ir_temp_min_c,ir_temp_max_c,ir_temp_avg_c,anomaly_detected,anomaly_class,anomaly_confidence,anomaly_bbox_x,anomaly_bbox_y,anomaly_bbox_w,anomaly_bbox_h,anomaly_gps_lat,anomaly_gps_lon,anomaly_gps_alt_m,ir_temp_delta_c
2024-05-22T11:08:00.000Z,MISSION_0016,0,0,takeoff,SITE_PUN_007,18.5204007,73.8566936,1.5,117.09,0.023,0.085,0.72,0.6433,-2.1883,117.0938,0.52161,0.01922,-0.00518,0.85295,0.1728,-0.0915,-9.8313,-1.1969,1.017,-0.2986,0.19,3,18,0.73,0.8,0.46,24.735,17.95,99.5,39.9,21880.0,8514,8732,8902,8732,56.6,57.4,53.7,56.8,2.823,2.65,2.354,2.642,5.06,3.0,31.9,39.4,1006.3,-33.79,-0.36,1.96,27.8,45.0,32.9,0,no_anomaly,0.0,0,0,0,0,18.5204007,73.8566936,1.5,0.0
2024-05-22T11:08:00.100Z,MISSION_0016,1,0,takeoff,SITE_PUN_007,18.5204073,73.8566956,3.0,119.38,0.327,0.094,0.95,-2.0928,-1.6012,119.3778,0.50478,0.00285,-0.02281,0.86294,0.1207,0.0794,-9.857,0.5803,-1.0403,-0.1703,0.2116,3,12,0.61,0.72,0.2,24.864,15.55,99.4,39.9,21859.0,8943,8462,8776,8347,58.5,55.6,53.3,56.5,2.894,2.729,2.926,2.955,4.08,5.2,31.7,39.1,1006.16,-39.66,-0.35,1.58,22.0,38.0,33.3,0,no_anomaly,0.0,0,0,0,0,18.5204073,73.8566956,3.0,0.0
2024-05-22T11:08:00.200Z,MISSION_0016,2,0,takeoff,SITE_PUN_007,18.5204091,73.8566947,4.5,119.13,0.376,0.202,1.17,3.7498,-1.3829,119.1252,0.50595,0.02697,0.0221,0.86186,-0.082,0.0465,-9.808,0.5773,0.0989,-0.115,0.1871,3,16,0.67,0.89,0.31,24.771,17.52,99.3,39.4,21838.0,8497,8614,8581,8451,57.2,57.6,53.8,58.1,3.02,2.638,2.98,2.694,5.21,9.1,31.6,38.2,1006.17,-31.15,0.82,1.69,26.9,44.0,31.8,0,no_anomaly,0.0,0,0,0,0,18.5204091,73.8566947,4.5,0.0
2024-05-22T11:08:00.300Z,MISSION_0016,3,0,takeoff,SITE_PUN_007,18.5204092,73.8566905,5.0,119.77,0.318,0.071,1.47,2.7285,-4.4053,119.7705,0.50043,0.04517,0.0013,0.8646,0.3306,0.0662,-9.7927,0.15,0.8876,-0.1162,0.1858,3,20,0.5,1.1,0.24,24.818,22.24,99.2,40.1,21818.0,8832,8446,8701,8556,57.7,55.6,57.7,57.2,2.731,2.913,2.744,2.566,4.72,3.2,31.4,38.9,1006.33,-30.81,0.88,1.55,24.6,46.9,36.0,0,no_anomaly,0.0,0,0,0,0,18.5204092,73.8566905,5.0,0.0
2024-05-22T11:08:00.400Z,MISSION_0016,4,0,takeoff,SITE_PUN_007,18.5204142,73.8566915,5.0,120.54,0.457,0.125,1.85,-1.158,-5.4428,120.5434,0.49572,0.03622,-0.03231,0.86713,-0.057,0.0044,-9.9309,0.5054,0.306,0.4852,0.1648,3,16,0.75,0.96,0.29,24.765,17.77,99.1,40.4,21797.0,8606,8926,8844,8616,58.4,57.5,56.9,58.5,2.993,2.548,2.863,2.504,4.49,7.7,31.4,39.0,1006.32,-29.48,0.38,2.03,27.2,46.7,33.5,0,no_anomaly,0.0,0,0,0,0,18.5204142,73.8566915,5.0,0.0
2024-05-22T11:08:00.500Z,MISSION_0016,5,0,takeoff,SITE_PUN_007,18.520415,73.8566903,5.0,120.71,0.886,0.03,1.99,8.3778,0.4366,120.7101,0.49354,0.03283,0.06536,0.86664,-0.2368,0.0756,-9.7314,0.7294,-0.1409,-0.007,0.2028,3,10,0.59,0.91,0.2,24.848,21.4,99.0,39.0,21776.0,8533,8743,8938,8931,56.9,57.7,57.0,57.3,2.978,2.521,2.846,2.684,4.36,7.8,31.8,38.5,1006.31,-29.51,3.19,1.36,27.5,39.3,33.5,0,no_anomaly,0.0,0,0,0,0,18.520415,73.8566903,5.0,0.0
2024-05-22T11:08:00.600Z,MISSION_0016,6,0,takeoff,SITE_PUN_007,18.5204159,73.8566951,5.0,119.11,0.948,0.141,1.85,-2.8189,-2.0728,119.1051,0.5069,0.00313,-0.03036,0.86147,-0.1019,0.0029,-9.8095,0.5055,-0.0509,-0.5429,0.1994,3,15,0.64,0.68,0.2,24.768,21.2,98.9,39.6,21755.0,8882,8555,8266,8637,55.5,52.5,57.2,55.8,2.918,2.81,3.094,2.733,3.97,4.5,31.7,38.8,1006.53,-28.04,0.51,1.0,25.2,41.2,35.6,0,no_anomaly,0.0,0,0,0,0,18.5204159,73.8566951,5.0,0.0
2024-05-22T11:08:00.700Z,MISSION_0016,7,0,takeoff,SITE_PUN_007,18.5204215,73.8566994,5.0,122.3,0.766,0.108,2.39,-3.0219,-2.0362,122.2956,0.48272,0.00284,-0.03166,0.8752,0.113,0.0221,-9.7728,-0.8665,0.0973,-0.5566,0.2441,3,20,0.63,1.03,0.2,24.764,21.55,98.8,39.7,21734.0,8672,8732,8580,8571,56.3,55.0,61.5,57.5,2.959,2.854,2.965,2.893,4.95,3.8,31.6,38.2,1006.3,-26.41,0.1,1.83,23.4,41.5,34.1,0,no_anomaly,0.0,0,0,0,0,18.5204215,73.8566994,5.0,0.0
2024-05-22T11:08:00.800Z,MISSION_0016,8,0,takeoff,SITE_PUN_007,18.5204209,73.8567006,5.0,122.54,1.574,0.026,2.33,-3.3485,-4.9122,122.5363,0.48116,0.02353,-0.04619,0.8751,-0.03,0.0953,-9.7855,0.0606,0.1257,-0.2641,0.1704,3,16,0.8,1.08,0.45,24.839,17.28,98.7,39.6,21714.0,8559,8780,8840,9010,55.4,57.6,57.0,59.7,3.063,2.795,2.921,2.787,4.02,3.2,31.5,38.4,1006.67,-22.4,0.94,1.04,27.9,37.8,32.9,0,no_anomaly,0.0,0,0,0,0,18.5204209,73.8567006,5.0,0.0
2024-05-22T11:08:00.900Z,MISSION_0016,9,0,takeoff,SITE_PUN_007,18.5204191,73.8566957,5.0,124.23,1.83,0.042,2.18,5.3502,-5.6525,124.2338,0.46456,0.06534,0.01817,0.88294,-0.0384,0.0567,-9.8373,0.3083,0.9389,-0.367,0.3319,3,13,0.8,0.84,0.35,24.728,16.82,98.6,39.6,21693.0,8457,8883,8605,8881,56.0,55.4,57.5,55.3,2.963,2.728,2.971,2.782,4.99,3.0,31.5,39.0,1006.85,-31.33,1.14,1.31,23.0,39.1,35.7,0,no_anomaly,0.0,0,0,0,0,18.5204191,73.8566957,5.0,0.0
2024-05-22T11:08:01.000Z,MISSION_0016,10,0,takeoff,SITE_PUN_007,18.5204234,73.8566931,5.0,123.16,1.99,0.137,2.71,4.1462,-1.7,123.1562,0.47512,0.03025,0.02476,0.87905,-0.1226,0.0406,-9.6854,-0.1931,-0.1099,0.4094,0.1987,3,20,0.73,0.97,0.31,24.764,16.77,98.5,39.4,21672.0,8420,8879,8712,9043,57.8,54.6,56.9,55.3,2.765,2.864,2.905,2.629,4.75,14.2,31.7,39.3,1006.58,-28.29,-0.94,1.41,24.1,37.9,32.6,0,no_anomaly,0.0,0,0,0,0,18.5204234,73.8566931,5.0,0.0
2024-05-22T11:08:01.100Z,MISSION_0016,11,0,takeoff,SITE_PUN_007,18.5204224,73.8566922,5.0,119.84,2.22,0.08,2.64,3.4146,0.8337,119.8437,0.50113,0.00864,0.02943,0.86483,0.0974,-0.0009,-9.7654,-0.3974,0.3207,0.1363,0.2233,3,17,0.72,0.63,0.2,24.837,13.87,98.4,40.1,21651.0,8728,8879,8742,8680,56.6,54.8,58.4,60.5,2.522,2.936,2.889,2.663,5.63,8.4,31.8,38.5,1006.53,-32.02,-0.47,1.76,28.1,41.8,34.9,0,no_anomaly,0.0,0,0,0,0,18.5204224,73.8566922,5.0,0.0
2024-05-22T11:08:01.200Z,MISSION_0016,12,0,takeoff,SITE_PUN_007,18.520423,73.8566943,5.0,119.85,1.998,0.121,2.63,-2.3113,-3.4551,119.8491,0.50134,0.01598,-0.03255,0.86449,-0.0379,0.016,-9.6597,0.1318,-0.2572,0.1282,0.1568,3,11,0.87,0.92,0.4,24.712,21.8,98.3,39.8,21631.0,8399,8575,8885,8523,56.9,56.7,55.5,56.2,2.951,2.72,3.315,3.001,4.38,10.3,32.0,38.3,1006.29,-27.43,1.36,1.17,26.0,39.5,34.2,0,no_anomaly,0.0,0,0,0,0,18.520423,73.8566943,5.0,0.0
2024-05-22T11:08:01.300Z,MISSION_0016,13,0,takeoff,SITE_PUN_007,18.5204268,73.856691,5.0,119.4,2.309,0.048,3.15,-1.4641,-3.0603,119.3954,0.50464,0.01661,-0.0245,0.86282,0.3221,-0.0479,-9.8837,0.2004,0.6129,-0.1407,0.1736,3,18,0.64,0.84,0.24,24.725,18.12,98.2,39.9,21610.0,8845,8733,9111,8618,59.0,55.3,56.7,56.3,2.855,2.871,2.649,2.893,4.04,12.5,31.6,37.9,1006.84,-29.05,0.29,1.84,27.5,45.8,31.8,0,no_anomaly,0.0,0,0,0,0,18.5204268,73.856691,5.0,0.0
2024-05-22T11:08:01.400Z,MISSION_0016,14,0,takeoff,SITE_PUN_007,18.5204282,73.8566924,5.0,121.0,2.48,0.111,3.25,1.3465,-1.8157,121.0018,0.49215,0.01957,0.00242,0.87029,0.0723,-0.0209,-9.8827,-0.2627,-0.5238,-0.2349,0.124,3,16,0.75,1.01,0.37,24.791,20.5,98.1,39.9,21589.0,8629,8794,8518,8775,57.3,54.9,55.9,55.7,2.782,2.915,2.821,2.922,4.56,0.8,31.7,38.3,1006.0,-27.95,-0.33,1.52,26.5,37.6,36.0,0,no_anomaly,0.0,0,0,0,0,18.5204282,73.8566924,5.0,0.0
2024-05-22T11:08:01.500Z,MISSION_0016,15,0,takeoff,SITE_PUN_007,18.5204305,73.8566941,5.0,119.53,2.525,0.128,3.46,-3.7246,-1.9045,119.5349,0.50364,-0.00201,-0.03644,0.86314,0.3088,0.0364,-9.8367,0.4607,0.0937,0.1316,0.148,3,19,0.62,0.91,0.23,24.728,18.22,98.0,40.6,21568.0,8658,8748,8778,8567,55.8,56.3,56.8,55.8,2.939,2.764,2.685,2.739,4.39,9.3,31.7,38.0,1006.26,-27.68,-0.44,1.6,26.2,44.0,32.4,0,no_anomaly,0.0,0,0,0,0,18.5204305,73.8566941,5.0,0.0
2024-05-22T11:08:01.600Z,MISSION_0016,16,0,takeoff,SITE_PUN_007,18.5204358,73.8566955,5.0,119.81,2.154,0.161,4.01,1.8123,-4.7083,119.81,0.50039,0.04346,-0.00692,0.86468,0.1465,-0.0362,-9.812,-0.3829,0.6024,-0.0835,0.1677,3,20,0.93,0.77,0.35,24.792,18.81,97.9,39.5,21548.0,8485,8747,8832,8853,56.1,60.2,55.2,53.9,2.927,2.928,2.669,2.814,4.38,6.1,31.4,37.8,1005.88,-29.46,-0.37,2.2,29.8,41.8,33.5,0,no_anomaly,0.0,0,0,0,0,18.5204358,73.8566955,5.0,0.0
2024-05-22T11:08:01.700Z,MISSION_0016,17,0,takeoff,SITE_PUN_007,18.5204309,73.8566969,5.0,118.54,2.261,0.081,3.46,-1.7459,-2.6844,118.5364,0.51113,0.01235,-0.02506,0.85905,0.0334,0.0179,-9.8016,-0.2585,1.1121,-0.0382,0.2064,3,15,0.74,1.32,0.22,24.775,21.67,97.8,41.4,21527.0,8674,8679,8586,8477,55.5,53.6,57.3,56.6,2.75,2.974,2.757,2.838,4.28,358.6,31.8,38.6,1006.47,-25.49,-0.87,1.49,23.1,38.1,34.1,0,no_anomaly,0.0,0,0,0,0,18.5204309,73.8566969,5.0,0.0
2024-05-22T11:08:01.800Z,MISSION_0016,18,0,takeoff,SITE_PUN_007,18.5204288,73.856694,5.0,118.9,2.391,0.159,3.27,3.0273,-0.0085,118.903,0.50809,0.01349,0.02271,0.8609,0.1344,0.0885,-9.7705,0.3639,0.3032,-0.5908,0.2466,3,12,0.5,0.96,0.24,24.752,21.38,97.8,38.9,21506.0,8835,8919,8760,8699,56.4,56.5,57.0,61.2,2.605,2.795,2.588,2.667,4.49,2.2,31.6,37.9,1006.27,-28.46,0.5,1.77,27.5,42.7,32.5,0,no_anomaly,0.0,0,0,0,0,18.5204288,73.856694,5.0,0.0
2024-05-22T11:08:01.900Z,MISSION_0016,19,0,takeoff,SITE_PUN_007,18.5204285,73.8566953,5.0,118.95,2.088,0.061,3.22,3.6031,-3.5499,118.9531,0.50656,0.04263,0.01134,0.86108,0.1486,0.0093,-9.7644,-0.6838,-0.6833,-0.0906,0.1056,3,18,0.66,0.99,0.42,24.641,17.67,97.7,39.7,21485.0,8739,8803,8538,9007,59.0,55.9,57.0,57.9,2.816,2.887,2.918,2.827,5.19,6.9,31.6,38.8,1006.11,-33.71,0.42,1.26,27.9,41.5,36.6,0,no_anomaly,0.0,0,0,0,0,18.5204285,73.8566953,5.0,0.0
2024-05-22T11:08:02.000Z,MISSION_0016,20,0,takeoff,SITE_PUN_007,18.5204301,73.8566995,5.0,121.73,1.963,0.18,3.35,-1.4297,-2.4532,121.7253,0.48699,0.01262,-0.02132,0.87306,0.0328,0.0487,-9.8528,-0.0511,-0.0909,-0.526,0.2206,3,19,0.91,0.91,0.35,24.761,13.81,97.6,40.1,21465.0,8686,8501,8779,8336,57.1,58.9,56.1,55.2,2.98,2.586,2.863,2.978,4.11,2.7,31.5,38.5,1006.58,-35.66,1.26,1.83,26.9,43.7,35.5,0,no_anomaly,0.0,0,0,0,0,18.5204301,73.8566995,5.0,0.0
2024-05-22T11:08:02.100Z,MISSION_0016,21,0,takeoff,SITE_PUN_007,18.5204323,73.8566963,5.0,120.56,2.054,0.099,3.62,-0.5244,-0.7498,120.5628,0.49575,0.00341,-0.00722,0.86843,0.0327,0.0237,-9.8349,0.1144,-0.1813,-0.4186,0.1699,3,11,0.59,0.95,0.23,24.704,20.73,97.5,39.7,21444.0,8706,8794,8609,8926,55.8,56.3,54.9,57.9,2.603,2.763,3.021,2.898,4.27,3.1,31.4,38.8,1006.15,-30.33,-0.21,1.06,28.2,42.1,35.8,0,no_anomaly,0.0,0,0,0,0,18.5204323,73.8566963,5.0,0.0
2024-05-22T11:08:02.200Z,MISSION_0016,22,0,takeoff,SITE_PUN_007,18.5204329,73.8567015,5.0,121.08,2.002,0.092,3.67,3.6481,-5.4486,121.0795,0.4897,0.057,0.00432,0.87002,0.0845,-0.039,-9.7393,0.2165,-0.2318,0.5144,0.2176,3,11,0.75,0.88,0.23,24.788,23.63,97.4,40.3,21423.0,8646,8611,8757,8689,58.8,56.1,54.2,60.8,2.758,3.113,2.835,2.792,5.31,1.1,31.7,38.0,1006.15,-29.91,-0.55,1.52,29.4,43.0,34.3,0,no_anomaly,0.0,0,0,0,0,18.5204329,73.8567015,5.0,0.0
2024-05-22T11:08:02.300Z,MISSION_0016,23,0,takeoff,SITE_PUN_007,18.5204379,73.8566997,5.0,121.0,1.866,0.053,4.22,-1.3129,-4.5925,120.9986,0.49241,0.02923,-0.02969,0.86937,0.2871,0.0058,-9.8449,0.3565,0.0683,-0.163,0.1778,3,14,0.77,1.01,0.3,24.7,16.33,97.3,39.0,21402.0,8825,8675,8378,8285,57.0,58.2,53.4,57.3,2.587,2.83,2.561,2.698,4.65,11.2,31.5,38.1,1006.24,-26.66,-0.67,1.67,29.0,45.8,34.2,0,no_anomaly,0.0,0,0,0,0,18.5204379,73.8566997,5.0,0.0
2024-05-22T11:08:02.400Z,MISSION_0016,24,0,takeoff,SITE_PUN_007,18.5204432,73.8566953,5.0,123.59,1.954,0.039,4.84,1.8255,-0.7092,123.5922,0.47245,0.01298,0.01111,0.88119,-0.0356,-0.0304,-9.7854,0.2154,-0.623,0.4098,0.0739,3,13,0.91,1.23,0.34,24.771,18.73,97.2,39.6,21381.0,8697,8685,8682,8718,57.5,59.0,58.1,55.2,2.66,3.019,2.62,2.894,4.57,2.1,31.5,38.8,1006.51,-25.42,-0.7,1.18,23.3,38.7,34.0,0,no_anomaly,0.0,0,0,0,0,18.5204432,73.8566953,5.0,0.0
2024-05-22T11:08:02.500Z,MISSION_0016,25,0,takeoff,SITE_PUN_007,18.5204477,73.8567001,5.0,124.78,2.227,0.096,5.31,-2.8699,-2.6471,124.783,0.46367,0.00886,-0.03289,0.88535,-0.0183,-0.0163,-9.7922,0.0095,0.196,-0.3298,0.095,3,10,0.8,0.89,0.2,24.7,19.52,97.1,40.0,21361.0,8703,8729,8520,8914,58.9,57.0,55.3,57.4,2.58,2.811,2.607,2.763,5.24,9.5,31.8,38.3,1006.06,-25.41,-0.94,2.26,26.1,46.9,37.4,0,no_anomaly,0.0,0,0,0,0,18.5204477,73.8567001,5.0,0.0
2024-05-22T11:08:02.600Z,MISSION_0016,26,0,takeoff,SITE_PUN_007,18.5204505,73.8567046,5.0,125.7,2.79,0.077,5.65,1.8986,-3.7575,125.7046,0.45549,0.03672,-0.00022,0.88948,-0.2745,-0.0519,-9.7929,-0.701,-0.5545,0.1962,0.1713,3,11,0.83,0.69,0.2,24.722,18.73,97.0,39.2,21340.0,8609,8789,8678,8678,57.2,57.8,57.5,56.9,2.792,2.621,2.904,2.857,4.55,14.2,31.7,38.8,1006.23,-26.33,-0.86,1.57,27.1,43.1,35.1,0,no_anomaly,0.0,0,0,0,0,18.5204505,73.8567046,5.0,0.0
2024-05-22T11:08:02.700Z,MISSION_0016,27,0,takeoff,SITE_PUN_007,18.5204451,73.8567117,5.0,127.27,3.184,0.103,5.19,2.2434,-3.4672,127.2731,0.44324,0.03579,0.0041,0.89568,0.0266,-0.0164,-9.8212,-0.1319,-0.6577,0.5036,0.2367,3,18,0.63,0.75,0.22,24.691,21.25,96.9,39.5,21319.0,8740,8508,8698,8582,55.4,54.0,56.2,56.9,2.977,2.89,2.983,2.761,4.08,5.2,31.5,38.9,1006.0,-28.83,-1.13,1.29,28.9,42.1,36.2,0,no_anomaly,0.0,0,0,0,0,18.5204451,73.8567117,5.0,0.0
2024-05-22T11:08:02.800Z,MISSION_0016,28,0,takeoff,SITE_PUN_007,18.5204461,73.8567133,5.0,127.98,3.233,0.143,5.34,2.099,-0.8351,127.9759,0.43836,0.01458,0.01326,0.89859,-0.1538,-0.0455,-9.81,0.394,-0.0355,-0.2878,0.1316,3,12,0.77,0.82,0.32,24.796,15.04,96.8,40.3,21298.0,8803,8829,8985,8713,56.7,55.4,58.2,59.8,2.962,3.014,2.749,2.697,4.2,4.2,31.7,38.9,1006.4,-31.68,0.16,1.6,31.1,47.5,35.1,0,no_anomaly,0.0,0,0,0,0,18.5204461,73.8567133,5.0,0.0
2024-05-22T11:08:02.900Z,MISSION_0016,29,0,takeoff,SITE_PUN_007,18.5204425,73.8567145,5.0,127.26,2.765,0.115,5.0,0.3876,-1.4739,127.2625,0.44407,0.01303,-0.00268,0.89589,0.0198,-0.0653,-9.8115,-0.1681,0.4071,-0.0141,0.2582,3,12,0.56,0.84,0.26,24.701,22.98,96.7,39.9,21278.0,8536,8701,8888,8727,55.0,57.1,53.9,53.0,3.027,2.888,2.87,2.998,4.76,11.9,31.9,37.8,1006.64,-25.65,0.09,1.01,24.3,40.7,32.6,0,no_anomaly,0.0,0,0,0,0,18.5204425,73.8567145,5.0,0.0
2024-05-22T11:08:03.000Z,MISSION_0016,30,0,takeoff,SITE_PUN_007,18.520442,73.8567132,5.0,125.14,3.009,0.143,4.9,-3.841,-1.9053,125.1417,0.46082,-0.00069,-0.0374,0.8867,-0.1562,0.0176,-9.8843,-0.7372,0.2117,-0.3952,0.0985,3,18,0.86,0.95,0.32,24.622,20.6,96.6,40.0,21257.0,8710,9202,8448,8425,59.9,57.5,54.3,56.0,2.816,2.859,2.632,2.575,4.3,2.3,31.7,39.0,1006.77,-27.98,1.12,1.26,24.4,37.7,34.0,0,no_anomaly,0.0,0,0,0,0,18.520442,73.8567132,5.0,0.0
2024-05-22T11:08:03.100Z,MISSION_0016,31,0,takeoff,SITE_PUN_007,18.5204477,73.8567143,5.0,127.28,3.053,0.079,5.55,2.378,-1.6272,127.2759,0.44364,0.02193,0.01229,0.89585,-0.0017,0.026,-9.815,-0.4129,0.4255,0.3276,0.1435,3,16,0.9,0.73,0.33,24.743,19.03,96.5,40.1,21236.0,8788,8769,8563,8570,55.5,58.7,57.6,56.6,2.719,3.048,2.956,2.9,3.77,1.4,31.8,38.6,1006.21,-30.41,0.28,1.76,24.2,41.3,34.1,0,no_anomaly,0.0,0,0,0,0,18.5204477,73.8567143,5.0,0.0
2024-05-22T11:08:03.200Z,MISSION_0016,32,0,takeoff,SITE_PUN_007,18.5204509,73.856712,5.0,128.5,3.422,0.083,5.82,-4.0458,-0.6273,128.5038,0.43431,-0.01041,-0.03417,0.90005,0.281,-0.0167,-9.7785,-0.588,0.2629,0.2437,0.2968,3,11,0.88,1.03,0.4,24.745,14.91,96.4,39.4,21215.0,8811,8638,8875,8527,57.2,53.5,55.8,58.0,2.802,2.563,2.702,2.428,4.03,359.0,31.6,39.6,1006.29,-29.8,0.48,1.7,28.0,42.4,33.7,0,no_anomaly,0.0,0,0,0,0,18.5204509,73.856712,5.0,0.0
2024-05-22T11:08:03.300Z,MISSION_0016,33,0,takeoff,SITE_PUN_007,18.5204522,73.8567138,5.0,128.68,3.524,0.135,6.01,-3.0099,-3.0232,128.6755,0.43339,0.0124,-0.03508,0.90044,0.0899,-0.0562,-9.8292,0.3825,0.3777,-0.0639,0.1893,3,19,0.78,0.92,0.23,24.564,17.9,96.3,40.0,21195.0,8649,8793,8623,8576,56.2,52.8,55.5,53.2,2.627,3.08,2.845,2.787,4.89,4.7,31.6,38.8,1006.25,-34.1,0.07,1.48,30.0,43.4,33.1,0,no_anomaly,0.0,0,0,0,0,18.5204522,73.8567138,5.0,0.0
2024-05-22T11:08:03.400Z,MISSION_0016,34,0,takeoff,SITE_PUN_007,18.520454,73.8567067,5.0,129.58,3.804,0.122,6.06,-2.8111,0.5253,129.5841,0.42567,-0.01459,-0.02024,0.90453,0.0406,-0.0736,-9.8307,0.3151,0.027,-0.1562,0.2679,3,17,0.64,0.99,0.36,24.699,19.25,96.2,39.9,21174.0,8761,8500,8738,8394,61.4,60.7,56.2,54.7,3.062,2.754,2.608,2.769,4.07,9.4,31.5,39.7,1006.21,-30.1,-0.3,1.15,27.9,42.9,33.2,0,no_anomaly,0.0,0,0,0,0,18.520454,73.8567067,5.0,0.0
2024-05-22T11:08:03.500Z,MISSION_0016,35,0,takeoff,SITE_PUN_007,18.5204537,73.8567035,5.0,128.73,3.909,0.038,5.99,0.2064,-0.1715,128.7315,0.43262,0.00213,0.00098,0.90157,-0.0647,-0.1068,-9.8077,1.2619,-0.0254,-0.1153,0.1499,3,17,0.61,0.84,0.2,24.761,18.41,96.2,40.1,21153.0,8574,8835,8929,8876,57.7,58.9,56.5,54.8,3.057,2.921,2.712,3.15,4.86,5.5,31.6,37.8,1006.24,-32.42,-0.15,1.32,25.1,42.5,34.0,0,no_anomaly,0.0,0,0,0,0,18.5204537,73.8567035,5.0,0.0
2024-05-22T11:08:03.600Z,MISSION_0016,36,0,transit,SITE_PUN_007,18.5204582,73.8566979,5.5,128.06,3.742,0.118,6.49,1.7004,-2.7952,128.0635,0.43737,0.02842,0.00266,0.89883,-0.0474,0.1106,-9.7314,-0.0824,0.2962,0.3779,0.1488,3,18,0.62,0.94,0.21,24.703,19.81,96.1,39.0,21132.0,8858,9015,8778,8499,56.9,53.8,55.9,54.2,2.812,2.691,2.773,2.772,5.21,3.3,31.5,39.1,1006.02,-30.26,0.66,1.47,23.2,43.2,30.8,0,no_anomaly,0.0,0,0,0,0,18.5204582,73.8566979,5.5,0.0
2024-05-22T11:08:03.700Z,MISSION_0016,37,0,transit,SITE_PUN_007,18.5204589,73.8566977,6.0,128.85,4.113,0.05,6.56,-1.5601,-1.573,128.8471,0.4318,0.0065,-0.0182,0.90176,0.1754,-0.0087,-9.8369,-0.1582,0.6703,0.3333,0.1923,3,15,0.69,0.88,0.26,24.768,17.62,96.0,39.7,21112.0,8597,8400,8418,8798,53.0,56.7,55.0,55.9,2.811,2.794,2.835,3.077,4.14,5.0,31.6,38.2,1006.01,-32.15,-0.42,1.56,29.1,45.3,34.7,0,no_anomaly,0.0,0,0,0,0,18.5204589,73.8566977,6.0,0.0
2024-05-22T11:08:03.800Z,MISSION_0016,38,0,transit,SITE_PUN_007,18.5204608,73.8566961,6.5,128.81,4.561,0.147,6.78,1.9567,-0.9878,128.8076,0.43181,0.01515,0.01167,0.90176,-0.2888,0.0631,-9.7572,-0.2593,0.3557,0.4564,0.1415,3,11,0.77,0.93,0.46,24.704,16.38,95.9,39.5,21091.0,8644,8635,8546,8824,55.3,59.7,57.5,58.0,2.923,2.926,3.019,2.854,4.59,3.3,31.8,39.1,1006.52,-20.59,-1.11,1.3,24.1,42.2,34.1,0,no_anomaly,0.0,0,0,0,0,18.5204608,73.8566961,6.5,0.0
2024-05-22T11:08:03.900Z,MISSION_0016,39,0,transit,SITE_PUN_007,18.5204607,73.8566941,7.0,127.14,4.883,0.119,6.79,4.1831,-1.2054,127.141,0.44443,0.02566,0.028,0.89501,0.1001,0.0427,-9.8952,-0.1999,0.085,0.1265,0.2078,3,16,0.84,0.77,0.31,24.589,23.93,95.8,40.1,21070.0,8260,8715,8459,8718,56.1,57.6,56.1,56.3,2.95,2.849,2.666,2.768,4.47,5.1,31.9,38.7,1006.25,-28.06,0.75,1.42,24.6,44.5,33.1,0,no_anomaly,0.0,0,0,0,0,18.5204607,73.8566941,7.0,0.0
2024-05-22T11:08:04.000Z,MISSION_0016,40,0,transit,SITE_PUN_007,18.5204565,73.8566929,7.5,125.11,4.656,0.083,6.34,-3.0695,-1.5359,125.108,0.46102,-0.00045,-0.02994,0.88688,0.0876,-0.0529,-9.7786,-0.7188,-0.3368,-0.0869,0.2454,3,17,0.74,0.85,0.23,24.583,21.45,95.7,39.9,21049.0,8707,8557,8667,8906,56.9,55.2,55.9,54.4,2.628,2.568,2.784,2.663,4.62,11.6,31.8,38.3,1005.97,-26.51,1.63,1.44,28.4,39.6,36.5,0,no_anomaly,0.0,0,0,0,0,18.5204565,73.8566929,7.5,0.0
2024-05-22T11:08:04.100Z,MISSION_0016,41,0,transit,SITE_PUN_007,18.5204581,73.8566907,8.0,123.68,4.978,0.226,6.55,-0.3807,-1.4914,123.6795,0.47193,0.00991,-0.00907,0.88153,0.2186,-0.0057,-9.7714,-0.7568,0.4907,-0.333,0.2507,3,19,0.75,0.88,0.26,24.712,20.78,95.6,39.5,21028.0,8843,8720,8681,8650,58.7,59.3,56.5,56.1,2.766,2.533,2.941,2.764,4.17,1.3,31.4,38.9,1006.19,-19.98,-0.75,1.66,25.4,41.7,34.6,0,no_anomaly,0.0,0,0,0,0,18.5204581,73.8566907,8.0,0.0
2024-05-22T11:08:04.200Z,MISSION_0016,42,0,transit,SITE_PUN_007,18.5204529,73.8566907,8.5,123.66,5.079,0.083,5.98,2.1598,-4.163,123.6621,0.47107,0.0409,-0.00054,0.88114,-0.3193,-0.0801,-9.8009,-0.3318,0.4501,-0.096,0.1923,3,14,0.71,0.84,0.45,24.723,19.39,95.5,40.4,21008.0,8638,8705,8878,8855,55.0,57.0,55.1,57.2,2.719,2.666,2.443,2.717,4.07,3.4,31.8,38.4,1006.49,-29.98,1.11,1.58,29.3,46.9,35.6,0,no_anomaly,0.0,0,0,0,0,18.5204529,73.8566907,8.5,0.0
2024-05-22T11:08:04.300Z,MISSION_0016,43,0,transit,SITE_PUN_007,18.5204507,73.8566891,9.0,124.88,4.63,0.096,5.78,-2.6751,-2.3811,124.8793,0.46289,0.00762,-0.0303,0.88587,-0.1151,0.0114,-9.7238,-0.1387,-0.1885,0.1222,0.1643,3,19,0.62,0.77,0.26,24.702,17.98,95.4,39.8,20987.0,8724,8896,8555,8767,55.7,53.5,54.3,61.0,3.089,2.709,2.791,2.865,3.81,2.2,31.5,37.7,1006.2,-31.37,1.83,1.06,26.9,43.9,33.6,0,no_anomaly,0.0,0,0,0,0,18.5204507,73.8566891,9.0,0.0
2024-05-22T11:08:04.400Z,MISSION_0016,44,0,transit,SITE_PUN_007,18.5204518,73.8566899,9.5,123.07,4.333,0.131,5.88,6.6349,-1.9301,123.069,0.47491,0.04236,0.04285,0.87797,-0.1005,0.0552,-9.7865,-0.5062,0.2387,0.0667,0.1875,3,10,0.64,1.07,0.28,24.66,20.64,95.3,39.8,20966.0,8802,8753,8622,8924,57.8,54.9,54.6,56.6,2.962,2.624,2.909,2.877,3.73,3.7,31.7,37.3,1006.51,-28.75,0.73,2.02,30.7,44.5,36.7,0,no_anomaly,0.0,0,0,0,0,18.5204518,73.8566899,9.5,0.0
2024-05-22T11:08:04.500Z,MISSION_0016,45,0,transit,SITE_PUN_007,18.5204496,73.8566892,10.0,122.92,4.567,0.152,5.65,-0.5866,-0.968,122.9222,0.47777,0.00498,-0.00853,0.87843,0.1093,0.0383,-9.7981,-0.3511,-0.6688,0.1716,0.1,3,20,0.73,0.84,0.42,24.614,19.49,95.2,39.5,20945.0,8745,8830,8728,8531,59.3,56.2,52.2,56.1,2.88,2.821,2.866,2.958,5.61,355.5,31.5,38.1,1005.94,-31.07,-0.42,1.63,26.2,40.0,34.6,0,no_anomaly,0.0,0,0,0,0,18.5204496,73.8566892,10.0,0.0
2024-05-22T11:08:04.600Z,MISSION_0016,46,0,transit,SITE_PUN_007,18.5204485,73.8566892,10.5,123.24,4.243,0.212,5.53,-0.0762,-2.9205,123.2382,0.47519,0.0221,-0.0127,0.87951,-0.1393,-0.0428,-9.8432,0.1049,-0.135,-0.0228,0.1912,3,16,0.56,1.19,0.2,24.608,16.23,95.1,39.5,20925.0,8732,8754,8664,8469,57.0,59.3,56.6,57.6,2.557,2.846,2.8,2.672,4.72,3.6,32.1,39.0,1005.98,-30.29,-1.63,1.79,25.1,44.3,35.9,0,no_anomaly,0.0,0,0,0,0,18.5204485,73.8566892,10.5,0.0
2024-05-22T11:08:04.700Z,MISSION_0016,47,0,transit,SITE_PUN_007,18.5204497,73.8566863,11.0,125.51,3.915,0.18,5.74,-0.0108,-4.585,125.509,0.45744,0.03552,-0.0184,0.88834,0.0007,0.0964,-9.8582,-0.7164,0.0746,0.2655,0.2081,3,11,0.67,0.71,0.29,24.703,16.97,95.0,39.5,20904.0,8746,8964,8671,8891,58.6,56.3,56.0,57.6,2.803,2.611,2.792,2.669,5.14,7.5,31.7,38.7,1006.47,-26.93,0.99,1.26,24.8,40.8,36.9,0,no_anomaly,0.0,0,0,0,0,18.5204497,73.8566863,11.0,0.0
2024-05-22T11:08:04.800Z,MISSION_0016,48,0,transit,SITE_PUN_007,18.5204431,73.8566871,11.5,126.6,3.685,0.063,5.0,3.7544,0.2903,126.603,0.44913,0.01246,0.0304,0.89286,0.0432,-0.0025,-9.8774,-0.139,-0.0523,-0.0892,0.1924,3,20,0.73,0.97,0.31,24.635,19.63,94.9,40.8,20883.0,8893,8918,8752,8773,54.1,59.8,53.4,56.4,2.58,2.848,2.696,2.904,5.19,10.4,31.7,38.7,1006.52,-32.55,-0.98,1.31,27.5,37.3,33.8,0,no_anomaly,0.0,0,0,0,0,18.5204431,73.8566871,11.5,0.0
2024-05-22T11:08:04.900Z,MISSION_0016,49,0,transit,SITE_PUN_007,18.52044,73.8566864,12.0,127.42,3.84,0.044,4.7,1.477,-4.8941,127.4184,0.44199,0.04398,-0.00736,0.89591,0.1086,-0.0227,-9.8935,-0.0261,0.2425,-0.2132,0.1148,3,16,0.79,0.8,0.2,24.751,21.78,94.8,39.3,20862.0,8564,8595,8647,8686,58.9,54.7,57.2,58.0,3.056,2.783,2.74,2.961,5.55,355.9,31.4,38.6,1006.36,-31.69,-0.24,1.22,26.1,41.1,32.4,0,no_anomaly,0.0,0,0,0,0,18.52044,73.8566864,12.0,0.0
2024-05-22T11:08:05.000Z,MISSION_0016,50,0,transit,SITE_PUN_007,18.5204373,73.8566892,12.0,127.76,3.94,0.106,4.33,-0.8162,-2.2967,127.7638,0.44025,0.01486,-0.01522,0.89762,-0.1488,-0.0488,-9.8376,-0.2332,-0.1396,-0.1529,0.1853,3,18,0.73,0.97,0.3,24.681,19.76,94.7,39.8,20842.0,8633,8892,8596,8867,56.1,59.2,55.8,53.5,2.829,2.633,2.985,2.9,4.86,359.2,32.2,38.3,1006.09,-24.62,0.07,1.74,21.9,36.3,32.3,0,no_anomaly,0.0,0,0,0,0,18.5204373,73.8566892,12.0,0.0
2024-05-22T11:08:05.100Z,MISSION_0016,51,0,transit,SITE_PUN_007,18.5204436,73.856688,12.0,125.72,3.868,0.158,5.03,-0.6513,-2.2933,125.722,0.45615,0.01522,-0.01419,0.88966,0.1013,-0.0426,-9.7388,0.2575,0.2941,0.3381,0.3009,3,15,0.68,1.36,0.28,24.687,20.52,94.6,39.9,20821.0,8847,8531,8684,8879,61.3,57.4,57.6,55.9,2.877,2.796,2.849,2.755,3.92,7.2,31.7,38.5,1006.27,-31.55,0.55,1.19,27.3,39.7,31.6,0,no_anomaly,0.0,0,0,0,0,18.5204436,73.856688,12.0,0.0
2024-05-22T11:08:05.200Z,MISSION_0016,52,0,transit,SITE_PUN_007,18.5204445,73.8566888,12.0,121.56,4.134,0.093,5.11,2.6379,-1.9821,121.5636,0.48759,0.02633,0.01165,0.8726,0.2017,0.0232,-9.8255,0.4417,-0.4304,-0.2188,0.1618,3,16,0.83,0.9,0.2,24.691,18.64,94.5,39.2,20800.0,8590,8610,8602,8384,54.1,55.0,55.8,53.6,2.881,2.776,2.92,2.82,3.92,6.0,31.8,37.7,1006.45,-35.47,0.06,1.59,22.1,40.6,32.1,0,no_anomaly,0.0,0,0,0,0,18.5204445,73.8566888,12.0,0.0
2024-05-22T11:08:05.300Z,MISSION_0016,53,0,transit,SITE_PUN_007,18.5204453,73.8566891,12.0,120.76,4.45,0.008,5.19,4.3247,0.8545,120.7558,0.49416,0.01217,0.03648,0.86852,0.1635,0.0964,-9.8403,-0.6375,-0.0769,0.5747,0.1942,3,11,0.54,0.96,0.2,24.612,16.53,94.5,39.9,20779.0,9073,8710,8631,8689,54.8,58.8,55.4,57.2,2.791,2.78,2.761,2.758,4.57,8.7,31.7,37.8,1006.47,-30.61,-0.2,1.79,27.4,45.9,34.0,0,no_anomaly,0.0,0,0,0,0,18.5204453,73.8566891,12.0,0.0
2024-05-22T11:08:05.400Z,MISSION_0016,54,0,transit,SITE_PUN_007,18.5204457,73.8566891,12.0,120.13,4.868,0.074,5.23,-1.6251,0.7285,120.135,0.49884,-0.01259,-0.00912,0.86655,0.2434,0.0801,-9.7995,1.2868,-0.2075,-0.4034,0.1378,3,19,0.58,0.81,0.2,24.586,20.92,94.4,39.1,20759.0,8818,8751,8715,8913,54.7,55.6,54.0,54.6,2.85,2.933,2.95,2.905,4.31,2.2,31.7,38.6,1006.54,-28.66,1.97,1.6,25.5,40.6,33.8,0,no_anomaly,0.0,0,0,0,0,18.5204457,73.8566891,12.0,0.0
2024-05-22T11:08:05.500Z,MISSION_0016,55,0,transit,SITE_PUN_007,18.52045,73.8566856,12.0,119.15,4.55,0.128,5.8,3.2211,-0.5328,119.1538,0.50606,0.01824,0.02188,0.86203,0.1512,0.0554,-9.7634,0.2487,-0.2905,-0.2618,0.2323,3,19,0.68,1.06,0.2,24.671,17.72,94.3,40.6,20738.0,8899,8752,8743,8661,56.9,55.0,55.4,54.2,2.984,2.889,2.812,3.036,4.22,4.3,31.0,38.6,1006.46,-31.82,0.53,1.6,24.9,39.5,36.5,0,no_anomaly,0.0,0,0,0,0,18.52045,73.8566856,12.0,0.0
2024-05-22T11:08:05.600Z,MISSION_0016,56,0,transit,SITE_PUN_007,18.5204474,73.8566861,12.0,119.43,4.844,0.102,5.5,-0.2256,-1.3551,119.4315,0.50427,0.00922,-0.00766,0.86346,-0.2439,0.0868,-9.7735,-0.3303,-0.1035,0.1334,0.2531,3,15,0.73,0.93,0.33,24.639,20.44,94.2,39.5,20717.0,8944,8914,8632,8734,58.1,57.5,56.0,57.6,2.948,2.536,2.818,2.477,4.93,0.5,31.7,38.6,1006.26,-28.34,0.9,1.7,23.6,39.0,33.2,0,no_anomaly,0.0,0,0,0,0,18.5204474,73.8566861,12.0,0.0
2024-05-22T11:08:05.700Z,MISSION_0016,57,0,transit,SITE_PUN_007,18.520445,73.8566848,12.0,121.49,4.76,0.145,5.29,1.534,0.4294,121.4935,0.48867,0.00327,0.01351,0.87236,-0.0539,-0.012,-9.8018,-0.4213,-0.737,0.475,0.1571,3,18,0.74,0.8,0.34,24.625,18.65,94.1,39.8,20696.0,8666,8495,8807,8635,56.3,57.5,55.3,55.4,2.814,3.0,2.678,2.944,4.42,9.6,31.7,39.2,1006.13,-27.26,0.2,1.25,26.9,42.0,37.2,0,no_anomaly,0.0,0,0,0,0,18.520445,73.8566848,12.0,0.0
2024-05-22T11:08:05.800Z,MISSION_0016,58,0,transit,SITE_PUN_007,18.5204398,73.8566872,12.0,120.77,4.868,0.141,4.65,4.0064,-1.1186,120.7708,0.49354,0.02575,0.02557,0.86896,-0.0046,-0.0852,-9.7589,-0.4941,0.0005,0.2481,0.1538,3,14,0.74,0.91,0.2,24.613,20.45,94.0,39.3,20675.0,8657,8764,8737,8665,56.4,54.6,55.2,55.0,2.738,2.864,2.835,2.907,4.86,2.6,31.4,38.7,1006.32,-31.22,0.69,1.66,25.5,43.9,34.2,0,no_anomaly,0.0,0,0,0,0,18.5204398,73.8566872,12.0,0.0
2024-05-22T11:08:05.900Z,MISSION_0016,59,0,transit,SITE_PUN_007,18.5204348,73.8566868,12.0,119.13,4.198,0.138,4.14,-4.6036,-1.565,119.1261,0.50661,-0.00858,-0.04154,0.86113,0.0701,0.0131,-9.8041,-0.7218,0.1397,0.3625,0.2342,3,18,0.6,0.95,0.27,24.631,16.65,93.9,39.8,20655.0,8888,9050,8959,8559,56.2,54.0,58.2,58.0,2.762,2.677,2.651,2.756,4.5,358.9,31.6,39.0,1006.36,-27.73,-0.71,1.84,29.9,42.2,35.2,0,no_anomaly,0.0,0,0,0,0,18.5204348,73.8566868,12.0,0.0
2024-05-22T11:08:06.000Z,MISSION_0016,60,0,transit,SITE_PUN_007,18.5204288,73.8566822,12.0,120.23,4.162,0.121,3.77,-4.8575,-0.1847,120.2275,0.49789,-0.01972,-0.03754,0.8662,0.0019,-0.0056,-9.8062,0.4766,-0.277,0.1379,0.1567,3,17,0.82,1.06,0.33,24.619,23.21,93.8,40.1,20634.0,8668,8838,8637,8524,55.3,53.4,59.2,58.0,2.921,2.635,3.081,2.724,4.85,1.4,31.6,38.6,1006.36,-30.81,1.79,1.67,28.7,41.0,32.8,0,no_anomaly,0.0,0,0,0,0,18.5204288,73.8566822,12.0,0.0
2024-05-22T11:08:06.100Z,MISSION_0016,61,0,transit,SITE_PUN_007,18.520425,73.8566846,12.0,119.62,3.937,0.152,3.26,-2.3476,-1.5908,119.6192,0.50297,0.0017,-0.02468,0.86395,0.159,0.026,-9.8215,-0.408,-0.1838,-0.0535,0.2611,3,20,0.63,0.9,0.2,24.591,15.28,93.7,39.1,20613.0,8984,8615,8767,8831,57.1,58.4,58.0,55.6,2.817,2.585,2.936,2.776,5.04,2.2,31.5,38.8,1006.44,-36.39,-0.4,1.0,28.3,42.5,34.5,0,no_anomaly,0.0,0,0,0,0,18.520425,73.8566846,12.0,0.0
2024-05-22T11:08:06.200Z,MISSION_0016,62,0,transit,SITE_PUN_007,18.5204267,73.856681,12.0,121.4,4.093,0.081,3.65,4.7237,-4.4674,121.4018,0.48718,0.05411,0.01685,0.87146,-0.2315,0.0478,-9.8226,-0.4949,0.7029,-0.0984,0.1897,3,16,0.8,0.96,0.41,24.695,17.02,93.6,39.8,20592.0,8577,8628,8639,8945,58.1,57.7,56.5,57.4,2.815,2.772,2.811,2.815,5.01,12.0,31.8,37.5,1006.19,-30.73,-1.34,1.69,28.4,46.8,35.1,0,no_anomaly,0.0,0,0,0,0,18.5204267,73.856681,12.0,0.0
2024-05-22T11:08:06.300Z,MISSION_0016,63,0,transit,SITE_PUN_007,18.5204281,73.8566833,12.0,123.18,3.562,0.117,3.64,-2.2619,-1.932,123.1779,0.47593,0.00544,-0.02538,0.8791,-0.1854,0.0002,-9.7597,0.0358,-0.0348,0.2056,0.2966,3,17,0.63,1.02,0.36,24.657,11.38,93.5,40.1,20572.0,8781,8702,8690,8732,56.0,59.0,60.0,56.8,2.738,2.769,2.616,2.946,4.47,356.1,31.5,38.4,1006.3,-31.97,-0.09,1.84,25.7,45.3,32.3,0,no_anomaly,0.0,0,0,0,0,18.5204281,73.8566833,12.0,0.0
2024-05-22T11:08:06.400Z,MISSION_0016,64,0,transit,SITE_PUN_007,18.52043,73.8566772,12.0,126.2,3.174,0.125,4.2,1.7959,0.031,126.2011,0.45237,0.00685,0.0141,0.89169,-0.042,0.0213,-9.8238,0.2168,0.3104,0.3311,0.1024,3,20,0.8,0.91,0.28,24.567,23.32,93.4,39.2,20551.0,8801,8526,8790,8508,57.3,54.4,58.7,61.7,2.702,2.689,3.018,2.883,4.53,3.2,31.6,39.0,1006.39,-33.22,0.42,1.67,29.1,40.9,33.1,0,no_anomaly,0.0,0,0,0,0,18.52043,73.8566772,12.0,0.0
2024-05-22T11:08:06.500Z,MISSION_0016,65,0,transit,SITE_PUN_007,18.5204262,73.8566798,12.0,127.55,2.837,0.052,3.68,2.5694,-3.0612,127.5548,0.44105,0.03386,0.00831,0.8968,-0.2491,0.0074,-9.8473,-0.7935,-0.0456,-0.0394,0.155,3,16,0.79,0.6,0.28,24.603,21.81,93.3,40.1,20530.0,8576,8571,8905,8749,54.1,58.6,55.6,59.1,2.978,2.783,2.67,2.989,4.67,2.5,31.7,38.6,1006.32,-26.93,0.44,1.74,30.4,46.0,36.3,0,no_anomaly,0.0,0,0,0,0,18.5204262,73.8566798,12.0,0.0
2024-05-22T11:08:06.600Z,MISSION_0016,66,0,transit,SITE_PUN_007,18.5204269,73.8566781,12.0,126.55,3.003,0.147,3.86,0.281,-3.669,126.5486,0.44942,0.02969,-0.01221,0.89274,-0.0206,-0.044,-9.9141,-0.0363,-0.4813,0.2849,0.1136,3,19,0.86,1.09,0.31,24.627,18.98,93.2,40.3,20509.0,8858,8880,8646,8669,54.2,54.8,52.4,58.3,3.009,2.743,2.857,2.755,4.75,5.4,31.6,38.0,1006.6,-32.15,-0.26,1.01,27.4,45.1,32.1,0,no_anomaly,0.0,0,0,0,0,18.5204269,73.8566781,12.0,0.0
2024-05-22T11:08:06.700Z,MISSION_0016,67,0,transit,SITE_PUN_007,18.5204291,73.8566795,12.0,129.3,3.348,0.088,3.96,-2.2394,-0.9412,129.3015,0.42818,-0.00094,-0.02118,0.90344,0.0164,-0.0308,-9.7816,-0.1218,-0.0019,-0.1733,0.1761,3,20,0.7,0.9,0.23,24.607,18.26,93.1,40.1,20489.0,8850,8687,8568,8782,57.8,55.2,56.6,56.9,2.793,3.1,2.765,2.841,4.96,6.6,31.5,38.9,1005.95,-23.82,0.14,1.34,26.4,45.1,32.1,0,no_anomaly,0.0,0,0,0,0,18.5204291,73.8566795,12.0,0.0
2024-05-22T11:08:06.800Z,MISSION_0016,68,0,transit,SITE_PUN_007,18.520433,73.8566803,12.0,129.38,3.032,0.095,4.28,2.5207,0.1592,129.3778,0.42746,0.00815,0.02048,0.90377,-0.1711,0.068,-9.9135,-0.3904,-0.6696,0.0504,0.1225,3,10,0.62,1.03,0.21,24.591,21.34,93.0,39.8,20468.0,8621,8619,8816,8832,59.3,56.4,55.5,60.0,2.681,2.84,3.049,2.962,4.06,6.9,32.0,38.9,1006.11,-30.08,0.25,1.46,29.0,46.5,35.5,0,no_anomaly,0.0,0,0,0,0,18.520433,73.8566803,12.0,0.0
2024-05-22T11:08:06.900Z,MISSION_0016,69,0,transit,SITE_PUN_007,18.5204333,73.8566836,12.0,130.37,3.325,0.062,4.13,-3.4442,-1.0885,130.3655,0.41978,-0.004,-0.03126,0.90708,0.0386,0.0571,-9.7871,-0.7808,-0.0941,0.4843,0.181,3,15,0.75,0.86,0.29,24.558,16.12,92.9,40.9,20447.0,8799,8799,8671,8678,58.0,56.3,59.6,57.8,2.822,2.782,2.751,2.971,4.56,13.0,31.1,38.1,1006.43,-26.37,1.81,1.54,25.0,35.9,34.6,0,no_anomaly,0.0,0,0,0,0,18.5204333,73.8566836,12.0,0.0
2024-05-22T11:08:07.000Z,MISSION_0016,70,0,transit,SITE_PUN_007,18.5204341,73.8566833,12.0,128.58,3.555,0.091,4.22,-1.4121,-3.0577,128.5843,0.43389,0.01869,-0.02267,0.90049,0.0466,-0.0346,-9.7651,0.2822,-0.2576,0.0179,0.1641,3,10,0.7,0.83,0.32,24.572,17.68,92.8,40.2,20426.0,8571,8697,8739,8611,60.0,58.7,56.6,57.2,3.026,2.702,2.808,2.677,4.82,8.1,31.8,38.5,1006.51,-31.8,-0.78,1.11,27.7,45.5,35.6,0,no_anomaly,0.0,0,0,0,0,18.5204341,73.8566833,12.0,0.0
2024-05-22T11:08:07.100Z,MISSION_0016,71,0,transit,SITE_PUN_007,18.5204303,73.8566824,12.0,128.11,3.513,0.069,3.89,-0.5808,-1.5384,128.109,0.43753,0.00985,-0.01043,0.89909,-0.113,-0.0073,-9.7823,-0.8179,0.0091,-0.2962,0.1763,3,20,0.84,0.76,0.2,24.637,20.29,92.8,40.0,20406.0,8929,8735,8689,8770,60.4,55.4,59.8,57.9,2.771,3.054,2.876,3.081,4.58,10.1,31.5,38.8,1006.45,-27.03,0.18,1.57,25.8,42.2,33.2,0,no_anomaly,0.0,0,0,0,0,18.5204303,73.8566824,12.0,0.0
2024-05-22T11:08:07.200Z,MISSION_0016,72,1,transit,SITE_PUN_007,18.5204276,73.8566819,12.0,130.4,3.518,0.16,3.67,5.368,-0.3541,130.4011,0.41885,0.02244,0.04121,0.90684,-0.1949,0.0263,-9.7918,0.2765,0.3503,-0.0691,0.2799,3,16,0.75,0.6,0.24,24.633,17.8,92.7,39.6,20385.0,8785,8747,8555,8787,60.7,56.0,54.6,59.6,3.126,2.883,2.71,2.744,4.8,11.5,31.9,38.5,1006.26,-27.13,1.14,1.67,27.5,38.7,32.9,0,no_anomaly,0.0,0,0,0,0,18.5204276,73.8566819,12.0,0.0
2024-05-22T11:08:07.300Z,MISSION_0016,73,1,transit,SITE_PUN_007,18.520424,73.8566788,12.0,130.19,3.27,0.163,3.56,0.9496,-1.956,130.1944,0.42088,0.01897,0.00033,0.90692,-0.0876,-0.0352,-9.7908,-0.3104,-0.3321,-0.0113,0.2885,3,15,0.78,0.9,0.32,24.569,19.84,92.6,40.3,20364.0,8476,8775,8843,8718,55.5,58.1,51.7,55.1,2.995,2.893,2.759,2.732,3.95,4.5,31.9,38.4,1006.43,-30.33,1.03,1.46,25.2,39.7,34.1,0,no_anomaly,0.0,0,0,0,0,18.520424,73.8566788,12.0,0.0
2024-05-22T11:08:07.400Z,MISSION_0016,74,1,transit,SITE_PUN_007,18.5204325,73.8566778,12.0,131.05,3.059,0.087,4.38,-2.6724,-3.0496,131.0537,0.41457,0.01456,-0.03224,0.90933,-0.0297,-0.0286,-9.8755,0.1682,0.2239,-0.0172,0.1194,3,17,0.79,0.93,0.25,24.713,17.66,92.5,39.7,20343.0,8822,8724,8719,8767,54.3,57.4,56.6,58.0,2.859,2.865,2.825,2.814,4.62,7.4,31.6,39.0,1005.99,-28.84,0.65,1.87,27.9,46.6,35.0,0,no_anomaly,0.0,0,0,0,0,18.5204325,73.8566778,12.0,0.0
2024-05-22T11:08:07.500Z,MISSION_0016,75,1,transit,SITE_PUN_007,18.520432,73.8566801,12.0,130.3,3.116,0.106,4.19,-4.3508,-3.6262,130.3008,0.42081,0.01275,-0.04771,0.9058,0.1315,0.0661,-9.8471,-0.2779,0.7562,0.133,0.2609,3,10,0.66,1.0,0.31,24.551,26.37,92.4,39.6,20323.0,8534,8889,8839,8597,55.9,64.2,58.2,56.0,2.867,2.761,2.539,2.639,3.72,358.1,31.7,38.5,1006.45,-30.19,0.61,1.7,24.6,39.6,34.0,0,no_anomaly,0.0,0,0,0,0,18.520432,73.8566801,12.0,0.0
2024-05-22T11:08:07.600Z,MISSION_0016,76,1,transit,SITE_PUN_007,18.5204381,73.8566754,12.0,129.13,2.969,-0.009,5.05,3.2644,0.4921,129.1265,0.42945,0.00836,0.02757,0.90263,0.0331,0.025,-9.8366,-0.4213,-0.32,0.6617,0.219,3,13,0.75,1.12,0.35,24.666,21.19,92.3,40.0,20302.0,8882,8701,9005,8733,58.6,56.9,57.4,57.4,2.881,2.861,2.799,2.559,4.08,358.4,31.4,38.9,1006.49,-28.28,0.97,1.88,28.4,41.3,34.6,0,no_anomaly,0.0,0,0,0,0,18.5204381,73.8566754,12.0,0.0
2024-05-22T11:08:07.700Z,MISSION_0016,77,1,transit,SITE_PUN_007,18.5204374,73.8566791,12.0,126.28,2.977,0.04,4.77,2.5707,-3.8797,126.2757,0.4508,0.04032,0.00471,0.8917,-0.0661,0.02,-9.7379,-0.055,0.2636,0.0628,0.2105,3,17,0.64,0.82,0.22,24.705,20.33,92.2,39.5,20281.0,8779,8842,8700,8636,53.3,56.0,57.9,56.2,2.803,2.751,2.918,3.066,5.1,10.6,31.6,37.9,1006.41,-28.87,0.51,1.85,28.4,40.7,30.6,0,no_anomaly,0.0,0,0,0,0,18.5204374,73.8566791,12.0,0.0
2024-05-22T11:08:07.800Z,MISSION_0016,78,1,transit,SITE_PUN_007,18.5204376,73.85668,12.0,127.28,2.946,0.133,4.74,5.6699,-2.877,127.28,0.44221,0.04442,0.03317,0.89519,0.0247,0.0596,-9.7919,0.0079,-0.0338,-0.1395,0.2152,3,20,0.79,0.8,0.33,24.663,14.76,92.1,39.7,20260.0,8401,8632,8760,8946,58.4,55.2,58.0,56.2,2.73,3.028,3.054,2.789,4.87,10.5,31.8,39.8,1006.5,-28.68,-0.52,1.07,27.1,35.8,34.3,0,no_anomaly,0.0,0,0,0,0,18.5204376,73.85668,12.0,0.0
2024-05-22T11:08:07.900Z,MISSION_0016,79,1,transit,SITE_PUN_007,18.5204361,73.8566784,12.0,127.96,2.989,0.118,4.68,1.3716,-2.0724,127.9619,0.43837,0.0215,0.00282,0.89853,0.1046,-0.0104,-9.8349,-0.7134,-0.6919,0.1627,0.2229,3,14,0.64,0.74,0.2,24.663,17.87,92.0,39.6,20239.0,8796,8520,8868,8676,57.5,56.6,55.8,56.4,2.795,2.806,2.988,2.817,4.46,5.7,31.8,38.6,1006.37,-23.86,0.8,1.32,30.8,43.3,37.8,0,no_anomaly,0.0,0,0,0,0,18.5204361,73.8566784,12.0,0.0
2024-05-22T11:08:08.000Z,MISSION_0016,80,1,transit,SITE_PUN_007,18.5204432,73.8566776,12.0,128.48,2.933,0.041,5.42,2.9966,-1.8185,128.4764,0.43405,0.02565,0.01665,0.90037,0.0423,-0.0447,-9.8528,0.6911,-0.8002,-0.2247,0.1543,3,20,0.77,1.1,0.31,24.604,21.5,91.9,39.4,20219.0,8899,8658,8759,8708,56.2,58.2,54.1,58.7,2.818,2.673,2.579,3.012,3.82,8.7,31.5,37.7,1006.48,-30.57,-0.48,1.45,28.7,43.0,35.0,0,no_anomaly,0.0,0,0,0,0,18.5204432,73.8566776,12.0,0.0
2024-05-22T11:08:08.100Z,MISSION_0016,81,1,transit,SITE_PUN_007,18.5204433,73.856678,12.0,128.39,2.667,-0.035,5.4,-2.2574,0.2078,128.3858,0.43523,-0.01021,-0.01694,0.9001,0.0334,0.0292,-9.7861,-0.132,0.5136,-0.1969,0.2959,3,18,0.63,0.62,0.27,24.531,17.32,91.8,40.1,20198.0,8706,8740,8945,8597,58.8,60.1,56.5,59.1,2.514,2.556,2.757,2.86,3.74,5.7,31.8,39.3,1006.0,-30.26,-0.92,1.44,29.4,44.5,32.8,0,no_anomaly,0.0,0,0,0,0,18.5204433,73.856678,12.0,0.0
2024-05-22T11:08:08.200Z,MISSION_0016,82,1,transit,SITE_PUN_007,18.5204419,73.8566807,12.0,127.18,2.562,0.107,5.14,-4.2899,-2.5288,127.1787,0.44512,0.00311,-0.04332,0.89442,-0.0893,-0.0211,-9.7305,-0.8564,-0.5242,0.1366,0.1779,3,19,0.87,0.76,0.27,24.422,20.42,91.7,39.8,20177.0,8873,9116,8729,8708,51.6,57.6,56.3,53.4,2.917,2.754,2.743,2.686,3.77,359.0,31.7,39.2,1006.38,-34.4,1.0,1.29,27.4,41.2,36.2,0,no_anomaly,0.0,0,0,0,0,18.5204419,73.8566807,12.0,0.0
2024-05-22T11:08:08.300Z,MISSION_0016,83,1,transit,SITE_PUN_007,18.5204442,73.8566769,12.0,127.57,2.752,0.12,5.55,4.2583,-0.4208,127.5704,0.44131,0.0197,0.03171,0.89658,0.0038,-0.029,-9.8108,0.7633,-0.6076,-0.4904,0.2093,3,20,0.86,0.94,0.42,24.559,18.4,91.6,39.8,20156.0,8927,8761,8552,9010,55.1,58.2,57.7,56.4,2.983,3.045,2.975,2.627,4.15,10.2,31.5,38.3,1006.33,-27.59,-1.13,1.11,27.3,36.9,36.4,0,no_anomaly,0.0,0,0,0,0,18.5204442,73.8566769,12.0,0.0
2024-05-22T11:08:08.400Z,MISSION_0016,84,1,transit,SITE_PUN_007,18.5204445,73.8566746,12.0,127.48,3.011,0.044,5.71,6.6696,-1.3789,127.4755,0.44107,0.03651,0.04685,0.8955,0.1136,0.029,-9.8629,0.0437,1.3816,0.326,0.121,3,17,0.63,0.61,0.27,24.573,18.78,91.5,39.9,20136.0,8584,8828,8776,8975,59.2,55.4,57.8,55.5,2.895,3.161,2.876,2.99,3.99,2.5,31.5,38.3,1006.16,-26.48,0.84,1.49,26.4,47.2,33.2,0,no_anomaly,0.0,0,0,0,0,18.5204445,73.8566746,12.0,0.0
2024-05-22T11:08:08.500Z,MISSION_0016,85,1,transit,SITE_PUN_007,18.5204462,73.8566693,12.0,125.44,3.721,-0.008,6.18,-2.717,0.0349,125.4355,0.45824,-0.01114,-0.02093,0.88851,0.0421,0.0012,-9.7649,0.1686,0.0686,-0.4271,0.2156,3,10,0.59,0.77,0.2,24.601,24.68,91.4,39.7,20115.0,8767,8729,8640,8816,57.4,53.7,55.9,58.7,2.821,2.862,3.075,3.074,4.76,6.5,32.0,38.3,1006.53,-32.41,0.43,1.86,25.7,41.9,36.0,0,no_anomaly,0.0,0,0,0,0,18.5204462,73.8566693,12.0,0.0
2024-05-22T11:08:08.600Z,MISSION_0016,86,1,transit,SITE_PUN_007,18.5204443,73.8566679,12.0,125.0,3.788,0.13,6.09,-0.3374,-3.7484,125.0019,0.46157,0.02765,-0.01771,0.8865,-0.3302,-0.0382,-9.8135,0.1163,0.7271,-0.1125,0.1339,3,10,0.77,0.81,0.37,24.686,20.4,91.3,39.9,20094.0,8756,9049,8601,8926,59.6,59.6,58.1,56.1,2.592,2.712,2.717,2.799,5.19,2.7,31.7,38.8,1006.26,-29.65,-0.35,1.9,28.7,42.6,33.1,0,no_anomaly,0.0,0,0,0,0,18.5204443,73.8566679,12.0,0.0
2024-05-22T11:08:08.700Z,MISSION_0016,87,1,orbit_base,SITE_PUN_007,18.520331,73.8567406,12.3,126.0,3.905,0.152,8.91,-0.9068,-3.4873,125.9986,0.45399,0.02352,-0.02086,0.89045,0.1421,0.0039,-9.796,-0.558,0.1637,-0.1781,0.0866,3,10,0.54,0.79,0.2,24.548,18.94,91.2,40.7,20073.0,8753,9002,8547,8460,57.5,57.3,53.6,58.3,2.606,2.706,2.687,2.576,3.76,7.1,31.8,38.0,1006.35,-26.94,-1.52,1.15,25.1,38.1,36.0,0,no_anomaly,0.0,0,0,0,0,18.520331,73.8567406,12.3,0.0
2024-05-22T11:08:08.800Z,MISSION_0016,88,1,orbit_base,SITE_PUN_007,18.5203299,73.8567385,12.6,126.48,3.72,0.049,8.91,4.4318,-1.0345,126.4787,0.4496,0.02546,0.03046,0.89235,0.0426,-0.0214,-9.8013,0.3377,0.5409,0.3313,0.1777,3,11,0.73,0.83,0.23,24.52,23.13,91.1,40.3,20053.0,8843,8742,8902,8599,57.2,57.8,56.7,59.1,2.83,2.579,2.886,2.793,4.42,8.6,31.2,37.9,1006.39,-33.08,-0.95,1.65,26.4,37.2,34.1,0,no_anomaly,0.0,0,0,0,0,18.5203299,73.8567385,12.6,0.0
2024-05-22T11:08:08.900Z,MISSION_0016,89,1,orbit_base,SITE_PUN_007,18.5203287,73.8567363,12.9,126.18,3.726,0.068,8.91,-0.4953,0.5835,126.1786,0.45257,-0.0065,-0.00155,0.8917,0.1718,0.0208,-9.7808,-0.6047,-0.1569,-0.464,0.1523,3,18,0.54,0.97,0.24,24.552,13.05,91.1,40.0,20032.0,9028,8666,8713,8755,56.5,57.5,59.1,59.7,2.998,2.8,2.914,2.712,3.46,7.5,31.6,38.7,1006.25,-25.35,-0.36,1.25,24.9,44.1,34.0,0,no_anomaly,0.0,0,0,0,0,18.5203287,73.8567363,12.9,0.0
2024-05-22T11:08:09.000Z,MISSION_0016,90,1,orbit_base,SITE_PUN_007,18.5203277,73.8567342,13.2,125.99,3.114,0.06,8.91,-0.8595,-2.3247,125.9904,0.45409,0.01467,-0.01589,0.89069,-0.0891,-0.0041,-9.7611,0.3696,0.0739,-0.4281,0.1856,3,19,0.61,0.87,0.25,24.59,18.91,91.0,40.0,20011.0,8754,8754,8574,8550,52.9,58.2,58.4,54.2,2.737,2.823,2.832,2.8,4.13,3.8,31.5,38.7,1006.35,-30.12,0.34,1.48,28.9,36.7,32.7,0,no_anomaly,0.0,0,0,0,0,18.5203277,73.8567342,13.2,0.0
2024-05-22T11:08:09.100Z,MISSION_0016,91,1,orbit_base,SITE_PUN_007,18.5203267,73.856732,13.5,125.35,2.563,0.06,8.91,-3.9475,-2.5959,125.3455,0.45938,0.0043,-0.04098,0.88729,-0.082,0.0727,-9.7787,-0.0061,-0.21,0.0127,0.2686,3,13,0.7,0.9,0.23,24.505,14.18,90.9,41.1,19990.0,8796,8434,8734,8720,57.2,58.7,56.1,57.7,2.721,3.145,2.998,3.12,4.3,5.0,31.5,39.1,1006.15,-30.62,-0.19,1.88,29.1,41.1,35.2,0,no_anomaly,0.0,0,0,0,0,18.5203267,73.856732,13.5,0.0
2024-05-22T11:08:09.200Z,MISSION_0016,92,1,orbit_base,SITE_PUN_007,18.5203258,73.8567298,13.8,124.96,2.452,0.014,8.91,0.1486,-1.0062,124.9598,0.46203,0.00839,-0.00291,0.88682,0.1273,0.0535,-9.8141,0.1626,0.1047,-0.1583,0.1895,3,16,0.68,0.71,0.34,24.488,15.59,90.8,39.4,19970.0,8741,8849,8562,8690,54.3,57.2,57.2,56.8,2.986,2.883,2.734,2.591,4.63,6.2,31.4,38.8,1006.7,-33.3,0.5,1.0,29.0,40.1,34.3,0,no_anomaly,0.0,0,0,0,0,18.5203258,73.8567298,13.8,0.0
2024-05-22T11:08:09.300Z,MISSION_0016,93,1,orbit_base,SITE_PUN_007,18.5203249,73.8567276,14.1,126.19,2.229,0.032,8.91,0.8323,-1.9576,126.1885,0.45234,0.01852,-0.00125,0.89165,-0.2615,0.0577,-9.832,-0.2495,-0.3963,-0.0608,0.0683,3,15,0.63,1.02,0.28,24.539,10.33,90.7,40.0,19949.0,8739,8789,8987,8569,58.3,56.8,57.3,56.8,2.958,2.899,2.789,2.543,4.05,1.7,32.0,38.6,1006.05,-29.38,2.12,1.84,28.9,42.3,34.9,0,no_anomaly,0.0,0,0,0,0,18.5203249,73.8567276,14.1,0.0
2024-05-22T11:08:09.400Z,MISSION_0016,94,1,orbit_base,SITE_PUN_007,18.5203241,73.8567253,14.4,126.04,2.171,0.1,8.91,4.018,-0.5213,126.044,0.45322,0.01995,0.02918,0.8907,0.2746,-0.0232,-9.7982,-0.0435,-0.0818,-0.4147,0.1992,3,17,0.79,0.93,0.43,24.523,16.92,90.6,39.6,19928.0,8779,8535,8933,8672,54.4,57.7,56.8,56.0,2.69,2.931,2.59,2.552,3.81,358.0,31.6,38.4,1006.33,-30.51,0.62,1.71,25.2,38.7,31.5,0,no_anomaly,0.0,0,0,0,0,18.5203241,73.8567253,14.4,0.0
2024-05-22T11:08:09.500Z,MISSION_0016,95,1,orbit_base,SITE_PUN_007,18.5203234,73.856723,14.7,127.61,2.544,0.161,8.91,1.482,-1.6873,127.6133,0.44115,0.01892,0.0051,0.89722,0.009,-0.1463,-9.8547,-0.8012,0.6011,-0.0062,0.1716,3,15,0.75,0.82,0.4,24.567,23.3,90.5,40.1,19907.0,8571,8916,8634,8538,58.8,58.9,57.7,57.4,3.094,2.566,2.528,2.865,4.0,357.1,31.9,37.4,1006.35,-24.87,-1.33,1.91,24.4,37.9,31.6,0,no_anomaly,0.0,0,0,0,0,18.5203234,73.856723,14.7,0.0
2024-05-22T11:08:09.600Z,MISSION_0016,96,1,orbit_base,SITE_PUN_007,18.5203227,73.8567207,15.0,127.47,2.79,0.056,8.91,-0.7854,-1.1396,127.4701,0.44255,0.00589,-0.01055,0.89666,-0.0781,-0.0355,-9.7898,-0.0289,0.2939,-0.1174,0.2288,3,11,0.83,0.83,0.33,24.543,14.42,90.4,39.7,19886.0,8727,8594,8692,8641,54.7,54.5,55.0,61.3,2.654,2.566,2.878,2.819,5.0,3.4,31.5,38.2,1006.23,-33.16,-1.59,1.0,23.3,42.3,35.3,0,no_anomaly,0.0,0,0,0,0,18.5203227,73.8567207,15.0,0.0
2024-05-22T11:08:09.700Z,MISSION_0016,97,1,orbit_base,SITE_PUN_007,18.5203221,73.8567184,15.3,129.32,3.179,0.027,8.91,2.8509,-4.2306,129.3153,0.42677,0.04399,0.00667,0.90326,0.1339,-0.0689,-9.8985,0.3428,0.1387,0.212,0.1771,3,12,0.83,0.67,0.26,24.605,18.28,90.3,40.2,19866.0,8967,8793,8739,8844,57.1,56.3,55.4,59.5,2.797,2.775,2.749,2.708,3.82,1.1,32.0,38.0,1005.93,-28.3,0.31,1.32,30.1,45.5,36.8,0,no_anomaly,0.0,0,0,0,0,18.5203221,73.8567184,15.3,0.0
2024-05-22T11:08:09.800Z,MISSION_0016,98,1,orbit_base,SITE_PUN_007,18.5203216,73.856716,15.6,130.19,3.58,0.089,8.91,0.7564,-3.1511,130.1916,0.42077,0.02772,-0.00559,0.90673,-0.0668,0.0808,-9.7942,0.8956,0.517,-0.1543,0.2847,3,20,0.55,0.87,0.33,24.565,24.46,90.2,39.6,19845.0,8931,8674,9002,8845,59.1,58.5,55.0,57.7,2.751,2.934,2.792,2.528,4.54,2.0,31.5,38.2,1006.27,-28.03,-1.09,1.2,22.5,38.1,30.8,0,no_anomaly,0.0,0,0,0,0,18.5203216,73.856716,15.6,0.0
2024-05-22T11:08:09.900Z,MISSION_0016,99,1,orbit_base,SITE_PUN_007,18.5203212,73.8567137,15.9,126.99,3.619,0.119,8.91,1.2329,-1.0226,126.9949,0.44611,0.01279,0.00565,0.89487,0.0772,-0.1254,-9.8248,-0.4036,-0.1848,0.3051,0.2758,3,15,0.62,0.9,0.2,24.528,20.02,90.1,39.9,19824.0,8740,8842,8718,8393,58.0,57.5,58.0,60.3,2.779,2.924,2.859,2.68,4.62,1.4,31.7,38.0,1006.92,-31.48,0.94,1.66,27.4,38.2,35.2,0,no_anomaly,0.0,0,0,0,0,18.5203212,73.8567137,15.9,0.0
2024-05-22T11:08:10.000Z,MISSION_0016,100,1,orbit_base,SITE_PUN_007,18.5203208,73.8567113,16.2,125.63,4.197,0.07,8.91,-0.4101,-1.4253,125.632,0.45685,0.00943,-0.00887,0.88945,-0.0438,-0.0273,-9.8018,-0.6776,-0.1219,0.1175,0.2468,3,13,0.71,0.73,0.27,24.452,20.74,90.0,41.0,19803.0,8943,8575,8575,8857,53.9,56.8,53.4,58.4,2.681,2.821,2.745,3.127,4.66,10.4,31.7,39.1,1006.46,-30.97,-0.9,1.36,25.5,41.3,32.3,0,no_anomaly,0.0,0,0,0,0,18.5203208,73.8567113,16.2,0.0
2024-05-22T11:08:10.100Z,MISSION_0016,101,1,orbit_base,SITE_PUN_007,18.5203205,73.8567089,16.5,128.58,5.098,0.139,8.91,-1.7955,-2.7608,128.5757,0.43401,0.01491,-0.02456,0.90045,-0.0076,0.0334,-9.7253,0.0328,0.4694,-0.2465,0.1031,3,15,0.73,0.75,0.2,24.482,22.39,89.9,40.3,19783.0,8919,9089,8984,8781,55.2,55.6,54.4,53.8,2.88,2.515,2.727,2.755,4.39,0.9,31.6,38.6,1006.18,-28.9,-0.14,1.7,27.5,45.4,33.8,0,no_anomaly,0.0,0,0,0,0,18.5203205,73.8567089,16.5,0.0
2024-05-22T11:08:10.200Z,MISSION_0016,102,1,orbit_base,SITE_PUN_007,18.5203203,73.8567065,16.8,126.55,4.862,0.165,8.91,0.7369,-2.5149,126.5497,0.44947,0.02249,-0.00413,0.893,-0.0935,0.0088,-9.7496,-1.2804,0.0842,0.288,0.2827,3,11,0.75,1.06,0.31,24.61,20.38,89.8,40.3,19762.0,8867,8844,8827,8769,56.9,53.1,57.3,54.2,2.278,2.821,2.987,2.856,5.79,1.8,31.8,38.0,1006.3,-23.07,0.02,1.09,25.8,45.8,33.7,0,no_anomaly,0.0,0,0,0,0,18.5203203,73.8567065,16.8,0.0
2024-05-22T11:08:10.300Z,MISSION_0016,103,1,orbit_base,SITE_PUN_007,18.5203201,73.8567041,17.1,126.34,4.784,0.115,8.91,-0.5665,-2.7478,126.3366,0.45134,0.01916,-0.01523,0.89202,-0.0058,-0.0164,-9.818,0.0703,-0.3311,-0.0933,0.1143,3,11,0.68,1.05,0.34,24.498,21.87,89.7,40.8,19741.0,8757,8597,8816,8867,55.1,58.6,57.8,54.8,3.032,2.728,2.638,2.718,4.7,10.1,31.7,37.7,1006.05,-30.53,1.0,1.99,28.0,40.0,34.5,0,no_anomaly,0.0,0,0,0,0,18.5203201,73.8567041,17.1,0.0
2024-05-22T11:08:10.400Z,MISSION_0016,104,1,orbit_base,SITE_PUN_007,18.52032,73.8567017,17.4,126.66,4.701,0.052,8.91,-0.511,-0.6785,126.6553,0.4489,0.00329,-0.00664,0.89355,0.0737,-0.01,-9.8064,-0.6648,0.137,0.1795,0.2197,3,14,0.69,0.81,0.27,24.566,24.06,89.6,41.0,19720.0,8790,8931,9022,8824,56.3,58.0,55.5,57.4,2.512,2.808,2.656,2.895,4.81,12.1,31.7,38.4,1006.23,-31.81,0.8,1.38,24.1,40.3,33.6,0,no_anomaly,0.0,0,0,0,0,18.52032,73.8567017,17.4,0.0
2024-05-22T11:08:10.500Z,MISSION_0016,105,1,orbit_base,SITE_PUN_007,18.52032,73.8566993,17.7,127.43,4.879,0.127,8.91,0.3817,-2.3991,127.429,0.44268,0.02024,-0.00629,0.89643,0.1095,-0.0298,-9.7574,-0.4637,-1.2665,0.19,0.1576,3,14,0.6,0.91,0.3,24.479,21.57,89.5,40.3,19700.0,8947,9063,9030,8784,58.6,57.2,55.1,57.5,2.863,2.504,2.637,2.59,4.76,2.8,31.6,39.7,1006.5,-32.07,1.0,1.22,26.9,37.6,35.0,0,no_anomaly,0.0,0,0,0,0,18.52032,73.8566993,17.7,0.0
2024-05-22T11:08:10.600Z,MISSION_0016,106,1,orbit_base,SITE_PUN_007,18.5203201,73.8566969,18.0,125.48,4.643,0.131,8.91,0.8813,-1.6646,125.4801,0.45787,0.01643,0.00018,0.88887,-0.1113,-0.0585,-9.8668,0.2792,-0.6876,0.2599,0.1992,3,20,0.85,1.07,0.2,24.496,17.84,89.4,41.0,19679.0,8904,8618,9137,8856,57.0,58.0,54.3,54.3,2.534,2.897,2.945,2.912,5.23,5.9,31.4,38.4,1006.21,-29.95,0.08,1.68,25.8,38.4,36.0,0,no_anomaly,0.0,0,0,0,0,18.5203201,73.8566969,18.0,0.0
2024-05-22T11:08:10.700Z,MISSION_0016,107,1,orbit_base,SITE_PUN_007,18.5203202,73.8566945,18.3,129.68,5.046,0.033,8.91,4.3467,-2.3791,129.6765,0.42407,0.0349,0.0255,0.9046,-0.0192,-0.1074,-9.845,-0.6904,0.4831,-0.1543,0.1987,3,11,0.63,0.73,0.23,24.479,14.79,89.4,40.4,19658.0,8653,8855,8858,8847,57.1,57.3,57.4,56.1,2.76,2.815,2.581,2.729,4.9,3.3,31.6,38.9,1006.33,-35.16,-1.4,1.38,26.5,39.7,34.3,0,no_anomaly,0.0,0,0,0,0,18.5203202,73.8566945,18.3,0.0
2024-05-22T11:08:10.800Z,MISSION_0016,108,1,orbit_base,SITE_PUN_007,18.5203204,73.8566921,18.6,131.0,5.041,0.049,8.91,1.5647,-1.0371,131.0017,0.41451,0.0139,0.00867,0.9099,0.0934,0.0244,-9.8498,-0.623,0.3246,0.1116,0.1843,3,12,0.57,1.03,0.25,24.544,27.44,89.3,40.2,19637.0,8522,8722,8530,8707,57.3,60.0,60.3,58.3,2.6,2.823,2.856,2.851,4.93,6.7,31.9,38.7,1006.23,-26.85,-0.72,1.51,26.2,43.6,34.9,0,no_anomaly,0.0,0,0,0,0,18.5203204,73.8566921,18.6,0.0
2024-05-22T11:08:10.900Z,MISSION_0016,109,1,orbit_base,SITE_PUN_007,18.5203207,73.8566898,18.9,129.34,4.794,0.088,8.91,-1.8917,-2.7138,129.3393,0.42801,0.01434,-0.02505,0.90331,-0.0385,-0.0612,-9.8196,0.4449,-0.5378,-0.0458,0.1996,3,11,0.52,0.84,0.2,24.589,20.24,89.2,41.1,19617.0,8632,8799,8732,8918,55.1,59.1,57.2,53.7,2.957,2.76,2.908,2.608,3.2,11.3,31.8,38.9,1006.04,-34.09,-0.11,1.81,23.4,38.2,31.2,0,no_anomaly,0.0,0,0,0,0,18.5203207,73.8566898,18.9,0.0
2024-05-22T11:08:11.000Z,MISSION_0016,110,1,orbit_base,SITE_PUN_007,18.520321,73.8566874,19.2,131.23,5.038,0.144,8.91,3.4376,-0.4089,131.2328,0.41256,0.01563,0.02585,0.91043,-0.0355,0.0431,-9.9132,0.7993,-0.1401,0.1182,0.2266,3,15,0.59,1.02,0.2,24.385,18.37,89.1,40.0,19596.0,8624,8826,8946,8778,56.6,58.7,55.9,54.7,2.967,2.63,2.822,2.634,3.78,1.4,31.3,38.9,1006.53,-34.2,1.07,1.41,26.7,36.0,31.1,0,no_anomaly,0.0,0,0,0,0,18.520321,73.8566874,19.2,0.0
2024-05-22T11:08:11.100Z,MISSION_0016,111,1,orbit_base,SITE_PUN_007,18.5203214,73.856685,19.5,131.77,5.604,0.123,8.91,-3.188,-2.8307,131.7749,0.40887,0.01118,-0.03547,0.91183,-0.0142,0.0779,-9.7862,0.0112,0.1691,-0.8793,0.2736,3,14,0.71,0.71,0.47,24.556,17.27,89.0,39.6,19575.0,8803,8642,8732,8964,57.3,56.3,51.9,54.3,3.011,2.604,2.708,2.705,3.76,0.5,31.8,38.9,1006.33,-33.73,0.28,1.12,27.3,40.9,31.4,0,no_anomaly,0.0,0,0,0,0,18.5203214,73.856685,19.5,0.0
2024-05-22T11:08:11.200Z,MISSION_0016,112,1,orbit_base,SITE_PUN_007,18.5203219,73.8566827,19.8,129.39,5.802,0.015,8.91,-0.431,-0.1902,129.3852,0.42748,-0.00011,-0.00411,0.90402,-0.0127,0.0108,-9.7323,-0.7219,0.7455,-0.1562,0.2127,3,20,0.89,0.89,0.57,24.537,16.59,88.9,40.3,19554.0,9055,8832,8980,8818,55.6,56.5,53.7,56.1,2.643,2.835,3.026,2.798,4.9,11.1,31.3,38.0,1006.16,-32.49,-0.11,1.41,30.7,38.7,37.7,0,no_anomaly,0.0,0,0,0,0,18.5203219,73.8566827,19.8,0.0
2024-05-22T11:08:11.300Z,MISSION_0016,113,1,orbit_base,SITE_PUN_007,18.5203225,73.8566803,20.1,128.41,5.703,0.068,8.91,-4.0403,-3.5507,128.4096,0.43566,0.01254,-0.0452,0.89889,0.1939,-0.0395,-9.8481,-0.7579,0.172,-0.4338,0.225,3,20,0.58,0.87,0.21,24.564,20.45,88.8,39.8,19533.0,8683,8701,8835,8780,54.7,59.1,57.9,58.4,2.613,2.528,2.843,2.697,4.56,12.8,31.4,38.7,1006.61,-28.83,-0.05,1.25,27.5,39.2,35.6,0,no_anomaly,0.0,0,0,0,0,18.5203225,73.8566803,20.1,0.0
2024-05-22T11:08:11.400Z,MISSION_0016,114,1,orbit_base,SITE_PUN_007,18.5203231,73.856678,20.4,130.34,5.531,0.066,8.91,-5.0715,-3.3705,130.3361,0.42055,0.00809,-0.05247,0.90572,0.0819,-0.0917,-9.798,0.418,0.9428,-0.1494,0.1808,3,11,0.63,0.91,0.29,24.571,20.26,88.7,39.7,19513.0,8563,8509,8719,8905,54.2,56.0,59.3,53.8,2.736,2.692,2.765,2.615,3.91,4.7,31.7,38.5,1006.05,-33.76,-0.62,1.37,24.2,40.3,32.1,0,no_anomaly,0.0,0,0,0,0,18.5203231,73.856678,20.4,0.0
2024-05-22T11:08:11.500Z,MISSION_0016,115,1,orbit_base,SITE_PUN_007,18.5203238,73.8566757,20.7,128.93,6.211,0.156,8.91,-0.0305,-2.4583,128.9253,0.43101,0.01924,-0.00949,0.90209,0.0769,-0.0505,-9.8002,-0.9017,0.7829,0.1087,0.2186,3,11,0.84,0.92,0.3,24.442,16.88,88.6,39.5,19492.0,8734,8876,8796,8663,57.6,60.6,56.7,57.0,2.901,2.867,2.875,2.847,4.63,5.8,31.9,39.0,1006.43,-32.14,-0.2,1.19,29.0,45.0,35.0,0,no_anomaly,0.0,0,0,0,0,18.5203238,73.8566757,20.7,0.0
2024-05-22T11:08:11.600Z,MISSION_0016,116,1,orbit_base,SITE_PUN_007,18.5203245,73.8566734,21.0,129.7,5.967,0.101,8.91,-1.8516,-2.4903,129.7019,0.42514,0.0128,-0.02386,0.90472,0.1536,-0.0692,-9.7472,0.0555,-0.4593,0.2113,0.2748,3,13,0.58,0.65,0.2,24.455,21.94,88.5,39.0,19471.0,8677,8579,8702,8816,59.0,56.2,58.3,58.1,2.845,2.999,2.847,2.648,4.45,355.2,31.4,38.5,1006.49,-30.06,-1.49,1.85,24.6,38.6,30.5,0,no_anomaly,0.0,0,0,0,0,18.5203245,73.8566734,21.0,0.0
2024-05-22T11:08:11.700Z,MISSION_0016,117,1,orbit_base,SITE_PUN_007,18.5203254,73.8566712,21.3,128.01,5.639,0.052,8.91,2.2616,-3.9397,128.015,0.4373,0.03953,0.00267,0.89844,0.0251,-0.0136,-9.7521,0.1221,-0.7752,-0.2101,0.1384,3,16,0.65,0.88,0.24,24.434,20.64,88.4,39.2,19450.0,8968,8601,8621,8809,55.1,55.8,53.7,54.4,2.629,2.663,2.589,2.796,3.7,2.0,31.7,37.7,1006.22,-32.36,0.21,2.07,30.7,42.2,36.2,0,no_anomaly,0.0,0,0,0,0,18.5203254,73.8566712,21.3,0.0
2024-05-22T11:08:11.800Z,MISSION_0016,118,1,orbit_base,SITE_PUN_007,18.5203263,73.856669,21.6,126.87,5.598,0.125,8.91,1.8739,-2.5531,126.8725,0.4467,0.02723,0.00466,0.89426,-0.163,-0.1554,-9.8803,0.7642,-0.3468,-0.3848,0.2118,3,19,0.61,1.03,0.2,24.617,17.56,88.3,39.7,19430.0,8792,8995,8702,8679,56.1,58.9,58.6,55.5,3.033,2.855,2.727,2.829,4.32,3.6,32.0,38.1,1006.68,-36.95,-0.36,1.19,26.4,45.1,37.0,0,no_anomaly,0.0,0,0,0,0,18.5203263,73.856669,21.6,0.0
2024-05-22T11:08:11.900Z,MISSION_0016,119,1,orbit_base,SITE_PUN_007,18.5203272,73.8566668,21.9,128.24,5.569,0.22,8.91,-1.8425,-2.3337,128.2426,0.43661,0.0113,-0.02335,0.89927,0.1117,-0.0425,-9.8066,0.3047,0.3698,-0.1015,0.2201,3,14,0.68,0.76,0.21,24.464,19.77,88.2,39.9,19409.0,8805,8558,8578,8649,56.0,57.1,57.4,55.9,2.642,2.593,2.841,2.835,3.62,0.8,32.0,38.2,1006.25,-29.88,0.57,1.45,24.5,40.7,33.4,0,no_anomaly,0.0,0,0,0,0,18.5203272,73.8566668,21.9,0.0
2024-05-22T11:08:12.000Z,MISSION_0016,120,1,orbit_base,SITE_PUN_007,18.5203283,73.8566646,22.2,131.21,5.881,0.151,8.91,3.4739,-3.0657,131.2112,0.41194,0.03687,0.01655,0.91031,0.1103,-0.0036,-9.8009,0.3244,0.255,-0.3838,0.2076,3,12,0.83,1.24,0.5,24.524,21.28,88.1,39.9,19388.0,8849,8800,8792,8996,59.2,60.1,54.2,59.6,2.82,2.887,2.863,2.577,4.73,12.8,31.4,38.4,1006.36,-27.08,1.72,1.34,23.8,38.4,31.1,0,no_anomaly,0.0,0,0,0,0,18.5203283,73.8566646,22.2,0.0
2024-05-22T11:08:12.100Z,MISSION_0016,121,1,orbit_base,SITE_PUN_007,18.5203294,73.8566625,22.5,132.01,5.856,0.104,8.91,-6.2845,-2.1849,132.0061,0.40696,-0.0049,-0.05781,0.9116,-0.0918,0.0274,-9.7664,0.3328,0.3066,-0.0845,0.2376,3,14,0.57,0.86,0.2,24.436,19.51,88.0,39.7,19367.0,8611,8942,8915,9000,60.6,54.6,53.1,55.8,2.82,2.606,2.653,2.681,4.2,7.2,31.6,38.0,1006.09,-30.64,-1.87,1.65,27.7,43.9,32.5,0,no_anomaly,0.0,0,0,0,0,18.5203294,73.8566625,22.5,0.0
2024-05-22T11:08:12.200Z,MISSION_0016,122,1,orbit_base,SITE_PUN_007,18.5203305,73.8566604,22.8,132.88,5.809,0.187,8.91,0.1755,-0.1962,132.8849,0.39967,0.00218,0.00072,0.91666,0.0476,0.0738,-9.7364,-0.3692,0.2761,-0.1729,0.2715,3,19,0.82,1.16,0.4,24.462,25.03,87.9,39.9,19347.0,8882,8814,9083,9288,59.3,59.0,55.4,59.2,2.914,2.899,2.829,2.681,4.29,5.0,31.6,38.9,1005.97,-31.34,0.51,1.56,24.7,42.6,33.3,0,no_anomaly,0.0,0,0,0,0,18.5203305,73.8566604,22.8,0.0
2024-05-22T11:08:12.300Z,MISSION_0016,123,1,orbit_base,SITE_PUN_007,18.5203317,73.8566583,23.1,132.98,5.431,0.121,8.91,1.0211,-1.4093,132.9757,0.3988,0.01483,0.00326,0.91691,-0.0429,-0.0327,-9.7995,0.8416,0.0564,-0.1016,0.2494,3,20,0.64,1.01,0.36,24.491,13.45,87.8,39.6,19326.0,8850,8516,8585,8941,59.9,54.6,55.0,57.1,2.721,2.782,2.783,2.627,5.1,14.2,31.5,39.1,1006.21,-30.01,-0.97,1.4,28.6,40.1,35.1,0,no_anomaly,0.0,0,0,0,0,18.5203317,73.8566583,23.1,0.0
2024-05-22T11:08:12.400Z,MISSION_0016,124,1,orbit_base,SITE_PUN_007,18.520333,73.8566563,23.4,132.99,5.298,0.087,8.91,4.3944,-1.0155,132.9923,0.39819,0.02341,0.03162,0.91646,-0.106,-0.0178,-9.7823,-0.1142,-0.0587,-0.2888,0.249,3,10,0.62,0.66,0.2,24.509,18.64,87.8,40.0,19305.0,8760,8837,8840,8923,55.7,55.4,56.2,58.0,2.843,2.688,2.793,2.888,4.03,359.2,31.4,38.3,1006.29,-30.82,0.57,1.21,25.0,42.2,34.2,0,no_anomaly,0.0,0,0,0,0,18.520333,73.8566563,23.4,0.0
2024-05-22T11:08:12.500Z,MISSION_0016,125,1,orbit_base,SITE_PUN_007,18.5203344,73.8566543,23.7,133.53,5.489,0.031,8.91,-4.1239,-5.8808,133.5258,0.39546,0.03293,-0.05324,0.91635,0.1462,0.0347,-9.794,-0.6164,-0.0922,0.2125,0.1109,3,12,0.64,1.18,0.3,24.397,20.46,87.7,40.9,19284.0,8784,8735,9088,8885,55.8,54.7,54.5,54.2,2.916,2.886,2.795,2.703,5.25,1.8,31.5,39.1,1006.43,-28.06,0.9,1.92,24.6,40.7,34.6,0,no_anomaly,0.0,0,0,0,0,18.5203344,73.8566543,23.7,0.0
2024-05-22T11:08:12.600Z,MISSION_0016,126,1,orbit_base,SITE_PUN_007,18.5203358,73.8566523,24.0,136.85,5.194,0.048,8.91,1.9832,-3.2391,136.8462,0.36709,0.03264,0.00569,0.92959,0.0896,0.0359,-9.8774,0.1095,0.1396,0.0991,0.2322,3,20,0.79,1.0,0.28,24.462,19.0,87.6,40.2,19264.0,8613,8934,8756,8648,55.6,56.4,56.7,56.7,2.771,2.91,2.852,2.514,3.84,3.0,31.7,38.9,1006.6,-20.92,-0.18,1.77,27.1,39.2,35.2,0,no_anomaly,0.0,0,0,0,0,18.5203358,73.8566523,24.0,0.0
2024-05-22T11:08:12.700Z,MISSION_0016,127,1,orbit_base,SITE_PUN_007,18.5203372,73.8566504,24.3,136.03,4.934,0.161,8.91,5.242,-3.0805,136.0261,0.37273,0.04201,0.03233,0.92642,-0.0743,0.0086,-9.7868,0.3172,0.3229,0.3489,0.1615,3,20,0.78,0.95,0.25,24.487,15.54,87.5,39.4,19243.0,8536,8419,8941,8736,59.7,59.1,58.1,59.3,2.67,2.929,2.891,2.866,3.57,356.2,31.6,39.0,1006.01,-28.49,-0.2,1.52,25.0,40.4,36.1,0,no_anomaly,0.0,0,0,0,0,18.5203372,73.8566504,24.3,0.0
2024-05-22T11:08:12.800Z,MISSION_0016,128,1,orbit_base,SITE_PUN_007,18.5203387,73.8566486,24.6,135.4,4.648,0.152,8.91,1.3082,-1.8877,135.4007,0.3792,0.01957,0.00431,0.9251,-0.0158,-0.0869,-9.7925,-0.31,-0.0394,-0.47,0.1465,3,18,0.72,0.8,0.27,24.412,20.59,87.4,38.6,19222.0,8808,8730,8796,8864,60.3,56.1,55.8,54.5,2.93,2.782,2.938,2.586,4.45,1.4,31.8,38.3,1006.42,-30.3,0.16,1.76,29.6,44.9,35.4,0,no_anomaly,0.0,0,0,0,0,18.5203387,73.8566486,24.6,0.0
2024-05-22T11:08:12.900Z,MISSION_0016,129,1,orbit_base,SITE_PUN_007,18.5203403,73.8566467,24.9,134.17,4.448,0.083,8.91,0.5025,-3.9965,134.1733,0.38896,0.03382,-0.00954,0.92059,-0.1954,0.0199,-9.7703,-0.4503,-0.168,-0.0316,0.2045,3,17,0.79,0.8,0.48,24.41,24.32,87.3,39.4,19201.0,8725,8739,8879,8665,52.2,55.1,57.7,57.7,2.642,2.899,2.866,2.865,4.52,1.0,31.6,38.3,1006.08,-25.1,0.84,1.99,27.3,43.4,30.7,0,no_anomaly,0.0,0,0,0,0,18.5203403,73.8566467,24.9,0.0
