timestamp_utc,mission_id,frame_id,waypoint_id,inspection_phase,site_id,latitude_deg,longitude_deg,altitude_m,heading_deg,ground_speed_ms,vertical_speed_ms,distance_to_tower_m,roll_deg,pitch_deg,yaw_deg,quat_w,quat_x,quat_y,quat_z,accel_x_ms2,accel_y_ms2,accel_z_ms2,gyro_x_rads,gyro_y_rads,gyro_z_rads,vibration_level,gps_fix_type,gps_satellite_count,gps_hdop,gps_vdop,position_error_m,battery_voltage_v,battery_current_a,battery_remaining_pct,battery_temp_c,battery_capacity_mah,motor_fl_rpm,motor_fr_rpm,motor_rl_rpm,motor_rr_rpm,motor_fl_temp_c,motor_fr_temp_c,motor_rl_temp_c,motor_rr_temp_c,motor_fl_thrust_n,motor_fr_thrust_n,motor_rl_thrust_n,motor_rr_thrust_n,wind_speed_ms,wind_dir_deg,air_temp_c,humidity_pct,pressure_hpa,gimbal_pitch_deg,gimbal_roll_deg,zoom_factor,ir_temp_min_c,ir_temp_max_c,ir_temp_avg_c,anomaly_detected,anomaly_class,anomaly_confidence,anomaly_bbox_x,anomaly_bbox_y,anomaly_bbox_w,anomaly_bbox_h,anomaly_gps_lat,anomaly_gps_lon,anomaly_gps_alt_m,ir_temp_delta_c
2024-01-24T09:25:00.000Z,MISSION_0024,0,0,takeoff,SITE_HYD_005,17.3850056,78.4866983,1.5,277.06,0.0,0.118,0.66,1.8259,-3.3734,277.0584,-0.74918,0.00756,0.0326,0.66152,0.0268,-0.0614,-9.871,0.0182,0.7411,0.4362,0.2043,3,19,0.52,0.96,0.2,24.779,21.0,100.0,29.2,21991.0,8864,8760,8730,8935,46.8,49.7,45.4,46.1,2.923,2.787,2.959,2.95,4.42,180.8,22.3,79.3,1015.31,-31.43,-0.88,1.54,13.4,34.7,23.9,0,no_anomaly,0.0,0,0,0,0,17.3850056,78.4866983,1.5,0.0
2024-01-24T09:25:00.100Z,MISSION_0024,1,0,takeoff,SITE_HYD_005,17.3850037,78.4867014,3.0,276.23,0.21,0.098,0.44,-1.6736,-2.4719,276.2304,-0.74403,0.02527,0.00631,0.66764,0.0877,-0.0284,-9.8097,0.404,-0.9073,-0.0295,0.1807,3,11,0.5,0.92,0.2,24.802,21.48,99.9,29.6,21979.0,8900,9126,8861,8846,46.6,44.1,47.2,52.2,2.722,2.789,2.791,2.775,4.25,185.7,22.0,78.6,1015.18,-32.31,-0.69,1.83,14.2,29.4,23.5,0,no_anomaly,0.0,0,0,0,0,17.3850037,78.4867014,3.0,0.0
2024-01-24T09:25:00.200Z,MISSION_0024,2,0,takeoff,SITE_HYD_005,17.38501,78.4866992,4.5,274.5,0.27,0.047,1.12,-0.3134,-1.4772,274.5005,-0.73424,0.01076,0.00761,0.67876,-0.1685,-0.0741,-9.7782,0.9229,0.6657,-0.1805,0.2443,3,13,0.74,0.93,0.3,24.808,20.37,99.8,30.7,21967.0,9193,8979,8803,9345,46.5,48.6,47.8,50.2,2.831,2.774,2.772,2.897,4.17,190.4,22.2,79.2,1015.08,-30.58,0.11,1.25,13.9,28.5,21.8,0,no_anomaly,0.0,0,0,0,0,17.38501,78.4866992,4.5,0.0
2024-01-24T09:25:00.300Z,MISSION_0024,3,0,takeoff,SITE_HYD_005,17.385011,78.4866996,5.0,274.19,0.557,0.118,1.23,0.1976,-2.0739,274.1939,-0.73241,0.01106,0.01443,0.68062,0.247,0.0339,-9.8542,-0.202,1.2673,-0.3008,0.2103,3,15,0.76,1.08,0.24,24.823,21.87,99.8,29.5,21954.0,9087,8871,8752,9021,49.1,46.3,45.0,53.4,2.828,2.764,3.009,2.784,4.99,177.1,22.2,79.5,1014.92,-27.28,-1.84,1.62,17.9,31.2,23.9,0,no_anomaly,0.0,0,0,0,0,17.385011,78.4866996,5.0,0.0
2024-01-24T09:25:00.400Z,MISSION_0024,4,0,takeoff,SITE_HYD_005,17.3850094,78.4866964,5.0,273.95,0.543,0.123,1.12,0.8193,1.8234,273.9485,-0.73086,-0.01608,-0.00675,0.68231,0.1983,0.0915,-9.8726,-0.6088,0.1891,-0.3943,0.2243,3,12,0.73,0.9,0.22,24.894,19.46,99.7,30.6,21942.0,9136,8908,8830,9081,46.1,47.9,50.8,48.5,2.584,2.723,3.075,2.81,4.66,181.6,22.0,78.8,1015.15,-32.58,-0.54,1.58,19.8,32.6,26.3,0,no_anomaly,0.0,0,0,0,0,17.3850094,78.4866964,5.0,0.0
2024-01-24T09:25:00.500Z,MISSION_0024,5,0,takeoff,SITE_HYD_005,17.3850104,78.4866956,5.0,274.64,0.831,0.058,1.26,-4.3902,-3.6728,274.6381,-0.73339,0.04985,-0.00241,0.67797,-0.0145,0.0505,-9.8467,0.0937,-0.4007,-0.5429,0.2226,3,19,0.76,0.83,0.43,24.838,12.27,99.7,30.5,21930.0,8921,8751,8850,8807,47.6,48.4,47.9,49.1,2.803,2.809,2.729,2.718,4.71,185.9,22.3,78.8,1015.34,-28.83,-0.71,1.27,19.0,36.3,22.7,0,no_anomaly,0.0,0,0,0,0,17.3850104,78.4866956,5.0,0.0
2024-01-24T09:25:00.600Z,MISSION_0024,6,0,takeoff,SITE_HYD_005,17.3850086,78.4866926,5.0,273.73,1.103,0.005,1.26,-0.8889,-1.9048,273.7343,-0.72956,0.01702,0.00683,0.68367,-0.0162,-0.0006,-9.744,-0.2132,-0.331,0.05,0.1387,3,20,0.77,0.99,0.32,24.836,20.67,99.6,30.6,21917.0,8859,9004,8678,8778,45.6,45.8,47.7,47.7,2.618,2.716,2.648,2.787,3.49,190.9,22.3,79.7,1015.13,-31.34,-1.47,1.77,16.0,26.5,21.4,0,no_anomaly,0.0,0,0,0,0,17.3850086,78.4866926,5.0,0.0
2024-01-24T09:25:00.700Z,MISSION_0024,7,0,takeoff,SITE_HYD_005,17.3850003,78.4866906,5.0,272.8,1.28,0.096,1.05,-2.1245,-1.6321,272.7962,-0.72377,0.02324,-0.00247,0.68965,-0.027,-0.1358,-9.7699,0.4719,-0.187,-0.0012,0.203,3,18,0.64,0.96,0.2,24.86,24.46,99.6,30.4,21905.0,8675,8913,8921,8948,50.6,46.9,45.9,49.4,2.589,2.719,2.783,2.868,4.51,194.0,22.3,78.7,1015.25,-35.11,-0.17,1.0,15.2,30.0,24.9,0,no_anomaly,0.0,0,0,0,0,17.3850003,78.4866906,5.0,0.0
2024-01-24T09:25:00.800Z,MISSION_0024,8,0,takeoff,SITE_HYD_005,17.3850017,78.4866888,5.0,274.13,1.957,0.105,1.26,2.9172,-1.6628,274.13,-0.73206,-0.00875,0.02796,0.68061,0.0439,0.0309,-9.9203,-0.0286,-0.1939,0.3749,0.0922,3,19,0.85,0.61,0.44,24.784,15.76,99.5,30.2,21893.0,9009,8992,8944,8870,47.1,47.6,47.5,47.2,2.844,3.014,2.575,2.708,4.63,181.7,22.1,79.3,1015.2,-29.48,0.83,1.74,19.4,34.2,25.7,0,no_anomaly,0.0,0,0,0,0,17.3850017,78.4866888,5.0,0.0
2024-01-24T09:25:00.900Z,MISSION_0024,9,0,takeoff,SITE_HYD_005,17.3850028,78.4866854,5.0,274.09,2.003,0.156,1.65,-4.6455,-2.3366,274.0941,-0.7306,0.04354,-0.0127,0.6813,-0.1633,-0.0746,-9.7969,0.5134,0.5416,0.3168,0.1443,3,16,0.71,0.76,0.24,24.762,21.27,99.5,29.6,21880.0,8790,8660,8991,8896,47.5,50.3,51.0,45.2,3.075,3.008,2.952,2.785,4.49,187.8,22.3,78.7,1014.92,-30.97,-1.94,1.48,18.8,32.0,25.1,0,no_anomaly,0.0,0,0,0,0,17.3850028,78.4866854,5.0,0.0
2024-01-24T09:25:01.000Z,MISSION_0024,10,0,takeoff,SITE_HYD_005,17.3850001,78.4866863,5.0,274.2,1.723,0.034,1.53,-1.08,0.2772,274.1954,-0.7325,0.00526,-0.00819,0.6807,0.1327,-0.0517,-9.8534,-0.483,-0.0725,0.0068,0.1734,3,16,0.71,0.85,0.26,24.77,17.95,99.4,30.7,21868.0,8924,8934,8802,8927,48.4,47.8,44.6,46.5,2.99,2.696,2.791,3.001,3.73,191.8,22.2,80.1,1015.38,-28.93,0.12,1.56,16.8,31.6,26.2,0,no_anomaly,0.0,0,0,0,0,17.3850001,78.4866863,5.0,0.0
2024-01-24T09:25:01.100Z,MISSION_0024,11,0,takeoff,SITE_HYD_005,17.3849988,78.4866951,5.0,274.7,1.999,0.114,0.56,-2.0281,-2.3422,274.6987,-0.73498,0.02686,0.00304,0.67754,0.0718,0.1205,-9.7552,-0.5713,-0.7571,0.302,0.1716,3,13,0.92,0.98,0.34,24.755,22.25,99.3,30.0,21856.0,8737,8888,8755,8887,48.0,47.8,46.5,44.3,2.825,3.199,2.639,2.664,4.23,183.8,22.2,79.2,1015.41,-30.91,-0.72,1.79,17.1,35.8,24.2,0,no_anomaly,0.0,0,0,0,0,17.3849988,78.4866951,5.0,0.0
2024-01-24T09:25:01.200Z,MISSION_0024,12,0,takeoff,SITE_HYD_005,17.3849946,78.4866921,5.0,276.74,1.803,0.147,1.06,5.2896,-1.7541,276.7401,-0.74704,-0.02433,0.04208,0.663,-0.0935,-0.0132,-9.8381,0.2437,0.0121,-0.579,0.1444,3,12,0.57,0.73,0.22,24.809,21.12,99.3,30.2,21844.0,8878,9118,9015,8705,46.3,50.4,44.2,49.9,2.822,2.888,2.977,2.815,4.71,185.1,22.0,79.4,1015.21,-30.19,-0.59,1.0,16.4,37.8,28.3,0,no_anomaly,0.0,0,0,0,0,17.3849946,78.4866921,5.0,0.0
2024-01-24T09:25:01.300Z,MISSION_0024,13,0,takeoff,SITE_HYD_005,17.3849937,78.4866893,5.0,275.05,1.465,0.103,1.39,2.7277,-1.1866,275.0544,-0.73752,-0.01057,0.02371,0.67483,0.1143,-0.0836,-9.8862,0.2899,-0.0172,-0.5842,0.1878,3,10,0.74,0.85,0.29,24.82,16.33,99.2,28.8,21831.0,9050,8743,8692,8824,48.3,44.7,46.6,50.2,2.834,2.651,2.886,2.778,4.79,191.3,21.9,79.6,1015.27,-34.86,0.39,1.9,17.5,33.2,25.5,0,no_anomaly,0.0,0,0,0,0,17.3849937,78.4866893,5.0,0.0
2024-01-24T09:25:01.400Z,MISSION_0024,14,0,takeoff,SITE_HYD_005,17.3849927,78.4866822,5.0,275.23,1.542,0.099,2.14,0.642,0.1978,275.2254,-0.73859,-0.0053,0.0025,0.67413,-0.0327,0.0175,-9.7678,-0.3227,-0.1314,0.5232,0.1959,3,12,0.65,0.91,0.2,24.678,17.76,99.2,30.3,21819.0,9050,8768,9002,8823,43.4,47.2,47.3,46.0,2.814,2.86,2.636,2.774,4.99,187.3,22.4,78.1,1015.07,-29.99,-0.32,1.6,17.4,34.5,25.8,0,no_anomaly,0.0,0,0,0,0,17.3849927,78.4866822,5.0,0.0
2024-01-24T09:25:01.500Z,MISSION_0024,15,0,takeoff,SITE_HYD_005,17.3849946,78.4866839,5.0,275.21,2.259,0.13,1.89,2.5727,-0.4127,275.2099,-0.73838,-0.01415,0.01779,0.674,0.0911,0.0223,-9.8065,-0.2223,-0.7942,-0.1667,0.2449,3,16,0.76,0.78,0.33,24.76,17.17,99.1,29.4,21807.0,9067,8767,8850,8591,45.6,50.3,48.3,44.5,2.806,2.862,2.768,2.807,3.69,180.2,22.4,78.5,1015.3,-30.89,-1.15,1.16,16.3,34.3,23.0,0,no_anomaly,0.0,0,0,0,0,17.3849946,78.4866839,5.0,0.0
2024-01-24T09:25:01.600Z,MISSION_0024,16,0,takeoff,SITE_HYD_005,17.3849954,78.4866854,5.0,277.42,2.391,0.15,1.71,-2.2138,0.0308,277.4178,-0.75123,0.01434,-0.01295,0.65976,0.0156,0.0908,-9.7556,0.2405,-0.3804,0.2095,0.2053,3,11,0.7,0.82,0.29,24.786,15.45,99.1,30.6,21794.0,8843,9017,8850,8425,45.0,47.3,42.0,51.5,2.739,2.83,2.907,2.891,4.79,187.0,21.8,78.8,1015.17,-29.4,0.58,1.0,16.1,32.8,22.3,0,no_anomaly,0.0,0,0,0,0,17.3849954,78.4866854,5.0,0.0
2024-01-24T09:25:01.700Z,MISSION_0024,17,0,takeoff,SITE_HYD_005,17.3849989,78.486684,5.0,276.89,2.171,0.125,1.78,1.071,1.2029,276.8868,-0.74816,-0.01396,-0.00165,0.66337,-0.0597,0.038,-9.7798,-0.3167,-0.1846,0.5012,0.1717,3,19,0.93,0.92,0.34,24.816,21.61,99.0,29.7,21782.0,8889,8683,8946,8801,47.3,45.8,47.2,45.5,3.064,3.058,2.808,2.809,4.14,188.0,22.1,78.9,1015.31,-28.61,0.25,1.71,15.0,33.1,25.4,0,no_anomaly,0.0,0,0,0,0,17.3849989,78.486684,5.0,0.0
2024-01-24T09:25:01.800Z,MISSION_0024,18,0,takeoff,SITE_HYD_005,17.3850011,78.4866808,5.0,276.88,2.421,0.038,2.14,-1.3688,-2.9996,276.8763,-0.74772,0.0263,0.01166,0.66339,-0.1265,-0.0194,-9.8285,-0.6604,-0.4575,-0.395,0.2013,3,20,0.5,0.95,0.2,24.765,18.47,99.0,29.7,21770.0,8895,8529,9069,8923,44.7,46.6,49.5,51.2,2.871,3.063,2.846,2.679,5.35,189.3,22.3,79.2,1015.37,-30.14,0.1,1.24,16.9,36.6,25.9,0,no_anomaly,0.0,0,0,0,0,17.3850011,78.4866808,5.0,0.0
2024-01-24T09:25:01.900Z,MISSION_0024,19,0,takeoff,SITE_HYD_005,17.3849973,78.486683,5.0,279.02,1.616,0.124,1.92,-3.3524,-1.09,279.0185,-0.75997,0.02842,-0.01176,0.64923,0.0803,0.002,-9.8125,0.204,0.8737,0.1308,0.1607,3,11,0.7,1.1,0.26,24.817,14.87,98.9,31.2,21757.0,8998,8813,9068,9039,49.8,50.2,51.1,45.7,2.921,2.458,2.626,2.376,4.13,176.9,22.0,79.7,1015.46,-31.79,0.16,1.75,17.0,31.0,27.2,0,no_anomaly,0.0,0,0,0,0,17.3849973,78.486683,5.0,0.0
2024-01-24T09:25:02.000Z,MISSION_0024,20,0,takeoff,SITE_HYD_005,17.3849977,78.4866869,5.0,278.9,1.641,0.074,1.48,-2.155,-1.6316,278.9047,-0.75948,0.02354,-0.00141,0.6501,-0.086,0.0139,-9.7741,-0.8046,0.2987,-0.4514,0.2343,3,17,0.81,0.94,0.38,24.642,19.25,98.8,29.8,21745.0,8658,8794,8977,8822,49.0,45.3,44.6,45.7,2.751,2.931,3.029,2.929,4.38,188.4,22.4,79.1,1015.26,-29.55,0.61,1.24,13.9,27.6,25.4,0,no_anomaly,0.0,0,0,0,0,17.3849977,78.4866869,5.0,0.0
2024-01-24T09:25:02.100Z,MISSION_0024,21,0,takeoff,SITE_HYD_005,17.3849924,78.4866843,5.0,277.65,1.335,0.083,1.94,1.3601,-2.9077,277.6451,-0.75258,0.00777,0.02691,0.65791,0.0981,0.0164,-9.8641,-1.0068,-1.0283,0.2285,0.1631,3,16,0.68,0.91,0.2,24.692,16.88,98.8,30.7,21733.0,8850,8717,9195,8837,49.4,48.0,47.7,46.7,2.559,2.835,2.435,2.881,4.24,191.8,21.9,78.4,1014.98,-30.83,-1.0,1.76,19.1,37.6,26.4,0,no_anomaly,0.0,0,0,0,0,17.3849924,78.4866843,5.0,0.0
2024-01-24T09:25:02.200Z,MISSION_0024,22,0,takeoff,SITE_HYD_005,17.3849933,78.4866854,5.0,278.8,1.799,0.113,1.78,-1.0477,-1.5087,278.7988,-0.75909,0.01551,0.00405,0.65079,-0.3059,-0.0065,-9.7992,0.6335,0.3069,-0.4028,0.2402,3,13,0.7,0.91,0.37,24.833,20.02,98.7,31.6,21721.0,8868,8986,8833,8877,51.3,50.3,48.9,50.6,2.816,2.842,3.077,2.817,4.45,188.2,22.1,78.5,1015.33,-30.41,-0.87,1.24,17.5,35.3,24.5,0,no_anomaly,0.0,0,0,0,0,17.3849933,78.4866854,5.0,0.0
2024-01-24T09:25:02.300Z,MISSION_0024,23,0,takeoff,SITE_HYD_005,17.384998,78.4866829,5.0,277.34,1.746,0.155,1.92,-0.42,-1.3711,277.3415,-0.75084,0.01065,0.00656,0.66037,0.1189,-0.03,-9.8235,-0.1884,-0.529,0.2269,0.1431,3,10,0.74,0.83,0.3,24.769,23.48,98.7,30.2,21708.0,8953,9008,8925,8881,48.9,46.0,47.1,44.5,2.611,2.647,2.768,3.01,3.79,186.7,22.1,77.9,1014.89,-29.37,-0.32,1.8,16.8,31.9,24.3,0,no_anomaly,0.0,0,0,0,0,17.384998,78.4866829,5.0,0.0
2024-01-24T09:25:02.400Z,MISSION_0024,24,0,takeoff,SITE_HYD_005,17.3849907,78.486686,5.0,277.46,1.923,0.141,1.87,2.3212,-1.0309,277.4626,-0.75156,-0.00929,0.02012,0.65929,0.1113,-0.0094,-9.7588,-0.3201,-0.6586,-0.0033,0.2812,3,19,0.79,0.79,0.27,24.783,18.67,98.6,30.9,21696.0,8731,9044,8796,8855,47.6,44.3,45.2,49.3,2.889,2.851,2.591,2.733,4.47,200.6,22.1,78.8,1015.19,-33.71,-0.71,1.52,16.5,31.2,25.8,0,no_anomaly,0.0,0,0,0,0,17.3849907,78.486686,5.0,0.0
2024-01-24T09:25:02.500Z,MISSION_0024,25,0,takeoff,SITE_HYD_005,17.3849897,78.4866867,5.0,277.37,2.15,0.125,1.88,-2.7974,-0.2756,277.3712,-0.75083,0.01992,-0.01431,0.66004,0.118,0.0541,-9.8834,-0.4272,-0.5758,-0.7752,0.3002,3,20,0.73,0.76,0.38,24.733,22.89,98.6,29.5,21684.0,8881,8758,9018,8556,49.9,46.8,48.0,45.2,2.919,2.855,3.096,2.853,4.81,185.4,22.1,78.7,1015.3,-27.48,-0.4,1.42,17.7,26.0,22.9,0,no_anomaly,0.0,0,0,0,0,17.3849897,78.4866867,5.0,0.0
2024-01-24T09:25:02.600Z,MISSION_0024,26,0,takeoff,SITE_HYD_005,17.384984,78.4866851,5.0,278.73,2.319,0.056,2.43,3.0272,-1.8776,278.7275,-0.75877,-0.00937,0.02963,0.65061,-0.2199,-0.0327,-9.7938,-0.0738,-0.1538,-0.2972,0.1741,3,18,0.74,0.79,0.22,24.774,18.8,98.5,30.5,21671.0,8830,8749,9032,8862,47.6,46.4,47.5,43.8,2.607,2.573,2.763,2.634,4.44,186.3,22.3,77.7,1015.39,-25.36,-0.21,1.74,17.3,29.6,23.6,0,no_anomaly,0.0,0,0,0,0,17.384984,78.4866851,5.0,0.0
2024-01-24T09:25:02.700Z,MISSION_0024,27,0,takeoff,SITE_HYD_005,17.3849876,78.4866867,5.0,281.66,2.378,0.099,2.02,-0.6339,-1.5209,281.6607,-0.77515,0.01267,0.0068,0.63161,0.0531,0.0679,-9.752,0.4883,-0.786,0.2591,0.2333,3,12,0.89,0.71,0.42,24.754,16.36,98.4,29.7,21659.0,8798,8795,8877,8578,46.2,47.7,50.0,45.2,2.78,2.692,2.713,2.741,4.84,184.8,22.1,78.9,1015.25,-33.43,-0.27,1.68,16.9,34.3,27.2,0,no_anomaly,0.0,0,0,0,0,17.3849876,78.4866867,5.0,0.0
2024-01-24T09:25:02.800Z,MISSION_0024,28,0,takeoff,SITE_HYD_005,17.3849895,78.4866881,5.0,282.5,2.425,0.081,1.76,1.6377,-3.1291,282.4973,-0.77974,0.00595,0.03023,0.62534,0.1513,-0.054,-9.9196,-0.5513,0.0729,-0.6105,0.1844,3,10,0.7,1.07,0.21,24.82,16.41,98.4,30.4,21647.0,8834,8646,8781,9057,46.2,46.0,49.6,49.1,3.045,2.81,3.011,2.956,5.02,186.2,22.4,79.7,1015.15,-30.17,-0.58,1.54,15.1,36.1,25.1,0,no_anomaly,0.0,0,0,0,0,17.3849895,78.4866881,5.0,0.0
2024-01-24T09:25:02.900Z,MISSION_0024,29,0,takeoff,SITE_HYD_005,17.3849922,78.4866845,5.0,284.11,2.446,0.038,1.94,2.5771,-3.4387,284.1112,-0.78847,0.00072,0.03748,0.61393,0.196,0.0687,-9.8302,-0.3517,0.0149,-0.6075,0.1441,3,10,0.68,0.88,0.3,24.802,20.4,98.3,30.6,21634.0,9039,8794,8565,8990,45.4,50.3,44.8,49.5,3.021,2.954,2.889,2.558,4.35,192.4,22.0,79.3,1015.11,-26.79,-1.25,1.44,14.6,34.5,23.9,0,no_anomaly,0.0,0,0,0,0,17.3849922,78.4866845,5.0,0.0
2024-01-24T09:25:03.000Z,MISSION_0024,30,0,takeoff,SITE_HYD_005,17.3849924,78.4866851,5.0,282.4,1.949,0.156,1.86,1.3782,-2.7925,282.4002,-0.77923,0.0059,0.02652,0.62614,0.0605,-0.0026,-9.7736,-0.1479,-0.1003,-0.4747,0.2822,3,11,0.76,0.74,0.44,24.772,18.37,98.3,30.4,21622.0,8923,8674,8883,8790,45.3,47.6,43.2,46.8,2.519,3.088,2.865,2.703,5.16,193.9,21.8,78.7,1015.27,-32.2,-0.9,1.23,17.5,31.5,26.5,0,no_anomaly,0.0,0,0,0,0,17.3849924,78.4866851,5.0,0.0
2024-01-24T09:25:03.100Z,MISSION_0024,31,0,takeoff,SITE_HYD_005,17.3849889,78.4866824,5.0,283.93,2.234,0.052,2.32,-2.0685,-2.2775,283.9323,-0.78714,0.02646,0.00453,0.61619,-0.0783,0.0187,-9.7481,0.5725,0.1938,0.1041,0.2393,3,18,0.79,0.81,0.31,24.744,20.33,98.2,31.3,21610.0,8956,9110,9030,9002,46.6,51.2,46.7,48.4,2.721,2.897,2.815,2.688,5.11,195.1,21.8,79.2,1015.17,-30.56,0.52,1.0,18.3,28.9,26.1,0,no_anomaly,0.0,0,0,0,0,17.3849889,78.4866824,5.0,0.0
2024-01-24T09:25:03.200Z,MISSION_0024,32,0,takeoff,SITE_HYD_005,17.3849847,78.4866812,5.0,286.2,1.875,0.059,2.7,-5.1987,-1.9684,286.2024,-0.79829,0.04656,-0.0135,0.60032,0.095,0.0037,-9.7834,0.661,0.2882,-0.1292,0.1803,3,20,0.65,0.88,0.27,24.738,22.1,98.2,30.9,21597.0,9195,8684,9070,8833,47.8,49.8,48.1,45.9,2.824,2.997,2.868,2.917,3.76,193.2,21.8,78.5,1014.96,-28.29,-0.03,1.86,19.8,31.9,24.4,0,no_anomaly,0.0,0,0,0,0,17.3849847,78.4866812,5.0,0.0
2024-01-24T09:25:03.300Z,MISSION_0024,33,0,takeoff,SITE_HYD_005,17.3849828,78.4866825,5.0,284.72,2.223,0.171,2.73,3.741,-1.1431,284.7211,-0.79161,-0.01976,0.02783,0.61008,0.0641,0.0155,-9.8366,0.9774,-0.0569,0.4553,0.196,3,13,0.82,0.7,0.37,24.758,15.98,98.1,29.6,21585.0,8731,8988,9069,8932,45.8,50.9,48.4,48.2,2.834,2.988,2.52,2.713,4.65,193.6,22.3,77.5,1015.4,-23.74,-1.64,1.58,15.2,32.3,25.3,0,no_anomaly,0.0,0,0,0,0,17.3849828,78.4866825,5.0,0.0
2024-01-24T09:25:03.400Z,MISSION_0024,34,0,takeoff,SITE_HYD_005,17.3849857,78.4866837,5.0,286.81,2.453,0.008,2.42,0.3263,-1.6821,286.8059,-0.80278,0.00647,0.01348,0.59608,-0.089,0.0663,-9.7525,-1.2196,-0.7881,0.0055,0.3172,3,18,0.76,1.02,0.37,24.728,19.05,98.1,30.0,21573.0,8892,8828,9128,8884,48.2,45.2,45.6,44.6,2.792,2.966,2.75,2.872,5.2,189.8,22.3,79.1,1015.07,-28.97,-0.57,1.63,16.3,32.0,22.0,0,no_anomaly,0.0,0,0,0,0,17.3849857,78.4866837,5.0,0.0
2024-01-24T09:25:03.500Z,MISSION_0024,35,0,takeoff,SITE_HYD_005,17.3849842,78.4866791,5.0,285.18,2.397,0.111,2.91,0.6106,-4.6887,285.1827,-0.79378,0.02062,0.03573,0.60681,0.1032,-0.0233,-9.8146,-0.4609,-0.5332,0.1543,0.1932,3,20,0.93,0.92,0.31,24.768,15.64,98.0,30.7,21561.0,9132,9008,8974,9036,47.2,50.9,43.7,44.8,2.686,2.928,2.679,2.807,3.97,177.9,22.2,79.0,1015.23,-31.53,0.34,1.6,19.0,34.7,21.5,0,no_anomaly,0.0,0,0,0,0,17.3849842,78.4866791,5.0,0.0
2024-01-24T09:25:03.600Z,MISSION_0024,36,0,takeoff,SITE_HYD_005,17.3849832,78.4866796,5.0,284.73,2.384,0.046,2.94,-3.379,2.2628,284.7277,-0.79176,0.01129,-0.03363,0.6098,-0.1661,-0.025,-9.7456,0.4974,-0.6784,-0.0885,0.2421,3,19,0.85,0.74,0.32,24.733,20.69,97.9,30.6,21548.0,8630,8731,8829,8930,46.7,49.3,48.5,47.5,2.832,2.81,2.69,2.7,5.0,192.7,22.1,78.7,1015.43,-32.45,-1.17,1.11,19.5,27.2,23.9,0,no_anomaly,0.0,0,0,0,0,17.3849832,78.4866796,5.0,0.0
2024-01-24T09:25:03.700Z,MISSION_0024,37,0,takeoff,SITE_HYD_005,17.384982,78.4866769,5.0,282.44,2.17,0.068,3.26,-0.6046,-2.3869,282.4448,-0.77933,0.01716,0.01293,0.62624,-0.2594,0.0461,-9.8347,0.109,0.1468,0.6149,0.2254,3,14,0.56,1.13,0.2,24.682,20.34,97.9,30.1,21536.0,9194,8924,8857,8765,46.3,47.4,47.1,46.5,2.931,2.627,2.779,2.696,4.47,183.6,22.2,79.1,1015.21,-32.94,-2.0,1.0,16.1,27.3,24.5,0,no_anomaly,0.0,0,0,0,0,17.384982,78.4866769,5.0,0.0
2024-01-24T09:25:03.800Z,MISSION_0024,38,0,takeoff,SITE_HYD_005,17.3849826,78.4866737,5.0,281.77,2.139,0.128,3.51,-7.0036,-3.4182,281.7732,-0.77296,0.06615,-0.01542,0.63081,0.1463,0.0255,-9.7491,0.1569,-0.1988,-0.4377,0.1977,3,11,0.59,0.98,0.2,24.727,15.9,97.8,30.9,21524.0,8878,8784,8928,8776,46.6,50.0,46.2,42.9,2.494,2.811,2.789,2.741,3.91,180.0,22.4,78.9,1014.86,-27.98,-1.5,1.06,18.2,36.9,23.4,0,no_anomaly,0.0,0,0,0,0,17.3849826,78.4866737,5.0,0.0
2024-01-24T09:25:03.900Z,MISSION_0024,39,0,takeoff,SITE_HYD_005,17.3849819,78.4866652,5.0,283.38,2.232,0.064,4.37,-1.6357,-2.2797,283.3843,-0.78428,0.02353,0.00676,0.61992,0.1168,0.0157,-9.7895,0.1053,0.0711,-0.4885,0.2555,3,16,0.78,0.72,0.3,24.728,19.79,97.8,30.6,21511.0,8872,8927,8713,8673,48.5,45.0,48.0,47.6,2.836,2.767,2.752,2.768,4.69,188.9,22.3,78.9,1015.33,-29.74,0.47,1.49,15.5,31.4,25.9,0,no_anomaly,0.0,0,0,0,0,17.3849819,78.4866652,5.0,0.0
2024-01-24T09:25:04.000Z,MISSION_0024,40,0,takeoff,SITE_HYD_005,17.3849808,78.4866649,5.0,283.82,2.287,0.138,4.45,6.3282,-3.5892,283.822,-0.78653,-0.02413,0.05864,0.61428,-0.2447,-0.0982,-9.7809,-0.1552,0.0108,0.0917,0.177,3,13,0.5,1.04,0.2,24.727,21.76,97.7,29.9,21499.0,8701,8985,9038,8987,45.8,44.8,49.7,45.6,2.701,2.971,2.872,2.93,3.93,186.9,22.5,78.9,1015.65,-33.49,1.11,1.29,19.0,29.0,27.4,0,no_anomaly,0.0,0,0,0,0,17.3849808,78.4866649,5.0,0.0
2024-01-24T09:25:04.100Z,MISSION_0024,41,0,takeoff,SITE_HYD_005,17.3849821,78.4866704,5.0,284.15,2.112,0.122,3.85,-1.665,-4.6269,284.1472,-0.78771,0.03626,0.02291,0.61455,-0.0414,-0.05,-9.8279,0.5397,0.5385,-0.6179,0.2733,3,19,0.76,0.83,0.28,24.737,13.97,97.7,29.6,21487.0,8846,8695,9062,8613,49.2,47.2,47.8,47.9,2.761,2.739,2.602,2.71,4.21,181.6,22.3,79.8,1015.21,-27.31,1.6,1.51,14.5,34.6,24.5,0,no_anomaly,0.0,0,0,0,0,17.3849821,78.4866704,5.0,0.0
2024-01-24T09:25:04.200Z,MISSION_0024,42,0,takeoff,SITE_HYD_005,17.3849806,78.4866717,5.0,287.02,1.975,0.138,3.82,-3.1094,-1.6318,287.0241,-0.80337,0.03028,-0.00469,0.59468,0.0893,-0.0019,-9.8465,0.0016,-0.0109,-0.0211,0.1903,3,13,0.71,1.01,0.24,24.771,11.93,97.6,29.6,21474.0,8922,8950,8923,8866,48.5,47.7,43.8,48.8,2.808,2.759,2.677,2.48,3.59,182.2,22.0,78.7,1015.56,-32.49,-0.94,1.76,17.8,27.9,22.3,0,no_anomaly,0.0,0,0,0,0,17.3849806,78.4866717,5.0,0.0
2024-01-24T09:25:04.300Z,MISSION_0024,43,0,takeoff,SITE_HYD_005,17.3849813,78.4866731,5.0,289.05,1.577,0.134,3.64,-3.1554,-0.5026,289.0459,-0.81396,0.02497,-0.01241,0.58025,0.2576,0.0054,-9.819,-0.5797,-0.3895,-0.309,0.2604,3,14,0.6,0.72,0.26,24.734,18.92,97.6,30.1,21462.0,8893,9009,9030,8794,47.4,47.5,46.1,48.7,2.602,2.686,2.812,2.709,4.06,179.1,22.3,78.7,1015.01,-28.77,2.52,1.76,13.0,26.6,21.6,0,no_anomaly,0.0,0,0,0,0,17.3849813,78.4866731,5.0,0.0
2024-01-24T09:25:04.400Z,MISSION_0024,44,0,takeoff,SITE_HYD_005,17.38498,78.4866668,5.0,289.38,1.232,0.076,4.31,-1.8816,1.0214,289.3829,-0.81599,0.00825,-0.01676,0.57776,-0.0437,0.0157,-9.7483,0.2669,-0.0314,0.2983,0.1672,3,13,0.61,0.86,0.22,24.778,15.28,97.5,29.8,21450.0,8863,8732,9160,9087,45.7,49.8,44.0,47.8,2.754,2.609,2.672,2.752,4.25,182.0,22.3,78.4,1015.47,-31.12,0.22,1.0,18.0,29.5,27.7,0,no_anomaly,0.0,0,0,0,0,17.38498,78.4866668,5.0,0.0
2024-01-24T09:25:04.500Z,MISSION_0024,45,0,takeoff,SITE_HYD_005,17.3849845,78.4866634,5.0,289.54,0.587,0.03,4.43,4.0109,0.4235,289.5438,-0.81628,-0.03072,0.01717,0.57658,0.1954,-0.0374,-9.7751,0.0834,-0.7337,-0.1269,0.1759,3,16,0.71,0.93,0.26,24.62,23.41,97.4,30.3,21437.0,9028,8944,9059,8832,44.8,48.3,46.8,46.3,2.717,2.813,2.636,2.845,4.42,191.1,22.6,79.0,1015.08,-33.97,-0.6,1.29,18.6,36.1,27.2,0,no_anomaly,0.0,0,0,0,0,17.3849845,78.4866634,5.0,0.0
2024-01-24T09:25:04.600Z,MISSION_0024,46,0,takeoff,SITE_HYD_005,17.3849833,78.4866665,5.0,288.99,0.469,0.027,4.17,1.0022,-4.5666,288.9854,-0.81357,0.01602,0.03751,0.58004,-0.0565,0.0755,-9.7729,0.2419,0.0283,-0.4014,0.198,3,12,0.82,1.16,0.54,24.636,9.98,97.4,30.5,21425.0,8833,9092,8768,9046,50.5,46.5,48.3,47.2,3.091,2.818,2.598,2.614,4.62,182.8,22.1,79.6,1015.15,-30.3,-0.67,1.89,20.3,27.9,26.6,0,no_anomaly,0.0,0,0,0,0,17.3849833,78.4866665,5.0,0.0
2024-01-24T09:25:04.700Z,MISSION_0024,47,0,takeoff,SITE_HYD_005,17.3849847,78.4866693,5.0,291.03,0.13,0.114,3.82,1.0764,0.1965,291.033,-0.82424,-0.00871,0.0039,0.56616,-0.0018,-0.0176,-9.8125,0.7319,0.3186,0.2897,0.2313,3,14,0.78,0.7,0.36,24.7,17.11,97.3,30.3,21413.0,8845,9052,8862,9028,48.4,49.6,47.5,47.8,2.699,2.628,2.982,2.89,4.8,182.8,22.2,78.6,1015.19,-31.98,2.02,1.03,14.0,29.2,24.1,0,no_anomaly,0.0,0,0,0,0,17.3849847,78.4866693,5.0,0.0
2024-01-24T09:25:04.800Z,MISSION_0024,48,0,takeoff,SITE_HYD_005,17.3849801,78.4866679,5.0,292.45,0.0,0.014,4.2,0.1032,-1.3185,292.4514,-0.83118,0.00565,0.01006,0.55588,-0.0478,-0.0239,-9.8967,-0.9624,-0.7926,-0.2246,0.2277,3,20,0.81,0.7,0.33,24.715,9.61,97.3,30.0,21401.0,8500,8924,8844,8774,47.8,48.4,47.9,47.4,2.873,2.934,2.685,2.636,4.39,183.4,22.2,79.1,1015.01,-26.96,-1.43,1.2,17.8,30.4,25.4,0,no_anomaly,0.0,0,0,0,0,17.3849801,78.4866679,5.0,0.0
2024-01-24T09:25:04.900Z,MISSION_0024,49,0,takeoff,SITE_HYD_005,17.3849812,78.4866711,5.0,293.32,0.234,0.06,3.84,-3.0626,-2.3482,293.3166,-0.83463,0.03358,0.00243,0.54978,-0.006,-0.0051,-9.9015,0.2749,0.161,0.1821,0.2328,3,11,0.58,0.79,0.28,24.79,17.03,97.2,30.3,21388.0,8825,9053,8868,8882,45.2,49.1,47.2,48.2,3.005,2.941,2.907,2.862,5.28,187.6,22.2,79.7,1015.05,-30.84,-0.96,1.31,15.1,33.3,24.8,0,no_anomaly,0.0,0,0,0,0,17.3849812,78.4866711,5.0,0.0
2024-01-24T09:25:05.000Z,MISSION_0024,50,0,takeoff,SITE_HYD_005,17.3849823,78.4866724,5.0,292.48,0.117,0.016,3.65,-2.2902,-2.2217,292.4777,-0.83082,0.02738,0.00501,0.55584,0.0805,-0.0161,-9.8848,0.2019,0.3,-0.2763,0.1789,3,11,0.7,0.91,0.3,24.733,27.22,97.2,30.2,21376.0,8683,8787,8723,8937,44.7,47.9,44.1,51.2,2.788,2.889,2.67,3.228,5.5,182.4,22.1,80.3,1015.42,-30.78,-0.8,1.2,19.3,36.3,24.4,0,no_anomaly,0.0,0,0,0,0,17.3849823,78.4866724,5.0,0.0
2024-01-24T09:25:05.100Z,MISSION_0024,51,0,takeoff,SITE_HYD_005,17.3849836,78.4866715,5.0,294.03,0.0,0.114,3.66,1.4759,-1.5189,294.0301,-0.83876,-0.00359,0.01813,0.54418,0.1978,-0.016,-9.8792,-0.5082,1.0022,-0.5929,0.1847,3,17,0.6,0.83,0.28,24.673,19.14,97.1,30.8,21364.0,9172,8813,8724,8824,47.5,47.1,46.2,43.7,2.75,2.759,2.893,2.937,4.3,197.3,22.3,79.1,1015.01,-33.64,-1.45,1.17,22.2,37.2,26.6,0,no_anomaly,0.0,0,0,0,0,17.3849836,78.4866715,5.0,0.0
2024-01-24T09:25:05.200Z,MISSION_0024,52,0,takeoff,SITE_HYD_005,17.3849799,78.4866737,5.0,295.12,0.354,0.168,3.69,0.4999,0.5714,295.1152,-0.8439,-0.00636,-0.00187,0.53646,0.0654,0.0742,-9.7979,-0.7321,-1.1252,-0.2104,0.188,3,18,0.61,1.0,0.26,24.653,16.4,97.1,31.3,21351.0,8790,8964,8782,8828,49.8,52.1,42.9,49.6,2.954,2.828,2.974,3.011,4.03,193.1,22.4,78.5,1015.33,-29.8,-0.25,1.1,16.0,30.8,26.5,0,no_anomaly,0.0,0,0,0,0,17.3849799,78.4866737,5.0,0.0
2024-01-24T09:25:05.300Z,MISSION_0024,53,0,takeoff,SITE_HYD_005,17.3849791,78.4866706,5.0,295.21,0.44,0.057,4.01,-1.541,-0.0394,295.2093,-0.84429,0.01154,-0.00691,0.53571,-0.0123,0.0463,-9.8958,-0.3429,-0.0611,-0.1524,0.158,3,12,0.67,0.92,0.22,24.666,19.19,97.0,30.9,21339.0,8898,8524,8709,8853,48.4,45.0,46.1,47.7,2.99,2.625,2.66,2.856,5.48,186.2,22.2,78.8,1014.91,-28.11,-2.34,1.55,19.8,29.5,24.6,0,no_anomaly,0.0,0,0,0,0,17.3849791,78.4866706,5.0,0.0
2024-01-24T09:25:05.400Z,MISSION_0024,54,0,takeoff,SITE_HYD_005,17.3849814,78.4866703,5.0,296.08,0.193,0.164,3.9,-1.0233,-0.3291,296.0772,-0.84835,0.0091,-0.00229,0.52935,-0.0452,-0.0108,-9.7405,-0.1903,0.2069,0.2266,0.2375,3,17,0.5,0.92,0.2,24.792,18.22,96.9,30.9,21327.0,8871,8892,9048,8803,49.7,48.3,51.0,47.9,2.743,2.646,2.735,2.7,4.31,193.2,22.0,78.9,1015.1,-29.62,0.25,1.37,17.1,37.6,25.9,0,no_anomaly,0.0,0,0,0,0,17.3849814,78.4866703,5.0,0.0
2024-01-24T09:25:05.500Z,MISSION_0024,55,0,transit,SITE_HYD_005,17.3849761,78.4866696,5.5,295.43,0.656,0.09,4.31,0.6701,-0.7661,295.4263,-0.84537,-0.00137,0.00878,0.5341,0.2515,0.0079,-9.8197,-0.8118,-0.3604,-0.2251,0.1992,3,19,0.61,1.08,0.2,24.762,17.69,96.9,29.9,21314.0,9014,8946,8981,9059,44.6,44.6,48.5,50.3,2.82,2.95,2.959,2.893,3.09,195.4,22.2,78.9,1015.18,-26.3,-0.77,1.31,14.4,26.2,24.5,0,no_anomaly,0.0,0,0,0,0,17.3849761,78.4866696,5.5,0.0
2024-01-24T09:25:05.600Z,MISSION_0024,56,0,transit,SITE_HYD_005,17.3849771,78.4866692,6.0,294.94,0.433,0.115,4.27,2.5426,-2.92,294.9371,-0.84292,-0.005,0.0334,0.53698,0.2969,-0.0018,-9.7855,-1.3441,-0.576,0.5114,0.2082,3,17,0.58,1.12,0.26,24.69,19.35,96.8,30.6,21302.0,8617,9192,9144,8743,47.5,46.3,48.2,49.0,2.791,2.673,2.98,2.99,4.03,183.7,22.4,78.2,1015.27,-28.83,-0.59,1.49,13.1,27.3,21.6,0,no_anomaly,0.0,0,0,0,0,17.3849771,78.4866692,6.0,0.0
2024-01-24T09:25:05.700Z,MISSION_0024,57,0,transit,SITE_HYD_005,17.384979,78.4866697,6.5,294.64,0.568,0.07,4.1,-1.6499,-3.392,294.64,-0.84101,0.02809,0.01714,0.54001,0.1145,0.0209,-9.6529,-1.3222,-0.467,0.2214,0.083,3,10,0.62,0.84,0.27,24.789,26.07,96.8,30.9,21290.0,8949,8770,9098,8627,47.2,48.0,46.6,49.1,3.173,2.854,2.967,2.871,4.42,179.9,21.9,79.5,1014.91,-23.29,0.3,1.92,15.5,34.1,23.5,0,no_anomaly,0.0,0,0,0,0,17.384979,78.4866697,6.5,0.0
2024-01-24T09:25:05.800Z,MISSION_0024,58,0,transit,SITE_HYD_005,17.3849855,78.4866682,7.0,294.59,1.235,0.002,3.9,-2.2077,1.3584,294.5853,-0.84135,0.00981,-0.02038,0.54002,-0.0479,-0.0443,-9.8178,-0.0307,0.5487,0.0391,0.2338,3,18,0.72,1.07,0.26,24.681,18.85,96.7,30.4,21277.0,8911,8944,8777,9058,46.1,45.8,45.2,46.9,2.711,2.843,2.677,2.958,4.77,180.1,22.1,79.4,1015.23,-31.2,0.44,1.6,15.5,29.3,26.1,0,no_anomaly,0.0,0,0,0,0,17.3849855,78.4866682,7.0,0.0
2024-01-24T09:25:05.900Z,MISSION_0024,59,0,transit,SITE_HYD_005,17.3849827,78.4866677,7.5,293.03,0.631,0.188,4.08,-2.9209,-3.2024,293.0332,-0.83306,0.03666,0.00924,0.55189,0.0319,-0.0132,-9.7969,-0.4917,0.2061,0.288,0.1325,3,19,0.81,0.88,0.33,24.722,23.25,96.7,30.2,21265.0,8979,8923,8926,8584,48.2,47.4,45.4,48.5,2.632,2.904,2.822,2.846,5.11,183.9,22.2,78.8,1015.22,-34.93,-0.52,1.45,14.9,28.3,26.7,0,no_anomaly,0.0,0,0,0,0,17.3849827,78.4866677,7.5,0.0
2024-01-24T09:25:06.000Z,MISSION_0024,60,0,transit,SITE_HYD_005,17.3849826,78.4866658,8.0,293.13,0.815,0.079,4.27,4.6227,-0.9822,293.1341,-0.83401,-0.02894,0.02937,0.5502,0.2189,-0.0045,-9.7465,-0.8035,-0.8163,0.3128,0.2302,3,12,0.73,1.01,0.42,24.765,17.61,96.6,30.1,21253.0,8546,8982,8967,8986,41.8,45.5,43.2,45.9,2.512,2.405,3.019,3.028,4.26,185.0,22.4,77.9,1014.93,-31.48,-1.2,1.21,17.2,35.2,23.6,0,no_anomaly,0.0,0,0,0,0,17.3849826,78.4866658,8.0,0.0
2024-01-24T09:25:06.100Z,MISSION_0024,61,0,transit,SITE_HYD_005,17.3849878,78.4866652,8.5,291.0,0.803,0.139,4.11,-1.563,0.1626,291.0047,-0.82408,0.01044,-0.00889,0.5663,-0.1142,0.0817,-9.8286,-0.4337,-0.3038,-0.1356,0.1675,3,14,0.68,0.97,0.32,24.667,19.08,96.5,30.4,21241.0,8824,8980,8958,9128,50.3,46.2,48.1,46.9,3.062,2.813,2.827,2.882,4.52,198.8,22.1,78.3,1014.99,-29.75,0.87,1.57,17.7,27.6,22.2,0,no_anomaly,0.0,0,0,0,0,17.3849878,78.4866652,8.5,0.0
2024-01-24T09:25:06.200Z,MISSION_0024,62,0,transit,SITE_HYD_005,17.3849856,78.4866671,9.0,292.31,0.622,0.082,3.99,4.8737,-1.505,292.3145,-0.83006,-0.028,0.03458,0.5559,-0.2188,-0.0154,-9.8035,-0.4579,-0.7259,-0.6007,0.175,3,10,0.84,0.85,0.27,24.712,16.72,96.5,30.5,21228.0,9112,9012,8851,8763,50.1,47.6,49.2,48.0,2.895,2.655,2.554,2.671,4.24,184.8,22.3,80.0,1015.38,-33.16,1.02,1.48,18.6,30.5,24.9,0,no_anomaly,0.0,0,0,0,0,17.3849856,78.4866671,9.0,0.0
2024-01-24T09:25:06.300Z,MISSION_0024,63,0,transit,SITE_HYD_005,17.3849805,78.4866693,9.5,290.15,0.529,0.149,4.05,3.0558,-3.3398,290.1497,-0.81971,-0.00517,0.03914,0.57142,0.1428,-0.0174,-9.8081,0.7544,0.0061,0.473,0.2487,3,13,0.86,0.99,0.32,24.701,19.19,96.4,30.3,21216.0,8782,8941,8797,8920,45.3,49.3,46.2,47.4,2.987,2.685,2.638,2.732,4.04,189.2,22.1,79.1,1015.37,-21.42,-1.64,1.11,16.1,33.3,27.6,0,no_anomaly,0.0,0,0,0,0,17.3849805,78.4866693,9.5,0.0
2024-01-24T09:25:06.400Z,MISSION_0024,64,0,transit,SITE_HYD_005,17.3849837,78.4866731,10.0,291.4,0.388,0.148,3.51,-5.5769,-1.7418,291.3989,-0.8246,0.04874,-0.01487,0.56341,0.386,-0.0382,-9.7653,-0.1527,-0.1957,0.2139,0.2384,3,19,0.73,0.9,0.37,24.719,20.87,96.4,30.7,21204.0,9117,8929,8668,8980,47.5,47.2,46.6,46.0,2.912,2.938,2.555,2.695,3.96,186.0,22.0,79.1,1015.32,-33.07,-0.59,1.18,17.7,31.7,25.4,0,no_anomaly,0.0,0,0,0,0,17.3849837,78.4866731,10.0,0.0
2024-01-24T09:25:06.500Z,MISSION_0024,65,0,transit,SITE_HYD_005,17.3849843,78.4866728,10.5,290.51,0.251,0.131,3.5,-2.4945,-1.203,290.5074,-0.82131,0.02387,-0.00378,0.56997,-0.1703,-0.0468,-9.7705,-0.4419,0.2072,-0.3682,0.1491,3,20,0.68,0.83,0.36,24.684,13.52,96.3,31.1,21191.0,8864,9088,8837,8839,46.4,43.6,46.1,50.7,2.81,2.784,2.54,2.872,3.97,181.1,22.2,79.4,1015.41,-26.16,-0.57,1.3,13.7,36.4,25.5,0,no_anomaly,0.0,0,0,0,0,17.3849843,78.4866728,10.5,0.0
2024-01-24T09:25:06.600Z,MISSION_0024,66,0,transit,SITE_HYD_005,17.3849788,78.4866749,11.0,288.76,0.311,0.078,3.65,-0.1567,-0.9404,288.7587,-0.81286,0.00589,0.00587,0.58241,-0.0727,0.0433,-9.8156,0.0937,0.4226,0.8038,0.136,3,14,0.6,0.78,0.29,24.788,17.63,96.3,30.3,21179.0,9058,8645,8923,8940,48.1,46.7,50.2,41.6,2.646,3.096,2.993,2.665,3.77,180.6,22.2,78.3,1015.25,-28.33,0.81,1.28,17.4,31.3,26.8,0,no_anomaly,0.0,0,0,0,0,17.3849788,78.4866749,11.0,0.0
2024-01-24T09:25:06.700Z,MISSION_0024,67,0,transit,SITE_HYD_005,17.3849761,78.4866757,11.5,290.54,0.469,0.038,3.79,-0.9147,-2.2395,290.5367,-0.82156,0.01769,0.01151,0.56973,0.1586,-0.0373,-9.7752,-0.8246,0.255,-0.3057,0.1387,3,13,0.75,1.11,0.38,24.684,19.95,96.2,30.1,21167.0,8655,8837,8965,8893,46.0,47.2,45.9,48.8,2.661,2.723,3.035,3.04,4.56,188.7,22.1,78.6,1015.69,-35.35,0.4,1.0,18.4,32.4,23.7,0,no_anomaly,0.0,0,0,0,0,17.3849761,78.4866757,11.5,0.0
2024-01-24T09:25:06.800Z,MISSION_0024,68,0,transit,SITE_HYD_005,17.3849809,78.4866771,12.0,290.95,0.493,0.083,3.32,3.4666,-2.7188,290.9488,-0.82367,-0.01147,0.03668,0.56576,-0.2405,0.0032,-9.8172,-0.007,0.1084,-0.4534,0.1709,3,14,0.52,0.85,0.2,24.671,23.46,96.2,30.4,21154.0,8949,8988,8937,8832,47.0,49.3,47.6,46.3,2.958,2.583,2.86,2.468,5.29,182.0,22.1,78.7,1015.56,-34.68,-0.3,1.24,16.2,27.8,23.6,0,no_anomaly,0.0,0,0,0,0,17.3849809,78.4866771,12.0,0.0
2024-01-24T09:25:06.900Z,MISSION_0024,69,0,transit,SITE_HYD_005,17.3849834,78.4866749,12.5,290.34,0.318,0.119,3.35,2.7417,-2.7546,290.3447,-0.82073,-0.00591,0.03338,0.57031,-0.2026,0.0001,-9.7895,-0.1697,0.5575,-0.6117,0.272,3,20,0.73,1.18,0.22,24.723,14.09,96.1,31.2,21142.0,8668,9025,8699,9038,47.2,45.8,50.4,50.0,2.751,2.77,3.006,2.894,4.26,196.8,22.2,79.1,1014.89,-28.39,-0.52,1.36,14.8,29.9,21.8,0,no_anomaly,0.0,0,0,0,0,17.3849834,78.4866749,12.5,0.0
2024-01-24T09:25:07.000Z,MISSION_0024,70,0,transit,SITE_HYD_005,17.3849837,78.4866764,13.0,289.6,0.368,0.085,3.19,4.5009,-4.4671,289.5967,-0.81676,-0.00961,0.05444,0.57432,0.2112,-0.059,-9.8185,0.3021,0.2952,0.3549,0.1756,3,18,0.61,0.69,0.29,24.732,22.96,96.0,30.4,21130.0,8873,8897,8737,8961,47.3,48.7,47.7,51.0,2.759,2.618,2.738,3.113,4.6,184.3,22.4,78.7,1015.06,-31.21,-1.43,1.0,18.6,27.8,21.5,0,no_anomaly,0.0,0,0,0,0,17.3849837,78.4866764,13.0,0.0
2024-01-24T09:25:07.100Z,MISSION_0024,71,0,transit,SITE_HYD_005,17.3849779,78.4866787,13.5,288.22,0.0,0.137,3.41,1.3274,-3.5103,288.223,-0.80993,0.00857,0.0316,0.58561,0.2793,-0.0131,-9.7617,-0.5059,-0.2551,0.0204,0.3452,3,19,0.56,1.02,0.23,24.639,13.92,96.0,30.4,21118.0,8915,8876,8921,9034,48.0,43.5,47.2,45.2,2.739,2.903,3.147,2.539,5.46,192.3,22.3,78.7,1015.15,-31.85,0.35,1.31,20.8,29.1,24.4,0,no_anomaly,0.0,0,0,0,0,17.3849779,78.4866787,13.5,0.0
2024-01-24T09:25:07.200Z,MISSION_0024,72,0,transit,SITE_HYD_005,17.3849783,78.4866838,14.0,289.41,0.0,0.03,3.02,-4.431,-2.2439,289.4053,-0.81496,0.04285,-0.00636,0.57789,-0.12,-0.0219,-9.8739,-0.7222,-1.0729,0.1426,0.2235,3,18,0.63,0.96,0.33,24.713,14.35,95.9,30.4,21105.0,8730,8841,9054,8833,49.6,47.9,49.8,46.9,2.876,2.687,2.72,2.811,4.7,190.1,21.7,78.9,1015.1,-31.34,1.0,1.17,17.7,29.8,24.8,0,no_anomaly,0.0,0,0,0,0,17.3849783,78.4866838,14.0,0.0
2024-01-24T09:25:07.300Z,MISSION_0024,73,0,transit,SITE_HYD_005,17.3849788,78.486686,14.5,290.0,0.0,0.155,2.83,-2.4115,-2.9871,290.0041,-0.8184,0.03218,0.00928,0.57367,-0.272,-0.0135,-9.8045,0.008,0.5434,0.428,0.1769,3,18,0.63,0.9,0.32,24.655,13.87,95.9,30.8,21093.0,9042,8737,8756,8702,45.1,43.4,49.3,42.0,2.784,3.024,2.761,2.581,4.03,188.4,22.1,79.1,1015.1,-32.08,0.7,1.0,16.0,27.8,25.3,0,no_anomaly,0.0,0,0,0,0,17.3849788,78.486686,14.5,0.0
2024-01-24T09:25:07.400Z,MISSION_0024,74,0,transit,SITE_HYD_005,17.3849719,78.4866887,15.0,286.1,0.0,0.081,3.37,-4.3426,-4.0331,286.0983,-0.79728,0.0514,0.00534,0.60139,-0.0134,-0.0497,-9.7773,0.0075,0.1886,0.0764,0.2447,3,13,0.77,0.81,0.28,24.64,13.08,95.8,30.4,21081.0,8630,8743,8751,9025,45.3,49.6,46.4,49.6,2.847,3.011,2.872,2.681,4.34,189.3,22.3,78.0,1015.39,-25.11,0.72,2.0,16.6,28.7,27.3,0,no_anomaly,0.0,0,0,0,0,17.3849719,78.4866887,15.0,0.0
2024-01-24T09:25:07.500Z,MISSION_0024,75,0,transit,SITE_HYD_005,17.3849666,78.4866891,15.5,284.63,0.202,0.135,3.91,0.4913,0.9262,284.6301,-0.79133,-0.00833,-0.00378,0.61132,0.0237,-0.035,-9.8358,0.2183,-0.5312,0.1169,0.2092,3,19,0.73,0.71,0.31,24.684,16.7,95.8,29.8,21068.0,8906,9120,8931,8948,45.3,49.3,47.1,45.2,2.716,2.821,2.757,2.531,4.52,180.5,22.2,79.4,1015.26,-28.77,0.24,2.13,14.5,24.8,20.9,0,no_anomaly,0.0,0,0,0,0,17.3849666,78.4866891,15.5,0.0
2024-01-24T09:25:07.600Z,MISSION_0024,76,0,transit,SITE_HYD_005,17.3849681,78.4866849,16.0,286.47,0.187,0.163,3.93,1.5914,-2.7435,286.4669,-0.80097,0.00321,0.02749,0.59806,0.148,-0.0204,-9.8184,0.0458,1.1588,0.2472,0.175,3,20,0.78,1.18,0.39,24.617,18.05,95.7,30.9,21056.0,8910,9070,9015,9071,48.1,45.1,47.3,46.1,2.612,2.776,2.661,2.789,4.6,192.4,22.1,78.3,1015.03,-31.14,1.39,1.98,19.6,31.7,24.6,0,no_anomaly,0.0,0,0,0,0,17.3849681,78.4866849,16.0,0.0
2024-01-24T09:25:07.700Z,MISSION_0024,77,0,transit,SITE_HYD_005,17.3849697,78.486688,16.5,288.1,0.178,0.114,3.62,3.38,-3.3617,288.0959,-0.80932,-0.00665,0.04104,0.5859,-0.0793,0.0721,-9.8726,-0.0189,0.573,-0.4535,0.2692,3,16,0.58,0.93,0.2,24.782,16.35,95.7,30.1,21044.0,8757,9041,8860,9180,51.4,48.2,47.2,47.6,2.643,2.782,2.805,2.845,4.81,194.3,22.1,78.2,1015.47,-34.55,0.26,1.41,17.2,31.8,27.2,0,no_anomaly,0.0,0,0,0,0,17.3849697,78.486688,16.5,0.0
2024-01-24T09:25:07.800Z,MISSION_0024,78,0,transit,SITE_HYD_005,17.384971,78.4866888,17.0,288.13,0.203,0.027,3.46,2.7323,-1.4313,288.1275,-0.80955,-0.01197,0.0241,0.58643,-0.02,-0.0425,-9.7464,-0.5603,0.0393,0.2404,0.2152,3,14,0.69,1.11,0.34,24.751,19.79,95.6,31.3,21031.0,8828,8835,9104,9171,49.6,49.7,47.8,49.0,2.796,2.705,2.694,2.694,4.42,187.9,21.9,78.1,1014.89,-31.08,0.1,1.28,17.1,34.3,24.6,0,no_anomaly,0.0,0,0,0,0,17.384971,78.4866888,17.0,0.0
2024-01-24T09:25:07.900Z,MISSION_0024,79,0,transit,SITE_HYD_005,17.3849679,78.4866921,17.5,290.03,0.0,0.047,3.68,2.0434,-3.4703,290.0327,-0.81912,0.00276,0.03502,0.57255,-0.0697,-0.0252,-9.8445,0.469,0.4455,0.0856,0.2159,3,14,0.62,0.84,0.2,24.65,17.6,95.5,29.3,21019.0,8969,8743,8994,8996,48.6,48.0,48.0,44.1,2.811,2.802,3.035,2.699,3.81,192.1,21.9,78.7,1015.01,-34.16,-0.88,1.36,16.0,36.1,26.6,0,no_anomaly,0.0,0,0,0,0,17.3849679,78.4866921,17.5,0.0
2024-01-24T09:25:08.000Z,MISSION_0024,80,0,transit,SITE_HYD_005,17.3849631,78.4866888,18.0,290.75,0.0,0.091,4.29,3.6371,-3.8239,290.7532,-0.82263,-0.00715,0.04546,0.56671,-0.0643,0.0264,-9.703,0.1068,0.1711,-0.1709,0.2181,3,20,0.76,1.06,0.27,24.664,16.34,95.5,29.6,21007.0,8609,8610,8854,9163,49.8,48.3,45.9,50.7,2.852,2.905,2.961,2.737,3.82,189.7,22.3,79.2,1015.35,-31.26,0.66,2.1,17.1,34.6,27.5,0,no_anomaly,0.0,0,0,0,0,17.3849631,78.4866888,18.0,0.0
2024-01-24T09:25:08.100Z,MISSION_0024,81,0,transit,SITE_HYD_005,17.3849651,78.486691,18.5,291.61,0.241,0.127,4.01,1.6475,-2.1163,291.6115,-0.82706,-0.00151,0.02335,0.56163,0.138,-0.0012,-9.846,0.187,1.0048,-0.0919,0.1976,3,14,0.83,0.89,0.38,24.668,21.31,95.4,30.5,20994.0,8586,8952,8873,9051,44.9,47.0,46.4,45.0,2.809,2.882,2.753,2.642,4.39,189.5,22.3,78.4,1015.13,-26.34,0.09,1.5,17.8,31.2,23.3,0,no_anomaly,0.0,0,0,0,0,17.3849651,78.486691,18.5,0.0
2024-01-24T09:25:08.200Z,MISSION_0024,82,0,transit,SITE_HYD_005,17.3849646,78.4866925,19.0,291.53,0.375,0.105,4.03,-0.4389,-3.2261,291.5336,-0.82636,0.019,0.02112,0.56242,-0.0286,0.0869,-9.763,-0.2864,-0.5357,0.078,0.2107,3,13,0.83,0.82,0.39,24.742,17.94,95.4,31.0,20982.0,8814,8835,8901,8903,47.5,46.1,46.7,45.4,2.637,2.869,2.621,2.857,3.27,183.7,22.2,79.2,1015.4,-28.53,-1.47,1.17,17.6,26.9,23.6,0,no_anomaly,0.0,0,0,0,0,17.3849646,78.4866925,19.0,0.0
2024-01-24T09:25:08.300Z,MISSION_0024,83,0,transit,SITE_HYD_005,17.3849655,78.4866971,19.5,291.13,0.638,0.088,3.85,6.5423,-1.6864,291.1293,-0.82381,-0.03875,0.04438,0.5638,0.1881,0.048,-9.7906,0.1478,-0.1927,-0.555,0.2316,3,11,0.7,0.91,0.2,24.717,21.06,95.3,29.8,20970.0,8889,9058,9133,8752,49.9,48.5,46.0,46.6,2.703,3.052,2.604,2.8,4.24,184.5,22.1,78.7,1015.23,-36.79,0.06,1.51,13.6,29.1,24.8,0,no_anomaly,0.0,0,0,0,0,17.3849655,78.4866971,19.5,0.0
2024-01-24T09:25:08.400Z,MISSION_0024,84,0,transit,SITE_HYD_005,17.3849682,78.486699,20.0,292.95,0.245,0.088,3.54,0.0477,-3.0541,292.9547,-0.83338,0.01437,0.02245,0.55206,-0.2123,-0.024,-9.7653,0.2276,0.1564,0.1578,0.1833,3,17,0.76,0.84,0.23,24.576,20.04,95.3,30.3,20958.0,9230,8976,9239,9067,45.2,49.0,46.8,43.8,2.746,2.648,2.87,2.777,4.09,196.6,22.5,79.1,1015.56,-34.57,-0.6,1.36,13.8,31.6,21.4,0,no_anomaly,0.0,0,0,0,0,17.3849682,78.486699,20.0,0.0
2024-01-24T09:25:08.500Z,MISSION_0024,85,0,transit,SITE_HYD_005,17.3849676,78.4867025,20.5,294.08,0.0,0.2,3.62,3.3757,-0.9429,294.0763,-0.83877,-0.02024,0.02293,0.54362,-0.1885,-0.0459,-9.8245,0.3603,-0.9189,-0.0248,0.1554,3,14,0.7,0.9,0.27,24.664,18.93,95.2,29.4,20945.0,8969,8771,9215,8875,47.0,50.7,47.9,48.2,2.926,2.667,2.929,2.794,3.5,193.4,22.4,79.1,1015.4,-32.23,1.37,1.84,17.9,32.8,22.1,0,no_anomaly,0.0,0,0,0,0,17.3849676,78.4867025,20.5,0.0
2024-01-24T09:25:08.600Z,MISSION_0024,86,0,transit,SITE_HYD_005,17.3849713,78.4867033,21.0,292.34,0.267,0.069,3.21,-2.6357,-3.8922,292.3411,-0.82956,0.03799,0.01541,0.5569,0.0121,0.0743,-9.7016,1.2125,0.6399,0.1762,0.1883,3,10,0.75,0.87,0.28,24.609,17.36,95.1,30.6,20933.0,8759,8949,9024,8965,45.1,46.0,42.6,45.5,2.67,2.929,2.812,2.61,3.81,183.2,22.2,79.7,1015.29,-34.08,0.35,1.76,14.6,35.8,24.1,0,no_anomaly,0.0,0,0,0,0,17.3849713,78.4867033,21.0,0.0
2024-01-24T09:25:08.700Z,MISSION_0024,87,0,transit,SITE_HYD_005,17.3849727,78.486702,21.5,292.96,0.689,0.133,3.05,-1.9016,-3.787,292.9582,-0.83281,0.03207,0.01838,0.55232,0.2743,-0.0411,-9.8472,-0.163,-0.1729,0.1337,0.2333,3,12,0.74,0.62,0.28,24.708,17.71,95.1,30.4,20921.0,9343,8689,9137,9135,47.2,46.2,49.0,45.9,2.78,2.881,2.736,2.959,4.15,187.9,22.4,77.8,1015.34,-35.58,1.42,2.21,15.1,28.7,20.3,0,no_anomaly,0.0,0,0,0,0,17.3849727,78.486702,21.5,0.0
2024-01-24T09:25:08.800Z,MISSION_0024,88,0,transit,SITE_HYD_005,17.3849685,78.4867041,22.0,290.4,0.694,0.017,3.53,-0.9184,-0.8565,290.4017,-0.82107,0.01085,0.00156,0.57072,0.0187,-0.0009,-9.8,-0.423,0.1218,0.4959,0.1915,3,12,0.84,1.08,0.26,24.665,20.98,95.0,29.8,20908.0,9242,9123,8980,8838,51.3,44.2,48.7,47.3,2.816,2.804,3.031,2.648,4.12,192.2,21.8,78.4,1015.66,-28.6,0.63,1.49,15.3,31.6,23.8,0,no_anomaly,0.0,0,0,0,0,17.3849685,78.4867041,22.0,0.0
2024-01-24T09:25:08.900Z,MISSION_0024,89,0,transit,SITE_HYD_005,17.3849697,78.4867049,22.5,289.5,0.867,0.015,3.42,3.1132,-1.6558,289.5049,-0.81651,-0.01385,0.02747,0.57652,0.0629,-0.064,-9.8678,0.569,-0.7785,0.0678,0.1754,3,17,0.69,1.03,0.2,24.735,19.49,95.0,30.2,20896.0,8689,8675,8983,8557,47.5,46.1,47.1,48.1,2.95,2.549,2.863,2.772,3.67,193.7,22.1,79.0,1015.17,-29.65,-1.44,1.93,12.8,29.1,23.8,0,no_anomaly,0.0,0,0,0,0,17.3849697,78.4867049,22.5,0.0
2024-01-24T09:25:09.000Z,MISSION_0024,90,0,transit,SITE_HYD_005,17.3849731,78.4867055,23.0,291.1,0.583,0.159,3.06,-0.8484,-1.8667,291.1047,-0.82444,0.01532,0.00925,0.56566,0.0607,-0.0102,-9.7736,0.0335,0.6299,-0.1408,0.2436,3,16,0.65,0.88,0.31,24.684,17.98,94.9,31.0,20884.0,8855,8891,9014,8992,46.0,48.6,47.6,49.5,2.63,2.831,2.501,2.661,5.0,187.5,22.3,79.7,1014.87,-32.9,-0.41,1.64,13.6,31.5,23.7,0,no_anomaly,0.0,0,0,0,0,17.3849731,78.4867055,23.0,0.0
2024-01-24T09:25:09.100Z,MISSION_0024,91,0,transit,SITE_HYD_005,17.3849744,78.486708,23.5,287.94,0.846,0.056,2.99,-2.074,-2.8726,287.9434,-0.80807,0.02937,0.00963,0.58827,0.2297,-0.0746,-9.8373,0.032,-0.0342,0.4406,0.2097,3,19,0.67,0.96,0.25,24.701,15.38,94.9,30.9,20871.0,9182,8903,9069,9289,45.8,49.4,46.7,49.9,3.096,2.973,2.735,2.845,4.32,188.6,22.2,78.4,1015.33,-26.89,-0.39,1.79,16.7,27.1,23.8,0,no_anomaly,0.0,0,0,0,0,17.3849744,78.486708,23.5,0.0
2024-01-24T09:25:09.200Z,MISSION_0024,92,0,transit,SITE_HYD_005,17.3849736,78.486704,24.0,291.56,1.007,0.042,2.98,-1.9256,-1.7236,291.5552,-0.82651,0.02235,0.00299,0.56247,0.0381,-0.0624,-9.7506,-0.0395,0.598,0.1941,0.2272,3,18,0.75,0.71,0.38,24.707,20.07,94.8,30.6,20859.0,9194,8959,8858,8952,43.7,47.5,44.5,42.1,2.686,2.901,2.628,2.461,3.96,180.0,21.8,78.5,1015.45,-30.44,-0.31,1.25,19.0,37.0,26.9,0,no_anomaly,0.0,0,0,0,0,17.3849736,78.486704,24.0,0.0
2024-01-24T09:25:09.300Z,MISSION_0024,93,0,transit,SITE_HYD_005,17.3849723,78.4867065,24.0,291.99,0.894,0.161,3.17,-5.4524,-4.4757,291.9949,-0.8264,0.06121,0.00576,0.55971,0.0016,0.0066,-9.8321,0.0081,0.429,0.4671,0.2619,3,17,0.62,1.06,0.24,24.521,22.14,94.8,30.9,20847.0,9012,8741,8841,8908,48.6,45.6,48.2,46.8,2.492,2.641,2.786,2.958,3.34,189.1,22.4,78.4,1015.27,-29.95,1.28,1.46,19.0,27.6,24.2,0,no_anomaly,0.0,0,0,0,0,17.3849723,78.4867065,24.0,0.0
2024-01-24T09:25:09.400Z,MISSION_0024,94,0,transit,SITE_HYD_005,17.3849668,78.4866979,24.0,291.02,0.564,0.078,3.7,2.5617,1.2365,291.0194,-0.82383,-0.02453,0.00377,0.56629,-0.0282,0.0615,-9.7612,0.1369,0.2688,0.5699,0.2517,3,15,0.66,0.63,0.4,24.655,13.26,94.7,30.9,20834.0,8902,8911,8804,9154,47.0,48.2,44.0,44.0,2.79,2.81,2.714,2.585,3.87,180.5,22.2,77.9,1015.34,-31.46,0.68,1.6,14.7,36.1,26.1,0,no_anomaly,0.0,0,0,0,0,17.3849668,78.4866979,24.0,0.0
2024-01-24T09:25:09.500Z,MISSION_0024,95,0,transit,SITE_HYD_005,17.3849693,78.4867008,24.0,292.89,0.72,0.08,3.42,0.0681,-1.1434,292.8916,-0.83333,0.00502,0.00864,0.55269,-0.1162,0.0148,-9.8676,-1.0627,-1.1636,0.19,0.2137,3,16,0.78,0.74,0.33,24.606,17.85,94.6,31.5,20822.0,8838,8989,9015,8874,48.9,49.3,48.0,46.3,2.52,2.895,2.781,2.939,4.71,189.0,22.3,77.5,1015.01,-36.38,-0.64,1.71,17.3,33.7,23.4,0,no_anomaly,0.0,0,0,0,0,17.3849693,78.4867008,24.0,0.0
2024-01-24T09:25:09.600Z,MISSION_0024,96,0,transit,SITE_HYD_005,17.3849702,78.4867024,24.0,294.23,0.349,0.158,3.33,2.3526,-2.6837,294.2323,-0.83963,-0.00452,0.0308,0.54227,-0.0755,0.0079,-9.8655,-0.042,0.1841,0.5034,0.2162,3,18,0.93,0.91,0.44,24.671,19.64,94.6,30.1,20810.0,9027,9277,8934,9065,44.3,43.1,46.5,49.2,2.639,2.527,2.889,3.093,4.9,178.0,22.2,78.2,1015.1,-28.41,-1.28,1.24,17.7,33.2,25.7,0,no_anomaly,0.0,0,0,0,0,17.3849702,78.4867024,24.0,0.0
2024-01-24T09:25:09.700Z,MISSION_0024,97,0,transit,SITE_HYD_005,17.3849704,78.4867048,24.0,291.67,0.0,0.106,3.34,0.1475,-0.6019,291.674,-0.82743,0.00188,0.00507,0.56154,-0.0172,0.026,-9.8467,-0.1404,0.4284,-0.1221,0.2461,3,12,0.6,1.0,0.31,24.585,16.83,94.5,30.3,20798.0,9126,8797,8994,8908,46.9,46.5,49.3,48.5,2.841,2.918,2.929,2.656,5.68,183.9,22.3,78.8,1015.06,-30.41,0.2,1.36,14.6,36.5,24.1,0,no_anomaly,0.0,0,0,0,0,17.3849704,78.4867048,24.0,0.0
2024-01-24T09:25:09.800Z,MISSION_0024,98,0,transit,SITE_HYD_005,17.384973,78.486705,24.0,291.15,0.244,0.114,3.06,0.8854,0.749,291.1453,-0.82477,-0.01007,-0.00102,0.56537,0.0245,-0.025,-9.8357,0.723,0.7645,-0.0551,0.2875,3,13,0.77,0.83,0.57,24.651,18.17,94.5,30.1,20785.0,8931,8863,9155,9026,45.1,45.8,48.6,45.6,2.772,2.732,2.826,2.742,4.15,191.5,22.2,78.7,1015.2,-32.54,-0.46,1.55,16.9,33.3,26.8,0,no_anomaly,0.0,0,0,0,0,17.384973,78.486705,24.0,0.0
2024-01-24T09:25:09.900Z,MISSION_0024,99,0,transit,SITE_HYD_005,17.3849727,78.4867076,24.0,291.81,0.232,0.093,3.15,1.0376,-0.1749,291.8126,-0.82809,-0.00664,0.00634,0.56051,0.0465,0.0203,-9.8119,0.0804,-0.199,0.2831,0.1335,3,18,0.69,0.86,0.33,24.665,19.59,94.4,29.8,20773.0,8823,9267,9033,8793,48.6,47.7,46.2,49.0,2.773,2.732,2.784,2.704,4.58,182.4,22.0,78.1,1015.5,-33.1,-0.1,1.64,19.6,36.5,22.8,0,no_anomaly,0.0,0,0,0,0,17.3849727,78.4867076,24.0,0.0
2024-01-24T09:25:10.000Z,MISSION_0024,100,0,transit,SITE_HYD_005,17.3849744,78.4867069,24.0,293.5,0.56,0.075,2.95,2.1065,-3.8194,293.4974,-0.836,0.00291,0.03794,0.5474,-0.0129,0.04,-9.7649,-0.3582,0.1079,0.3226,0.2081,3,18,0.78,0.66,0.24,24.635,20.41,94.4,30.9,20761.0,8767,9032,8987,9115,47.8,46.8,50.3,45.6,2.773,2.782,2.735,2.735,4.96,195.8,21.8,79.5,1015.25,-24.58,-1.24,1.13,15.1,29.7,21.3,0,no_anomaly,0.0,0,0,0,0,17.3849744,78.4867069,24.0,0.0
2024-01-24T09:25:10.100Z,MISSION_0024,101,0,transit,SITE_HYD_005,17.3849747,78.4867019,24.0,292.66,0.651,0.039,2.83,-4.069,-2.7778,292.6572,-0.83098,0.04297,0.00048,0.55463,0.311,0.0416,-9.8353,0.327,-0.9792,0.0679,0.2166,3,17,0.56,0.85,0.2,24.744,17.09,94.3,30.3,20748.0,8742,8692,8938,9023,48.5,49.0,45.0,50.8,2.817,3.201,2.578,2.869,3.74,183.9,21.9,78.9,1015.12,-25.6,-0.47,1.21,18.2,33.7,27.4,0,no_anomaly,0.0,0,0,0,0,17.3849747,78.4867019,24.0,0.0
2024-01-24T09:25:10.200Z,MISSION_0024,102,0,transit,SITE_HYD_005,17.384974,78.4867062,24.0,296.35,0.381,0.042,2.98,1.0175,-0.6287,296.3461,-0.84962,-0.00465,0.00934,0.52729,-0.0406,-0.0015,-9.8354,-0.0931,-0.2469,-0.1095,0.0755,3,15,0.53,0.75,0.22,24.6,22.13,94.3,31.0,20736.0,8864,8882,8902,9052,49.8,49.2,40.6,49.0,2.886,3.034,2.814,3.005,4.24,190.0,22.2,79.0,1015.3,-21.96,0.07,1.31,17.0,31.6,21.2,0,no_anomaly,0.0,0,0,0,0,17.384974,78.4867062,24.0,0.0
2024-01-24T09:25:10.300Z,MISSION_0024,103,0,transit,SITE_HYD_005,17.3849743,78.4867089,24.0,298.38,0.309,0.118,3.03,2.1891,-3.6172,298.3839,-0.85861,-0.00024,0.03688,0.5113,-0.0601,-0.0408,-9.798,-0.0707,0.4723,-0.5074,0.1746,3,15,0.67,1.01,0.28,24.609,18.06,94.2,30.8,20724.0,9223,8687,8878,8649,51.1,44.8,48.7,46.5,2.956,2.911,2.688,2.906,5.32,185.3,22.2,78.4,1015.31,-31.42,-0.46,1.21,20.5,35.9,25.3,0,no_anomaly,0.0,0,0,0,0,17.3849743,78.4867089,24.0,0.0
2024-01-24T09:25:10.400Z,MISSION_0024,104,0,transit,SITE_HYD_005,17.3849729,78.4867068,24.0,297.19,0.0,0.112,3.11,2.7932,-2.804,297.189,-0.8533,-0.00805,0.03357,0.52027,0.169,-0.0176,-9.8629,0.1352,1.1336,0.0031,0.3107,3,19,0.67,1.2,0.34,24.659,14.76,94.1,30.9,20711.0,9040,8891,8810,9041,47.2,44.8,46.8,47.9,2.931,2.569,2.786,3.115,5.74,183.3,22.0,78.5,1015.31,-29.79,1.28,1.87,16.3,28.2,28.0,0,no_anomaly,0.0,0,0,0,0,17.3849729,78.4867068,24.0,0.0
2024-01-24T09:25:10.500Z,MISSION_0024,105,0,transit,SITE_HYD_005,17.3849759,78.4867109,24.0,297.53,0.017,0.057,2.95,5.581,-0.1654,297.531,-0.85407,-0.04088,0.02648,0.51787,-0.0002,0.0073,-9.8253,-0.1345,-1.0055,-0.0068,0.1802,3,17,0.83,0.76,0.38,24.796,16.6,94.1,30.9,20699.0,8852,8994,8839,9002,47.6,45.1,50.2,45.6,2.58,2.781,3.097,2.773,4.08,186.0,22.2,78.9,1015.12,-34.97,-0.0,1.89,15.3,34.9,26.4,0,no_anomaly,0.0,0,0,0,0,17.3849759,78.4867109,24.0,0.0
2024-01-24T09:25:10.600Z,MISSION_0024,106,0,transit,SITE_HYD_005,17.3849773,78.4867112,24.0,297.67,0.0,0.128,2.81,-2.4093,-2.9701,297.6661,-0.8549,0.03139,0.01129,0.51771,-0.1046,0.0268,-9.8909,0.4563,-0.1134,0.3835,0.151,3,10,0.87,1.24,0.35,24.66,16.6,94.0,31.0,20687.0,8898,8979,8919,8885,46.9,46.3,45.1,43.7,2.776,2.612,2.615,2.817,4.06,194.9,21.9,79.4,1015.31,-28.94,-2.84,1.0,18.6,34.5,25.5,0,no_anomaly,0.0,0,0,0,0,17.3849773,78.4867112,24.0,0.0
2024-01-24T09:25:10.700Z,MISSION_0024,107,0,transit,SITE_HYD_005,17.3849727,78.4867131,24.0,296.07,0.0,0.092,3.37,0.5929,-5.4542,296.0719,-0.84754,0.0208,0.0431,0.52857,0.0704,0.0198,-9.8135,-0.332,0.5478,0.0869,0.1801,3,14,0.5,1.03,0.25,24.605,20.21,94.0,30.8,20674.0,9154,9139,8919,9012,47.5,46.8,48.0,48.4,3.048,2.804,2.699,2.672,3.76,182.7,22.3,78.7,1015.29,-31.8,-0.27,1.3,19.2,27.7,25.9,0,no_anomaly,0.0,0,0,0,0,17.3849727,78.4867131,24.0,0.0
2024-01-24T09:25:10.800Z,MISSION_0024,108,0,transit,SITE_HYD_005,17.3849719,78.486717,24.0,294.96,0.044,0.09,3.66,-3.6853,-1.2633,294.9604,-0.84253,0.03303,-0.00799,0.53758,0.0056,-0.0645,-9.7972,-0.0525,0.5988,-0.2593,0.1088,3,14,0.59,1.05,0.2,24.717,20.69,93.9,30.5,20662.0,9163,8952,8897,9243,49.9,46.3,51.2,47.8,2.919,2.728,2.847,2.675,4.96,186.9,22.2,79.2,1015.42,-31.07,-0.66,1.6,13.4,35.4,25.0,0,no_anomaly,0.0,0,0,0,0,17.3849719,78.486717,24.0,0.0
2024-01-24T09:25:10.900Z,MISSION_0024,109,0,transit,SITE_HYD_005,17.3849728,78.4867207,24.0,296.57,0.209,0.109,3.8,0.2399,-2.1811,296.5718,-0.85055,0.00822,0.01729,0.52555,0.1709,0.0011,-9.833,0.1977,0.3451,-0.199,0.2146,3,12,0.83,0.71,0.25,24.637,15.82,93.9,30.4,20650.0,9028,9261,9043,8984,48.0,48.6,47.2,51.6,2.923,2.983,2.674,3.036,4.03,184.7,22.2,78.7,1015.39,-30.97,1.07,1.21,16.4,27.4,24.8,0,no_anomaly,0.0,0,0,0,0,17.3849728,78.4867207,24.0,0.0
2024-01-24T09:25:11.000Z,MISSION_0024,110,1,transit,SITE_HYD_005,17.384969,78.4867219,24.0,296.85,0.005,-0.003,4.23,-0.1403,0.0635,296.8514,-0.85196,0.00075,-0.00111,0.5236,0.3468,0.0665,-9.8624,0.615,0.2518,0.1984,0.1201,3,12,0.71,0.79,0.35,24.562,20.43,93.8,30.5,20638.0,8822,8901,8791,8701,45.7,45.9,45.5,46.6,2.705,2.515,2.6,2.722,4.81,179.4,22.2,79.1,1015.69,-32.42,0.08,1.66,14.6,32.4,24.8,0,no_anomaly,0.0,0,0,0,0,17.384969,78.4867219,24.0,0.0
2024-01-24T09:25:11.100Z,MISSION_0024,111,1,transit,SITE_HYD_005,17.3849731,78.4867213,24.0,294.73,0.0,0.152,3.82,-3.9914,-2.0072,294.7253,-0.84113,0.03876,-0.00404,0.53942,-0.2171,-0.0966,-9.7396,0.0111,0.6637,0.0264,0.2079,3,18,0.78,0.9,0.2,24.702,15.15,93.8,31.2,20625.0,8998,9217,9114,8825,48.4,45.6,48.7,46.4,2.966,2.865,2.727,2.854,4.38,187.1,21.9,79.1,1015.22,-27.96,1.13,1.29,18.6,35.5,22.8,0,no_anomaly,0.0,0,0,0,0,17.3849731,78.4867213,24.0,0.0
2024-01-24T09:25:11.200Z,MISSION_0024,112,1,transit,SITE_HYD_005,17.3849734,78.4867199,24.0,293.94,0.109,0.025,3.7,5.3339,-4.2386,293.9395,-0.83784,-0.01885,0.05632,0.54268,0.2769,-0.0025,-9.8234,0.0189,0.03,-0.3842,0.2034,3,13,0.6,0.71,0.26,24.567,23.59,93.7,29.7,20613.0,9018,8857,8865,8941,45.6,47.7,45.7,46.0,2.865,2.582,2.851,2.473,4.67,181.8,21.9,78.4,1015.38,-24.98,0.02,1.43,17.6,31.2,25.5,0,no_anomaly,0.0,0,0,0,0,17.3849734,78.4867199,24.0,0.0
2024-01-24T09:25:11.300Z,MISSION_0024,113,1,transit,SITE_HYD_005,17.3849745,78.4867227,24.0,294.99,0.0,0.119,3.8,-2.938,-4.0784,294.9923,-0.84205,0.04072,0.01623,0.53761,0.1245,0.0175,-9.8477,-0.7796,0.3913,-0.1109,0.2392,3,11,0.59,0.77,0.22,24.652,21.08,93.6,29.8,20601.0,8687,8921,9027,9222,50.1,44.9,51.4,48.9,2.909,2.656,2.825,2.717,4.73,186.4,22.4,78.1,1015.28,-35.6,0.62,1.65,20.8,38.8,25.4,0,no_anomaly,0.0,0,0,0,0,17.3849745,78.4867227,24.0,0.0
2024-01-24T09:25:11.400Z,MISSION_0024,114,1,transit,SITE_HYD_005,17.3849742,78.4867196,24.0,293.41,0.0,0.119,3.61,0.7266,-1.3729,293.4101,-0.83582,0.00128,0.01349,0.54884,0.1191,0.0033,-9.8743,0.1551,-0.1174,0.1259,0.2794,3,17,0.68,1.04,0.33,24.631,14.29,93.6,29.8,20588.0,9125,9047,9027,9138,50.1,44.9,46.8,46.4,2.841,2.855,2.635,2.967,3.95,185.4,22.3,78.5,1015.1,-27.17,0.17,1.7,19.3,30.8,23.5,0,no_anomaly,0.0,0,0,0,0,17.3849742,78.4867196,24.0,0.0
2024-01-24T09:25:11.500Z,MISSION_0024,115,1,transit,SITE_HYD_005,17.3849746,78.4867174,24.0,293.73,0.344,0.168,3.43,0.0279,-4.3582,293.7299,-0.83678,0.02058,0.03197,0.54621,0.0179,-0.0164,-9.7923,1.0678,0.0814,0.1201,0.107,3,11,0.86,0.78,0.28,24.727,20.47,93.5,29.2,20576.0,8969,8993,8918,8781,46.8,48.2,48.8,49.0,2.692,2.925,2.875,2.988,4.59,184.1,22.2,78.3,1015.06,-31.76,-0.29,1.66,17.9,33.9,26.5,0,no_anomaly,0.0,0,0,0,0,17.3849746,78.4867174,24.0,0.0
2024-01-24T09:25:11.600Z,MISSION_0024,116,1,transit,SITE_HYD_005,17.3849767,78.4867164,24.0,294.77,0.377,0.135,3.18,-1.4966,-4.8881,294.7654,-0.84115,0.03397,0.02888,0.53896,0.0703,0.0462,-9.8324,-0.2579,-0.1823,0.4197,0.2746,3,15,0.73,0.95,0.24,24.669,17.84,93.5,30.9,20564.0,8725,9036,9204,8975,47.6,43.8,47.3,45.2,2.744,2.915,2.763,2.928,5.37,187.7,22.0,78.0,1014.77,-22.8,-1.04,1.43,16.2,30.9,21.7,0,no_anomaly,0.0,0,0,0,0,17.3849767,78.4867164,24.0,0.0
2024-01-24T09:25:11.700Z,MISSION_0024,117,1,transit,SITE_HYD_005,17.3849778,78.4867216,24.0,294.62,0.047,0.123,3.44,-0.6347,-2.5929,294.6198,-0.84131,0.01688,0.01605,0.54005,0.0198,-0.0089,-9.839,0.1577,0.4477,0.021,0.182,3,20,0.55,0.81,0.25,24.633,17.91,93.4,31.8,20551.0,8812,8892,8948,8991,47.9,48.2,45.7,46.9,2.934,2.782,2.696,2.782,4.7,178.3,22.2,79.6,1015.3,-28.82,-1.13,1.41,20.1,33.6,23.3,0,no_anomaly,0.0,0,0,0,0,17.3849778,78.4867216,24.0,0.0
2024-01-24T09:25:11.800Z,MISSION_0024,118,1,transit,SITE_HYD_005,17.3849798,78.4867209,24.0,293.71,0.0,-0.009,3.23,7.2545,-0.5787,293.7054,-0.83575,-0.05021,0.03881,0.54542,0.1118,-0.039,-9.8874,-0.5743,-1.0671,0.0439,0.2582,3,10,0.6,0.8,0.22,24.6,20.13,93.4,30.1,20539.0,8944,8804,8856,9194,48.4,48.9,47.3,48.5,2.601,2.702,2.87,2.35,5.25,193.0,22.1,78.7,1015.13,-30.53,1.84,1.81,18.9,31.4,26.3,0,no_anomaly,0.0,0,0,0,0,17.3849798,78.4867209,24.0,0.0
2024-01-24T09:25:11.900Z,MISSION_0024,119,1,transit,SITE_HYD_005,17.3849807,78.4867199,24.0,293.14,0.0,0.102,3.09,-2.7619,-1.1828,293.145,-0.83416,0.0258,-0.00466,0.5509,-0.1343,0.0602,-9.914,-0.3996,-0.1638,-0.013,0.0905,3,17,0.66,1.11,0.25,24.663,21.6,93.3,31.2,20527.0,9080,8734,9104,8829,48.2,50.2,47.9,49.6,2.57,3.056,2.517,3.072,4.2,187.5,22.3,78.8,1015.18,-32.48,0.66,1.38,15.1,30.3,23.7,0,no_anomaly,0.0,0,0,0,0,17.3849807,78.4867199,24.0,0.0
2024-01-24T09:25:12.000Z,MISSION_0024,120,1,transit,SITE_HYD_005,17.3849802,78.4867177,24.0,295.06,0.534,0.051,2.96,2.837,-2.6926,295.058,-0.84348,-0.00827,0.0331,0.53607,0.0333,-0.0547,-9.8275,-0.0983,-0.5664,-0.0309,0.1439,3,11,0.57,0.81,0.2,24.653,19.31,93.2,30.3,20514.0,9011,8750,8850,9074,48.0,48.7,51.4,44.9,2.65,2.842,2.867,2.872,5.06,181.1,22.4,78.9,1015.37,-27.67,-0.87,1.86,16.4,29.7,25.7,0,no_anomaly,0.0,0,0,0,0,17.3849802,78.4867177,24.0,0.0
2024-01-24T09:25:12.100Z,MISSION_0024,121,1,transit,SITE_HYD_005,17.3849784,78.4867199,24.0,295.06,0.402,0.078,3.27,-1.1909,0.053,295.0569,-0.84361,0.00852,-0.00597,0.53685,0.3195,0.0378,-9.8586,0.2451,0.6924,0.4439,0.1109,3,15,0.7,0.84,0.44,24.609,16.3,93.2,30.4,20502.0,8886,9016,8985,9177,47.2,46.1,47.5,46.6,2.893,3.019,2.807,2.607,4.39,186.3,21.9,79.0,1015.23,-28.99,-2.49,1.43,16.5,37.2,26.8,0,no_anomaly,0.0,0,0,0,0,17.3849784,78.4867199,24.0,0.0
2024-01-24T09:25:12.200Z,MISSION_0024,122,1,transit,SITE_HYD_005,17.3849748,78.486726,24.0,294.22,0.038,0.172,4.03,-4.6589,-1.1878,294.2179,-0.83874,0.03975,-0.01337,0.54292,-0.0361,0.0312,-9.835,0.217,-0.4951,0.2642,0.1439,3,13,0.69,0.93,0.33,24.61,15.89,93.1,30.5,20490.0,8900,8859,9130,8620,46.6,47.9,43.4,43.5,2.839,2.785,2.935,2.789,4.19,188.4,22.2,79.4,1015.31,-25.0,-0.65,1.73,16.7,35.8,24.7,0,no_anomaly,0.0,0,0,0,0,17.3849748,78.486726,24.0,0.0
2024-01-24T09:25:12.300Z,MISSION_0024,123,1,transit,SITE_HYD_005,17.3849721,78.4867285,24.0,291.53,0.05,0.137,4.44,-2.8994,-1.3684,291.5259,-0.82622,0.02763,-0.00436,0.56265,0.0432,-0.112,-9.9284,0.1932,0.1206,-0.4263,0.2337,3,13,0.66,0.68,0.41,24.732,17.15,93.1,30.7,20478.0,8706,8927,9015,9111,49.1,46.3,47.3,48.6,2.73,2.596,2.768,2.678,4.7,184.0,22.2,78.5,1015.28,-27.54,-0.33,1.42,17.4,29.0,23.6,0,no_anomaly,0.0,0,0,0,0,17.3849721,78.4867285,24.0,0.0
2024-01-24T09:25:12.400Z,MISSION_0024,124,1,transit,SITE_HYD_005,17.3849753,78.4867253,24.0,291.78,0.559,0.163,3.94,-0.0117,-2.368,291.7764,-0.82777,0.01167,0.01705,0.56069,-0.1921,0.0254,-9.7806,0.5569,-0.1121,-0.0993,0.282,3,11,0.64,0.79,0.2,24.677,24.63,93.0,31.0,20465.0,8815,8953,9239,8941,47.4,47.3,49.9,45.4,2.707,2.64,2.944,2.921,3.94,179.0,22.0,78.1,1015.25,-30.24,-0.15,1.3,16.7,28.6,23.6,0,no_anomaly,0.0,0,0,0,0,17.3849753,78.4867253,24.0,0.0
2024-01-24T09:25:12.500Z,MISSION_0024,125,1,transit,SITE_HYD_005,17.3849739,78.4867267,24.0,292.68,0.51,0.106,4.16,1.4466,-4.1459,292.6836,-0.832,0.00955,0.0371,0.55345,0.0129,-0.0021,-9.7204,-0.7292,0.0762,0.014,0.2428,3,17,0.93,0.9,0.36,24.604,18.93,93.0,30.7,20453.0,9135,8892,8834,9016,46.6,47.7,43.4,49.7,2.827,2.919,2.577,2.864,4.88,185.2,22.6,77.7,1014.88,-27.07,0.23,1.64,21.0,33.0,25.8,0,no_anomaly,0.0,0,0,0,0,17.3849739,78.4867267,24.0,0.0
2024-01-24T09:25:12.600Z,MISSION_0024,126,1,transit,SITE_HYD_005,17.3849719,78.4867203,24.0,294.05,0.406,0.124,3.86,-4.8225,-4.3086,294.0536,-0.83673,0.05571,0.00863,0.54471,-0.1766,-0.0486,-9.8655,-0.3218,-0.2001,-0.0533,0.1678,3,12,0.79,0.66,0.29,24.611,20.13,92.9,30.0,20441.0,8897,8938,9005,9041,45.1,45.9,50.4,50.6,2.689,2.672,2.865,2.96,4.74,187.9,22.2,78.6,1015.0,-31.38,-1.59,1.92,16.7,34.8,22.7,0,no_anomaly,0.0,0,0,0,0,17.3849719,78.4867203,24.0,0.0
2024-01-24T09:25:12.700Z,MISSION_0024,127,1,transit,SITE_HYD_005,17.3849687,78.4867146,24.0,292.91,0.131,0.12,3.84,3.8485,-1.9883,292.9075,-0.83317,-0.0184,0.03301,0.55173,0.1033,-0.0506,-9.8114,-0.3688,-0.8377,-0.347,0.2273,3,12,0.54,0.71,0.2,24.606,19.31,92.9,30.0,20428.0,8894,9113,9028,8840,45.3,45.6,47.8,47.8,2.877,2.651,2.698,2.993,4.89,195.9,22.4,79.3,1015.55,-31.44,0.14,1.83,18.5,26.9,26.3,0,no_anomaly,0.0,0,0,0,0,17.3849687,78.4867146,24.0,0.0
2024-01-24T09:25:12.800Z,MISSION_0024,128,1,transit,SITE_HYD_005,17.3849652,78.4867143,24.0,292.97,0.388,0.153,4.18,1.8428,-3.0948,292.9707,-0.83357,0.00151,0.03139,0.55152,0.1155,0.0585,-9.7962,-0.2459,-0.1886,0.4801,0.1828,3,14,0.73,1.01,0.25,24.567,21.02,92.8,30.6,20416.0,8707,9025,9096,8970,47.2,50.0,50.6,46.9,2.703,2.624,2.693,2.852,5.31,176.5,21.8,77.8,1015.34,-27.21,-0.51,1.51,16.9,31.2,24.3,0,no_anomaly,0.0,0,0,0,0,17.3849652,78.4867143,24.0,0.0
2024-01-24T09:25:12.900Z,MISSION_0024,129,1,transit,SITE_HYD_005,17.3849627,78.4867173,24.0,293.35,0.449,0.152,4.57,-0.4963,-1.0141,293.3468,-0.83549,0.00848,0.00501,0.54942,-0.0627,-0.019,-9.813,0.5084,-0.0455,-0.314,0.2265,3,16,0.77,0.96,0.28,24.614,16.25,92.7,30.9,20404.0,9087,9010,8741,8998,47.0,48.3,48.8,48.9,2.631,2.855,2.901,2.68,3.79,186.6,22.2,78.5,1015.14,-28.52,1.26,1.98,20.1,28.4,24.9,0,no_anomaly,0.0,0,0,0,0,17.3849627,78.4867173,24.0,0.0
