timestamp_utc,mission_id,frame_id,waypoint_id,inspection_phase,site_id,latitude_deg,longitude_deg,altitude_m,heading_deg,ground_speed_ms,vertical_speed_ms,distance_to_tower_m,roll_deg,pitch_deg,yaw_deg,quat_w,quat_x,quat_y,quat_z,accel_x_ms2,accel_y_ms2,accel_z_ms2,gyro_x_rads,gyro_y_rads,gyro_z_rads,vibration_level,gps_fix_type,gps_satellite_count,gps_hdop,gps_vdop,position_error_m,battery_voltage_v,battery_current_a,battery_remaining_pct,battery_temp_c,battery_capacity_mah,motor_fl_rpm,motor_fr_rpm,motor_rl_rpm,motor_rr_rpm,motor_fl_temp_c,motor_fr_temp_c,motor_rl_temp_c,motor_rr_temp_c,motor_fl_thrust_n,motor_fr_thrust_n,motor_rl_thrust_n,motor_rr_thrust_n,wind_speed_ms,wind_dir_deg,air_temp_c,humidity_pct,pressure_hpa,gimbal_pitch_deg,gimbal_roll_deg,zoom_factor,ir_temp_min_c,ir_temp_max_c,ir_temp_avg_c,anomaly_detected,anomaly_class,anomaly_confidence,anomaly_bbox_x,anomaly_bbox_y,anomaly_bbox_w,anomaly_bbox_h,anomaly_gps_lat,anomaly_gps_lon,anomaly_gps_alt_m,ir_temp_delta_c
2024-03-20T11:38:00.000Z,MISSION_0037,0,0,takeoff,SITE_AMD_008,23.0224978,72.5713954,1.5,306.89,0.304,0.18,0.57,-4.9711,-2.8494,306.8873,-0.8929,0.04989,0.00284,0.44748,-0.257,-0.0369,-9.7514,-0.0626,-0.0614,0.0695,0.1391,3,10,0.68,0.94,0.24,24.738,16.81,96.3,35.6,21182.0,8859,8919,8844,8600,50.4,56.8,53.4,54.3,2.936,3.051,2.844,2.971,5.55,210.1,27.7,52.0,1006.16,-24.82,0.02,1.68,22.3,37.6,29.6,0,no_anomaly,0.0,0,0,0,0,23.0224978,72.5713954,1.5,0.0
2024-03-20T11:38:00.100Z,MISSION_0037,1,0,takeoff,SITE_AMD_008,23.0224958,72.5713999,3.0,306.38,0.236,0.096,0.47,-3.6029,-1.5983,306.3819,-0.89179,0.03434,-0.00173,0.45114,-0.0882,0.0011,-9.8723,1.0453,-0.1603,-0.6318,0.3455,3,16,0.67,0.95,0.36,24.65,15.13,96.2,35.5,21163.0,8455,8800,8686,8952,54.3,51.6,54.5,51.1,2.699,2.525,2.802,2.841,5.98,214.9,27.6,51.7,1006.5,-27.53,0.25,1.54,21.0,34.6,31.2,0,no_anomaly,0.0,0,0,0,0,23.0224958,72.5713999,3.0,0.0
2024-03-20T11:38:00.200Z,MISSION_0037,2,0,takeoff,SITE_AMD_008,23.022495,72.5714018,4.5,308.08,0.24,0.055,0.59,-2.8217,-1.449,308.0774,-0.89861,0.02767,0.00059,0.43788,-0.0696,0.0224,-9.8239,-0.5277,-0.1554,-0.2404,0.1409,3,17,0.75,0.95,0.27,24.662,18.96,96.1,35.2,21144.0,8605,8838,8855,8686,53.9,57.3,51.5,54.0,2.872,2.914,2.808,2.709,6.28,211.0,27.5,52.5,1006.42,-36.7,0.72,1.28,24.1,37.4,32.9,0,no_anomaly,0.0,0,0,0,0,23.022495,72.5714018,4.5,0.0
2024-03-20T11:38:00.300Z,MISSION_0037,3,0,takeoff,SITE_AMD_008,23.0224956,72.5714052,5.0,307.28,1.353,0.126,0.76,1.8734,-0.2307,307.2762,-0.8959,-0.01375,0.00906,0.44395,-0.0686,-0.0522,-9.7204,1.0165,-0.7143,0.5416,0.2417,3,13,0.64,0.95,0.31,24.721,17.85,96.0,35.6,21124.0,8675,8860,8892,8809,51.7,51.9,50.6,54.3,2.664,2.747,2.652,2.704,5.98,221.8,27.9,52.2,1006.47,-34.98,0.29,1.49,22.7,36.9,30.0,0,no_anomaly,0.0,0,0,0,0,23.0224956,72.5714052,5.0,0.0
2024-03-20T11:38:00.400Z,MISSION_0037,4,0,takeoff,SITE_AMD_008,23.0224961,72.5714054,5.0,308.56,1.351,0.085,0.75,0.5306,-0.4477,308.5645,-0.90093,-0.00248,0.00553,0.43391,0.1434,-0.0539,-9.8024,-0.2976,-0.2859,0.4317,0.2256,3,10,0.53,0.93,0.2,24.763,20.81,95.9,35.6,21105.0,8764,8851,8918,8867,52.2,53.5,48.8,52.1,3.0,2.781,2.716,2.731,6.48,215.7,27.4,52.6,1006.28,-29.33,0.05,2.32,22.4,38.0,30.7,0,no_anomaly,0.0,0,0,0,0,23.0224961,72.5714054,5.0,0.0
2024-03-20T11:38:00.500Z,MISSION_0037,5,0,takeoff,SITE_AMD_008,23.0224943,72.5714086,5.0,310.16,1.355,0.026,1.15,3.3217,-0.0431,310.1582,-0.90651,-0.02613,0.01255,0.42118,0.2603,0.0068,-9.7903,0.7096,0.3155,-0.3291,0.221,3,13,0.93,0.87,0.34,24.728,16.5,95.8,34.9,21086.0,8808,8502,8839,8722,51.2,52.4,54.3,51.7,2.901,2.675,2.677,2.899,5.87,208.4,27.8,53.5,1006.48,-24.68,-0.21,1.14,20.7,35.7,29.9,0,no_anomaly,0.0,0,0,0,0,23.0224943,72.5714086,5.0,0.0
2024-03-20T11:38:00.600Z,MISSION_0037,6,0,takeoff,SITE_AMD_008,23.022499,72.5714129,5.0,309.93,1.839,0.171,1.44,-2.0792,-2.3617,309.9267,-0.90554,0.02516,0.01099,0.42338,0.3517,0.0497,-9.6953,0.8407,0.2886,0.7767,0.2559,3,17,0.73,0.8,0.31,24.784,18.96,95.8,34.9,21066.0,8657,8969,8803,8701,54.8,51.3,55.1,53.2,2.635,3.035,2.556,2.717,6.23,210.5,27.6,52.8,1006.46,-30.63,-0.03,1.55,22.2,34.3,31.7,0,no_anomaly,0.0,0,0,0,0,23.022499,72.5714129,5.0,0.0
2024-03-20T11:38:00.700Z,MISSION_0037,7,0,takeoff,SITE_AMD_008,23.0225,72.571412,5.0,309.35,1.589,0.023,1.34,0.3504,-2.9686,309.3533,-0.90363,0.00832,0.02472,0.42751,-0.1198,0.0774,-9.8388,-0.5434,-0.7374,0.0452,0.1901,3,11,0.66,0.89,0.3,24.771,18.42,95.7,35.4,21047.0,8768,8683,8749,8700,53.6,52.4,50.8,50.2,2.726,2.765,2.6,2.966,5.59,206.3,27.6,52.5,1006.35,-30.32,1.08,1.77,22.8,32.2,31.3,0,no_anomaly,0.0,0,0,0,0,23.0225,72.571412,5.0,0.0
2024-03-20T11:38:00.800Z,MISSION_0037,8,0,takeoff,SITE_AMD_008,23.0225023,72.5714103,5.0,311.59,1.455,0.087,1.17,2.7088,-3.0828,311.5889,-0.91176,-0.01053,0.03421,0.40917,-0.1796,-0.0136,-9.7483,0.5055,0.302,0.2567,0.2022,3,13,0.73,0.91,0.29,24.668,21.45,95.6,35.2,21028.0,8938,9038,9066,8555,51.5,53.5,50.9,54.7,2.713,2.599,2.627,3.105,5.97,219.3,27.8,53.0,1006.27,-33.46,0.14,2.0,24.1,32.0,29.1,0,no_anomaly,0.0,0,0,0,0,23.0225023,72.5714103,5.0,0.0
2024-03-20T11:38:00.900Z,MISSION_0037,9,0,takeoff,SITE_AMD_008,23.0225022,72.5714091,5.0,312.79,1.932,0.247,1.05,-2.142,2.309,312.7907,-0.91613,0.00906,-0.02594,0.39993,0.0864,0.0519,-9.828,0.2453,-0.2409,0.0105,0.2785,3,16,0.74,0.75,0.35,24.665,22.15,95.5,35.6,21008.0,8543,8701,8936,8958,49.5,53.8,50.9,48.1,2.695,2.714,2.754,2.775,5.95,211.3,27.3,52.2,1006.29,-29.88,0.05,1.58,21.1,34.6,28.5,0,no_anomaly,0.0,0,0,0,0,23.0225022,72.5714091,5.0,0.0
2024-03-20T11:38:01.000Z,MISSION_0037,10,0,takeoff,SITE_AMD_008,23.022503,72.5714132,5.0,314.9,2.18,0.013,1.51,-0.2907,-1.4938,314.8963,-0.92344,0.00734,0.01107,0.38352,-0.0184,-0.0157,-9.8331,-0.2003,0.4054,-0.0405,0.215,3,11,0.57,1.0,0.32,24.695,14.59,95.4,35.3,20989.0,9162,8845,8767,9065,54.2,54.5,53.1,54.4,2.915,2.797,3.034,2.914,6.65,217.5,27.6,52.6,1006.39,-29.46,0.9,2.01,19.9,41.1,28.0,0,no_anomaly,0.0,0,0,0,0,23.022503,72.5714132,5.0,0.0
2024-03-20T11:38:01.100Z,MISSION_0037,11,0,takeoff,SITE_AMD_008,23.022509,72.5714093,5.0,315.27,2.302,0.048,1.44,0.1068,-1.7554,315.2721,-0.92468,0.00497,0.01452,0.38043,0.5871,-0.0007,-9.744,0.4871,-0.6966,-0.4795,0.2003,3,18,0.67,0.9,0.32,24.672,19.58,95.3,35.5,20970.0,8588,8851,8739,8849,54.1,51.6,53.2,54.7,2.613,2.884,2.726,2.982,7.13,210.9,27.6,53.5,1006.01,-30.16,-0.17,1.13,23.0,37.5,30.2,0,no_anomaly,0.0,0,0,0,0,23.022509,72.5714093,5.0,0.0
2024-03-20T11:38:01.200Z,MISSION_0037,12,0,takeoff,SITE_AMD_008,23.0225081,72.5714102,5.0,314.61,2.25,0.124,1.45,1.0556,0.3808,314.611,-0.92252,-0.00978,0.00049,0.38583,-0.0785,-0.0528,-9.8402,0.4207,-0.1339,-0.1861,0.2116,3,13,0.74,1.04,0.29,24.654,21.97,95.2,36.1,20950.0,8531,8779,8749,8631,50.5,50.6,54.1,47.7,2.873,2.927,3.107,2.558,6.14,207.1,27.4,52.4,1006.44,-24.45,0.09,2.25,20.5,40.4,33.1,0,no_anomaly,0.0,0,0,0,0,23.0225081,72.5714102,5.0,0.0
2024-03-20T11:38:01.300Z,MISSION_0037,13,0,takeoff,SITE_AMD_008,23.0225145,72.5714057,5.0,317.68,1.96,0.068,1.74,1.9134,-0.7084,317.6807,-0.93247,-0.01334,0.01179,0.36081,-0.0502,-0.0231,-9.8215,0.1327,0.2785,-0.0545,0.2389,3,18,0.66,0.96,0.27,24.695,18.74,95.1,35.4,20931.0,8696,8601,8725,8734,52.6,51.0,51.0,55.0,2.868,2.738,2.977,2.91,6.2,209.0,27.6,52.1,1006.34,-30.91,1.37,1.06,24.9,35.6,29.6,0,no_anomaly,0.0,0,0,0,0,23.0225145,72.5714057,5.0,0.0
2024-03-20T11:38:01.400Z,MISSION_0037,14,0,takeoff,SITE_AMD_008,23.0225126,72.5714081,5.0,317.01,2.29,0.146,1.67,-5.7102,-1.9356,317.013,-0.92886,0.05252,-0.00255,0.36667,-0.0652,0.0142,-9.8158,-0.5384,-0.2204,-0.3153,0.18,3,16,0.72,0.9,0.2,24.611,14.86,95.1,35.9,20911.0,8922,8539,8872,8556,53.9,51.7,55.1,54.0,2.866,2.551,3.145,2.756,6.03,209.8,28.0,52.4,1006.4,-30.73,0.61,1.23,22.2,39.5,29.4,0,no_anomaly,0.0,0,0,0,0,23.0225126,72.5714081,5.0,0.0
2024-03-20T11:38:01.500Z,MISSION_0037,15,0,takeoff,SITE_AMD_008,23.0225186,72.5714079,5.0,317.64,2.338,0.128,2.25,1.12,0.6806,317.6367,-0.93236,-0.01126,-0.00201,0.36136,0.0291,0.0111,-9.8742,-0.4246,-0.6361,0.1451,0.3167,3,15,0.75,1.0,0.48,24.647,21.6,95.0,35.6,20892.0,8906,8732,8965,8973,52.7,54.2,52.8,55.9,2.77,2.622,3.036,2.851,6.0,218.1,27.2,53.6,1006.46,-29.57,-1.18,1.88,21.9,38.1,32.0,0,no_anomaly,0.0,0,0,0,0,23.0225186,72.5714079,5.0,0.0
2024-03-20T11:38:01.600Z,MISSION_0037,16,0,takeoff,SITE_AMD_008,23.0225134,72.5714101,5.0,317.28,2.405,0.08,1.86,-2.3539,-1.0957,317.278,-0.93099,0.02261,0.00142,0.36433,-0.0894,0.0408,-9.7837,-0.7917,0.9533,-0.4954,0.205,3,12,0.51,0.83,0.3,24.662,19.81,94.9,35.5,20873.0,8663,8842,8791,8640,51.4,50.0,51.4,55.5,2.94,2.479,2.646,2.933,5.93,211.1,27.5,52.3,1006.13,-30.54,1.21,1.77,20.9,32.1,30.3,0,no_anomaly,0.0,0,0,0,0,23.0225134,72.5714101,5.0,0.0
2024-03-20T11:38:01.700Z,MISSION_0037,17,0,takeoff,SITE_AMD_008,23.0225156,72.5714074,5.0,314.42,2.551,0.065,1.92,-7.3418,-2.2852,314.4197,-0.91936,0.06672,-0.00645,0.38766,0.0407,-0.0397,-9.8842,-0.8941,-0.5883,-0.2809,0.3153,3,16,0.5,0.71,0.2,24.741,18.07,94.8,36.1,20853.0,8712,9029,8697,8936,54.8,51.8,53.8,53.3,3.073,2.942,2.843,2.687,6.18,215.4,27.8,52.0,1006.08,-29.23,-0.83,1.48,20.8,39.0,29.0,0,no_anomaly,0.0,0,0,0,0,23.0225156,72.5714074,5.0,0.0
2024-03-20T11:38:01.800Z,MISSION_0037,18,0,takeoff,SITE_AMD_008,23.0225156,72.5714068,5.0,313.81,2.57,0.075,1.89,0.5464,-1.4652,313.8075,-0.91979,0.00063,0.01363,0.39218,-0.0905,-0.0473,-9.829,0.2439,0.1619,0.4257,0.1803,3,13,0.5,0.81,0.2,24.666,19.54,94.7,37.1,20834.0,8536,8628,8728,8816,50.7,51.7,50.9,55.1,2.662,2.615,2.734,2.825,6.41,205.5,27.1,52.4,1006.3,-24.39,1.01,1.38,26.4,44.1,34.1,0,no_anomaly,0.0,0,0,0,0,23.0225156,72.5714068,5.0,0.0
2024-03-20T11:38:01.900Z,MISSION_0037,19,0,takeoff,SITE_AMD_008,23.0225088,72.571403,5.0,314.94,2.375,0.062,1.04,1.1816,-2.2822,314.9363,-0.92351,-0.00189,0.02234,0.38291,0.0005,0.0108,-9.8092,0.53,0.0842,-0.6045,0.2566,3,19,0.56,1.03,0.29,24.666,18.4,94.6,35.8,20815.0,8922,8808,8442,8634,58.7,51.3,51.4,51.7,2.768,2.827,2.898,2.95,6.33,213.4,27.4,52.6,1006.6,-31.96,-1.54,1.15,20.0,38.0,31.2,0,no_anomaly,0.0,0,0,0,0,23.0225088,72.571403,5.0,0.0
2024-03-20T11:38:02.000Z,MISSION_0037,20,0,takeoff,SITE_AMD_008,23.0225094,72.5714074,5.0,315.8,2.133,0.087,1.33,-2.743,0.5286,315.8049,-0.92631,0.02044,-0.01328,0.37597,-0.2265,-0.0703,-9.7875,-0.5974,0.0606,-0.3825,0.193,3,18,0.59,0.97,0.2,24.704,16.85,94.5,36.5,20795.0,8981,8533,8521,8457,52.4,53.9,54.5,53.1,2.709,2.663,2.947,3.072,6.27,209.4,27.8,53.2,1006.37,-32.8,-1.05,1.46,23.3,38.5,29.7,0,no_anomaly,0.0,0,0,0,0,23.0225094,72.5714074,5.0,0.0
2024-03-20T11:38:02.100Z,MISSION_0037,21,0,takeoff,SITE_AMD_008,23.0225074,72.571409,5.0,316.08,2.132,0.024,1.3,-1.2147,-2.4135,316.0845,-0.92712,0.0177,0.01557,0.37403,-0.2158,-0.0505,-9.8097,0.181,-0.1937,-0.2581,0.2946,3,16,0.56,0.63,0.24,24.632,14.72,94.4,35.4,20776.0,8913,8592,8836,8756,50.0,52.3,52.4,51.0,2.88,2.823,2.76,2.963,6.41,204.9,27.8,51.2,1006.31,-28.68,-1.02,2.14,23.7,42.9,33.4,0,no_anomaly,0.0,0,0,0,0,23.0225074,72.571409,5.0,0.0
2024-03-20T11:38:02.200Z,MISSION_0037,22,0,takeoff,SITE_AMD_008,23.0225004,72.5714024,5.0,316.64,2.232,0.11,0.28,-1.4974,-2.0894,316.64,-0.92894,0.01887,0.01211,0.36955,0.0843,-0.0279,-9.734,-0.0823,0.1662,0.1869,0.2024,3,10,0.61,0.97,0.28,24.692,14.88,94.3,36.4,20757.0,8604,8891,8880,8637,53.3,52.2,52.7,55.2,2.771,2.884,2.705,2.932,5.85,216.6,27.7,52.0,1006.27,-27.62,0.57,1.86,21.2,35.3,29.5,0,no_anomaly,0.0,0,0,0,0,23.0225004,72.5714024,5.0,0.0
2024-03-20T11:38:02.300Z,MISSION_0037,23,0,takeoff,SITE_AMD_008,23.0225019,72.5714046,5.0,317.74,1.931,0.07,0.55,-0.7692,-2.5279,317.7371,-0.93245,0.01421,0.01815,0.36055,0.3664,-0.0751,-9.7613,0.7254,-0.2231,-0.2068,0.3598,3,17,0.78,1.01,0.39,24.579,21.8,94.3,35.1,20737.0,8602,8742,8937,8747,50.1,53.5,52.0,56.0,3.084,2.657,2.988,2.855,6.13,213.4,27.5,52.5,1006.2,-33.45,-0.02,2.08,24.1,41.0,28.5,0,no_anomaly,0.0,0,0,0,0,23.0225019,72.5714046,5.0,0.0
2024-03-20T11:38:02.400Z,MISSION_0037,24,0,takeoff,SITE_AMD_008,23.0225045,72.5714073,5.0,320.4,1.909,0.143,0.95,4.6466,-0.6584,320.4018,-0.94018,-0.0362,0.01913,0.33822,0.078,0.1227,-9.7081,0.4591,-0.0625,-0.1111,0.234,3,19,0.72,0.79,0.3,24.722,20.45,94.2,35.0,20718.0,8783,8587,8878,8794,50.8,52.7,49.4,53.2,2.981,2.577,2.595,2.782,6.08,212.1,27.4,52.6,1006.31,-30.17,-1.59,1.18,22.8,39.5,31.1,0,no_anomaly,0.0,0,0,0,0,23.0225045,72.5714073,5.0,0.0
2024-03-20T11:38:02.500Z,MISSION_0037,25,0,takeoff,SITE_AMD_008,23.022501,72.571407,5.0,318.11,1.925,0.094,0.79,-1.0793,-2.6911,318.1125,-0.93355,0.01719,0.01856,0.35754,-0.0043,-0.023,-9.7729,-0.2925,-0.1404,-0.2098,0.1733,3,16,0.6,0.89,0.28,24.629,16.36,94.1,35.6,20699.0,8837,8895,8706,8785,53.8,48.3,53.8,55.3,3.004,3.123,2.852,2.609,6.58,221.2,27.6,52.3,1006.28,-32.27,-0.41,1.57,20.7,39.1,31.4,0,no_anomaly,0.0,0,0,0,0,23.022501,72.571407,5.0,0.0
2024-03-20T11:38:02.600Z,MISSION_0037,26,0,takeoff,SITE_AMD_008,23.0225031,72.5714071,5.0,318.89,1.83,0.045,0.86,-4.2638,-1.6909,318.8855,-0.93538,0.04001,0.00075,0.35138,0.0572,-0.0032,-9.737,0.1148,-0.3501,0.4554,0.1865,3,16,0.63,1.0,0.23,24.644,20.84,94.0,35.7,20679.0,8890,8736,8761,8639,51.7,49.4,51.3,48.7,2.739,3.074,2.943,2.844,6.12,215.9,27.3,52.6,1006.55,-36.35,1.34,1.6,22.3,41.0,27.0,0,no_anomaly,0.0,0,0,0,0,23.0225031,72.5714071,5.0,0.0
2024-03-20T11:38:02.700Z,MISSION_0037,27,0,takeoff,SITE_AMD_008,23.0225082,72.5714149,5.0,317.64,1.955,0.076,1.89,6.8653,-4.4016,317.6382,-0.93092,-0.04194,0.05736,0.35826,-0.0815,-0.045,-9.791,0.1919,-0.385,0.2205,0.235,3,19,0.79,1.15,0.25,24.644,19.17,93.9,35.8,20660.0,8749,8731,8949,8766,51.9,52.6,52.2,53.2,2.863,2.851,2.946,2.602,5.11,214.7,27.9,53.1,1006.34,-32.38,1.47,1.35,21.9,41.7,30.3,0,no_anomaly,0.0,0,0,0,0,23.0225082,72.5714149,5.0,0.0
2024-03-20T11:38:02.800Z,MISSION_0037,28,0,takeoff,SITE_AMD_008,23.0225049,72.5714169,5.0,315.09,2.262,0.007,1.96,-3.8062,1.1305,315.0874,-0.92374,0.02692,-0.0218,0.38145,0.1757,-0.0413,-9.7926,-0.3879,-0.4779,-0.5295,0.1282,3,18,0.7,0.63,0.34,24.757,20.49,93.8,35.0,20641.0,8767,8788,9032,9243,54.2,53.1,50.5,52.6,2.905,2.564,2.705,2.828,6.24,201.9,27.5,53.0,1006.57,-34.88,2.34,1.08,21.3,40.2,26.7,0,no_anomaly,0.0,0,0,0,0,23.0225049,72.5714169,5.0,0.0
2024-03-20T11:38:02.900Z,MISSION_0037,29,0,takeoff,SITE_AMD_008,23.0225026,72.5714176,5.0,314.45,2.312,0.087,1.98,-0.5249,-1.0052,314.4514,-0.92198,0.00762,0.00632,0.38712,-0.0808,-0.1609,-9.8722,-0.5932,0.1902,-0.1588,0.1976,3,18,0.71,0.96,0.26,24.628,23.16,93.7,36.5,20621.0,8681,8628,8818,8752,50.5,53.3,51.2,49.9,2.984,2.916,2.838,2.682,5.57,210.0,27.5,52.8,1006.36,-25.54,-0.46,1.26,22.7,41.0,27.6,0,no_anomaly,0.0,0,0,0,0,23.0225026,72.5714176,5.0,0.0
2024-03-20T11:38:03.000Z,MISSION_0037,30,0,takeoff,SITE_AMD_008,23.022506,72.5714168,5.0,314.3,2.782,-0.035,1.98,2.3925,-2.2491,314.2987,-0.9213,-0.01162,0.02619,0.38779,0.0779,0.0687,-9.8401,-0.1365,0.1201,-0.1795,0.2668,3,11,0.69,0.92,0.25,24.6,20.99,93.6,35.6,20602.0,8859,8754,8658,8798,48.2,54.5,53.3,52.8,2.728,2.908,2.953,3.195,7.02,207.9,27.4,51.8,1006.46,-31.28,-0.19,1.36,23.2,32.7,28.7,0,no_anomaly,0.0,0,0,0,0,23.022506,72.5714168,5.0,0.0
2024-03-20T11:38:03.100Z,MISSION_0037,31,0,takeoff,SITE_AMD_008,23.0225093,72.5714241,5.0,315.12,2.483,0.082,2.87,0.0477,-1.906,315.1182,-0.92415,0.00596,0.01553,0.38167,-0.0147,0.0556,-9.8902,0.7469,-0.9719,-0.142,0.1618,3,14,0.55,1.0,0.2,24.68,15.93,93.6,35.8,20582.0,8655,8569,8806,8472,54.5,52.6,54.3,48.7,2.678,2.587,2.68,2.99,6.86,205.4,27.4,53.7,1006.1,-29.69,0.94,1.73,25.1,43.1,34.3,0,no_anomaly,0.0,0,0,0,0,23.0225093,72.5714241,5.0,0.0
2024-03-20T11:38:03.200Z,MISSION_0037,32,0,takeoff,SITE_AMD_008,23.0225074,72.5714242,5.0,316.5,2.698,0.084,2.81,2.4149,-3.7134,316.4962,-0.92836,-0.00756,0.03789,0.36968,0.1817,-0.0712,-9.8683,-0.4871,0.0662,0.1071,0.2235,3,17,0.79,0.9,0.31,24.621,13.64,93.5,35.8,20563.0,8593,8616,8569,8838,54.4,51.9,56.4,52.7,2.929,2.704,2.851,2.888,5.63,214.6,27.5,52.6,1006.43,-26.87,1.48,1.58,23.2,37.6,28.5,0,no_anomaly,0.0,0,0,0,0,23.0225074,72.5714242,5.0,0.0
2024-03-20T11:38:03.300Z,MISSION_0037,33,0,takeoff,SITE_AMD_008,23.0225098,72.5714252,5.0,317.13,2.666,0.076,3.01,5.8196,-4.244,317.1346,-0.9297,-0.03371,0.05296,0.36294,-0.1709,0.0156,-9.8037,0.216,-0.3453,-0.0686,0.2725,3,13,0.83,0.88,0.45,24.611,22.64,93.4,36.4,20544.0,8677,8797,8819,8701,54.1,51.2,53.8,54.4,2.684,2.554,2.681,3.009,6.58,208.0,27.4,53.4,1006.29,-29.85,0.27,1.84,24.1,35.0,31.1,0,no_anomaly,0.0,0,0,0,0,23.0225098,72.5714252,5.0,0.0
2024-03-20T11:38:03.400Z,MISSION_0037,34,0,takeoff,SITE_AMD_008,23.0225109,72.5714258,5.0,317.28,2.533,0.151,3.12,-1.7923,-1.7367,317.2793,-0.931,0.02008,0.00842,0.36437,-0.0481,-0.0078,-9.8141,-0.179,0.7847,-0.6953,0.2979,3,16,0.5,0.69,0.2,24.631,16.93,93.3,35.9,20524.0,8764,9001,9042,8982,51.2,51.5,54.6,55.1,2.636,2.982,2.485,2.684,5.89,212.2,27.3,53.0,1006.23,-26.13,0.76,1.5,23.9,34.5,26.6,0,no_anomaly,0.0,0,0,0,0,23.0225109,72.5714258,5.0,0.0
2024-03-20T11:38:03.500Z,MISSION_0037,35,0,takeoff,SITE_AMD_008,23.0225126,72.5714254,5.0,317.64,2.182,0.038,3.16,-5.0632,-1.8141,317.6387,-0.93117,0.0469,-0.00121,0.36156,-0.3079,0.0173,-9.7819,0.3027,-0.166,-0.3054,0.3118,3,20,0.63,1.09,0.2,24.514,19.64,93.2,35.6,20505.0,8768,8604,8910,8708,54.0,53.1,52.7,52.3,3.028,2.775,2.886,2.59,6.27,213.6,27.6,52.1,1006.5,-31.95,-0.81,1.39,21.6,42.0,30.9,0,no_anomaly,0.0,0,0,0,0,23.0225126,72.5714254,5.0,0.0
2024-03-20T11:38:03.600Z,MISSION_0037,36,0,takeoff,SITE_AMD_008,23.0225102,72.571426,5.0,313.53,2.035,0.062,3.11,-2.7795,-1.3176,313.5318,-0.91846,0.02682,0.001,0.3946,-0.2979,0.0315,-9.7627,-0.1458,-0.4285,-0.3151,0.2367,3,10,0.62,0.86,0.26,24.658,18.26,93.1,34.7,20486.0,8666,8832,8812,8587,52.7,52.0,53.6,48.6,2.775,2.638,2.955,2.865,7.05,225.0,27.7,52.9,1006.2,-32.29,0.8,2.23,22.1,32.8,29.2,0,no_anomaly,0.0,0,0,0,0,23.0225102,72.571426,5.0,0.0
2024-03-20T11:38:03.700Z,MISSION_0037,37,0,takeoff,SITE_AMD_008,23.0225103,72.5714293,5.0,313.86,2.253,0.154,3.45,1.2612,-1.2983,313.8584,-0.91996,-0.00569,0.01474,0.3917,-0.0121,-0.0308,-9.8224,-0.2317,0.2746,-0.1842,0.232,3,11,0.7,0.9,0.2,24.625,18.23,93.0,35.7,20466.0,8687,8555,8809,8703,51.9,54.6,54.1,52.7,2.843,2.9,2.941,2.994,6.3,210.8,27.5,53.1,1006.21,-30.53,0.49,1.45,21.8,34.7,32.1,0,no_anomaly,0.0,0,0,0,0,23.0225103,72.5714293,5.0,0.0
2024-03-20T11:38:03.800Z,MISSION_0037,38,0,takeoff,SITE_AMD_008,23.0225118,72.5714295,5.0,314.67,2.565,0.006,3.53,-2.8753,-2.4749,314.6731,-0.92207,0.03147,0.01026,0.38561,0.0362,-0.0303,-9.7797,-0.3066,0.4001,-0.0702,0.2801,3,12,0.75,0.91,0.32,24.645,17.03,92.9,35.5,20447.0,8826,8724,8860,8771,51.7,55.4,53.1,51.1,2.954,2.743,2.642,2.856,6.64,211.2,27.3,52.8,1006.48,-28.75,0.3,1.37,23.5,41.4,28.7,0,no_anomaly,0.0,0,0,0,0,23.0225118,72.5714295,5.0,0.0
2024-03-20T11:38:03.900Z,MISSION_0037,39,0,takeoff,SITE_AMD_008,23.0225076,72.5714246,5.0,315.66,2.591,0.084,2.87,1.025,-1.8408,315.6624,-0.92597,-0.00222,0.01825,0.37714,-0.0064,0.0225,-9.8476,0.2715,-0.3332,0.0999,0.3126,3,18,0.5,0.88,0.2,24.681,23.01,92.9,34.9,20428.0,8642,8617,8640,8688,51.1,50.2,55.5,53.2,2.89,2.963,2.72,2.848,6.22,205.7,27.5,52.2,1006.71,-25.27,-0.3,1.94,23.0,39.5,32.1,0,no_anomaly,0.0,0,0,0,0,23.0225076,72.5714246,5.0,0.0
2024-03-20T11:38:04.000Z,MISSION_0037,40,0,transit,SITE_AMD_008,23.0225079,72.5714285,5.5,314.61,2.908,0.14,3.29,1.2106,0.5658,314.6141,-0.9225,-0.01165,-0.00048,0.38581,-0.3156,0.0259,-9.8332,-0.3616,0.6781,0.0513,0.2772,3,19,0.75,1.25,0.25,24.623,22.59,92.8,34.6,20408.0,8714,8883,8912,8962,50.7,55.1,51.9,50.8,2.675,2.957,2.696,2.889,6.24,207.7,27.6,52.7,1006.18,-28.87,-1.18,2.31,24.0,40.5,29.5,0,no_anomaly,0.0,0,0,0,0,23.0225079,72.5714285,5.5,0.0
2024-03-20T11:38:04.100Z,MISSION_0037,41,0,transit,SITE_AMD_008,23.0225078,72.5714275,6.0,313.43,2.616,0.138,3.18,-4.147,0.7889,313.4293,-0.91802,0.03051,-0.02062,0.39481,-0.1277,0.0098,-9.7968,0.1462,-0.1128,0.4531,0.1984,3,12,0.53,0.76,0.28,24.576,18.13,92.7,36.1,20389.0,8599,8707,8734,8620,52.6,56.2,49.9,51.5,2.809,2.842,2.576,2.734,6.98,196.3,27.8,53.3,1006.49,-30.17,1.17,1.47,23.1,35.9,31.8,0,no_anomaly,0.0,0,0,0,0,23.0225078,72.5714275,6.0,0.0
2024-03-20T11:38:04.200Z,MISSION_0037,42,0,transit,SITE_AMD_008,23.0225085,72.5714261,6.5,312.17,2.928,0.129,3.05,-6.4018,-1.3204,312.1711,-0.9124,0.0557,-0.01212,0.4053,-0.1476,-0.0155,-9.7911,-0.8561,-0.4743,-0.0066,0.212,3,17,0.65,1.07,0.25,24.658,22.45,92.6,35.1,20370.0,8794,8650,9030,8583,52.9,52.8,51.2,55.4,2.754,2.951,2.825,2.949,5.62,210.7,27.6,52.5,1006.57,-32.38,1.96,1.67,21.6,36.1,31.4,0,no_anomaly,0.0,0,0,0,0,23.0225085,72.5714261,6.5,0.0
2024-03-20T11:38:04.300Z,MISSION_0037,43,0,transit,SITE_AMD_008,23.0225129,72.5714251,7.0,313.91,2.734,0.154,3.14,2.544,-3.8351,313.9089,-0.91974,-0.00732,0.03947,0.39046,-0.3817,0.0946,-9.7811,0.3259,-0.4247,-0.0335,0.2065,3,15,0.66,0.96,0.29,24.647,20.85,92.5,35.3,20350.0,8936,8886,8967,8676,52.8,50.3,55.7,52.3,2.999,2.837,2.883,2.817,6.47,209.2,27.4,52.4,1006.38,-25.74,0.12,1.47,21.9,35.3,30.6,0,no_anomaly,0.0,0,0,0,0,23.0225129,72.5714251,7.0,0.0
2024-03-20T11:38:04.400Z,MISSION_0037,44,0,transit,SITE_AMD_008,23.0225094,72.5714233,7.5,314.84,2.836,0.01,2.79,-1.8351,-2.1161,314.8416,-0.92296,0.02187,0.0109,0.38412,-0.1869,0.0348,-9.8258,-0.4707,0.1178,0.2036,0.1518,3,12,0.85,0.95,0.3,24.522,17.83,92.4,36.4,20331.0,8747,8730,9222,8858,53.6,52.3,48.3,54.2,2.854,2.823,2.788,2.839,5.88,209.3,27.5,51.8,1006.12,-31.14,-0.54,1.69,21.5,39.1,31.8,0,no_anomaly,0.0,0,0,0,0,23.0225094,72.5714233,7.5,0.0
2024-03-20T11:38:04.500Z,MISSION_0037,45,0,transit,SITE_AMD_008,23.0225117,72.5714213,8.0,315.35,3.033,0.208,2.71,-2.7149,-3.3628,315.3525,-0.92413,0.03305,0.01814,0.38021,0.0842,0.0456,-9.837,0.0516,-0.1883,-0.6161,0.1977,3,17,0.61,1.23,0.29,24.55,17.45,92.3,35.8,20312.0,9012,8662,8775,8794,54.8,54.4,50.6,52.7,2.538,2.895,2.72,2.833,6.61,209.3,27.7,52.1,1006.23,-25.73,-1.25,1.74,23.2,31.8,29.8,0,no_anomaly,0.0,0,0,0,0,23.0225117,72.5714213,8.0,0.0
2024-03-20T11:38:04.600Z,MISSION_0037,46,0,transit,SITE_AMD_008,23.0225118,72.5714166,8.5,315.89,2.618,0.169,2.27,-2.9113,-1.0542,315.8893,-0.9264,0.027,-0.00102,0.37558,0.2038,-0.0443,-9.8808,0.3938,-0.5305,-0.0613,0.1987,3,17,0.63,0.93,0.27,24.693,17.43,92.2,35.8,20292.0,8584,8874,8750,9007,47.7,50.7,52.9,53.4,3.24,2.663,2.678,2.889,6.44,214.7,27.6,53.0,1006.58,-27.4,-2.04,1.41,26.3,43.3,32.4,0,no_anomaly,0.0,0,0,0,0,23.0225118,72.5714166,8.5,0.0
2024-03-20T11:38:04.700Z,MISSION_0037,47,0,transit,SITE_AMD_008,23.0225079,72.5714201,9.0,318.59,2.652,0.105,2.4,-1.4399,-2.9123,318.5885,-0.93492,0.02073,0.01933,0.35373,0.0569,0.0442,-9.7878,-0.8419,0.4903,0.1343,0.2211,3,10,0.68,0.91,0.22,24.557,16.52,92.1,36.0,20273.0,8849,8719,8858,8646,52.3,51.7,52.0,52.2,2.623,2.963,3.071,2.872,6.32,210.6,27.1,52.7,1006.37,-28.0,0.16,1.21,20.1,36.4,30.5,0,no_anomaly,0.0,0,0,0,0,23.0225079,72.5714201,9.0,0.0
2024-03-20T11:38:04.800Z,MISSION_0037,48,0,transit,SITE_AMD_008,23.022512,72.5714269,9.5,314.21,2.198,0.249,3.28,-2.4222,-1.5158,314.2142,-0.92084,0.02461,0.00396,0.38915,-0.0751,0.0414,-9.9005,0.4798,0.5078,-0.4802,0.1565,3,11,0.72,0.76,0.34,24.631,14.84,92.1,35.8,20254.0,8552,8636,8824,8691,52.6,53.2,53.1,53.9,2.751,2.84,2.918,2.957,5.77,212.0,27.5,52.6,1006.39,-30.72,-1.61,1.96,22.3,34.9,30.0,0,no_anomaly,0.0,0,0,0,0,23.022512,72.5714269,9.5,0.0
2024-03-20T11:38:04.900Z,MISSION_0037,49,0,transit,SITE_AMD_008,23.0225113,72.5714234,10.0,311.7,2.606,0.109,2.89,3.5198,-4.209,311.6974,-0.91188,-0.01299,0.04605,0.40765,-0.011,-0.0171,-9.8391,-1.0125,-0.01,0.0791,0.1809,3,12,0.7,0.9,0.3,24.55,17.67,92.0,35.6,20234.0,8879,8693,8872,8783,53.9,51.0,51.2,50.9,2.616,2.729,2.775,3.029,6.94,210.5,27.4,52.8,1006.31,-29.14,-1.49,1.6,22.3,41.6,27.9,0,no_anomaly,0.0,0,0,0,0,23.0225113,72.5714234,10.0,0.0
2024-03-20T11:38:05.000Z,MISSION_0037,50,0,transit,SITE_AMD_008,23.0225088,72.5714215,10.5,311.95,1.978,0.104,2.59,1.3541,-4.0264,311.9516,-0.91292,0.00352,0.03689,0.40646,-0.0095,0.0541,-9.795,-0.131,-1.325,-0.2544,0.2644,3,20,0.67,0.85,0.37,24.657,15.2,91.9,34.9,20215.0,8890,8567,8840,8714,50.4,52.8,53.7,55.7,2.794,2.995,2.659,2.931,5.5,215.4,27.3,52.9,1006.5,-34.41,1.37,1.24,19.2,33.7,28.1,0,no_anomaly,0.0,0,0,0,0,23.0225088,72.5714215,10.5,0.0
2024-03-20T11:38:05.100Z,MISSION_0037,51,0,transit,SITE_AMD_008,23.0225142,72.5714203,11.0,311.69,2.477,0.083,2.76,-5.5896,-0.7979,311.6878,-0.91119,0.04733,-0.01361,0.40904,-0.2902,0.0115,-9.8257,-0.4496,-0.3539,0.2519,0.2664,3,14,0.53,0.81,0.2,24.637,20.1,91.8,36.2,20195.0,8730,8959,8894,8685,53.7,54.0,51.6,49.7,2.783,2.681,2.891,2.602,5.92,211.9,27.8,53.4,1005.97,-33.77,-1.6,1.6,24.6,37.0,29.6,0,no_anomaly,0.0,0,0,0,0,23.0225142,72.5714203,11.0,0.0
2024-03-20T11:38:05.200Z,MISSION_0037,52,0,transit,SITE_AMD_008,23.022512,72.5714273,11.5,309.06,1.987,0.16,3.32,-5.3313,-1.6325,309.0564,-0.90144,0.0481,-0.00715,0.43016,0.2556,0.0086,-9.8003,0.2679,-0.0831,-0.3457,0.2907,3,12,0.57,0.78,0.36,24.548,17.48,91.7,36.8,20176.0,8806,9047,8874,8642,52.5,50.4,50.1,51.1,2.736,2.69,3.07,2.6,5.99,216.2,27.1,53.0,1006.34,-34.37,-0.07,1.0,25.0,34.4,28.5,0,no_anomaly,0.0,0,0,0,0,23.022512,72.5714273,11.5,0.0
2024-03-20T11:38:05.300Z,MISSION_0037,53,0,transit,SITE_AMD_008,23.0225125,72.5714307,12.0,309.16,2.086,0.171,3.68,1.2827,-1.514,309.1564,-0.9031,-0.00444,0.01674,0.42908,-0.0993,-0.0067,-9.7937,0.0081,0.5961,0.2654,0.1185,3,13,0.55,1.14,0.26,24.591,11.82,91.6,35.7,20157.0,8878,8891,8770,9007,52.8,54.5,50.8,50.3,2.987,2.859,2.559,2.608,5.59,206.7,27.9,52.7,1006.02,-32.36,0.36,1.6,23.5,35.9,31.2,0,no_anomaly,0.0,0,0,0,0,23.0225125,72.5714307,12.0,0.0
2024-03-20T11:38:05.400Z,MISSION_0037,54,0,transit,SITE_AMD_008,23.022513,72.5714318,12.5,306.41,2.306,0.184,3.83,-1.0256,-0.6153,306.4076,-0.89255,0.01041,0.00076,0.45084,-0.2754,0.0373,-9.7837,-0.1038,-0.6275,-0.3998,0.2957,3,12,0.57,0.85,0.2,24.582,16.81,91.5,36.2,20137.0,9106,8849,9007,8861,52.6,53.1,52.6,52.4,3.124,2.99,2.6,2.67,7.07,205.8,27.6,52.8,1006.25,-32.16,0.84,1.92,25.4,37.6,30.7,0,no_anomaly,0.0,0,0,0,0,23.022513,72.5714318,12.5,0.0
2024-03-20T11:38:05.500Z,MISSION_0037,55,0,transit,SITE_AMD_008,23.0225099,72.5714362,13.0,309.38,2.59,0.131,4.18,5.303,-3.7235,309.378,-0.9032,-0.02792,0.04911,0.42549,0.0424,0.0319,-9.7796,-0.8678,0.0845,-0.3761,0.2522,3,16,0.61,0.87,0.26,24.645,18.35,91.4,35.6,20118.0,8740,8955,8869,8658,51.7,50.3,52.8,50.8,2.682,2.885,2.865,2.66,6.51,217.4,27.8,52.1,1006.74,-31.96,1.48,1.28,22.6,40.9,31.1,0,no_anomaly,0.0,0,0,0,0,23.0225099,72.5714362,13.0,0.0
2024-03-20T11:38:05.600Z,MISSION_0037,56,0,transit,SITE_AMD_008,23.02251,72.5714374,13.5,309.82,2.817,0.055,4.31,-0.9864,-1.6815,309.8195,-0.90546,0.01402,0.00964,0.4241,0.0913,-0.0503,-9.7644,-0.7838,0.2617,-0.1454,0.2028,3,13,0.62,0.85,0.25,24.643,11.96,91.4,35.6,20099.0,8784,8792,8982,8714,55.2,55.6,53.6,55.1,2.946,3.029,2.988,2.731,6.42,213.5,27.5,52.2,1006.45,-28.44,0.91,1.45,22.6,42.0,29.8,0,no_anomaly,0.0,0,0,0,0,23.02251,72.5714374,13.5,0.0
2024-03-20T11:38:05.700Z,MISSION_0037,57,0,transit,SITE_AMD_008,23.022503,72.5714347,14.0,308.14,2.947,0.107,3.87,0.3911,-4.4828,308.1441,-0.89871,0.01403,0.03666,0.43678,0.089,0.004,-9.8141,0.1444,-0.1248,-0.3616,0.2884,3,15,0.72,0.93,0.27,24.6,15.39,91.3,35.9,20079.0,8640,8949,8978,8877,51.8,56.3,52.8,51.9,3.054,3.062,2.589,2.935,6.02,212.8,27.2,53.6,1006.04,-36.22,-0.13,1.38,21.1,36.0,30.6,0,no_anomaly,0.0,0,0,0,0,23.022503,72.5714347,14.0,0.0
2024-03-20T11:38:05.800Z,MISSION_0037,58,0,transit,SITE_AMD_008,23.0225033,72.5714394,14.5,313.14,3.085,0.038,4.4,4.7451,-1.8492,313.1392,-0.9169,-0.03157,0.03125,0.39663,-0.1212,0.0591,-9.9179,-0.3531,1.2661,-0.0367,0.1868,3,13,0.8,0.83,0.2,24.672,23.31,91.2,37.0,20060.0,9056,8655,8934,8788,53.3,54.7,53.7,51.5,2.955,2.867,2.594,2.737,5.68,214.1,27.7,52.9,1006.01,-25.62,-0.73,1.72,23.7,33.7,30.4,0,no_anomaly,0.0,0,0,0,0,23.0225033,72.5714394,14.5,0.0
2024-03-20T11:38:05.900Z,MISSION_0037,59,0,transit,SITE_AMD_008,23.0225017,72.5714366,15.0,313.7,3.01,0.077,4.08,-4.2133,-1.4276,313.7036,-0.91862,0.03869,-0.003,0.39324,-0.0373,0.0588,-9.7581,-0.2858,0.115,-0.8903,0.2711,3,17,0.78,0.89,0.31,24.597,18.88,91.1,35.6,20041.0,8688,8815,8850,8848,51.8,49.1,50.7,54.0,2.87,2.85,2.732,2.633,6.2,209.5,27.7,53.2,1006.12,-24.49,-0.04,1.78,23.4,38.9,30.1,0,no_anomaly,0.0,0,0,0,0,23.0225017,72.5714366,15.0,0.0
2024-03-20T11:38:06.000Z,MISSION_0037,60,0,transit,SITE_AMD_008,23.0225038,72.5714389,15.5,313.14,3.059,0.167,4.35,-0.761,-0.5263,313.141,-0.91751,0.00792,0.00157,0.39764,-0.0286,0.032,-9.8737,1.2635,-0.3255,0.0838,0.2888,3,10,0.57,1.12,0.32,24.572,20.07,91.0,35.8,20021.0,8859,8904,8802,8756,51.5,53.7,52.7,53.3,2.835,2.715,3.066,2.979,6.79,208.4,27.5,52.4,1006.34,-31.79,-1.61,1.61,23.5,37.5,30.1,0,no_anomaly,0.0,0,0,0,0,23.0225038,72.5714389,15.5,0.0
2024-03-20T11:38:06.100Z,MISSION_0037,61,0,transit,SITE_AMD_008,23.022505,72.5714334,16.0,314.28,3.212,0.15,3.76,-3.4324,-2.905,314.2757,-0.92044,0.03743,0.01171,0.38892,0.0687,0.0022,-9.7765,1.6021,-0.0991,-0.0548,0.2253,3,19,0.7,1.05,0.28,24.527,21.29,90.9,35.3,20002.0,8780,8827,8716,8993,53.2,54.1,50.5,54.8,2.741,2.603,2.921,2.709,6.1,215.3,28.0,52.2,1006.7,-35.04,0.08,1.86,21.1,37.7,32.9,0,no_anomaly,0.0,0,0,0,0,23.022505,72.5714334,16.0,0.0
2024-03-20T11:38:06.200Z,MISSION_0037,62,0,transit,SITE_AMD_008,23.02251,72.5714365,16.5,315.26,3.457,0.025,4.21,2.6302,-3.2002,315.2629,-0.92439,-0.01059,0.03455,0.37972,-0.0656,0.0029,-9.8182,-0.045,0.1351,0.2621,0.2889,3,10,0.77,0.94,0.39,24.686,23.66,90.8,36.0,19983.0,8946,8890,8726,8869,53.3,53.9,50.6,54.0,2.891,2.785,2.799,2.672,6.23,211.4,27.7,53.0,1006.33,-30.12,-0.7,1.8,22.6,38.4,29.4,0,no_anomaly,0.0,0,0,0,0,23.02251,72.5714365,16.5,0.0
2024-03-20T11:38:06.300Z,MISSION_0037,63,0,transit,SITE_AMD_008,23.0225094,72.5714354,17.0,314.72,3.73,0.068,4.08,-4.0539,-3.4271,314.7218,-0.92155,0.04413,0.01397,0.38549,-0.2088,0.049,-9.8489,-0.1548,0.2868,0.0476,0.2558,3,17,0.62,0.6,0.25,24.594,13.94,90.7,35.2,19963.0,8884,8846,8976,9186,49.1,52.4,50.7,50.2,2.876,2.892,2.658,3.009,6.3,216.5,27.4,52.1,1006.64,-31.75,1.34,1.8,23.7,40.5,28.3,0,no_anomaly,0.0,0,0,0,0,23.0225094,72.5714354,17.0,0.0
2024-03-20T11:38:06.400Z,MISSION_0037,64,0,transit,SITE_AMD_008,23.0225084,72.5714391,17.5,313.64,3.762,0.175,4.45,-2.1382,-2.8306,313.6441,-0.91867,0.02687,0.01536,0.39382,-0.2922,0.0079,-9.8613,-0.0918,-0.3229,-0.6146,0.2412,3,12,0.52,1.1,0.2,24.564,20.68,90.7,35.8,19944.0,9101,8825,8934,8603,48.8,53.4,50.1,53.0,2.851,3.19,2.745,2.926,5.67,211.8,27.6,52.1,1006.68,-31.15,0.27,1.79,26.5,39.6,32.6,0,no_anomaly,0.0,0,0,0,0,23.0225084,72.5714391,17.5,0.0
2024-03-20T11:38:06.500Z,MISSION_0037,65,0,transit,SITE_AMD_008,23.0225093,72.5714335,18.0,311.72,3.898,0.145,3.87,-5.2864,0.4877,311.7176,-0.91164,0.04034,-0.02274,0.40837,0.1667,0.0072,-9.8382,-0.3021,-0.8131,0.4104,0.23,3,16,0.66,0.87,0.44,24.56,18.88,90.6,36.5,19925.0,9004,8559,8651,8858,50.6,53.9,53.8,55.3,2.83,2.866,2.66,3.01,7.08,214.0,27.8,53.3,1006.37,-27.03,0.92,1.35,20.8,33.5,28.1,0,no_anomaly,0.0,0,0,0,0,23.0225093,72.5714335,18.0,0.0
2024-03-20T11:38:06.600Z,MISSION_0037,66,0,transit,SITE_AMD_008,23.0225106,72.5714328,18.0,312.95,3.261,0.119,3.84,0.474,-2.8812,312.9475,-0.91662,0.00624,0.0247,0.39894,-0.0457,-0.0901,-9.8924,-0.5386,0.5656,0.0932,0.1639,3,17,0.66,1.07,0.35,24.557,15.63,90.5,36.2,19905.0,8972,8637,8658,8737,52.6,57.9,53.2,53.4,2.92,2.828,2.867,2.757,6.79,215.0,27.6,51.7,1006.43,-30.85,0.26,1.68,21.6,33.6,27.4,0,no_anomaly,0.0,0,0,0,0,23.0225106,72.5714328,18.0,0.0
2024-03-20T11:38:06.700Z,MISSION_0037,67,0,transit,SITE_AMD_008,23.0225114,72.5714362,18.0,313.45,2.907,0.139,4.22,4.819,-4.0392,313.4466,-0.91781,-0.02468,0.04895,0.39322,-0.0384,0.0866,-9.8575,0.4454,-0.7911,-0.0838,0.1501,3,12,0.79,1.06,0.37,24.535,20.07,90.4,35.4,19886.0,8897,8864,9000,9110,53.2,51.6,53.6,52.6,2.489,2.64,2.893,2.439,7.18,210.5,28.0,51.9,1006.28,-28.41,-0.92,1.56,23.7,40.9,30.0,0,no_anomaly,0.0,0,0,0,0,23.0225114,72.5714362,18.0,0.0
2024-03-20T11:38:06.800Z,MISSION_0037,68,0,transit,SITE_AMD_008,23.0225074,72.5714336,18.0,309.7,2.867,0.097,3.83,-3.0959,-2.2539,309.6977,-0.90446,0.0328,0.00632,0.42525,-0.2161,-0.0461,-9.7795,0.5263,0.1518,0.1674,0.2715,3,11,0.83,0.89,0.44,24.531,15.94,90.3,35.3,19866.0,8868,8897,8874,8824,53.5,52.3,53.8,53.3,2.538,2.742,2.732,2.898,6.82,219.6,27.4,52.6,1006.5,-29.97,0.55,1.66,21.9,36.6,32.7,0,no_anomaly,0.0,0,0,0,0,23.0225074,72.5714336,18.0,0.0
2024-03-20T11:38:06.900Z,MISSION_0037,69,0,transit,SITE_AMD_008,23.0224986,72.5714273,18.0,307.81,2.486,0.11,3.05,1.4403,-5.6159,307.8128,-0.8972,0.01027,0.04951,0.43872,0.3101,0.0476,-9.7771,1.1778,0.6931,0.1527,0.2691,3,11,0.73,0.84,0.28,24.625,15.29,90.2,35.8,19847.0,9040,8915,8646,8843,52.3,52.5,54.9,51.4,2.879,2.774,2.837,2.88,6.51,213.1,27.3,52.2,1006.62,-28.23,-1.29,1.81,23.1,32.8,29.7,0,no_anomaly,0.0,0,0,0,0,23.0224986,72.5714273,18.0,0.0
2024-03-20T11:38:07.000Z,MISSION_0037,70,0,transit,SITE_AMD_008,23.022494,72.5714319,18.0,308.75,2.248,0.166,3.61,-6.6545,-0.7437,308.7545,-0.89996,0.05513,-0.01926,0.43205,0.1499,0.067,-9.6875,-0.3527,-0.7498,-0.2612,0.1895,3,13,0.68,0.72,0.3,24.514,16.64,90.1,36.3,19828.0,9150,8785,8782,9056,55.6,52.4,52.5,51.9,2.587,2.801,2.968,2.741,6.84,217.3,27.4,52.8,1006.41,-25.24,0.53,1.3,26.0,37.0,31.5,0,no_anomaly,0.0,0,0,0,0,23.022494,72.5714319,18.0,0.0
2024-03-20T11:38:07.100Z,MISSION_0037,71,0,transit,SITE_AMD_008,23.0224881,72.5714319,18.0,308.52,1.81,0.159,3.79,-1.4446,-2.5492,308.5198,-0.90036,0.02101,0.01456,0.4344,-0.0722,-0.0193,-9.8564,-0.3669,0.3959,0.0936,0.2777,3,12,0.86,1.06,0.27,24.49,16.62,90.0,35.8,19808.0,8847,8879,8841,8842,53.8,50.3,53.2,52.2,2.858,2.769,2.952,2.808,5.98,217.1,27.4,52.6,1006.37,-31.98,0.15,1.14,20.5,39.3,32.0,0,no_anomaly,0.0,0,0,0,0,23.0224881,72.5714319,18.0,0.0
2024-03-20T11:38:07.200Z,MISSION_0037,72,0,transit,SITE_AMD_008,23.0224906,72.5714281,18.0,307.28,1.771,0.143,3.3,1.0011,-4.361,307.2759,-0.89547,0.00907,0.03797,0.44341,0.1055,-0.0147,-9.7806,-0.5034,-0.5692,0.3696,0.2062,3,15,0.73,0.98,0.21,24.435,22.4,90.0,34.9,19789.0,9094,8768,8841,8673,52.2,54.1,52.1,55.0,2.556,2.758,2.763,3.142,5.93,203.1,28.0,52.7,1006.16,-30.63,0.58,1.11,25.3,33.2,30.5,0,no_anomaly,0.0,0,0,0,0,23.0224906,72.5714281,18.0,0.0
2024-03-20T11:38:07.300Z,MISSION_0037,73,0,transit,SITE_AMD_008,23.0224885,72.5714348,18.0,306.93,2.363,0.06,4.08,0.2869,-2.6776,306.9301,-0.89444,0.0082,0.02202,0.44657,-0.2103,0.0136,-9.7974,0.1829,-0.6953,0.1844,0.2484,3,13,0.83,0.86,0.36,24.546,19.96,89.9,35.2,19770.0,8515,8720,8517,8647,51.1,53.4,55.7,48.8,3.019,2.939,2.76,2.808,5.4,208.1,27.7,52.6,1006.25,-34.17,0.4,1.78,19.5,39.9,30.2,0,no_anomaly,0.0,0,0,0,0,23.0224885,72.5714348,18.0,0.0
2024-03-20T11:38:07.400Z,MISSION_0037,74,0,transit,SITE_AMD_008,23.0224878,72.5714326,18.0,309.03,2.482,0.047,3.88,1.121,1.2169,309.0307,-0.90256,-0.0134,-0.00538,0.43032,0.0025,-0.046,-9.7894,-1.4609,-0.5181,-0.2006,0.1373,3,17,0.74,1.12,0.23,24.517,22.3,89.8,36.2,19750.0,8691,8564,8834,8719,50.4,50.7,50.3,54.5,2.881,3.014,2.729,2.992,5.3,213.3,27.8,53.0,1006.49,-25.62,-0.37,1.02,26.9,35.3,30.0,0,no_anomaly,0.0,0,0,0,0,23.0224878,72.5714326,18.0,0.0
2024-03-20T11:38:07.500Z,MISSION_0037,75,0,transit,SITE_AMD_008,23.0224882,72.5714294,18.0,307.97,2.94,0.064,3.53,-0.2566,0.4985,307.9663,-0.89866,0.0001,-0.00489,0.43862,0.1286,-0.0201,-9.866,0.5834,0.0155,0.1212,0.214,3,10,0.65,0.91,0.4,24.452,22.22,89.7,35.9,19731.0,8992,8410,8674,8730,54.8,48.0,54.4,53.6,2.804,2.927,2.897,2.921,6.29,208.3,27.3,53.5,1006.26,-28.02,-0.6,1.48,21.6,35.2,29.7,0,no_anomaly,0.0,0,0,0,0,23.0224882,72.5714294,18.0,0.0
2024-03-20T11:38:07.600Z,MISSION_0037,76,0,transit,SITE_AMD_008,23.0224896,72.5714283,18.0,307.48,2.499,0.058,3.36,1.5632,-2.0823,307.4819,-0.89668,-0.00419,0.02233,0.44209,0.1184,-0.0261,-9.8396,-0.6073,-0.1017,-0.3991,0.2177,3,15,0.91,0.92,0.33,24.541,16.2,89.6,34.7,19712.0,8817,8782,8916,8805,54.5,53.5,50.6,51.3,2.635,3.111,2.939,2.7,6.46,210.5,27.7,52.1,1006.44,-34.82,-1.15,1.67,21.7,43.8,31.3,0,no_anomaly,0.0,0,0,0,0,23.0224896,72.5714283,18.0,0.0
2024-03-20T11:38:07.700Z,MISSION_0037,77,0,transit,SITE_AMD_008,23.0224932,72.5714316,18.0,306.33,2.503,0.084,3.6,3.4481,0.2859,306.325,-0.89185,-0.02797,0.01136,0.45132,-0.0637,0.1009,-9.7986,-0.6113,-0.4747,-0.02,0.1771,3,16,0.59,0.83,0.2,24.57,19.21,89.5,35.4,19692.0,8908,9159,9045,8686,54.5,53.5,50.8,53.0,2.772,2.773,2.687,2.54,5.65,208.0,27.7,52.8,1006.25,-30.52,0.55,1.88,23.7,37.1,32.2,0,no_anomaly,0.0,0,0,0,0,23.0224932,72.5714316,18.0,0.0
2024-03-20T11:38:07.800Z,MISSION_0037,78,0,transit,SITE_AMD_008,23.0224961,72.5714349,18.0,305.89,2.535,0.023,3.9,6.7929,-1.0902,305.8901,-0.88922,-0.04844,0.0354,0.45352,-0.1025,-0.0788,-9.7455,-0.2134,0.1687,-0.4881,0.1628,3,15,0.79,0.89,0.45,24.505,18.4,89.4,35.8,19673.0,8899,8805,9114,8669,51.8,53.3,55.4,51.6,2.665,2.83,2.724,2.862,6.04,215.9,27.4,52.5,1006.02,-28.74,-2.18,1.31,20.0,36.3,28.2,0,no_anomaly,0.0,0,0,0,0,23.0224961,72.5714349,18.0,0.0
2024-03-20T11:38:07.900Z,MISSION_0037,79,1,transit,SITE_AMD_008,23.0224943,72.571439,18.0,303.84,2.667,0.057,4.39,-2.3914,-3.2775,303.8352,-0.88144,0.03186,0.01541,0.47097,-0.0611,0.0534,-9.7877,0.5671,0.4751,0.0571,0.2977,3,12,0.7,0.87,0.35,24.638,17.62,89.3,36.2,19654.0,8870,8975,8707,8728,50.6,52.0,53.5,53.3,2.652,2.676,2.496,2.792,5.89,219.0,27.5,52.4,1006.15,-29.97,-0.35,1.63,21.8,34.2,29.2,0,no_anomaly,0.0,0,0,0,0,23.0224943,72.571439,18.0,0.0
2024-03-20T11:38:08.000Z,MISSION_0037,80,1,transit,SITE_AMD_008,23.022497,72.5714377,18.0,305.64,3.004,0.12,4.21,3.1193,0.2963,305.6365,-0.8892,-0.02539,0.01013,0.45671,0.0833,-0.1176,-9.7708,0.0537,-0.6269,-0.1917,0.2096,3,10,0.58,1.16,0.25,24.427,20.92,89.2,35.8,19634.0,8853,8819,8889,8656,51.8,53.5,50.5,55.9,2.753,2.814,2.769,2.553,4.82,210.0,27.2,52.3,1005.9,-26.85,1.02,1.0,22.3,33.1,28.2,0,no_anomaly,0.0,0,0,0,0,23.022497,72.5714377,18.0,0.0
2024-03-20T11:38:08.100Z,MISSION_0037,81,1,transit,SITE_AMD_008,23.0224994,72.5714349,18.0,305.06,2.732,0.099,3.89,1.4313,-3.357,305.0557,-0.88695,0.00243,0.03175,0.46076,-0.0127,0.0602,-9.7107,0.0854,0.4918,-0.391,0.2018,3,14,0.76,1.0,0.29,24.465,21.81,89.2,35.9,19615.0,8469,8939,8934,8779,53.4,52.9,52.8,53.4,2.877,2.691,3.094,2.88,6.64,212.1,27.6,51.7,1006.64,-32.53,-0.2,1.22,23.4,34.4,27.2,0,no_anomaly,0.0,0,0,0,0,23.0224994,72.5714349,18.0,0.0
2024-03-20T11:38:08.200Z,MISSION_0037,82,1,transit,SITE_AMD_008,23.0224945,72.5714326,18.0,303.34,2.583,0.149,3.68,3.4966,-1.1652,303.335,-0.8799,-0.02203,0.02342,0.47407,-0.1684,-0.0075,-9.7849,-0.1245,0.1794,-0.2626,0.1827,3,18,0.88,1.23,0.49,24.392,18.26,89.1,35.7,19596.0,8823,8850,8976,8821,60.2,52.4,52.1,53.8,2.707,2.782,2.777,2.675,6.41,212.5,27.5,53.2,1006.46,-29.27,-0.17,1.71,23.8,33.7,29.3,0,no_anomaly,0.0,0,0,0,0,23.0224945,72.5714326,18.0,0.0
2024-03-20T11:38:08.300Z,MISSION_0037,83,1,transit,SITE_AMD_008,23.022496,72.57143,18.0,302.46,2.701,0.112,3.37,-0.8773,-2.2718,302.461,-0.87629,0.01625,0.01369,0.48131,-0.2931,0.0173,-9.8015,-0.5148,-0.5726,-0.0651,0.2072,3,16,0.61,0.88,0.24,24.492,18.92,89.0,35.7,19576.0,8953,8757,8888,8648,56.6,56.5,52.9,53.0,2.685,2.993,2.896,2.841,7.07,209.5,27.1,52.9,1006.25,-27.18,-0.83,1.4,22.9,39.6,32.1,0,no_anomaly,0.0,0,0,0,0,23.022496,72.57143,18.0,0.0
2024-03-20T11:38:08.400Z,MISSION_0037,84,1,transit,SITE_AMD_008,23.0224992,72.571431,18.0,301.8,2.642,0.033,3.45,2.8655,0.9127,301.8001,-0.87337,-0.02572,0.0052,0.48634,-0.0181,0.0558,-9.829,-0.7973,-0.0978,-0.0648,0.2001,3,12,0.63,1.0,0.33,24.515,21.39,88.9,35.6,19557.0,8834,8746,9225,8729,50.1,50.3,49.8,52.7,3.029,2.852,2.932,2.528,5.19,212.8,27.5,52.7,1006.44,-23.89,0.63,1.83,22.0,37.3,27.3,0,no_anomaly,0.0,0,0,0,0,23.0224992,72.571431,18.0,0.0
2024-03-20T11:38:08.500Z,MISSION_0037,85,1,transit,SITE_AMD_008,23.0225006,72.5714344,18.0,301.34,2.94,0.113,3.83,6.6496,-2.7308,301.3418,-0.87078,-0.0389,0.04914,0.48766,0.3165,-0.0628,-9.8827,0.4185,-0.7974,0.3233,0.2246,3,13,0.91,0.96,0.22,24.525,18.33,88.8,36.2,19537.0,8889,8554,8806,8745,53.4,55.1,51.7,52.6,2.73,2.846,2.84,2.902,5.63,216.4,27.5,53.2,1006.58,-30.39,0.13,1.19,22.8,33.3,28.1,0,no_anomaly,0.0,0,0,0,0,23.0225006,72.5714344,18.0,0.0
2024-03-20T11:38:08.600Z,MISSION_0037,86,1,transit,SITE_AMD_008,23.0225024,72.5714369,18.0,300.54,2.606,0.068,4.12,-5.4224,-5.1264,300.5445,-0.8655,0.06319,0.01536,0.49667,-0.0831,0.0336,-9.8548,0.1859,-0.5992,-0.061,0.1996,3,19,0.68,0.83,0.25,24.58,15.37,88.7,35.3,19518.0,8850,9031,8744,8928,49.1,52.0,50.6,53.8,2.892,2.794,3.093,2.703,6.14,205.7,27.4,52.9,1006.19,-29.56,-1.06,1.95,23.3,33.0,30.0,0,no_anomaly,0.0,0,0,0,0,23.0225024,72.5714369,18.0,0.0
2024-03-20T11:38:08.700Z,MISSION_0037,87,1,transit,SITE_AMD_008,23.0224969,72.5714369,18.0,300.4,2.345,0.101,4.13,3.5246,-5.4724,300.3984,-0.86709,-0.00294,0.05667,0.49491,-0.0228,0.0166,-9.7195,-0.2125,-0.8056,-0.115,0.2733,3,17,0.64,1.06,0.26,24.533,22.03,88.6,35.3,19499.0,8812,8863,9009,8760,51.0,52.5,53.2,51.5,3.022,2.592,2.943,2.666,6.4,202.9,27.6,52.9,1006.54,-32.22,-1.68,1.65,26.2,41.8,32.6,0,no_anomaly,0.0,0,0,0,0,23.0224969,72.5714369,18.0,0.0
2024-03-20T11:38:08.800Z,MISSION_0037,88,1,transit,SITE_AMD_008,23.0224988,72.571436,18.0,303.29,2.676,0.088,4.01,-1.0431,-1.6174,303.289,-0.87983,0.01471,0.0081,0.47499,0.0544,0.0092,-9.9153,0.021,-0.3221,0.2384,0.2104,3,19,0.66,0.74,0.38,24.552,20.8,88.5,35.3,19479.0,8646,8747,8868,8810,53.7,52.9,55.3,51.2,2.954,2.605,2.583,2.484,6.06,215.7,27.7,52.6,1006.72,-28.8,-1.07,1.89,25.0,32.3,27.3,0,no_anomaly,0.0,0,0,0,0,23.0224988,72.571436,18.0,0.0
2024-03-20T11:38:08.900Z,MISSION_0037,89,1,transit,SITE_AMD_008,23.022497,72.5714381,18.0,301.76,2.771,0.077,4.26,1.1659,-2.2935,301.7612,-0.87349,0.00085,0.02243,0.48633,-0.3007,-0.0182,-9.7649,-0.9075,-0.0769,0.1112,0.2557,3,14,0.77,1.04,0.34,24.575,23.12,88.5,36.4,19460.0,8891,8985,8737,8772,55.5,50.0,50.0,52.7,2.796,2.817,2.919,2.951,6.05,211.2,27.3,52.5,1006.35,-32.95,-0.87,1.75,25.1,38.2,29.6,0,no_anomaly,0.0,0,0,0,0,23.022497,72.5714381,18.0,0.0
2024-03-20T11:38:09.000Z,MISSION_0037,90,1,transit,SITE_AMD_008,23.0224906,72.5714358,18.0,305.14,2.735,0.163,4.12,3.9869,-0.7044,305.1398,-0.88712,-0.02804,0.02148,0.46019,0.354,0.0398,-9.8856,0.0399,0.1631,-0.3068,0.2712,3,10,0.91,0.95,0.31,24.42,20.1,88.4,36.0,19441.0,8834,8611,8842,8951,55.7,48.7,52.4,53.3,2.934,2.804,2.951,2.775,6.49,209.0,27.4,51.8,1006.76,-28.41,-0.58,1.74,23.1,42.6,29.7,0,no_anomaly,0.0,0,0,0,0,23.0224906,72.5714358,18.0,0.0
2024-03-20T11:38:09.100Z,MISSION_0037,91,1,transit,SITE_AMD_008,23.0224943,72.5714376,18.0,304.74,3.221,0.135,4.23,9.1798,-2.0301,304.7438,-0.88365,-0.0627,0.05275,0.46092,-0.0638,0.0092,-9.7856,-0.4958,-0.0984,-0.279,0.2935,3,15,0.74,0.6,0.31,24.55,22.24,88.3,36.4,19421.0,8806,8799,8583,8740,52.3,55.1,49.8,53.1,2.85,2.995,2.779,2.803,5.46,222.0,27.7,52.8,1006.39,-30.22,0.09,1.57,20.9,40.7,33.0,0,no_anomaly,0.0,0,0,0,0,23.0224943,72.5714376,18.0,0.0
2024-03-20T11:38:09.200Z,MISSION_0037,92,1,transit,SITE_AMD_008,23.0224952,72.5714383,18.0,304.26,2.8,0.024,4.3,1.1681,-0.5705,304.2612,-0.88398,-0.00668,0.00917,0.46738,0.1717,0.0854,-9.8461,0.0542,0.6956,0.3518,0.2493,3,14,0.52,0.83,0.2,24.502,21.3,88.2,36.0,19402.0,9038,8815,8612,8668,51.7,53.9,51.3,52.0,2.529,2.957,2.738,2.915,6.56,211.1,27.8,52.9,1006.73,-31.55,-0.15,1.42,24.6,41.9,31.0,0,no_anomaly,0.0,0,0,0,0,23.0224952,72.5714383,18.0,0.0
2024-03-20T11:38:09.300Z,MISSION_0037,93,1,transit,SITE_AMD_008,23.0224898,72.5714381,18.0,303.33,2.996,0.118,4.39,-6.9453,-2.4163,303.3324,-0.87778,0.06329,-0.01022,0.47476,0.2254,-0.0116,-9.8158,-0.0253,-0.6968,-0.2042,0.3217,3,15,0.57,1.02,0.2,24.533,20.0,88.1,35.1,19383.0,8517,8792,8864,9018,52.3,55.1,54.6,56.6,2.998,2.694,2.663,2.744,6.61,208.0,27.8,52.0,1006.31,-29.33,-1.64,1.75,22.1,39.4,33.5,0,no_anomaly,0.0,0,0,0,0,23.0224898,72.5714381,18.0,0.0
2024-03-20T11:38:09.400Z,MISSION_0037,94,1,transit,SITE_AMD_008,23.0224919,72.571439,18.0,303.96,2.863,0.027,4.44,0.4,-1.6384,303.96,-0.88271,0.00364,0.01426,0.46969,-0.126,-0.0979,-9.8595,0.3529,-0.0226,0.1554,0.2067,3,13,0.68,0.74,0.35,24.451,18.96,88.0,35.4,19363.0,8858,9152,9057,8911,51.3,54.8,53.1,55.9,2.816,2.553,2.917,3.111,6.57,210.7,27.4,52.7,1005.98,-29.55,-0.48,1.3,23.1,36.3,30.7,0,no_anomaly,0.0,0,0,0,0,23.0224919,72.571439,18.0,0.0
2024-03-20T11:38:09.500Z,MISSION_0037,95,1,orbit_base,SITE_AMD_008,23.0224234,72.571423,18.3,305.3,3.439,0.016,8.91,6.021,-2.0116,305.2995,-0.88728,-0.03859,0.0397,0.45791,0.1091,0.0158,-9.7583,-0.4476,0.4145,-0.0222,0.2068,3,12,0.71,0.68,0.36,24.535,17.44,87.9,35.9,19344.0,9054,8938,9267,8802,53.8,52.7,55.2,51.9,2.858,2.878,2.946,2.769,6.55,215.1,27.3,53.4,1006.4,-27.0,-0.3,1.0,21.5,32.1,28.6,0,no_anomaly,0.0,0,0,0,0,23.0224234,72.571423,18.3,0.0
2024-03-20T11:38:09.600Z,MISSION_0037,96,1,orbit_base,SITE_AMD_008,23.0224227,72.5714207,18.6,305.15,4.052,0.225,8.91,0.4266,-3.7126,305.149,-0.88719,0.01162,0.03047,0.46024,-0.1339,-0.0525,-9.8234,-0.0631,0.1865,-0.0915,0.2541,3,11,0.69,1.01,0.39,24.454,19.59,87.8,35.5,19325.0,8807,8793,8765,8748,50.4,48.5,52.0,55.5,2.921,2.819,2.9,3.191,5.59,210.0,27.8,52.0,1006.39,-28.72,0.23,1.0,21.8,40.3,27.4,0,no_anomaly,0.0,0,0,0,0,23.0224227,72.5714207,18.6,0.0
2024-03-20T11:38:09.700Z,MISSION_0037,97,1,orbit_base,SITE_AMD_008,23.0224221,72.5714184,18.9,304.63,3.923,0.078,8.91,-7.4034,-2.9013,304.6277,-0.88262,0.06889,-0.00762,0.46496,-0.031,-0.0796,-9.8583,0.024,-0.2194,-0.2609,0.154,3,13,0.69,0.64,0.2,24.415,23.38,87.8,36.2,19305.0,8886,8962,8506,9053,53.4,48.9,51.4,53.2,2.897,2.799,2.901,2.73,6.89,214.8,27.6,52.4,1005.89,-33.39,-1.65,2.34,20.8,37.6,32.4,0,no_anomaly,0.0,0,0,0,0,23.0224221,72.5714184,18.9,0.0
2024-03-20T11:38:09.800Z,MISSION_0037,98,1,orbit_base,SITE_AMD_008,23.0224216,72.571416,19.2,306.74,4.155,0.054,8.91,3.5365,-0.2813,306.7421,-0.89353,-0.02648,0.01602,0.44793,0.2558,-0.1183,-9.8266,0.4718,-0.2619,0.1998,0.1786,3,18,0.79,0.94,0.29,24.673,21.18,87.7,35.4,19286.0,8914,8814,8968,8776,54.6,54.5,50.7,52.0,2.957,2.76,2.793,2.644,5.95,208.1,27.3,52.9,1006.59,-26.17,1.15,1.88,23.0,33.4,28.5,0,no_anomaly,0.0,0,0,0,0,23.0224216,72.571416,19.2,0.0
2024-03-20T11:38:09.900Z,MISSION_0037,99,1,orbit_base,SITE_AMD_008,23.0224212,72.5714137,19.5,304.78,3.561,0.098,8.91,-0.3945,-2.1627,304.7796,-0.88593,0.0118,0.01513,0.46343,-0.0262,-0.0162,-9.843,0.1478,0.1095,-0.3923,0.1901,3,13,0.84,0.99,0.22,24.513,13.62,87.6,36.7,19267.0,8650,8705,8925,8878,55.8,54.5,53.8,52.7,2.732,2.661,2.833,3.252,6.44,213.8,27.6,52.8,1006.49,-28.16,1.06,1.4,21.2,36.8,27.8,0,no_anomaly,0.0,0,0,0,0,23.0224212,72.5714137,19.5,0.0
2024-03-20T11:38:10.000Z,MISSION_0037,100,1,orbit_base,SITE_AMD_008,23.0224208,72.5714113,19.8,304.46,3.249,0.003,8.91,-4.636,-0.289,304.4606,-0.88405,0.03696,-0.01661,0.46563,-0.22,-0.1102,-9.7332,-0.3571,-1.5736,0.196,0.2921,3,15,0.59,0.96,0.2,24.453,18.67,87.5,36.5,19247.0,8738,8695,8837,8847,52.0,51.5,51.7,55.0,2.664,2.592,2.604,2.789,6.08,208.7,27.6,52.3,1006.5,-32.9,-1.24,1.09,24.4,44.0,30.2,0,no_anomaly,0.0,0,0,0,0,23.0224208,72.5714113,19.8,0.0
2024-03-20T11:38:10.100Z,MISSION_0037,101,1,orbit_base,SITE_AMD_008,23.0224205,72.5714089,20.1,302.94,3.077,0.05,8.91,2.0334,-1.1706,302.9365,-0.87845,-0.01071,0.01745,0.47739,-0.212,-0.015,-9.8719,0.0735,-0.6467,-0.1022,0.1806,3,18,0.61,0.89,0.24,24.448,26.65,87.4,35.8,19228.0,8472,8586,8981,8749,52.0,53.7,52.2,49.4,3.069,3.066,2.565,2.641,6.61,220.4,27.7,53.1,1006.43,-29.97,0.1,1.53,24.5,41.4,30.3,0,no_anomaly,0.0,0,0,0,0,23.0224205,72.5714089,20.1,0.0
2024-03-20T11:38:10.200Z,MISSION_0037,102,1,orbit_base,SITE_AMD_008,23.0224203,72.5714065,20.4,300.71,3.116,0.059,8.91,5.1416,-1.3053,300.7121,-0.86844,-0.03335,0.03207,0.49364,-0.2299,-0.047,-9.7985,0.2664,0.3047,0.1839,0.2107,3,20,0.75,1.04,0.25,24.43,15.82,87.3,36.6,19209.0,8895,8997,8750,8810,50.7,56.5,54.6,55.3,3.046,2.932,2.99,2.794,5.98,211.0,27.9,51.8,1006.63,-30.93,0.85,1.85,23.6,33.6,32.5,0,no_anomaly,0.0,0,0,0,0,23.0224203,72.5714065,20.4,0.0
2024-03-20T11:38:10.300Z,MISSION_0037,103,1,orbit_base,SITE_AMD_008,23.0224201,72.5714041,20.7,302.07,3.588,0.102,8.91,0.2075,-0.1854,302.0727,-0.87493,-0.0008,0.00229,0.48425,0.1058,0.0442,-9.8296,0.1174,0.7584,-0.2721,0.2425,3,17,0.9,0.87,0.52,24.508,16.07,87.2,35.7,19189.0,8785,8932,8559,8552,54.0,54.7,54.9,52.5,2.687,2.83,2.792,3.081,6.29,222.3,27.5,53.0,1006.43,-33.47,2.24,2.24,22.6,38.4,29.2,0,no_anomaly,0.0,0,0,0,0,23.0224201,72.5714041,20.7,0.0
2024-03-20T11:38:10.400Z,MISSION_0037,104,1,orbit_base,SITE_AMD_008,23.02242,72.5714017,21.0,301.58,3.842,0.013,8.91,6.896,-0.1029,301.5833,-0.8713,-0.05206,0.03013,0.48706,-0.0157,0.1448,-9.7952,0.0422,-0.1948,-0.2289,0.3384,3,20,0.66,1.0,0.32,24.369,17.41,87.1,35.3,19170.0,8936,8801,8928,8995,54.3,49.8,52.9,52.6,2.842,2.825,2.896,2.671,6.02,217.5,27.3,52.5,1006.16,-30.03,-1.71,1.65,21.8,38.9,30.8,0,no_anomaly,0.0,0,0,0,0,23.02242,72.5714017,21.0,0.0
2024-03-20T11:38:10.500Z,MISSION_0037,105,1,orbit_base,SITE_AMD_008,23.02242,72.5713993,21.3,301.06,4.105,0.185,8.91,2.5458,-4.0355,301.0566,-0.87023,-0.00201,0.04157,0.49089,0.0412,-0.0371,-9.8731,0.3998,1.2693,-0.2116,0.1778,3,11,0.59,0.95,0.27,24.499,14.84,87.0,36.1,19150.0,8867,8944,8821,8807,52.5,51.6,53.8,51.1,2.636,2.804,2.703,2.897,5.86,220.0,28.1,52.1,1006.34,-32.55,0.32,1.4,20.0,36.5,28.1,0,no_anomaly,0.0,0,0,0,0,23.02242,72.5713993,21.3,0.0
2024-03-20T11:38:10.600Z,MISSION_0037,106,1,orbit_base,SITE_AMD_008,23.0224201,72.5713969,21.6,300.22,4.281,0.117,8.91,-5.0563,-2.1295,300.2244,-0.8656,0.04749,-0.00588,0.49844,0.0291,-0.0172,-9.8268,0.0304,-0.5165,0.0507,0.1916,3,12,0.5,0.87,0.2,24.451,20.28,87.0,35.4,19131.0,8911,8645,9175,8643,49.8,51.6,51.5,52.7,2.463,2.899,2.748,2.736,6.29,200.0,27.7,52.7,1006.41,-28.92,-0.38,1.51,22.7,37.4,31.4,0,no_anomaly,0.0,0,0,0,0,23.0224201,72.5713969,21.6,0.0
2024-03-20T11:38:10.700Z,MISSION_0037,107,1,orbit_base,SITE_AMD_008,23.0224202,72.5713945,21.9,298.68,3.979,0.117,8.91,2.2825,-3.9281,298.6839,-0.8599,0.00035,0.03963,0.50893,-0.333,0.0289,-9.8435,0.5332,-0.9386,-0.444,0.171,3,16,0.72,0.75,0.36,24.504,23.18,86.9,35.3,19112.0,8969,8682,8700,8747,54.2,53.2,50.2,55.0,2.673,3.052,2.695,2.987,6.13,203.3,27.4,52.6,1006.38,-34.6,0.28,2.3,21.6,41.6,28.6,0,no_anomaly,0.0,0,0,0,0,23.0224202,72.5713945,21.9,0.0
2024-03-20T11:38:10.800Z,MISSION_0037,108,1,orbit_base,SITE_AMD_008,23.0224204,72.5713921,22.2,298.03,4.189,0.132,8.91,-2.9739,-2.0128,298.0273,-0.85663,0.03128,0.00169,0.51497,0.1622,-0.0084,-9.7792,0.2061,0.2693,-0.2716,0.1694,3,20,0.67,1.07,0.27,24.512,20.29,86.8,35.9,19092.0,8762,9002,8710,9014,49.5,51.8,50.2,51.9,2.749,2.899,2.732,2.836,5.75,208.4,27.2,53.1,1006.32,-30.19,-0.37,1.22,21.6,35.1,32.4,0,no_anomaly,0.0,0,0,0,0,23.0224204,72.5713921,22.2,0.0
2024-03-20T11:38:10.900Z,MISSION_0037,109,1,orbit_base,SITE_AMD_008,23.0224207,72.5713898,22.5,297.32,4.378,0.026,8.91,-0.1281,-2.1884,297.3151,-0.85391,0.01089,0.01573,0.52008,-0.0744,0.0245,-9.7626,-0.2765,0.6929,-0.3955,0.1678,3,18,0.83,1.14,0.43,24.402,17.32,86.7,35.8,19073.0,8801,8925,8897,9087,53.2,50.4,56.4,51.9,2.758,2.882,2.752,2.766,6.22,215.7,27.5,53.6,1006.2,-30.37,-0.03,1.69,22.6,38.8,28.8,0,no_anomaly,0.0,0,0,0,0,23.0224207,72.5713898,22.5,0.0
2024-03-20T11:38:11.000Z,MISSION_0037,110,1,orbit_base,SITE_AMD_008,23.022421,72.5713874,22.8,297.39,4.143,0.073,8.91,-4.7047,-2.2541,297.3944,-0.85313,0.04527,-0.00453,0.51971,-0.1061,0.0273,-9.7882,0.4274,-0.1269,0.2659,0.2653,3,20,0.78,0.71,0.27,24.375,22.04,86.6,35.7,19054.0,9064,8940,9056,8730,52.5,50.8,52.8,54.6,2.82,2.606,2.606,2.967,6.02,207.6,27.2,52.7,1006.3,-29.92,1.16,1.58,20.9,40.9,32.4,0,no_anomaly,0.0,0,0,0,0,23.022421,72.5713874,22.8,0.0
2024-03-20T11:38:11.100Z,MISSION_0037,111,1,orbit_base,SITE_AMD_008,23.0224214,72.571385,23.1,294.42,3.91,0.128,8.91,3.2992,-2.6316,294.4237,-0.84047,-0.01176,0.03488,0.54061,0.0089,0.0008,-9.8585,-0.5158,-0.054,-0.3137,0.1652,3,11,0.65,0.75,0.21,24.36,17.58,86.5,36.8,19034.0,8737,8842,8818,9000,53.7,54.3,53.5,51.8,2.767,2.835,2.953,2.595,6.74,211.8,27.5,53.6,1006.14,-32.32,1.32,1.53,23.3,33.9,29.1,0,no_anomaly,0.0,0,0,0,0,23.0224214,72.571385,23.1,0.0
2024-03-20T11:38:11.200Z,MISSION_0037,112,1,orbit_base,SITE_AMD_008,23.0224219,72.5713827,23.4,292.1,3.872,0.076,8.91,0.7108,-2.6594,292.0999,-0.82937,0.00782,0.02271,0.55819,0.0114,-0.0441,-9.7924,0.2717,0.0623,0.3633,0.2041,3,20,0.69,0.67,0.3,24.463,22.76,86.4,36.9,19015.0,8869,8746,8903,8668,55.0,52.0,54.9,54.3,2.741,3.338,2.439,2.952,6.24,212.9,28.0,52.4,1006.23,-31.56,-0.79,1.48,19.7,41.0,28.0,0,no_anomaly,0.0,0,0,0,0,23.0224219,72.5713827,23.4,0.0
2024-03-20T11:38:11.300Z,MISSION_0037,113,1,orbit_base,SITE_AMD_008,23.0224225,72.5713803,23.7,290.48,4.309,0.213,8.91,-2.3583,-2.3359,290.4791,-0.82096,0.02852,0.00501,0.57025,-0.0934,-0.06,-9.8321,0.0952,-0.2894,-0.0009,0.1505,3,19,0.74,1.08,0.35,24.439,25.69,86.3,35.0,18996.0,8752,9092,9049,8727,50.2,54.7,52.7,51.3,2.859,2.68,2.98,2.838,6.82,204.8,27.6,53.4,1006.47,-32.83,0.97,1.27,20.4,33.4,30.2,0,no_anomaly,0.0,0,0,0,0,23.0224225,72.5713803,23.7,0.0
2024-03-20T11:38:11.400Z,MISSION_0037,114,1,orbit_base,SITE_AMD_008,23.0224231,72.571378,24.0,287.91,5.209,0.153,8.91,6.9944,-1.4253,287.9145,-0.80746,-0.04201,0.04593,0.58663,-0.0242,0.0099,-9.787,0.1812,1.1412,0.1938,0.2207,3,10,0.61,0.98,0.22,24.48,16.69,86.3,35.1,18976.0,8904,8788,8770,8904,56.3,54.4,53.1,52.1,2.658,2.944,2.827,2.892,6.75,204.5,27.4,53.4,1006.28,-33.36,-0.89,1.37,23.7,35.0,29.6,0,no_anomaly,0.0,0,0,0,0,23.0224231,72.571378,24.0,0.0
2024-03-20T11:38:11.500Z,MISSION_0037,115,1,orbit_base,SITE_AMD_008,23.0224238,72.5713757,24.3,289.58,5.282,0.186,8.91,-1.9761,1.2465,289.5821,-0.81699,0.00782,-0.01883,0.57629,-0.2548,-0.0086,-9.777,-0.6759,-0.3821,0.0936,0.2515,3,14,0.76,1.12,0.34,24.405,23.56,86.2,35.7,18957.0,8625,8611,8958,8864,52.4,49.7,50.2,53.2,2.664,2.733,2.645,3.036,5.5,207.3,27.6,52.8,1006.55,-30.59,0.59,1.31,23.1,38.4,28.4,0,no_anomaly,0.0,0,0,0,0,23.0224238,72.5713757,24.3,0.0
2024-03-20T11:38:11.600Z,MISSION_0037,116,1,orbit_base,SITE_AMD_008,23.0224245,72.5713734,24.6,292.06,5.239,0.008,8.91,-0.0485,-3.7037,292.0562,-0.82887,0.01841,0.02656,0.55851,-0.2238,0.0014,-9.8934,-0.0889,0.4173,0.009,0.1876,3,15,0.71,1.04,0.22,24.496,19.84,86.1,35.9,18938.0,8857,8965,8931,8632,47.7,52.3,52.3,52.0,2.909,2.576,2.774,2.832,5.44,214.1,27.6,52.4,1006.43,-28.2,-1.01,1.4,22.5,37.0,32.0,0,no_anomaly,0.0,0,0,0,0,23.0224245,72.5713734,24.6,0.0
2024-03-20T11:38:11.700Z,MISSION_0037,117,1,orbit_base,SITE_AMD_008,23.0224254,72.5713712,24.9,292.75,5.14,0.062,8.91,2.1759,-1.8129,292.7464,-0.83257,-0.00705,0.02368,0.55336,-0.3714,0.0495,-9.919,-0.447,-0.1057,0.1375,0.1889,3,16,0.5,1.24,0.2,24.446,20.02,86.0,35.1,18918.0,9039,8774,8897,9006,54.0,51.6,51.6,51.1,2.854,2.763,2.668,2.919,5.98,205.3,27.3,52.0,1006.57,-33.41,-0.44,1.79,24.8,40.6,31.8,0,no_anomaly,0.0,0,0,0,0,23.0224254,72.5713712,24.9,0.0
2024-03-20T11:38:11.800Z,MISSION_0037,118,1,orbit_base,SITE_AMD_008,23.0224263,72.571369,25.2,293.26,5.303,0.143,8.91,4.3771,-1.2075,293.2571,-0.83469,-0.0261,0.0298,0.5493,0.1073,-0.1214,-9.8103,-0.1957,-0.118,-0.1394,0.2359,3,18,0.72,0.91,0.22,24.401,14.59,85.9,35.7,18899.0,8730,8711,8865,8837,51.9,55.1,55.6,52.4,2.606,2.623,3.051,2.7,6.07,214.9,27.6,52.2,1006.34,-34.3,0.39,1.43,22.4,38.8,29.7,0,no_anomaly,0.0,0,0,0,0,23.0224263,72.571369,25.2,0.0
2024-03-20T11:38:11.900Z,MISSION_0037,119,1,orbit_base,SITE_AMD_008,23.0224272,72.5713668,25.5,291.98,5.679,0.049,8.91,-6.0609,-4.9678,291.9761,-0.8257,0.06799,0.00633,0.55996,0.1364,0.0399,-9.8656,-1.2757,0.7793,-0.1779,0.2268,3,19,0.63,0.95,0.21,24.431,27.14,85.8,35.7,18880.0,8664,8752,8843,8724,50.8,53.0,52.2,53.3,2.932,2.939,2.438,2.857,6.41,212.8,27.7,53.4,1006.47,-27.64,-0.09,1.83,19.7,36.7,31.1,0,no_anomaly,0.0,0,0,0,0,23.0224272,72.5713668,25.5,0.0
2024-03-20T11:38:12.000Z,MISSION_0037,120,1,orbit_base,SITE_AMD_008,23.0224283,72.5713646,25.8,294.54,5.854,0.067,8.91,2.1261,-2.5833,294.542,-0.8411,-0.00342,0.02899,0.54008,0.0279,0.0279,-9.8104,0.4806,0.4605,-0.4085,0.25,3,16,0.5,0.6,0.2,24.478,16.97,85.7,36.2,18860.0,8935,8677,8936,8842,52.6,57.3,52.1,56.7,2.907,2.614,2.801,3.066,5.67,210.5,27.3,52.1,1006.66,-30.49,0.58,1.36,25.3,36.8,32.8,0,no_anomaly,0.0,0,0,0,0,23.0224283,72.5713646,25.8,0.0
2024-03-20T11:38:12.100Z,MISSION_0037,121,1,orbit_base,SITE_AMD_008,23.0224294,72.5713625,26.1,296.76,5.738,0.106,8.91,3.7734,-1.5318,296.7572,-0.85122,-0.02103,0.02864,0.5236,0.027,-0.0322,-9.8201,-0.1746,-0.4261,-0.0777,0.2433,3,10,0.76,0.87,0.34,24.436,23.9,85.6,35.7,18841.0,8915,8871,8889,8418,52.8,52.2,52.0,55.5,3.234,2.569,2.843,3.034,5.26,215.8,27.7,53.3,1006.52,-27.2,-1.78,1.45,22.8,43.3,33.3,0,no_anomaly,0.0,0,0,0,0,23.0224294,72.5713625,26.1,0.0
2024-03-20T11:38:12.200Z,MISSION_0037,122,1,orbit_base,SITE_AMD_008,23.0224305,72.5713604,26.4,296.15,5.811,0.142,8.91,-1.223,-3.7477,296.1519,-0.84806,0.02634,0.02211,0.52878,-0.0529,-0.0518,-9.773,-0.6327,0.3528,0.3448,0.3394,3,15,0.85,0.85,0.33,24.469,20.9,85.6,35.1,18821.0,8787,8908,8989,9100,52.8,54.5,52.0,54.0,2.893,2.857,2.681,2.691,6.25,200.3,27.4,52.2,1006.13,-25.55,0.65,1.34,26.1,39.2,29.2,0,no_anomaly,0.0,0,0,0,0,23.0224305,72.5713604,26.4,0.0
2024-03-20T11:38:12.300Z,MISSION_0037,123,1,orbit_base,SITE_AMD_008,23.0224317,72.5713583,26.7,294.76,5.8,0.071,8.91,-3.6447,-1.2998,294.7561,-0.84157,0.03289,-0.00759,0.53909,-0.0172,0.0171,-9.7877,-0.1843,0.2916,0.2975,0.1647,3,19,0.84,0.93,0.28,24.402,23.0,85.5,36.7,18802.0,8757,8678,9153,8975,49.1,54.8,52.2,52.3,2.542,2.945,2.865,2.746,6.09,208.9,27.6,52.7,1006.21,-29.53,-0.34,2.02,21.7,34.7,30.3,0,no_anomaly,0.0,0,0,0,0,23.0224317,72.5713583,26.7,0.0
2024-03-20T11:38:12.400Z,MISSION_0037,124,1,orbit_base,SITE_AMD_008,23.022433,72.5713563,27.0,292.0,6.114,0.118,8.91,-4.4763,-3.4462,292.0013,-0.82738,0.04916,0.00308,0.55948,-0.1252,0.0362,-9.8082,0.3433,0.1256,0.6623,0.298,3,12,0.69,1.12,0.2,24.465,22.69,85.4,35.7,18783.0,8874,8686,8991,8800,53.8,53.3,52.1,54.8,2.51,2.559,3.13,2.66,6.13,214.4,27.3,51.9,1006.19,-27.73,0.14,1.89,21.7,35.8,29.8,0,no_anomaly,0.0,0,0,0,0,23.022433,72.5713563,27.0,0.0
2024-03-20T11:38:12.500Z,MISSION_0037,125,1,orbit_base,SITE_AMD_008,23.0224344,72.5713543,27.3,290.07,6.224,0.099,8.91,2.3954,-2.235,290.0704,-0.8194,-0.00595,0.02796,0.57251,-0.1691,0.0008,-9.8433,-0.5363,-0.3234,-0.0524,0.2208,3,12,0.79,0.65,0.31,24.484,21.44,85.3,36.4,18763.0,9021,8826,8934,9107,52.8,53.6,52.5,52.7,2.803,2.88,2.866,2.886,6.45,216.0,27.3,52.4,1006.56,-27.96,-2.15,1.34,24.1,38.7,28.5,0,no_anomaly,0.0,0,0,0,0,23.0224344,72.5713543,27.3,0.0
2024-03-20T11:38:12.600Z,MISSION_0037,126,1,orbit_base,SITE_AMD_008,23.0224358,72.5713523,27.6,290.33,6.531,0.085,8.91,4.1019,0.8545,290.3264,-0.82008,-0.03363,0.01433,0.57108,-0.0711,0.0493,-9.8908,0.1499,-0.6308,0.4918,0.2913,3,16,0.71,0.72,0.24,24.374,27.96,85.2,35.5,18744.0,8968,8932,9080,9008,56.4,51.5,52.6,49.5,2.862,2.713,2.988,2.81,6.52,209.2,27.7,53.0,1006.22,-26.96,-0.7,1.25,24.5,35.3,28.1,0,no_anomaly,0.0,0,0,0,0,23.0224358,72.5713523,27.6,0.0
2024-03-20T11:38:12.700Z,MISSION_0037,127,1,orbit_base,SITE_AMD_008,23.0224372,72.5713504,27.9,288.87,6.904,0.08,8.91,0.4641,-5.127,288.8713,-0.81275,0.02272,0.03874,0.58088,-0.3417,0.0611,-9.7834,0.4293,0.1715,-0.4855,0.204,3,19,0.71,0.99,0.2,24.463,21.06,85.1,35.9,18725.0,8653,8940,9160,9052,54.1,53.8,52.4,51.2,2.658,2.962,2.82,2.891,5.44,221.6,27.6,52.2,1006.19,-30.51,-2.12,1.58,20.1,39.8,32.2,0,no_anomaly,0.0,0,0,0,0,23.0224372,72.5713504,27.9,0.0
2024-03-20T11:38:12.800Z,MISSION_0037,128,1,orbit_base,SITE_AMD_008,23.0224387,72.5713486,28.2,288.32,6.67,0.069,8.91,3.8856,-2.6163,288.3165,-0.81041,-0.01412,0.03834,0.58443,-0.1257,0.0553,-9.7204,-0.5194,0.3751,0.022,0.2642,3,16,0.75,0.81,0.2,24.386,21.65,85.0,37.1,18705.0,8836,8929,8858,9082,53.8,51.0,51.7,50.7,2.552,2.738,2.905,2.604,5.77,214.8,27.7,52.7,1005.89,-29.97,-0.42,1.44,22.1,36.7,31.1,0,no_anomaly,0.0,0,0,0,0,23.0224387,72.5713486,28.2,0.0
