timestamp_utc,mission_id,frame_id,waypoint_id,inspection_phase,site_id,latitude_deg,longitude_deg,altitude_m,heading_deg,ground_speed_ms,vertical_speed_ms,distance_to_tower_m,roll_deg,pitch_deg,yaw_deg,quat_w,quat_x,quat_y,quat_z,accel_x_ms2,accel_y_ms2,accel_z_ms2,gyro_x_rads,gyro_y_rads,gyro_z_rads,vibration_level,gps_fix_type,gps_satellite_count,gps_hdop,gps_vdop,position_error_m,battery_voltage_v,battery_current_a,battery_remaining_pct,battery_temp_c,battery_capacity_mah,motor_fl_rpm,motor_fr_rpm,motor_rl_rpm,motor_rr_rpm,motor_fl_temp_c,motor_fr_temp_c,motor_rl_temp_c,motor_rr_temp_c,motor_fl_thrust_n,motor_fr_thrust_n,motor_rl_thrust_n,motor_rr_thrust_n,wind_speed_ms,wind_dir_deg,air_temp_c,humidity_pct,pressure_hpa,gimbal_pitch_deg,gimbal_roll_deg,zoom_factor,ir_temp_min_c,ir_temp_max_c,ir_temp_avg_c,anomaly_detected,anomaly_class,anomaly_confidence,anomaly_bbox_x,anomaly_bbox_y,anomaly_bbox_w,anomaly_bbox_h,anomaly_gps_lat,anomaly_gps_lon,anomaly_gps_alt_m,ir_temp_delta_c
2024-11-20T14:56:00.000Z,MISSION_0038,0,0,takeoff,SITE_JAI_009,26.9123995,75.7872979,1.5,326.93,0.595,0.151,0.24,5.0078,-0.9412,326.9329,-0.95781,-0.03954,0.0203,0.28395,0.0995,0.0497,-9.8185,0.5917,-0.3216,0.0121,0.1064,3,16,0.76,0.89,0.34,24.687,20.61,98.5,32.2,21661.0,8851,8729,8856,8664,51.4,46.9,49.0,45.5,2.967,2.578,2.673,2.696,2.71,271.9,23.7,57.7,1016.74,-24.27,-1.17,1.27,16.7,33.5,26.8,0,no_anomaly,0.0,0,0,0,0,26.9123995,75.7872979,1.5,0.0
2024-11-20T14:56:00.100Z,MISSION_0038,1,0,takeoff,SITE_JAI_009,26.9124018,75.7872959,3.0,328.67,0.663,0.11,0.5,-1.2395,-1.7939,328.6657,-0.96263,0.01464,0.01215,0.27016,-0.032,0.0806,-9.7763,0.4117,-0.2443,0.0713,0.088,3,19,0.58,1.25,0.25,24.725,19.99,98.4,31.8,21648.0,8742,8534,8810,8653,45.1,46.2,48.0,49.4,2.825,2.893,2.681,2.783,3.02,277.4,23.6,57.9,1017.13,-30.87,1.1,1.0,16.6,32.6,25.3,0,no_anomaly,0.0,0,0,0,0,26.9124018,75.7872959,3.0,0.0
2024-11-20T14:56:00.200Z,MISSION_0038,2,0,takeoff,SITE_JAI_009,26.9124006,75.787296,4.5,330.3,1.05,0.105,0.45,-3.6728,-2.954,330.2966,-0.96556,0.03757,0.01669,0.2569,0.016,-0.0323,-9.7857,-0.6691,-0.4383,0.1913,0.1865,3,15,0.59,0.84,0.21,24.718,21.35,98.3,31.0,21636.0,8708,8432,8699,8703,50.3,50.2,46.8,50.9,2.833,2.836,2.954,3.031,1.57,275.1,23.9,57.2,1016.79,-33.72,2.78,1.55,19.6,38.3,28.6,0,no_anomaly,0.0,0,0,0,0,26.9124006,75.787296,4.5,0.0
2024-11-20T14:56:00.300Z,MISSION_0038,3,0,takeoff,SITE_JAI_009,26.9124019,75.7872957,5.0,330.31,0.946,0.126,0.52,2.5924,-2.6147,330.3074,-0.96625,-0.01602,0.02784,0.2556,0.039,0.0323,-9.8234,-0.4251,0.0451,-0.0935,0.128,3,20,0.85,0.83,0.24,24.56,21.79,98.3,31.8,21623.0,8463,8432,8659,8803,51.1,48.8,49.5,48.2,2.293,2.795,2.958,2.632,2.34,276.4,23.3,58.0,1017.01,-31.68,-0.42,1.0,20.2,36.8,25.9,0,no_anomaly,0.0,0,0,0,0,26.9124019,75.7872957,5.0,0.0
2024-11-20T14:56:00.400Z,MISSION_0038,4,0,takeoff,SITE_JAI_009,26.9124008,75.7872957,5.0,331.6,1.006,0.07,0.49,-3.0581,-0.9609,331.6015,-0.96901,0.02792,0.00158,0.24542,0.1299,0.0534,-9.8531,0.0677,-0.0489,-0.2113,0.1428,3,15,0.81,0.97,0.41,24.741,24.47,98.2,31.8,21611.0,8670,8628,8719,8664,46.1,47.5,47.1,52.8,2.897,2.766,2.58,2.894,2.86,282.4,23.9,59.1,1017.22,-26.92,1.64,2.09,17.7,37.8,28.1,0,no_anomaly,0.0,0,0,0,0,26.9124008,75.7872957,5.0,0.0
2024-11-20T14:56:00.500Z,MISSION_0038,5,0,takeoff,SITE_JAI_009,26.9123983,75.7872963,5.0,331.2,0.88,0.12,0.45,-0.1563,-1.2918,331.2027,-0.96852,0.00412,0.01058,0.24867,0.1456,0.0034,-9.781,-0.2427,0.2083,-0.5439,0.1134,3,20,0.7,0.63,0.21,24.814,13.78,98.2,31.4,21598.0,8508,8938,8763,8863,49.1,47.1,49.1,47.6,3.116,2.813,3.041,2.824,2.16,279.6,23.5,57.0,1016.95,-30.1,0.98,1.12,16.5,33.5,23.8,0,no_anomaly,0.0,0,0,0,0,26.9123983,75.7872963,5.0,0.0
2024-11-20T14:56:00.600Z,MISSION_0038,6,0,takeoff,SITE_JAI_009,26.9124022,75.7872988,5.0,329.12,1.434,0.162,0.28,4.0944,0.664,329.1219,-0.96323,-0.03597,0.00393,0.26624,0.0763,-0.002,-9.8264,-0.0084,-0.2442,0.165,0.1998,3,17,0.54,1.18,0.32,24.758,17.97,98.1,31.4,21585.0,8610,8667,8511,8498,46.6,50.1,47.1,49.3,2.822,2.789,2.715,3.01,2.78,274.1,23.5,58.0,1016.9,-32.26,-0.73,1.27,20.2,33.2,28.4,0,no_anomaly,0.0,0,0,0,0,26.9124022,75.7872988,5.0,0.0
2024-11-20T14:56:00.700Z,MISSION_0038,7,0,takeoff,SITE_JAI_009,26.9124008,75.7872967,5.0,329.93,1.214,0.111,0.38,-2.8507,-2.4112,329.9336,-0.96513,0.02947,0.01386,0.25975,0.0066,0.0074,-9.8234,0.6896,-0.1169,-0.6947,0.227,3,20,0.75,1.09,0.36,24.748,19.66,98.1,31.5,21573.0,8679,8429,8842,8596,47.3,49.2,48.0,47.5,3.207,2.793,2.599,2.872,2.07,272.1,23.5,57.8,1016.91,-29.44,-1.77,1.33,14.6,30.5,26.3,0,no_anomaly,0.0,0,0,0,0,26.9124008,75.7872967,5.0,0.0
2024-11-20T14:56:00.800Z,MISSION_0038,8,0,takeoff,SITE_JAI_009,26.9123952,75.7872977,5.0,327.98,1.589,0.082,0.59,-2.3882,-2.2057,327.9819,-0.96072,0.02533,0.01275,0.27606,0.0249,0.0896,-9.7818,0.6508,-0.5673,-0.2387,0.1564,3,10,0.66,0.76,0.32,24.798,19.24,98.0,31.8,21560.0,8637,8815,9099,8477,49.7,47.8,46.5,48.3,2.682,2.868,3.031,2.779,2.64,279.1,23.6,58.2,1016.98,-30.28,1.41,1.0,18.2,39.4,24.7,0,no_anomaly,0.0,0,0,0,0,26.9123952,75.7872977,5.0,0.0
2024-11-20T14:56:00.900Z,MISSION_0038,9,0,takeoff,SITE_JAI_009,26.9123926,75.7873003,5.0,328.56,1.19,0.069,0.82,1.561,-1.0409,328.5584,-0.9625,-0.01065,0.01243,0.27079,0.0359,-0.046,-9.9027,0.2965,-0.0687,-0.3934,0.1932,3,17,0.81,1.07,0.24,24.8,18.82,97.9,31.7,21547.0,8521,8547,8570,8853,48.7,49.9,48.0,45.6,2.69,2.666,2.812,2.719,2.62,278.0,23.6,58.4,1017.07,-29.06,1.65,1.24,19.5,33.2,27.1,0,no_anomaly,0.0,0,0,0,0,26.9123926,75.7873003,5.0,0.0
2024-11-20T14:56:01.000Z,MISSION_0038,10,0,takeoff,SITE_JAI_009,26.9123865,75.7873015,5.0,329.16,1.266,0.134,1.51,0.3935,-1.4749,329.1559,-0.96392,0.00011,0.01332,0.26586,0.0619,-0.0228,-9.8338,-0.5192,-0.1793,-0.1383,0.0758,3,10,0.69,0.9,0.24,24.817,19.84,97.9,30.4,21535.0,8707,8594,8581,8653,46.5,49.0,52.7,50.7,3.123,2.945,2.807,2.698,2.63,267.0,23.6,58.6,1016.96,-26.21,-2.32,1.88,16.9,39.0,26.3,0,no_anomaly,0.0,0,0,0,0,26.9123865,75.7873015,5.0,0.0
2024-11-20T14:56:01.100Z,MISSION_0038,11,0,takeoff,SITE_JAI_009,26.9123826,75.7873047,5.0,329.16,1.231,0.172,2.01,2.3118,-4.1541,329.1649,-0.96338,-0.0098,0.04029,0.26492,0.0305,-0.0045,-9.7383,-0.0717,-0.3817,-0.0617,0.0532,3,12,0.71,0.85,0.22,24.774,21.31,97.8,31.6,21522.0,8612,8797,8507,8989,49.2,48.8,46.4,49.3,2.658,2.819,2.724,2.875,2.32,282.8,23.2,58.3,1017.23,-30.79,0.13,1.5,19.7,32.3,26.4,0,no_anomaly,0.0,0,0,0,0,26.9123826,75.7873047,5.0,0.0
2024-11-20T14:56:01.200Z,MISSION_0038,12,0,takeoff,SITE_JAI_009,26.9123824,75.7873062,5.0,330.28,1.319,0.141,2.08,0.3308,0.9726,330.2831,-0.96652,-0.00497,-0.00746,0.25645,-0.0436,0.0173,-9.9251,1.4642,0.3957,-0.5536,0.1768,3,15,0.66,1.06,0.21,24.745,17.26,97.8,31.7,21509.0,8983,8758,9076,8851,49.6,47.8,48.0,50.4,2.832,2.839,2.86,3.187,2.81,276.9,23.8,57.5,1016.64,-32.48,-0.87,1.39,17.8,31.7,26.6,0,no_anomaly,0.0,0,0,0,0,26.9123824,75.7873062,5.0,0.0
2024-11-20T14:56:01.300Z,MISSION_0038,13,0,takeoff,SITE_JAI_009,26.9123854,75.7873075,5.0,329.16,1.226,0.099,1.83,-1.8245,-3.2602,329.1559,-0.96336,0.02291,0.02319,0.26622,0.0644,-0.1185,-9.7901,-0.1211,-0.1767,-0.0434,0.256,3,14,0.78,1.02,0.41,24.612,16.67,97.7,32.4,21497.0,8715,8593,8765,9004,48.0,46.6,50.6,47.3,2.865,3.084,2.502,2.665,2.93,269.5,23.5,57.9,1017.14,-28.41,1.49,1.91,19.8,33.7,24.5,0,no_anomaly,0.0,0,0,0,0,26.9123854,75.7873075,5.0,0.0
2024-11-20T14:56:01.400Z,MISSION_0038,14,0,takeoff,SITE_JAI_009,26.9123811,75.787308,5.0,327.38,1.79,0.079,2.29,0.2126,-2.1732,327.379,-0.95959,0.00355,0.01872,0.28076,-0.0587,0.0421,-9.8042,-0.0301,-0.2497,-0.524,0.1638,3,15,0.68,0.97,0.21,24.708,22.05,97.7,30.9,21484.0,8565,8585,8789,8633,47.9,48.9,51.4,49.5,2.619,2.754,2.884,2.985,2.18,268.2,23.6,58.2,1016.48,-32.48,0.37,1.37,16.5,36.7,26.0,0,no_anomaly,0.0,0,0,0,0,26.9123811,75.787308,5.0,0.0
2024-11-20T14:56:01.500Z,MISSION_0038,15,0,takeoff,SITE_JAI_009,26.9123796,75.7873067,5.0,328.08,1.923,0.048,2.39,-1.7455,-0.6694,328.0791,-0.9613,0.01625,0.00143,0.27502,0.069,0.198,-9.8357,-0.499,0.2645,0.0415,0.1118,3,12,0.69,1.05,0.31,24.72,13.22,97.6,31.3,21472.0,8774,8497,8519,8700,52.2,50.2,49.8,47.2,2.959,2.516,2.7,2.914,2.33,272.2,24.0,57.7,1016.73,-29.73,0.62,1.33,15.5,35.8,24.8,0,no_anomaly,0.0,0,0,0,0,26.9123796,75.7873067,5.0,0.0
2024-11-20T14:56:01.600Z,MISSION_0038,16,0,takeoff,SITE_JAI_009,26.91238,75.7873053,5.0,328.99,2.044,0.176,2.31,-1.7287,-1.5368,328.9909,-0.96336,0.01812,0.00889,0.26746,0.0191,0.0354,-9.7258,-0.5106,-0.2532,0.1462,0.0615,3,10,0.7,0.89,0.27,24.591,18.35,97.5,31.7,21459.0,8704,8610,8542,8674,50.2,48.1,46.0,53.5,2.743,2.823,3.029,2.79,3.04,276.0,23.6,58.8,1016.74,-25.64,-0.58,1.24,22.7,29.8,27.3,0,no_anomaly,0.0,0,0,0,0,26.91238,75.7873053,5.0,0.0
2024-11-20T14:56:01.700Z,MISSION_0038,17,0,takeoff,SITE_JAI_009,26.9123761,75.787307,5.0,327.48,1.754,0.054,2.77,-2.6428,0.8467,327.4823,-0.95977,0.02007,-0.01355,0.27973,0.109,0.0033,-9.887,0.6874,0.5654,-0.7957,0.2111,3,16,0.69,0.97,0.21,24.728,16.68,97.5,30.9,21446.0,8903,8811,8684,8550,51.0,48.3,48.1,49.0,2.533,2.582,2.854,2.597,1.9,275.6,23.5,58.2,1017.3,-30.1,-0.86,1.81,21.9,37.8,26.8,0,no_anomaly,0.0,0,0,0,0,26.9123761,75.787307,5.0,0.0
2024-11-20T14:56:01.800Z,MISSION_0038,18,0,takeoff,SITE_JAI_009,26.9123824,75.7873073,5.0,327.05,2.267,0.097,2.12,-1.1321,-2.4674,327.0494,-0.95861,0.01558,0.01784,0.28373,0.0603,0.0133,-9.7489,-0.6907,-0.1022,0.1088,0.2097,3,18,0.69,1.02,0.35,24.687,17.92,97.4,31.5,21434.0,8828,8631,8689,8851,50.6,51.8,49.0,47.0,2.827,2.764,2.809,2.827,2.48,271.3,23.6,57.7,1016.67,-29.91,0.42,1.23,18.1,35.2,26.0,0,no_anomaly,0.0,0,0,0,0,26.9123824,75.7873073,5.0,0.0
2024-11-20T14:56:01.900Z,MISSION_0038,19,0,takeoff,SITE_JAI_009,26.9123839,75.7873067,5.0,328.21,2.339,0.186,1.94,0.6397,-0.237,328.2143,-0.96176,-0.0048,0.00352,0.27382,0.0573,0.0064,-9.7577,-0.1512,-0.2674,-0.5641,0.1702,3,18,0.74,0.88,0.5,24.679,20.06,97.4,31.5,21421.0,8813,8847,8801,9004,46.3,46.3,46.4,46.2,2.76,3.014,2.967,2.906,2.5,271.8,23.5,57.9,1017.0,-30.68,1.49,1.69,15.2,36.7,25.3,0,no_anomaly,0.0,0,0,0,0,26.9123839,75.7873067,5.0,0.0
2024-11-20T14:56:02.000Z,MISSION_0038,20,0,takeoff,SITE_JAI_009,26.9123874,75.7873078,5.0,330.95,1.983,0.192,1.65,0.7948,-2.2351,330.9487,-0.96786,-0.00182,0.02062,0.25063,-0.0371,0.0774,-9.76,1.4982,-0.8824,-0.338,0.1652,3,15,0.68,1.02,0.3,24.677,15.26,97.3,31.8,21408.0,8985,8779,8582,8723,48.0,50.2,48.0,48.1,2.991,2.958,2.878,2.803,2.0,276.1,23.7,58.6,1016.9,-32.13,-0.12,1.6,23.3,36.7,25.9,0,no_anomaly,0.0,0,0,0,0,26.9123874,75.7873078,5.0,0.0
2024-11-20T14:56:02.100Z,MISSION_0038,21,0,takeoff,SITE_JAI_009,26.9123905,75.7873058,5.0,332.64,2.245,0.073,1.24,-2.0802,-1.735,332.6408,-0.9713,0.02121,0.01042,0.23669,0.0892,0.0909,-9.8683,-0.0956,-1.0158,0.0032,0.1535,3,16,0.56,0.88,0.26,24.68,21.31,97.3,31.1,21396.0,8640,8718,8814,8762,49.5,49.6,47.1,46.0,2.755,3.07,2.779,3.011,2.26,279.9,23.8,59.2,1017.2,-32.86,-1.6,1.0,19.1,36.1,26.8,0,no_anomaly,0.0,0,0,0,0,26.9123905,75.7873058,5.0,0.0
2024-11-20T14:56:02.200Z,MISSION_0038,22,0,takeoff,SITE_JAI_009,26.9123921,75.7873038,5.0,333.49,2.176,0.137,0.98,0.0317,-2.565,333.4932,-0.97312,0.00486,0.02185,0.22919,-0.1296,-0.128,-9.724,0.1083,-0.4536,0.2171,0.1897,3,19,0.77,0.95,0.28,24.73,21.66,97.2,32.1,21383.0,8734,8922,8550,8799,50.2,51.2,46.8,48.6,2.783,2.707,2.703,2.851,2.65,271.7,23.6,57.9,1016.75,-32.22,-1.37,1.22,17.8,37.7,30.0,0,no_anomaly,0.0,0,0,0,0,26.9123921,75.7873038,5.0,0.0
2024-11-20T14:56:02.300Z,MISSION_0038,23,0,takeoff,SITE_JAI_009,26.9123862,75.7873089,5.0,337.4,1.909,0.077,1.83,0.7679,-2.8007,337.3984,-0.98033,-0.00178,0.02528,0.19574,-0.0524,-0.0169,-9.7614,0.0089,-0.1353,-0.0012,0.1333,3,10,0.6,1.14,0.34,24.764,21.36,97.1,31.3,21370.0,8692,8668,8689,8742,48.0,50.2,49.3,47.4,2.647,2.687,2.675,2.555,1.8,282.1,23.8,58.9,1016.73,-25.43,2.07,1.37,16.5,28.6,25.3,0,no_anomaly,0.0,0,0,0,0,26.9123862,75.7873089,5.0,0.0
2024-11-20T14:56:02.400Z,MISSION_0038,24,0,takeoff,SITE_JAI_009,26.9123854,75.787307,5.0,338.16,0.795,0.036,1.8,-0.9104,-2.2898,338.1569,-0.98163,0.01158,0.01811,0.18958,-0.0559,0.0343,-9.9045,-0.1413,-0.5102,0.1063,0.159,3,14,0.69,0.83,0.2,24.662,10.59,97.1,30.4,21358.0,8423,9034,8792,8686,51.3,48.2,50.8,49.0,3.066,2.827,2.838,2.698,1.9,264.7,23.3,58.3,1016.79,-31.42,0.65,1.37,20.5,37.8,23.1,0,no_anomaly,0.0,0,0,0,0,26.9123854,75.787307,5.0,0.0
2024-11-20T14:56:02.500Z,MISSION_0038,25,0,takeoff,SITE_JAI_009,26.9123855,75.7873052,5.0,337.23,0.978,0.001,1.71,-0.7822,-3.1964,337.2346,-0.97989,0.01219,0.02599,0.19747,0.1193,0.0123,-9.7979,-0.0256,0.2653,0.1016,0.1955,3,13,0.65,1.02,0.25,24.736,17.28,97.0,31.3,21345.0,8814,8705,8599,8687,48.1,51.1,49.4,51.7,3.004,2.898,2.854,3.116,2.88,271.1,23.8,58.2,1017.06,-27.97,0.33,1.73,16.1,35.6,27.1,0,no_anomaly,0.0,0,0,0,0,26.9123855,75.7873052,5.0,0.0
2024-11-20T14:56:02.600Z,MISSION_0038,26,0,takeoff,SITE_JAI_009,26.9123871,75.7873034,5.0,334.35,0.545,0.114,1.48,-0.2935,-1.0899,334.3546,-0.97501,0.00461,0.00871,0.22195,-0.0083,-0.0559,-9.7123,-0.7636,-0.2534,-0.5625,0.1389,3,16,0.81,0.93,0.45,24.605,13.8,97.0,31.7,21333.0,8706,8666,8921,8900,49.5,50.7,46.8,45.9,2.74,2.795,2.669,2.658,2.58,275.9,23.6,58.3,1017.13,-26.35,-2.67,1.75,19.8,33.1,26.5,0,no_anomaly,0.0,0,0,0,0,26.9123871,75.7873034,5.0,0.0
2024-11-20T14:56:02.700Z,MISSION_0038,27,0,takeoff,SITE_JAI_009,26.912387,75.7873065,5.0,334.42,0.041,0.096,1.62,-1.6003,-4.792,334.4161,-0.9741,0.02286,0.03768,0.22177,-0.2404,0.0081,-9.7847,0.3646,0.8897,0.3889,0.1188,3,18,0.68,0.84,0.26,24.814,12.45,96.9,30.9,21320.0,8618,8861,8639,8671,48.4,44.3,49.9,47.5,2.733,2.603,2.542,2.628,1.43,281.7,23.7,57.4,1016.68,-30.68,1.42,1.63,15.4,29.0,23.5,0,no_anomaly,0.0,0,0,0,0,26.912387,75.7873065,5.0,0.0
2024-11-20T14:56:02.800Z,MISSION_0038,28,0,takeoff,SITE_JAI_009,26.9123843,75.7873077,5.0,334.3,0.0,0.125,1.95,0.0781,-2.0994,334.3049,-0.9748,0.00341,0.01801,0.22231,0.0301,0.0143,-9.858,-0.099,-0.6396,-0.3543,0.1773,3,11,0.73,0.75,0.3,24.801,15.2,96.9,31.7,21307.0,8969,8812,8587,8721,48.5,43.8,47.2,48.0,2.9,2.759,2.983,2.773,2.64,274.0,23.5,57.7,1016.87,-31.55,3.12,1.0,20.1,39.0,26.9,0,no_anomaly,0.0,0,0,0,0,26.9123843,75.7873077,5.0,0.0
2024-11-20T14:56:02.900Z,MISSION_0038,29,0,takeoff,SITE_JAI_009,26.912388,75.7873058,5.0,337.01,0.031,0.183,1.48,-1.7292,-2.901,337.01,-0.97944,0.01983,0.0218,0.19957,-0.0912,-0.0334,-9.7671,-0.7943,-0.0922,0.2343,0.1365,3,18,0.5,0.96,0.2,24.714,12.86,96.8,31.8,21295.0,8793,8731,8608,8661,51.5,48.8,48.3,48.6,2.814,2.883,2.796,2.724,2.48,262.7,23.3,58.6,1017.07,-33.14,-0.83,1.47,16.2,37.7,27.9,0,no_anomaly,0.0,0,0,0,0,26.912388,75.7873058,5.0,0.0
2024-11-20T14:56:03.000Z,MISSION_0038,30,0,takeoff,SITE_JAI_009,26.912388,75.7873023,5.0,337.58,0.0,-0.02,1.36,-1.5823,-2.8478,337.5752,-0.98045,0.01837,0.02169,0.19471,-0.012,0.0097,-9.7775,-0.7363,-0.821,0.2962,0.0988,3,14,0.73,1.02,0.34,24.756,22.39,96.7,32.1,21282.0,8590,8810,8735,8770,49.4,47.9,48.2,53.2,2.557,2.796,2.859,2.6,2.04,277.5,23.3,58.0,1016.63,-28.09,0.12,1.32,18.0,37.5,28.0,0,no_anomaly,0.0,0,0,0,0,26.912388,75.7873023,5.0,0.0
2024-11-20T14:56:03.100Z,MISSION_0038,31,0,takeoff,SITE_JAI_009,26.9123873,75.7873047,5.0,337.54,0.196,0.137,1.51,3.5297,-0.8186,337.5448,-0.98041,-0.02882,0.013,0.19439,-0.1327,-0.0386,-9.7893,-0.3318,-0.0409,0.073,0.1241,3,17,0.72,0.81,0.22,24.673,12.47,96.7,31.7,21269.0,8676,8663,8628,8587,46.4,49.6,50.6,43.2,2.613,2.869,3.159,2.837,1.74,275.6,24.0,57.3,1016.92,-26.51,0.01,1.77,19.7,28.8,25.7,0,no_anomaly,0.0,0,0,0,0,26.9123873,75.7873047,5.0,0.0
2024-11-20T14:56:03.200Z,MISSION_0038,32,0,takeoff,SITE_JAI_009,26.9123816,75.7873041,5.0,339.04,0.0,0.074,2.1,-0.0483,-0.7296,339.0354,-0.98329,0.00157,0.00618,0.18193,0.0211,0.0422,-9.8236,-0.3111,-1.0211,0.1611,0.1624,3,17,0.71,0.87,0.33,24.768,20.39,96.6,31.8,21257.0,8862,8940,8747,8813,48.0,47.8,49.0,48.9,2.961,2.612,2.867,2.643,2.31,278.5,23.7,57.9,1016.88,-34.58,-0.54,1.36,18.4,40.0,25.6,0,no_anomaly,0.0,0,0,0,0,26.9123816,75.7873041,5.0,0.0
2024-11-20T14:56:03.300Z,MISSION_0038,33,0,takeoff,SITE_JAI_009,26.9123873,75.787303,5.0,340.27,0.435,0.209,1.46,0.1475,0.4678,340.267,-0.9852,-0.00197,-0.0038,0.17136,-0.0082,-0.1239,-9.7028,0.6428,0.6145,0.0008,0.1577,3,14,0.57,0.99,0.25,24.716,15.64,96.6,31.7,21244.0,8642,8570,8567,8617,48.8,47.4,52.6,48.5,2.959,2.474,2.996,2.581,2.33,271.4,23.7,58.4,1017.04,-25.09,1.75,1.57,16.3,36.9,24.7,0,no_anomaly,0.0,0,0,0,0,26.9123873,75.787303,5.0,0.0
2024-11-20T14:56:03.400Z,MISSION_0038,34,0,takeoff,SITE_JAI_009,26.9123922,75.7872954,5.0,341.19,0.337,0.142,1.01,-3.3813,-1.486,341.1943,-0.98599,0.03122,0.00797,0.16367,0.0417,-0.092,-9.6423,-0.2175,0.2642,-0.3088,0.0998,3,11,0.66,0.86,0.2,24.737,17.55,96.5,31.6,21231.0,8251,8962,8814,8405,51.4,48.8,49.3,50.6,2.666,2.793,2.793,2.863,1.88,271.5,23.3,57.8,1017.26,-28.54,0.31,1.48,19.9,32.6,28.4,0,no_anomaly,0.0,0,0,0,0,26.9123922,75.7872954,5.0,0.0
2024-11-20T14:56:03.500Z,MISSION_0038,35,0,takeoff,SITE_JAI_009,26.9123895,75.7872983,5.0,342.26,0.078,0.094,1.19,1.9751,-0.2598,342.2561,-0.98789,-0.01668,0.0049,0.15416,-0.1866,0.0039,-9.8356,-0.3822,0.0716,0.3487,0.1525,3,10,0.7,0.77,0.21,24.755,14.04,96.4,31.5,21219.0,8613,8592,8919,8770,49.8,45.5,49.1,47.8,2.552,2.551,2.901,2.919,1.84,269.5,23.3,58.6,1016.67,-33.82,0.21,1.21,20.1,32.7,26.5,0,no_anomaly,0.0,0,0,0,0,26.9123895,75.7872983,5.0,0.0
2024-11-20T14:56:03.600Z,MISSION_0038,36,0,takeoff,SITE_JAI_009,26.912387,75.7872945,5.0,342.6,0.033,0.071,1.57,1.6224,-0.3362,342.5983,-0.98839,-0.01355,0.00504,0.15122,0.2348,-0.0139,-9.815,0.2146,0.0015,0.1727,0.2346,3,15,0.72,1.09,0.26,24.748,17.74,96.4,31.8,21206.0,8990,8865,8719,8625,49.2,46.8,45.1,52.2,2.451,2.724,2.775,2.887,2.07,270.2,23.3,57.8,1016.71,-31.15,-1.65,1.91,19.6,33.2,27.1,0,no_anomaly,0.0,0,0,0,0,26.912387,75.7872945,5.0,0.0
2024-11-20T14:56:03.700Z,MISSION_0038,37,0,takeoff,SITE_JAI_009,26.9123878,75.7872916,5.0,343.37,0.0,0.13,1.64,-0.2298,-0.6618,343.3721,-0.98947,0.00282,0.00542,0.14461,0.0397,-0.0346,-9.7896,-0.032,-0.2194,0.124,0.124,3,11,0.58,0.88,0.2,24.662,17.15,96.3,31.8,21194.0,8607,8875,8643,8930,50.1,49.7,49.0,50.9,2.986,2.792,2.953,3.079,1.67,270.1,23.8,59.0,1016.96,-31.74,0.35,1.68,16.9,32.8,26.5,0,no_anomaly,0.0,0,0,0,0,26.9123878,75.7872916,5.0,0.0
2024-11-20T14:56:03.800Z,MISSION_0038,38,0,takeoff,SITE_JAI_009,26.9123857,75.7872952,5.0,340.68,0.018,0.154,1.68,2.8093,-0.5851,340.6792,-0.98553,-0.02331,0.00915,0.16763,0.0292,-0.0227,-9.7355,-0.8813,0.145,0.1153,0.1365,3,14,0.68,0.79,0.2,24.703,14.6,96.3,32.2,21181.0,8460,8485,8665,8644,51.8,47.4,53.5,46.0,3.077,2.668,2.978,2.97,2.06,275.7,23.7,58.0,1016.36,-31.93,-1.39,1.71,16.9,37.7,24.0,0,no_anomaly,0.0,0,0,0,0,26.9123857,75.7872952,5.0,0.0
2024-11-20T14:56:03.900Z,MISSION_0038,39,0,takeoff,SITE_JAI_009,26.9123837,75.7872989,5.0,339.9,0.055,0.098,1.82,-2.1718,-3.0094,339.8971,-0.98405,0.02324,0.02255,0.17493,0.0418,-0.0029,-9.7644,-0.0875,-0.2447,0.1348,0.146,3,13,0.89,1.2,0.23,24.729,17.54,96.2,32.4,21168.0,8750,8874,8742,8540,51.4,48.1,51.2,47.8,2.758,2.893,2.553,2.755,1.88,279.3,23.5,58.7,1016.81,-31.93,-0.06,1.53,17.9,33.9,24.1,0,no_anomaly,0.0,0,0,0,0,26.9123837,75.7872989,5.0,0.0
2024-11-20T14:56:04.000Z,MISSION_0038,40,0,takeoff,SITE_JAI_009,26.9123806,75.7872977,5.0,339.98,0.296,0.17,2.18,0.7433,-2.8496,339.9789,-0.98448,-0.00206,0.02561,0.17361,0.0521,-0.1197,-9.732,-0.0407,-0.6314,-0.2423,0.1214,3,18,0.77,1.0,0.34,24.753,16.87,96.2,32.0,21156.0,8834,8771,9179,8727,51.6,52.3,46.8,48.2,2.55,2.502,2.699,2.832,1.86,265.1,23.5,57.7,1016.62,-26.18,1.15,1.88,15.7,28.1,24.6,0,no_anomaly,0.0,0,0,0,0,26.9123806,75.7872977,5.0,0.0
2024-11-20T14:56:04.100Z,MISSION_0038,41,0,takeoff,SITE_JAI_009,26.9123767,75.7872965,5.0,339.15,0.33,0.088,2.63,-0.3947,-0.512,339.1492,-0.98347,0.0042,0.00377,0.18097,-0.0985,-0.0408,-9.8275,0.1814,0.4759,-0.0823,0.2032,3,12,0.55,1.03,0.2,24.752,19.2,96.1,32.1,21143.0,8693,8856,8705,9028,47.0,47.1,51.3,48.1,2.632,2.542,2.946,2.72,1.8,262.1,23.5,58.4,1017.15,-29.3,2.24,1.52,20.4,32.8,25.8,0,no_anomaly,0.0,0,0,0,0,26.9123767,75.7872965,5.0,0.0
2024-11-20T14:56:04.200Z,MISSION_0038,42,0,takeoff,SITE_JAI_009,26.9123708,75.7872949,5.0,340.0,0.597,0.074,3.29,1.7199,0.1586,340.0045,-0.9847,-0.01502,0.00124,0.17361,-0.14,0.0329,-9.8023,0.8857,-0.4763,-0.4356,0.1439,3,15,0.64,1.22,0.31,24.598,18.24,96.0,31.8,21130.0,8782,8709,8623,8658,51.9,47.9,49.8,47.7,2.842,2.946,2.923,2.765,3.1,270.4,23.6,57.8,1016.32,-30.72,-0.42,1.41,18.3,30.7,27.7,0,no_anomaly,0.0,0,0,0,0,26.9123708,75.7872949,5.0,0.0
2024-11-20T14:56:04.300Z,MISSION_0038,43,0,takeoff,SITE_JAI_009,26.9123717,75.7872912,5.0,340.38,0.746,0.137,3.3,-2.2968,-4.0866,340.3766,-0.98443,0.02581,0.03171,0.17097,0.0229,0.0633,-9.853,-0.6907,-0.959,0.7817,0.1607,3,14,0.62,1.04,0.29,24.758,15.89,96.0,31.9,21118.0,8524,8718,8668,8881,51.0,49.8,50.0,49.6,2.751,2.794,2.59,2.701,2.43,276.9,23.3,58.5,1017.23,-30.9,-0.65,1.66,16.3,29.4,26.6,0,no_anomaly,0.0,0,0,0,0,26.9123717,75.7872912,5.0,0.0
2024-11-20T14:56:04.400Z,MISSION_0038,44,0,takeoff,SITE_JAI_009,26.9123724,75.7872897,5.0,340.38,0.715,0.104,3.28,1.2729,-2.9366,340.3819,-0.98505,-0.00658,0.02714,0.17002,0.1075,0.0361,-9.7389,-0.0509,-0.7633,-0.4301,0.2066,3,15,0.7,0.89,0.43,24.615,14.83,95.9,31.4,21105.0,8871,8434,8405,8699,46.8,48.3,46.4,47.5,2.698,2.946,2.615,2.757,1.97,275.6,23.8,58.6,1016.97,-29.28,1.73,1.61,18.7,32.9,28.3,0,no_anomaly,0.0,0,0,0,0,26.9123724,75.7872897,5.0,0.0
2024-11-20T14:56:04.500Z,MISSION_0038,45,0,takeoff,SITE_JAI_009,26.9123696,75.7872859,5.0,340.0,1.192,0.027,3.72,-1.4608,-0.6386,339.9967,-0.9847,0.01352,0.00327,0.17373,0.093,-0.0265,-9.7412,-0.3795,-0.2045,0.0547,0.2181,3,17,0.6,1.01,0.26,24.707,15.41,95.9,31.3,21092.0,8734,8652,8938,8313,49.9,49.2,50.4,47.8,2.667,2.867,2.781,3.103,2.56,265.1,23.7,57.8,1016.67,-30.16,0.96,1.35,23.7,34.5,26.1,0,no_anomaly,0.0,0,0,0,0,26.9123696,75.7872859,5.0,0.0
2024-11-20T14:56:04.600Z,MISSION_0038,46,0,takeoff,SITE_JAI_009,26.9123665,75.7872827,5.0,338.67,1.712,-0.024,4.19,0.8257,-0.8494,338.6736,-0.98269,-0.00571,0.00862,0.18497,-0.0366,0.0609,-9.8273,0.8072,-0.1673,-0.096,0.2268,3,19,0.72,0.9,0.21,24.666,21.22,95.8,31.4,21080.0,8673,8530,8726,8446,49.9,50.2,49.0,49.7,2.799,2.433,2.876,3.053,1.6,272.6,24.3,58.5,1016.56,-32.31,-1.65,1.09,22.4,38.6,27.7,0,no_anomaly,0.0,0,0,0,0,26.9123665,75.7872827,5.0,0.0
2024-11-20T14:56:04.700Z,MISSION_0038,47,0,takeoff,SITE_JAI_009,26.9123658,75.787285,5.0,337.35,1.867,0.134,4.16,3.1802,-1.5541,337.3479,-0.98013,-0.02454,0.01874,0.19593,-0.2197,0.0584,-9.7678,0.3698,-0.0242,-0.3174,0.0324,3,20,0.62,0.76,0.21,24.709,18.5,95.8,31.3,21067.0,8619,8708,8747,8766,45.2,48.9,48.4,50.6,2.799,2.882,2.701,2.902,2.22,275.0,23.5,58.3,1016.59,-31.98,2.42,1.27,20.6,33.3,24.3,0,no_anomaly,0.0,0,0,0,0,26.9123658,75.787285,5.0,0.0
2024-11-20T14:56:04.800Z,MISSION_0038,48,0,takeoff,SITE_JAI_009,26.9123701,75.7872909,5.0,337.15,2.043,0.174,3.47,-1.8223,0.0512,337.1454,-0.98005,0.0155,-0.00359,0.19809,-0.0202,-0.0197,-9.9409,-0.8008,0.1764,-0.2567,0.1283,3,12,0.56,0.67,0.2,24.789,20.83,95.7,31.8,21055.0,8667,8886,8579,8493,51.7,50.1,48.4,47.1,2.797,2.739,2.618,2.743,1.83,283.4,23.2,58.0,1016.96,-29.46,-1.05,1.78,14.7,32.4,25.2,0,no_anomaly,0.0,0,0,0,0,26.9123701,75.7872909,5.0,0.0
2024-11-20T14:56:04.900Z,MISSION_0038,49,0,takeoff,SITE_JAI_009,26.9123712,75.7872926,5.0,337.67,2.028,0.028,3.31,0.9062,-2.8642,337.6669,-0.98077,-0.00292,0.02605,0.1934,0.0463,0.0117,-9.7853,0.039,-1.0009,-0.2911,0.1504,3,18,0.77,0.8,0.27,24.695,16.16,95.6,31.5,21042.0,8839,8244,8784,8906,50.6,48.3,52.7,51.1,2.814,2.601,2.954,2.659,2.21,273.4,23.6,57.8,1017.11,-32.48,-1.85,1.16,20.4,33.9,28.5,0,no_anomaly,0.0,0,0,0,0,26.9123712,75.7872926,5.0,0.0
2024-11-20T14:56:05.000Z,MISSION_0038,50,0,takeoff,SITE_JAI_009,26.9123698,75.7872989,5.0,340.22,2.074,0.131,3.36,-0.4384,-1.1959,340.2224,-0.98508,0.00556,0.00962,0.17176,0.0881,0.0098,-9.8133,-0.4369,-0.3966,-0.1435,0.1493,3,18,0.66,1.0,0.35,24.736,18.52,95.6,31.5,21029.0,8626,8719,8731,8680,47.2,49.0,50.2,46.2,2.714,2.809,2.623,2.666,2.57,274.5,23.6,57.9,1017.1,-28.0,0.09,1.58,19.3,38.0,25.7,0,no_anomaly,0.0,0,0,0,0,26.9123698,75.7872989,5.0,0.0
2024-11-20T14:56:05.100Z,MISSION_0038,51,0,takeoff,SITE_JAI_009,26.9123709,75.7872936,5.0,339.71,1.911,0.036,3.31,2.8232,-2.0703,339.7085,-0.98398,-0.02106,0.02212,0.17563,0.0056,0.0498,-9.7933,-0.1948,-0.3381,-0.2842,0.0031,3,14,0.58,0.86,0.27,24.676,21.92,95.5,31.4,21017.0,8800,8443,8621,8784,47.2,46.4,50.4,46.1,2.623,2.811,2.95,2.622,2.65,279.4,23.7,57.9,1016.93,-25.39,0.16,1.63,19.6,29.7,25.7,0,no_anomaly,0.0,0,0,0,0,26.9123709,75.7872936,5.0,0.0
2024-11-20T14:56:05.200Z,MISSION_0038,52,0,takeoff,SITE_JAI_009,26.9123711,75.7872926,5.0,342.47,1.74,0.044,3.32,0.3264,-1.4231,342.4704,-0.98825,-0.00092,0.01271,0.15233,-0.0198,0.0084,-9.7633,0.542,0.3929,0.0347,0.1316,3,14,0.89,0.91,0.45,24.707,19.04,95.5,32.3,21004.0,8457,8715,8844,8677,48.9,46.3,47.8,45.8,2.773,2.578,2.832,2.827,2.2,278.1,23.8,57.5,1016.77,-34.17,-0.19,1.75,22.8,33.0,26.2,0,no_anomaly,0.0,0,0,0,0,26.9123711,75.7872926,5.0,0.0
2024-11-20T14:56:05.300Z,MISSION_0038,53,0,takeoff,SITE_JAI_009,26.9123649,75.7872918,5.0,341.62,1.255,0.18,4.01,0.7685,-0.2419,341.6187,-0.98714,-0.00628,0.00315,0.1597,0.0945,0.0383,-9.8302,-0.978,0.2976,0.1271,0.2141,3,11,0.59,0.72,0.28,24.578,20.73,95.4,32.0,20991.0,8810,8708,8923,8824,48.4,49.6,47.3,49.8,2.861,2.867,3.041,3.053,2.2,286.6,23.5,57.6,1016.69,-30.85,-1.41,1.43,17.5,29.7,26.4,0,no_anomaly,0.0,0,0,0,0,26.9123649,75.7872918,5.0,0.0
2024-11-20T14:56:05.400Z,MISSION_0038,54,0,transit,SITE_JAI_009,26.9123676,75.7872931,5.5,340.48,1.169,0.098,3.68,0.5991,-2.3513,340.4798,-0.98532,-0.00167,0.02111,0.16938,0.0043,-0.0203,-9.7844,-0.6035,-0.2191,-0.2302,0.1364,3,11,0.64,0.94,0.21,24.67,17.63,95.4,30.8,20979.0,8686,8891,8690,8635,46.8,48.0,48.1,50.4,3.166,2.846,2.709,2.604,2.19,276.5,23.5,57.5,1016.75,-29.29,-0.06,1.14,19.1,38.0,25.4,0,no_anomaly,0.0,0,0,0,0,26.9123676,75.7872931,5.5,0.0
2024-11-20T14:56:05.500Z,MISSION_0038,55,0,transit,SITE_JAI_009,26.9123714,75.7872946,6.0,340.26,1.05,0.059,3.24,-0.7324,-2.037,340.2598,-0.985,0.00934,0.01642,0.1715,0.0653,-0.1469,-9.8869,-0.0042,-0.2298,0.0281,0.1548,3,14,0.71,0.98,0.3,24.7,15.14,95.3,31.8,20966.0,8551,8659,8557,8530,48.6,47.9,46.3,51.9,2.686,2.852,2.832,2.709,2.04,275.9,23.5,57.9,1017.01,-32.63,-0.71,1.22,17.3,34.4,24.8,0,no_anomaly,0.0,0,0,0,0,26.9123714,75.7872946,6.0,0.0
2024-11-20T14:56:05.600Z,MISSION_0038,56,0,transit,SITE_JAI_009,26.9123738,75.7873017,6.5,340.21,1.243,0.158,2.92,0.8836,-2.8784,340.2076,-0.98481,-0.00328,0.02607,0.17161,0.1016,-0.0375,-9.8974,0.7761,0.0278,0.5558,0.2462,3,16,0.82,0.98,0.49,24.58,22.62,95.2,32.0,20953.0,8617,8716,8335,8766,50.4,47.1,46.4,45.7,2.881,2.644,2.633,2.74,2.92,272.8,23.4,57.2,1017.06,-25.69,0.1,1.82,21.3,33.8,24.4,0,no_anomaly,0.0,0,0,0,0,26.9123738,75.7873017,6.5,0.0
2024-11-20T14:56:05.700Z,MISSION_0038,57,0,transit,SITE_JAI_009,26.9123744,75.7872978,7.0,341.65,1.593,0.143,2.86,2.1486,-3.1584,341.65,-0.98674,-0.01411,0.03019,0.15885,0.0614,0.0001,-9.8398,-0.8901,-0.379,0.3665,0.2044,3,18,0.64,0.8,0.21,24.691,18.49,95.2,32.0,20941.0,8766,9083,8880,8944,47.8,49.8,52.3,52.0,2.713,2.981,2.669,2.751,2.05,262.4,23.9,58.0,1016.84,-25.97,-0.28,1.3,17.7,32.9,27.7,0,no_anomaly,0.0,0,0,0,0,26.9123744,75.7872978,7.0,0.0
2024-11-20T14:56:05.800Z,MISSION_0038,58,0,transit,SITE_JAI_009,26.9123754,75.7872924,7.5,342.31,1.416,0.187,2.86,-1.7178,-0.7259,342.3072,-0.98796,0.01579,0.00395,0.15386,0.0604,-0.0207,-9.7454,-0.7358,0.0407,0.1953,0.152,3,19,0.7,0.78,0.27,24.634,16.92,95.1,31.3,20928.0,8658,8375,8903,8887,47.0,48.9,49.2,50.3,2.776,2.586,2.756,2.719,1.49,280.5,23.7,57.8,1016.83,-29.56,0.16,1.28,15.9,30.9,24.7,0,no_anomaly,0.0,0,0,0,0,26.9123754,75.7872924,7.5,0.0
2024-11-20T14:56:05.900Z,MISSION_0038,59,0,transit,SITE_JAI_009,26.9123798,75.787289,8.0,345.39,1.153,0.115,2.57,0.6096,-1.718,345.3911,-0.99177,-0.00337,0.01555,0.12705,0.081,0.0089,-9.8175,-0.0157,0.5015,-0.3503,0.1543,3,15,0.69,1.02,0.3,24.68,19.4,95.1,32.8,20916.0,8687,8568,8844,8556,51.2,51.8,50.2,51.0,2.817,2.878,2.925,2.694,2.29,272.5,23.3,57.7,1016.9,-29.89,-0.55,1.15,19.3,31.1,23.8,0,no_anomaly,0.0,0,0,0,0,26.9123798,75.787289,8.0,0.0
2024-11-20T14:56:06.000Z,MISSION_0038,60,0,transit,SITE_JAI_009,26.9123814,75.7872869,8.5,342.88,0.97,0.056,2.53,-0.4384,-1.7377,342.8793,-0.98873,0.00604,0.01442,0.14889,-0.0284,-0.0886,-9.8587,0.3035,-0.4912,-0.1638,0.1777,3,16,0.66,0.84,0.25,24.627,22.79,95.0,31.9,20903.0,8718,8671,8598,8913,47.0,49.3,48.0,48.2,3.007,2.942,3.112,2.903,2.64,280.8,23.5,57.7,1016.95,-29.43,-0.35,1.38,21.6,30.7,25.9,0,no_anomaly,0.0,0,0,0,0,26.9123814,75.7872869,8.5,0.0
2024-11-20T14:56:06.100Z,MISSION_0038,61,0,transit,SITE_JAI_009,26.9123873,75.7872844,9.0,344.4,1.367,0.155,2.24,-0.7368,-2.8083,344.4029,-0.99041,0.00969,0.02341,0.1358,-0.0705,0.0447,-9.7488,-0.0026,0.2518,0.1763,0.1411,3,14,0.6,0.74,0.24,24.605,15.8,95.0,30.9,20890.0,8610,8600,8695,8579,49.7,52.5,46.3,47.6,2.846,2.753,3.027,2.667,1.76,270.5,23.7,58.7,1017.03,-33.13,-0.52,1.31,18.5,32.1,26.0,0,no_anomaly,0.0,0,0,0,0,26.9123873,75.7872844,9.0,0.0
2024-11-20T14:56:06.200Z,MISSION_0038,62,0,transit,SITE_JAI_009,26.912388,75.7872839,9.5,344.74,1.485,0.059,2.24,-4.3766,-2.4446,344.7368,-0.99009,0.04067,0.01606,0.13348,0.2906,-0.0168,-9.8009,0.1977,-0.2504,-0.0076,0.1691,3,17,0.69,1.09,0.3,24.642,17.99,94.9,31.4,20878.0,8795,8558,8701,9036,52.6,51.7,51.0,46.7,2.775,2.85,2.477,2.921,1.92,276.4,23.6,58.9,1017.04,-33.18,0.38,1.43,19.0,30.4,29.3,0,no_anomaly,0.0,0,0,0,0,26.912388,75.7872839,9.5,0.0
2024-11-20T14:56:06.300Z,MISSION_0038,63,0,transit,SITE_JAI_009,26.9123944,75.7872868,10.0,341.99,1.275,0.135,1.6,0.4158,-2.0602,341.9929,-0.98752,-0.00077,0.01832,0.1564,-0.1428,-0.0141,-9.8068,-0.2718,0.1256,0.2123,0.2105,3,20,0.63,0.82,0.23,24.683,18.51,94.8,32.2,20865.0,8918,8584,8885,8604,47.6,48.7,50.8,51.5,3.122,2.796,2.958,2.712,3.0,275.2,23.5,57.3,1016.91,-28.06,-0.74,1.43,18.0,37.4,25.9,0,no_anomaly,0.0,0,0,0,0,26.9123944,75.7872868,10.0,0.0
2024-11-20T14:56:06.400Z,MISSION_0038,64,0,transit,SITE_JAI_009,26.9123903,75.7872853,10.5,343.91,1.285,0.048,1.96,-2.632,-3.4903,343.9093,-0.98934,0.02699,0.02693,0.14055,0.0905,-0.0176,-9.8267,-0.1663,-0.6403,0.5883,0.1379,3,20,0.57,0.98,0.2,24.667,15.4,94.8,32.2,20852.0,8554,8554,8635,8720,46.2,47.4,49.4,48.3,2.652,2.788,2.79,2.76,2.32,277.3,23.6,57.8,1016.95,-23.41,-0.63,1.48,15.9,38.3,28.2,0,no_anomaly,0.0,0,0,0,0,26.9123903,75.7872853,10.5,0.0
2024-11-20T14:56:06.500Z,MISSION_0038,65,0,transit,SITE_JAI_009,26.9123868,75.7872872,11.0,345.75,0.978,0.042,2.05,0.4535,-2.1706,345.7453,-0.9921,-0.00158,0.01929,0.12398,-0.0057,0.0191,-9.9196,0.3706,-0.3368,-0.1106,0.1568,3,14,0.71,0.7,0.44,24.683,16.86,94.7,31.9,20840.0,8955,8889,8849,8773,50.2,49.5,50.8,45.8,2.776,2.831,2.904,3.027,2.45,273.2,23.6,57.7,1017.2,-31.47,0.06,1.0,20.1,32.6,23.9,0,no_anomaly,0.0,0,0,0,0,26.9123868,75.7872872,11.0,0.0
2024-11-20T14:56:06.600Z,MISSION_0038,66,0,transit,SITE_JAI_009,26.9123891,75.7872888,11.5,346.93,1.34,0.155,1.74,2.4409,-1.2462,346.929,-0.99324,-0.01992,0.01323,0.11356,0.0312,-0.0676,-9.8336,-0.2015,0.4035,0.354,0.1523,3,15,0.59,1.36,0.32,24.648,13.14,94.7,31.3,20827.0,8734,8766,8839,8762,51.0,50.7,50.9,48.0,2.821,2.682,2.546,2.825,2.03,273.0,23.4,59.3,1017.14,-25.81,0.44,1.12,17.2,34.6,23.4,0,no_anomaly,0.0,0,0,0,0,26.9123891,75.7872888,11.5,0.0
2024-11-20T14:56:06.700Z,MISSION_0038,67,0,transit,SITE_JAI_009,26.9123947,75.7872911,12.0,347.21,1.602,0.04,1.16,-4.175,0.8977,347.2081,-0.99312,0.03533,-0.01184,0.11104,0.0078,0.0624,-9.7068,0.4627,-0.1274,-0.136,0.1628,3,13,0.67,0.83,0.32,24.604,24.37,94.6,31.8,20814.0,8702,8844,8624,8647,49.6,49.4,50.0,45.3,2.66,2.77,2.663,2.695,2.04,269.7,23.4,58.4,1017.11,-30.93,1.39,1.96,17.9,33.1,24.9,0,no_anomaly,0.0,0,0,0,0,26.9123947,75.7872911,12.0,0.0
2024-11-20T14:56:06.800Z,MISSION_0038,68,0,transit,SITE_JAI_009,26.9123897,75.787291,12.5,343.98,1.863,0.148,1.53,-0.052,-2.1086,343.9832,-0.99008,0.00301,0.01816,0.1393,0.0214,0.0283,-9.7782,0.082,0.6617,-0.2843,0.1385,3,15,0.65,1.02,0.23,24.625,16.7,94.6,31.6,20802.0,8551,8563,9030,8828,49.4,49.1,49.4,47.4,2.734,2.641,2.758,2.903,1.87,267.1,23.6,58.1,1017.32,-32.93,0.55,1.29,19.7,37.1,27.0,0,no_anomaly,0.0,0,0,0,0,26.9123897,75.787291,12.5,0.0
2024-11-20T14:56:06.900Z,MISSION_0038,69,0,transit,SITE_JAI_009,26.912383,75.7872939,13.0,343.59,1.919,0.051,2.01,-0.2622,-2.7954,343.5855,-0.98945,0.00575,0.02382,0.14277,0.0109,-0.1444,-9.8404,0.0843,-0.5509,0.1376,0.1748,3,16,0.69,0.76,0.2,24.612,26.38,94.5,31.7,20789.0,8904,8905,8606,8590,48.1,49.0,49.2,46.1,2.962,2.671,2.646,2.654,1.27,277.9,23.3,57.9,1017.15,-34.43,0.05,1.74,20.0,35.5,27.5,0,no_anomaly,0.0,0,0,0,0,26.912383,75.7872939,13.0,0.0
2024-11-20T14:56:07.000Z,MISSION_0038,70,0,transit,SITE_JAI_009,26.9123811,75.7872928,13.2,344.24,1.982,0.096,2.25,-2.8521,-2.6276,344.2376,-0.98991,0.02779,0.01929,0.13761,-0.1696,0.0194,-9.7692,-0.4055,0.104,0.5852,0.1012,3,18,0.68,0.83,0.35,24.57,19.29,94.4,32.8,20777.0,8521,8661,9200,8773,48.3,50.2,47.8,50.0,2.856,2.651,2.774,3.056,2.64,273.3,23.6,58.3,1016.5,-28.43,-0.02,1.19,19.6,31.8,27.5,0,no_anomaly,0.0,0,0,0,0,26.9123811,75.7872928,13.2,0.0
2024-11-20T14:56:07.100Z,MISSION_0038,71,0,transit,SITE_JAI_009,26.9123827,75.787292,13.2,344.32,1.709,0.126,2.13,-0.6154,0.2638,344.3191,-0.99064,0.00501,-0.00301,0.1364,0.1331,0.002,-9.7826,0.3136,0.3166,0.0244,0.1736,3,20,0.77,1.18,0.34,24.713,26.33,94.4,31.5,20764.0,8717,8771,8687,8571,47.4,47.4,51.5,49.0,2.697,2.48,2.64,3.094,1.65,274.8,23.7,57.6,1017.05,-26.48,-0.95,1.56,20.7,37.6,27.1,0,no_anomaly,0.0,0,0,0,0,26.9123827,75.787292,13.2,0.0
2024-11-20T14:56:07.200Z,MISSION_0038,72,0,transit,SITE_JAI_009,26.9123784,75.7872895,13.2,343.33,1.331,0.099,2.67,-1.2719,-2.8545,343.3276,-0.98903,0.01459,0.02303,0.1452,-0.2094,-0.0205,-9.8467,-0.1372,0.189,-0.0193,0.1591,3,17,0.72,1.02,0.43,24.751,17.93,94.3,31.9,20751.0,8420,8643,8727,8772,49.5,49.4,51.0,47.6,3.023,2.706,2.745,2.789,1.05,280.0,23.8,58.0,1016.89,-26.01,-0.84,2.01,20.4,38.5,25.4,0,no_anomaly,0.0,0,0,0,0,26.9123784,75.7872895,13.2,0.0
2024-11-20T14:56:07.300Z,MISSION_0038,73,0,transit,SITE_JAI_009,26.9123765,75.7872866,13.2,342.7,1.123,0.105,3.01,1.7311,-1.8084,342.7019,-0.98843,-0.01256,0.01787,0.15011,0.0692,0.0204,-9.7995,0.3453,-0.0807,-0.746,0.1756,3,14,0.78,0.88,0.39,24.672,22.84,94.3,32.4,20739.0,8696,8764,8852,8889,49.8,49.1,46.7,48.1,2.768,2.714,2.664,2.977,2.6,282.4,23.7,57.5,1016.99,-35.58,1.41,1.69,20.0,29.7,28.9,0,no_anomaly,0.0,0,0,0,0,26.9123765,75.7872866,13.2,0.0
2024-11-20T14:56:07.400Z,MISSION_0038,74,0,transit,SITE_JAI_009,26.9123816,75.7872845,13.2,341.75,1.121,0.172,2.68,1.9018,-2.7206,341.7515,-0.987,-0.01262,0.02607,0.15812,0.2615,0.0015,-9.8822,0.7982,-0.0093,-0.0834,0.1688,3,16,0.69,0.65,0.37,24.735,15.59,94.2,32.2,20726.0,8633,8563,8708,9007,51.0,47.8,51.6,48.1,2.795,2.769,3.071,2.803,1.81,276.4,23.7,57.3,1016.84,-30.43,-0.16,1.69,20.5,36.3,28.1,0,no_anomaly,0.0,0,0,0,0,26.9123816,75.7872845,13.2,0.0
2024-11-20T14:56:07.500Z,MISSION_0038,75,0,transit,SITE_JAI_009,26.9123788,75.7872859,13.2,341.87,1.194,-0.008,2.83,1.9387,-1.8886,341.8718,-0.98728,-0.01411,0.01894,0.15722,-0.0878,0.0309,-9.8679,0.4669,0.0996,-0.4956,0.1165,3,13,0.6,1.02,0.24,24.55,20.04,94.2,31.8,20713.0,9062,8686,8753,8582,47.5,46.1,48.3,50.1,2.655,2.712,2.608,2.855,2.21,281.2,23.6,58.0,1016.91,-30.16,0.13,1.8,20.3,31.0,26.5,0,no_anomaly,0.0,0,0,0,0,26.9123788,75.7872859,13.2,0.0
2024-11-20T14:56:07.600Z,MISSION_0038,76,0,transit,SITE_JAI_009,26.9123722,75.7872867,13.2,341.77,1.207,0.104,3.43,-1.8949,-0.1906,341.7723,-0.98723,0.01659,-0.00098,0.1584,0.0568,0.1475,-9.724,0.1826,0.1362,-0.0787,0.2477,3,10,0.69,0.87,0.29,24.565,20.35,94.1,31.8,20701.0,8804,8795,8671,8840,49.4,46.9,48.0,50.0,2.725,2.769,2.829,2.847,2.29,269.6,23.9,58.1,1017.17,-30.67,0.05,1.52,23.0,38.7,28.6,0,no_anomaly,0.0,0,0,0,0,26.9123722,75.7872867,13.2,0.0
2024-11-20T14:56:07.700Z,MISSION_0038,77,0,transit,SITE_JAI_009,26.9123694,75.7872876,13.2,341.45,1.798,0.115,3.68,-0.4254,-3.8277,341.4517,-0.98635,0.00904,0.03236,0.16119,-0.0021,-0.0134,-9.8418,-0.1265,0.1004,-0.3311,0.0652,3,11,0.73,0.64,0.4,24.56,18.73,94.0,31.1,20688.0,8731,8836,8673,8855,45.6,46.8,48.4,49.9,2.807,2.91,2.861,2.831,2.25,283.0,23.3,58.2,1016.83,-31.5,1.45,1.69,15.5,34.2,22.9,0,no_anomaly,0.0,0,0,0,0,26.9123694,75.7872876,13.2,0.0
2024-11-20T14:56:07.800Z,MISSION_0038,78,0,transit,SITE_JAI_009,26.9123702,75.7872856,13.2,340.99,1.763,0.163,3.68,-2.8057,-4.02,340.9879,-0.98522,0.02992,0.03054,0.16585,-0.0928,-0.0453,-9.8085,-0.443,-0.5534,0.5039,0.1685,3,18,0.78,0.9,0.27,24.643,22.11,94.0,31.7,20675.0,8982,8712,8803,8861,50.3,48.6,45.1,44.7,2.526,2.925,2.843,3.105,1.44,285.2,23.4,58.1,1016.7,-28.97,0.37,1.06,18.5,37.6,26.1,0,no_anomaly,0.0,0,0,0,0,26.9123702,75.7872856,13.2,0.0
2024-11-20T14:56:07.900Z,MISSION_0038,79,0,transit,SITE_JAI_009,26.9123747,75.7872854,13.2,341.9,1.4,0.093,3.25,2.5497,-2.3967,341.9039,-0.98717,-0.01868,0.02415,0.15673,-0.0609,0.0318,-9.7885,0.4323,0.9482,0.5164,0.1323,3,15,0.76,0.84,0.29,24.626,18.06,93.9,32.3,20663.0,8614,8837,8831,8858,48.5,45.8,48.3,48.4,2.597,2.696,2.835,2.859,2.7,276.6,23.7,58.1,1016.52,-32.7,0.44,1.37,18.5,30.0,29.0,0,no_anomaly,0.0,0,0,0,0,26.9123747,75.7872854,13.2,0.0
2024-11-20T14:56:08.000Z,MISSION_0038,80,0,transit,SITE_JAI_009,26.9123759,75.7872855,13.2,341.81,1.212,0.079,3.13,-3.4652,-2.9064,341.8129,-0.98654,0.03385,0.02025,0.15868,-0.0272,-0.0978,-9.8741,-0.0556,0.5433,-0.2144,0.1728,3,15,0.65,1.04,0.27,24.646,21.65,93.9,31.5,20650.0,8917,8799,8622,8448,48.3,50.1,49.3,50.1,2.679,2.891,2.56,2.726,1.36,276.5,24.0,59.1,1016.48,-32.44,-0.04,1.61,15.6,34.7,23.8,0,no_anomaly,0.0,0,0,0,0,26.9123759,75.7872855,13.2,0.0
2024-11-20T14:56:08.100Z,MISSION_0038,81,0,transit,SITE_JAI_009,26.9123761,75.7872833,13.2,340.41,1.335,-0.014,3.25,1.2728,-1.0007,340.4094,-0.98534,-0.00946,0.01049,0.17002,-0.2705,-0.0078,-9.8574,0.1085,0.8414,0.4721,0.1056,3,19,0.75,0.99,0.41,24.676,17.65,93.8,32.0,20638.0,8783,8749,8960,8919,48.9,49.0,44.8,48.1,2.627,2.738,2.824,2.845,1.26,276.5,23.7,58.0,1016.65,-30.45,1.56,1.2,18.0,33.9,25.3,0,no_anomaly,0.0,0,0,0,0,26.9123761,75.7872833,13.2,0.0
2024-11-20T14:56:08.200Z,MISSION_0038,82,0,transit,SITE_JAI_009,26.9123759,75.7872873,13.2,338.55,1.066,0.117,3.04,2.0844,-1.5917,338.5452,-0.98231,-0.01528,0.01703,0.18584,0.072,-0.0029,-9.7939,0.1028,0.2782,-0.1547,0.1371,3,13,0.53,1.17,0.21,24.676,29.97,93.7,31.8,20625.0,8668,8917,8683,8744,50.4,47.1,48.9,45.3,2.826,2.63,3.017,2.594,2.16,267.3,23.7,57.8,1016.99,-29.88,-1.0,1.22,21.2,30.4,26.1,0,no_anomaly,0.0,0,0,0,0,26.9123759,75.7872873,13.2,0.0
2024-11-20T14:56:08.300Z,MISSION_0038,83,0,transit,SITE_JAI_009,26.9123782,75.7872915,13.2,339.48,0.745,0.123,2.61,-1.5571,-0.1608,339.4836,-0.98392,0.01362,-0.00104,0.17809,0.0244,0.043,-9.7343,-0.3992,0.4194,-0.2177,0.1758,3,14,0.8,0.91,0.33,24.542,19.39,93.7,31.6,20612.0,8904,8621,8948,8563,49.0,48.0,47.2,50.4,2.975,2.937,2.77,2.78,3.26,287.1,23.5,58.1,1017.13,-30.99,-0.68,1.54,16.5,35.5,28.6,0,no_anomaly,0.0,0,0,0,0,26.9123782,75.7872915,13.2,0.0
2024-11-20T14:56:08.400Z,MISSION_0038,84,0,transit,SITE_JAI_009,26.9123808,75.7872863,13.2,339.03,1.105,0.108,2.62,-1.6579,-3.0247,339.032,-0.98279,0.01902,0.02332,0.18225,-0.0197,0.0515,-9.8119,-0.4614,-0.157,0.6262,0.1793,3,10,0.61,1.11,0.2,24.735,18.2,93.6,32.3,20600.0,8885,8724,8916,8676,47.6,46.6,49.3,49.0,2.665,2.832,2.919,2.656,2.86,268.8,23.7,58.3,1016.82,-29.59,0.84,1.64,16.5,35.3,27.5,0,no_anomaly,0.0,0,0,0,0,26.9123808,75.7872863,13.2,0.0
2024-11-20T14:56:08.500Z,MISSION_0038,85,0,transit,SITE_JAI_009,26.9123814,75.7872833,13.2,339.73,1.231,0.087,2.78,-0.1673,-2.8056,339.7275,-0.98409,0.00574,0.02384,0.17597,0.1213,-0.0108,-9.8354,-0.7944,1.3261,0.1876,0.2211,3,18,0.75,0.96,0.37,24.613,15.55,93.6,33.3,20587.0,8497,8520,8682,8812,50.4,48.2,48.5,51.7,2.799,2.562,3.096,2.477,2.3,274.2,23.7,58.0,1016.76,-27.81,0.11,2.2,16.5,37.8,24.0,0,no_anomaly,0.0,0,0,0,0,26.9123814,75.7872833,13.2,0.0
2024-11-20T14:56:08.600Z,MISSION_0038,86,0,transit,SITE_JAI_009,26.9123832,75.7872855,13.2,339.49,1.438,0.138,2.47,2.3071,-1.4725,339.4872,-0.98379,-0.01752,0.01623,0.17775,-0.0389,0.0096,-9.8593,-0.4257,-0.078,0.0934,0.1738,3,13,0.69,0.67,0.2,24.636,19.04,93.5,31.8,20574.0,8528,8709,9131,8879,49.8,48.2,47.4,50.7,2.914,2.865,2.82,2.954,2.76,272.5,23.4,58.4,1016.85,-27.28,0.72,1.63,17.9,36.4,25.7,0,no_anomaly,0.0,0,0,0,0,26.9123832,75.7872855,13.2,0.0
2024-11-20T14:56:08.700Z,MISSION_0038,87,0,transit,SITE_JAI_009,26.9123796,75.7872882,13.2,341.4,0.794,0.11,2.63,3.4214,-4.3042,341.4023,-0.9859,-0.02338,0.04186,0.16029,0.0517,-0.0393,-9.7783,0.7061,0.39,-0.0334,0.1147,3,10,0.76,1.05,0.33,24.564,22.35,93.5,31.8,20562.0,9161,8980,8828,8804,48.8,51.3,50.7,48.8,3.048,2.875,2.761,2.901,2.09,265.1,23.4,58.2,1016.79,-28.54,0.1,1.61,17.2,31.2,25.0,0,no_anomaly,0.0,0,0,0,0,26.9123796,75.7872882,13.2,0.0
2024-11-20T14:56:08.800Z,MISSION_0038,88,0,transit,SITE_JAI_009,26.9123796,75.7872869,13.2,341.25,0.304,0.065,2.7,1.7996,-1.0395,341.2528,-0.98651,-0.01402,0.01151,0.1627,-0.0812,-0.0339,-9.7825,-0.0743,-1.0222,-0.037,0.2148,3,10,0.77,1.0,0.3,24.592,18.42,93.4,30.9,20549.0,8473,8785,8999,8654,50.2,49.2,48.8,48.2,2.603,2.742,2.778,2.725,2.79,276.9,23.7,57.2,1016.93,-31.22,-1.6,2.16,19.4,37.4,24.6,0,no_anomaly,0.0,0,0,0,0,26.9123796,75.7872869,13.2,0.0
2024-11-20T14:56:08.900Z,MISSION_0038,89,0,transit,SITE_JAI_009,26.912381,75.7872861,13.2,339.68,0.0,0.165,2.62,0.9882,-3.313,339.6763,-0.98391,-0.00338,0.02997,0.1761,-0.0306,0.0475,-9.7796,0.707,-0.0928,-0.0841,0.0624,3,20,0.65,0.74,0.3,24.619,18.87,93.3,31.3,20536.0,8803,8768,8602,8754,47.5,45.9,51.0,48.3,2.978,2.919,2.921,2.63,2.17,281.3,23.5,58.8,1016.96,-29.85,1.08,1.5,21.2,33.1,24.0,0,no_anomaly,0.0,0,0,0,0,26.912381,75.7872861,13.2,0.0
2024-11-20T14:56:09.000Z,MISSION_0038,90,0,transit,SITE_JAI_009,26.9123766,75.7872857,13.2,340.56,0.519,0.133,3.05,1.4843,-0.2599,340.5649,-0.98557,-0.01238,0.00442,0.16875,-0.043,-0.0158,-9.7994,-0.3635,0.0698,-0.3297,0.1696,3,20,0.67,0.9,0.26,24.653,12.47,93.3,32.0,20524.0,8763,8912,8381,8820,52.7,47.2,47.3,48.7,2.617,2.439,2.774,2.743,1.67,273.5,23.3,56.8,1016.94,-30.33,1.48,1.14,17.2,35.0,25.2,0,no_anomaly,0.0,0,0,0,0,26.9123766,75.7872857,13.2,0.0
2024-11-20T14:56:09.100Z,MISSION_0038,91,0,transit,SITE_JAI_009,26.9123757,75.7872896,13.2,341.32,0.35,-0.033,2.95,2.6784,0.0842,341.3228,-0.98647,-0.02318,0.00307,0.16224,0.1012,-0.0243,-9.7516,-0.5105,0.1309,0.5109,0.199,3,15,0.7,0.83,0.35,24.622,16.69,93.2,32.0,20511.0,8864,8699,8869,9277,49.3,47.9,52.3,51.4,2.456,2.749,2.916,2.807,3.2,279.3,23.7,57.7,1016.93,-29.23,0.54,1.75,17.0,36.1,24.4,0,no_anomaly,0.0,0,0,0,0,26.9123757,75.7872896,13.2,0.0
2024-11-20T14:56:09.200Z,MISSION_0038,92,0,transit,SITE_JAI_009,26.9123788,75.7872913,13.2,340.99,0.257,0.041,2.55,0.6149,-0.0193,340.9858,-0.98625,-0.00526,0.00105,0.16517,0.0729,-0.0157,-9.8155,0.0642,-0.171,-0.0615,0.175,3,19,0.73,0.82,0.29,24.633,14.96,93.2,31.3,20499.0,8590,8771,8728,8437,45.5,49.4,44.4,48.2,2.885,2.624,2.854,3.024,2.13,285.1,23.1,58.8,1017.38,-26.98,0.5,1.0,20.7,31.8,24.9,0,no_anomaly,0.0,0,0,0,0,26.9123788,75.7872913,13.2,0.0
2024-11-20T14:56:09.300Z,MISSION_0038,93,0,transit,SITE_JAI_009,26.9123771,75.7872925,13.2,340.17,0.133,0.145,2.68,4.3955,-2.4973,340.1725,-0.98425,-0.03402,0.02805,0.17117,0.1578,0.0881,-9.7302,-0.211,-0.3165,-0.1387,0.1728,3,19,0.69,0.92,0.27,24.531,19.27,93.1,31.4,20486.0,8849,8844,8877,8672,52.8,47.8,49.7,46.1,2.395,2.832,2.846,2.631,2.59,273.2,23.6,58.4,1017.02,-27.47,-0.11,1.79,21.0,36.6,24.5,0,no_anomaly,0.0,0,0,0,0,26.9123771,75.7872925,13.2,0.0
2024-11-20T14:56:09.400Z,MISSION_0038,94,0,transit,SITE_JAI_009,26.9123843,75.7872957,13.2,341.64,0.0,0.113,1.81,1.3996,-1.0586,341.6386,-0.98709,-0.01058,0.01107,0.15942,0.1035,-0.0089,-9.8278,0.6673,0.5861,0.124,0.1743,3,19,0.68,0.97,0.31,24.605,12.27,93.1,31.5,20473.0,8736,8802,8918,8857,48.4,51.5,52.5,47.7,3.021,2.887,2.883,2.683,2.09,268.0,23.6,58.9,1016.76,-31.07,0.85,1.84,21.9,30.8,26.5,0,no_anomaly,0.0,0,0,0,0,26.9123843,75.7872957,13.2,0.0
2024-11-20T14:56:09.500Z,MISSION_0038,95,0,transit,SITE_JAI_009,26.9123837,75.7872942,13.2,341.11,0.213,0.111,1.93,1.268,-1.0359,341.111,-0.98636,-0.00943,0.01073,0.16398,-0.1812,-0.0575,-9.8295,0.0868,-0.2185,-0.1119,0.1262,3,11,0.69,0.7,0.36,24.627,15.6,93.0,32.3,20461.0,8741,8689,8542,8790,49.3,51.1,50.2,49.7,2.894,2.939,2.579,2.807,2.47,264.8,23.4,57.7,1017.16,-29.67,-0.51,1.17,16.8,37.0,27.4,0,no_anomaly,0.0,0,0,0,0,26.9123837,75.7872942,13.2,0.0
2024-11-20T14:56:09.600Z,MISSION_0038,96,0,transit,SITE_JAI_009,26.9123848,75.7872944,13.2,341.86,0.467,0.051,1.8,0.4781,-4.1448,341.8584,-0.98686,0.00158,0.03637,0.1574,0.0784,-0.0109,-9.7481,0.7211,0.8533,-0.3014,0.149,3,16,0.7,0.71,0.27,24.622,13.66,92.9,31.9,20448.0,8927,8694,8876,8805,48.4,51.2,46.9,49.6,2.915,2.707,2.721,2.63,2.04,279.7,23.4,58.3,1016.66,-31.37,0.52,1.55,19.3,35.7,28.8,0,no_anomaly,0.0,0,0,0,0,26.9123848,75.7872944,13.2,0.0
2024-11-20T14:56:09.700Z,MISSION_0038,97,0,transit,SITE_JAI_009,26.9123773,75.7872971,13.2,342.14,0.055,0.048,2.55,-1.6328,-1.55,342.1402,-0.98766,0.01617,0.01115,0.15539,0.2623,0.0697,-9.7847,-0.5081,0.5325,0.0095,0.1698,3,16,0.57,0.73,0.25,24.612,19.6,92.9,32.5,20435.0,8726,8878,9014,8706,48.1,47.7,52.1,51.7,3.038,2.742,2.786,3.217,2.25,272.2,23.7,58.2,1016.87,-24.91,-0.09,1.35,23.2,34.9,26.3,0,no_anomaly,0.0,0,0,0,0,26.9123773,75.7872971,13.2,0.0
2024-11-20T14:56:09.800Z,MISSION_0038,98,0,transit,SITE_JAI_009,26.9123711,75.7872983,13.2,342.83,0.375,0.086,3.23,-5.5511,-1.2387,342.8272,-0.9875,0.04949,0.00345,0.14963,-0.0802,0.0732,-9.8664,-0.0559,-0.2544,0.4608,0.0533,3,19,0.57,0.8,0.2,24.624,14.81,92.8,31.0,20423.0,8845,8969,8653,8683,47.6,48.0,51.1,47.8,2.907,2.562,2.742,2.994,2.67,282.6,23.5,57.6,1016.94,-34.1,-0.32,1.37,16.4,27.5,25.8,0,no_anomaly,0.0,0,0,0,0,26.9123711,75.7872983,13.2,0.0
2024-11-20T14:56:09.900Z,MISSION_0038,99,0,transit,SITE_JAI_009,26.9123749,75.7872998,13.2,344.69,0.375,0.209,2.79,1.2352,0.5068,344.6878,-0.99101,-0.01127,-0.00295,0.13327,-0.035,0.0034,-9.795,-0.5425,-0.4498,-0.0317,0.1228,3,19,0.92,0.94,0.34,24.577,16.16,92.8,31.8,20410.0,8890,8676,8824,8783,46.7,51.1,49.8,49.7,2.843,2.688,3.045,3.01,2.09,267.6,23.4,57.7,1016.9,-27.71,-0.39,1.04,14.4,27.8,25.0,0,no_anomaly,0.0,0,0,0,0,26.9123749,75.7872998,13.2,0.0
2024-11-20T14:56:10.000Z,MISSION_0038,100,0,transit,SITE_JAI_009,26.9123766,75.7872975,13.2,343.47,0.231,0.071,2.61,-3.9711,-1.8391,343.4671,-0.98881,0.03659,0.01089,0.14422,0.0485,-0.0232,-9.8424,0.3525,-0.0527,0.2835,0.1422,3,16,0.77,0.72,0.27,24.746,22.71,92.7,32.3,20397.0,8750,8793,8642,8770,47.3,47.2,48.9,46.8,2.533,2.767,2.936,2.796,1.63,281.0,23.4,57.7,1016.81,-29.23,0.1,1.81,20.2,36.6,27.5,0,no_anomaly,0.0,0,0,0,0,26.9123766,75.7872975,13.2,0.0
2024-11-20T14:56:10.100Z,MISSION_0038,101,0,transit,SITE_JAI_009,26.9123732,75.787298,13.2,344.73,0.301,0.211,2.99,2.1143,0.0038,344.7266,-0.99096,-0.01829,0.00242,0.13287,-0.1517,-0.0304,-9.7956,0.1426,0.4918,0.2259,0.2237,3,18,0.68,0.96,0.26,24.622,17.47,92.7,32.2,20385.0,8905,8673,8538,8825,50.2,45.3,49.2,48.7,2.676,2.864,2.896,2.904,1.87,275.6,23.7,57.9,1016.76,-32.5,-0.14,1.53,20.9,34.6,28.6,0,no_anomaly,0.0,0,0,0,0,26.9123732,75.787298,13.2,0.0
2024-11-20T14:56:10.200Z,MISSION_0038,102,0,transit,SITE_JAI_009,26.9123739,75.787294,13.2,344.85,0.559,0.049,2.98,-0.8704,-0.592,344.8469,-0.99122,0.00821,0.00412,0.13188,0.2001,0.0363,-9.8725,0.3619,-0.0427,-0.2389,0.1846,3,15,0.76,1.13,0.21,24.63,17.22,92.6,32.0,20372.0,8729,8928,8595,8918,51.4,52.5,50.8,50.1,2.928,2.848,2.748,2.809,3.26,272.7,23.7,57.7,1016.92,-28.47,0.09,1.54,21.0,35.2,24.8,0,no_anomaly,0.0,0,0,0,0,26.9123739,75.787294,13.2,0.0
2024-11-20T14:56:10.300Z,MISSION_0038,103,0,transit,SITE_JAI_009,26.9123731,75.787294,13.2,342.37,0.859,0.132,3.06,1.0029,-3.3879,342.3748,-0.98776,-0.00412,0.03055,0.15287,-0.1769,0.0289,-9.7583,0.3858,-0.4185,-0.1159,0.2173,3,15,0.73,0.78,0.29,24.534,16.8,92.5,31.9,20359.0,8921,8945,8788,8791,48.9,50.0,48.0,50.4,2.766,2.702,2.846,2.541,2.32,267.2,23.4,58.3,1017.0,-27.26,1.08,1.55,20.9,32.7,23.9,0,no_anomaly,0.0,0,0,0,0,26.9123731,75.787294,13.2,0.0
2024-11-20T14:56:10.400Z,MISSION_0038,104,0,transit,SITE_JAI_009,26.9123778,75.7872929,13.2,345.67,0.923,0.078,2.59,-3.8241,-3.0383,345.6709,-0.99118,0.0364,0.02213,0.12548,-0.064,-0.1318,-9.8093,1.2637,0.0586,-0.0771,0.2421,3,18,0.74,0.78,0.21,24.512,20.83,92.5,31.9,20347.0,8802,8805,8712,8778,46.8,45.7,51.2,44.8,2.98,2.876,2.845,2.866,2.57,271.4,23.7,58.2,1017.05,-26.25,-0.83,1.92,17.4,32.7,25.9,0,no_anomaly,0.0,0,0,0,0,26.9123778,75.7872929,13.2,0.0
2024-11-20T14:56:10.500Z,MISSION_0038,105,0,transit,SITE_JAI_009,26.9123807,75.7872935,13.2,345.65,0.611,0.072,2.27,-1.5423,-1.652,345.6531,-0.99196,0.01515,0.01262,0.12504,0.0176,-0.044,-9.889,-0.5794,-0.7239,0.0317,0.1867,3,19,0.79,1.02,0.26,24.58,21.03,92.4,31.9,20334.0,8684,8626,8847,8698,50.8,50.9,48.4,48.2,2.835,2.86,2.993,2.96,2.53,282.1,23.4,58.8,1016.8,-33.99,-1.04,1.4,17.0,29.6,23.2,0,no_anomaly,0.0,0,0,0,0,26.9123807,75.7872935,13.2,0.0
2024-11-20T14:56:10.600Z,MISSION_0038,106,0,transit,SITE_JAI_009,26.9123858,75.7872936,13.2,347.34,1.184,0.131,1.73,-2.0532,-0.9783,347.3432,-0.99369,0.01875,0.00651,0.11036,-0.09,0.0865,-9.7737,-0.7395,-0.1478,0.2028,0.1579,3,18,0.55,0.84,0.2,24.632,17.94,92.4,32.2,20322.0,8751,8537,8752,9049,50.3,48.0,48.8,49.0,3.008,2.749,2.602,2.76,2.35,275.8,23.6,57.2,1016.91,-29.56,0.15,1.66,20.4,30.5,26.9,0,no_anomaly,0.0,0,0,0,0,26.9123858,75.7872936,13.2,0.0
2024-11-20T14:56:10.700Z,MISSION_0038,107,0,transit,SITE_JAI_009,26.9123844,75.7872914,13.2,346.65,1.039,0.114,1.98,-3.1948,-0.7881,346.6456,-0.99279,0.02849,0.00359,0.11642,0.1422,-0.0021,-9.8519,-0.7053,0.5955,0.0937,0.1366,3,18,0.76,0.87,0.3,24.623,16.63,92.3,31.6,20309.0,8737,8892,8713,8637,48.5,50.4,50.1,47.7,2.791,2.662,2.538,3.052,2.0,280.8,23.6,57.9,1017.08,-29.63,-0.58,1.39,19.9,33.0,27.1,0,no_anomaly,0.0,0,0,0,0,26.9123844,75.7872914,13.2,0.0
2024-11-20T14:56:10.800Z,MISSION_0038,108,1,transit,SITE_JAI_009,26.9123866,75.7873008,13.2,346.07,1.11,0.038,1.5,-2.4005,-0.8951,346.0713,-0.99235,0.02174,0.00521,0.12138,0.1174,-0.006,-9.9045,0.1995,-0.8508,0.1946,0.1526,3,18,0.75,0.78,0.32,24.556,12.64,92.3,32.5,20296.0,8822,8643,8715,8836,46.0,48.4,49.6,47.7,2.54,2.816,2.703,2.969,2.35,269.8,23.6,58.1,1017.05,-28.73,-0.85,1.38,21.1,31.2,27.4,0,no_anomaly,0.0,0,0,0,0,26.9123866,75.7873008,13.2,0.0
2024-11-20T14:56:10.900Z,MISSION_0038,109,1,transit,SITE_JAI_009,26.9123883,75.7873007,13.2,347.75,1.449,0.148,1.3,-1.3212,-1.2043,347.7457,-0.99415,0.01258,0.00922,0.10684,0.1664,0.0344,-9.8072,-0.0464,1.0127,0.0216,0.1891,3,17,0.52,0.96,0.21,24.541,20.88,92.2,31.6,20284.0,8534,8947,8640,8832,50.3,50.1,46.7,54.9,2.841,2.611,2.955,2.479,2.07,272.9,23.6,58.0,1016.95,-33.42,0.83,1.59,16.4,31.8,27.7,0,no_anomaly,0.0,0,0,0,0,26.9123883,75.7873007,13.2,0.0
2024-11-20T14:56:11.000Z,MISSION_0038,110,1,transit,SITE_JAI_009,26.9123824,75.7872982,13.2,347.92,1.534,0.072,1.97,0.1104,-2.2447,347.9245,-0.99426,0.0011,0.01958,0.10514,-0.0444,-0.0166,-9.9268,-0.1224,-0.9185,0.3161,0.1585,3,11,0.5,0.98,0.2,24.707,20.51,92.1,31.2,20271.0,8662,8886,8976,8826,48.0,50.4,48.2,53.6,2.814,2.979,2.705,2.985,2.6,283.7,23.6,58.1,1016.76,-30.58,1.3,1.65,17.4,30.6,23.9,0,no_anomaly,0.0,0,0,0,0,26.9123824,75.7872982,13.2,0.0
2024-11-20T14:56:11.100Z,MISSION_0038,111,1,transit,SITE_JAI_009,26.9123853,75.7872954,13.2,346.24,1.185,0.093,1.71,1.2791,-1.7808,346.2387,-0.99264,-0.00922,0.01676,0.11961,0.0337,-0.0228,-9.8419,0.431,-0.615,0.2998,0.0371,3,16,0.73,0.96,0.2,24.57,21.57,92.1,32.2,20258.0,8804,8761,8734,8921,47.5,50.9,49.9,49.7,2.851,2.796,2.667,2.91,2.79,283.5,23.6,58.2,1017.16,-28.97,-0.09,1.57,17.1,30.4,29.6,0,no_anomaly,0.0,0,0,0,0,26.9123853,75.7872954,13.2,0.0
2024-11-20T14:56:11.200Z,MISSION_0038,112,1,transit,SITE_JAI_009,26.9123858,75.7872916,13.2,345.46,1.273,0.07,1.84,0.3815,-4.2145,345.4604,-0.9913,0.00135,0.0369,0.12633,-0.0332,-0.006,-9.8334,-0.051,-0.4527,-0.2929,0.1087,3,19,0.7,0.65,0.36,24.585,16.88,92.0,32.3,20246.0,8804,8779,8766,8955,51.5,49.8,47.2,48.6,3.043,2.855,2.6,2.551,1.68,272.7,23.4,58.0,1016.76,-29.24,-1.02,1.18,17.3,29.5,28.6,0,no_anomaly,0.0,0,0,0,0,26.9123858,75.7872916,13.2,0.0
2024-11-20T14:56:11.300Z,MISSION_0038,113,1,transit,SITE_JAI_009,26.9123854,75.7872888,13.2,344.99,1.082,0.043,2.05,0.3293,-2.7467,344.9891,-0.99115,0.00028,0.02414,0.13051,-0.0863,0.003,-9.7865,0.0399,-0.1734,-0.0919,0.151,3,16,0.72,1.13,0.28,24.637,16.13,92.0,32.1,20233.0,8682,8569,8853,8932,46.4,48.6,47.8,47.5,2.75,2.967,2.526,2.616,2.22,276.2,23.5,58.1,1016.86,-31.08,0.52,1.62,17.1,29.2,27.7,0,no_anomaly,0.0,0,0,0,0,26.9123854,75.7872888,13.2,0.0
2024-11-20T14:56:11.400Z,MISSION_0038,114,1,transit,SITE_JAI_009,26.91239,75.787284,13.2,344.92,1.774,0.126,2.1,-1.6379,-2.7259,344.9229,-0.99093,0.01729,0.0217,0.13148,0.1193,0.0223,-9.7591,-0.6865,-0.9162,-0.2717,0.1254,3,19,0.67,1.04,0.23,24.589,15.64,91.9,31.2,20220.0,8684,8565,8872,8683,50.3,46.2,48.1,49.6,2.872,2.754,2.809,3.071,2.37,268.8,23.7,57.3,1016.95,-29.2,-1.64,1.83,19.0,36.5,27.2,0,no_anomaly,0.0,0,0,0,0,26.91239,75.787284,13.2,0.0
2024-11-20T14:56:11.500Z,MISSION_0038,115,1,transit,SITE_JAI_009,26.9123899,75.7872852,13.2,347.55,1.482,0.101,1.99,1.7528,-1.0052,347.5472,-0.99396,-0.01425,0.01038,0.10831,-0.0574,0.0222,-9.8663,0.4308,0.4931,0.116,0.1949,3,20,0.6,0.98,0.2,24.599,19.78,91.9,32.4,20208.0,8757,8615,8704,8625,51.2,51.6,48.2,49.8,2.71,2.783,2.778,2.742,2.69,281.6,23.5,57.8,1016.78,-32.61,1.08,1.75,18.5,30.6,24.4,0,no_anomaly,0.0,0,0,0,0,26.9123899,75.7872852,13.2,0.0
2024-11-20T14:56:11.600Z,MISSION_0038,116,1,transit,SITE_JAI_009,26.912391,75.7872839,13.2,348.14,1.742,0.102,2.05,-2.2772,-1.8067,348.1432,-0.9943,0.02139,0.01363,0.10356,0.0514,0.0131,-9.869,0.5629,-0.4945,0.0245,0.0839,3,16,0.68,1.02,0.21,24.549,18.89,91.8,32.4,20195.0,8769,8992,8693,8651,52.3,52.0,52.6,49.3,2.642,2.96,2.903,2.79,2.46,283.3,23.4,58.1,1016.84,-26.81,-1.02,1.87,22.1,30.4,28.6,0,no_anomaly,0.0,0,0,0,0,26.912391,75.7872839,13.2,0.0
2024-11-20T14:56:11.700Z,MISSION_0038,117,1,transit,SITE_JAI_009,26.9123917,75.7872799,13.2,345.6,1.503,0.126,2.42,0.5945,-1.2515,345.6005,-0.99205,-0.00378,0.01149,0.12526,0.0154,0.0716,-9.8296,0.0874,0.4582,0.4882,0.1301,3,12,0.64,0.82,0.34,24.616,18.95,91.7,31.8,20183.0,8588,8771,8718,9090,48.0,49.8,50.6,46.4,2.82,2.801,2.839,2.552,1.9,283.6,23.6,58.8,1016.76,-29.35,-0.0,1.12,19.3,36.0,27.3,0,no_anomaly,0.0,0,0,0,0,26.9123917,75.7872799,13.2,0.0
2024-11-20T14:56:11.800Z,MISSION_0038,118,1,transit,SITE_JAI_009,26.9123966,75.7872798,13.2,344.45,0.859,0.123,2.28,0.4239,-1.2323,344.4547,-0.99075,-0.00221,0.01116,0.13519,0.1253,0.0392,-9.7936,0.1084,-0.0235,0.2222,0.051,3,15,0.81,1.02,0.25,24.514,16.52,91.7,32.6,20170.0,8775,8785,8771,8877,47.7,54.3,49.7,46.9,2.6,2.546,3.021,2.893,2.49,269.1,23.7,58.1,1016.78,-31.86,-0.03,1.14,18.5,36.0,24.2,0,no_anomaly,0.0,0,0,0,0,26.9123966,75.7872798,13.2,0.0
2024-11-20T14:56:11.900Z,MISSION_0038,119,1,transit,SITE_JAI_009,26.9123931,75.7872814,13.2,345.89,0.597,0.113,2.2,-2.6867,0.3322,345.8883,-0.99216,0.02291,-0.00576,0.12273,0.0826,-0.0879,-9.8714,-0.0021,0.1329,-0.1569,0.0546,3,15,0.52,0.75,0.2,24.54,20.65,91.6,31.3,20157.0,8743,8595,8488,8732,45.4,51.4,51.6,49.5,2.775,2.728,2.783,2.651,3.31,274.6,23.3,57.4,1017.11,-35.1,2.55,1.95,19.0,37.2,25.0,0,no_anomaly,0.0,0,0,0,0,26.9123931,75.7872814,13.2,0.0
2024-11-20T14:56:12.000Z,MISSION_0038,120,1,transit,SITE_JAI_009,26.912393,75.7872826,13.2,345.66,0.933,0.11,2.09,1.2552,-3.996,345.6571,-0.99156,-0.00651,0.03596,0.12438,-0.1065,0.0889,-9.8205,-0.1309,0.5111,0.2327,0.0957,3,10,0.8,0.92,0.36,24.592,12.85,91.6,32.2,20145.0,8915,8742,8661,8995,50.1,48.9,45.8,46.3,2.968,3.023,2.928,2.434,2.01,278.1,23.3,58.1,1016.89,-24.08,-0.27,1.76,15.9,31.5,28.1,0,no_anomaly,0.0,0,0,0,0,26.912393,75.7872826,13.2,0.0
2024-11-20T14:56:12.100Z,MISSION_0038,121,1,transit,SITE_JAI_009,26.9123957,75.7872823,13.2,346.87,1.037,0.127,2.03,-0.9554,0.8392,346.8735,-0.99339,0.00745,-0.00823,0.11423,0.0611,0.0382,-9.7806,0.5926,0.2955,0.3192,0.1497,3,20,0.62,0.92,0.28,24.625,20.42,91.5,31.6,20132.0,9134,8558,8924,8863,47.7,48.9,49.1,49.3,2.446,2.652,2.703,2.717,2.14,270.7,23.6,58.1,1017.07,-27.14,-0.33,1.6,19.5,30.3,24.6,0,no_anomaly,0.0,0,0,0,0,26.9123957,75.7872823,13.2,0.0
2024-11-20T14:56:12.200Z,MISSION_0038,122,1,transit,SITE_JAI_009,26.9123917,75.7872809,13.2,347.7,0.621,0.08,2.32,-0.3029,-1.5828,347.6989,-0.99414,0.00411,0.01345,0.10717,0.055,0.0461,-9.8049,-0.6138,-0.2795,0.1794,0.2256,3,17,0.69,0.96,0.24,24.522,19.05,91.5,31.8,20119.0,8421,8964,8836,8680,46.3,49.9,48.3,49.3,2.76,3.044,3.004,2.731,2.17,276.6,23.6,58.0,1016.79,-29.69,-0.17,1.36,21.0,32.0,28.6,0,no_anomaly,0.0,0,0,0,0,26.9123917,75.7872809,13.2,0.0
2024-11-20T14:56:12.300Z,MISSION_0038,123,1,transit,SITE_JAI_009,26.9123906,75.787278,13.2,347.6,0.788,0.095,2.67,3.7214,2.6703,347.6027,-0.99328,-0.03479,-0.01965,0.10864,0.0623,-0.0626,-9.8773,0.6806,0.3027,0.1481,0.1551,3,11,0.72,1.08,0.21,24.49,18.28,91.4,32.7,20107.0,8706,8874,9001,8694,46.8,50.5,43.9,50.5,2.792,2.692,2.798,2.956,2.84,266.8,23.8,57.2,1016.5,-31.45,-1.14,1.17,19.0,31.4,28.0,0,no_anomaly,0.0,0,0,0,0,26.9123906,75.787278,13.2,0.0
2024-11-20T14:56:12.400Z,MISSION_0038,124,1,transit,SITE_JAI_009,26.9123897,75.7872817,13.2,349.04,0.606,0.003,2.33,-1.5548,-1.9913,349.0438,-0.99517,0.01516,0.016,0.09568,0.1331,0.0565,-9.8096,-0.521,0.4309,0.1625,0.2024,3,18,0.65,0.83,0.26,24.608,16.6,91.3,32.3,20094.0,8927,8632,8704,9072,49.1,51.4,49.9,49.4,2.932,2.996,2.748,2.786,1.57,268.9,23.5,57.6,1016.92,-30.93,0.88,1.25,18.0,34.0,25.8,0,no_anomaly,0.0,0,0,0,0,26.9123897,75.7872817,13.2,0.0
2024-11-20T14:56:12.500Z,MISSION_0038,125,1,transit,SITE_JAI_009,26.9123926,75.7872801,13.2,351.85,0.081,0.11,2.36,-2.0412,-2.7418,351.8539,-0.997,0.01946,0.0226,0.07142,0.1168,-0.044,-9.7093,0.469,0.4619,0.5852,0.1861,3,17,0.67,1.11,0.24,24.577,14.89,91.3,31.8,20081.0,8913,8525,8914,8839,48.8,48.3,47.2,49.4,2.878,2.928,2.815,2.811,2.64,277.3,24.0,58.2,1017.29,-30.25,-0.7,1.33,21.2,30.1,24.7,0,no_anomaly,0.0,0,0,0,0,26.9123926,75.7872801,13.2,0.0
2024-11-20T14:56:12.600Z,MISSION_0038,126,1,transit,SITE_JAI_009,26.9123901,75.7872851,13.2,354.94,0.255,0.159,1.99,0.8467,-2.4537,354.9445,-0.99878,-0.00644,0.02172,0.04393,0.0363,-0.0294,-9.8632,-0.2062,-0.4585,0.2078,0.1926,3,17,0.86,1.05,0.38,24.565,15.46,91.2,31.8,20069.0,9021,9054,8735,8629,47.3,50.7,45.5,49.2,2.819,2.861,2.589,2.752,2.64,271.6,23.3,58.1,1016.89,-30.3,0.41,1.18,14.1,28.2,24.4,0,no_anomaly,0.0,0,0,0,0,26.9123901,75.7872851,13.2,0.0
2024-11-20T14:56:12.700Z,MISSION_0038,127,1,transit,SITE_JAI_009,26.9123858,75.7872842,13.2,356.19,0.223,0.03,2.37,0.0706,-1.9533,356.1928,-0.9993,-5e-05,0.01706,0.0332,0.139,0.0979,-9.8035,0.1823,0.5368,-0.2551,0.1659,3,20,0.74,1.12,0.38,24.616,18.61,91.2,32.1,20056.0,8654,8719,8705,8943,50.4,51.8,50.3,51.4,2.644,2.885,2.425,3.017,2.39,274.7,23.4,57.9,1016.86,-28.63,-0.05,1.18,17.3,36.6,27.6,0,no_anomaly,0.0,0,0,0,0,26.9123858,75.7872842,13.2,0.0
2024-11-20T14:56:12.800Z,MISSION_0038,128,1,transit,SITE_JAI_009,26.9123812,75.7872852,13.2,353.85,0.0,0.123,2.66,-1.0793,-2.8763,353.8499,-0.99819,0.01075,0.02456,0.05386,-0.2456,0.0151,-9.8011,-0.2447,-0.5069,0.1183,0.0894,3,17,0.57,0.96,0.24,24.475,17.04,91.1,30.9,20044.0,9097,8678,8754,8905,48.5,47.6,48.8,48.9,2.693,2.827,2.791,2.803,2.3,278.7,23.5,58.8,1016.85,-31.53,-0.17,1.92,18.7,30.8,25.4,0,no_anomaly,0.0,0,0,0,0,26.9123812,75.7872852,13.2,0.0
2024-11-20T14:56:12.900Z,MISSION_0038,129,1,orbit_base,SITE_JAI_009,26.9123403,75.7872467,13.5,351.2,0.011,0.136,8.91,-3.0695,1.3358,351.2021,-0.99665,0.02581,-0.01367,0.07636,-0.0993,0.0013,-9.8429,-0.5044,0.2818,0.3286,0.2048,3,13,0.64,0.92,0.23,24.732,15.38,91.0,32.8,20031.0,8850,8719,8779,8697,45.9,48.3,45.8,49.4,2.969,2.811,2.632,2.77,2.27,272.9,23.7,58.7,1016.54,-29.48,1.21,1.92,21.1,30.9,28.2,0,no_anomaly,0.0,0,0,0,0,26.9123403,75.7872467,13.5,0.0
