timestamp_utc,mission_id,frame_id,waypoint_id,inspection_phase,site_id,latitude_deg,longitude_deg,altitude_m,heading_deg,ground_speed_ms,vertical_speed_ms,distance_to_tower_m,roll_deg,pitch_deg,yaw_deg,quat_w,quat_x,quat_y,quat_z,accel_x_ms2,accel_y_ms2,accel_z_ms2,gyro_x_rads,gyro_y_rads,gyro_z_rads,vibration_level,gps_fix_type,gps_satellite_count,gps_hdop,gps_vdop,position_error_m,battery_voltage_v,battery_current_a,battery_remaining_pct,battery_temp_c,battery_capacity_mah,motor_fl_rpm,motor_fr_rpm,motor_rl_rpm,motor_rr_rpm,motor_fl_temp_c,motor_fr_temp_c,motor_rl_temp_c,motor_rr_temp_c,motor_fl_thrust_n,motor_fr_thrust_n,motor_rl_thrust_n,motor_rr_thrust_n,wind_speed_ms,wind_dir_deg,air_temp_c,humidity_pct,pressure_hpa,gimbal_pitch_deg,gimbal_roll_deg,zoom_factor,ir_temp_min_c,ir_temp_max_c,ir_temp_avg_c,anomaly_detected,anomaly_class,anomaly_confidence,anomaly_bbox_x,anomaly_bbox_y,anomaly_bbox_w,anomaly_bbox_h,anomaly_gps_lat,anomaly_gps_lon,anomaly_gps_alt_m,ir_temp_delta_c
2024-04-08T15:38:00.000Z,MISSION_0053,0,0,takeoff,SITE_CHE_004,13.0827017,80.2707074,1.5,328.63,0.101,0.093,0.85,-2.1571,-2.706,328.6301,-0.9622,0.0245,0.01764,0.27065,-0.0626,-0.0466,-9.768,-0.1301,0.1141,0.1181,0.2164,3,14,0.73,0.98,0.27,24.725,20.2,98.5,44.6,21665.0,7455,7919,7475,7346,62.5,59.6,65.3,64.9,3.016,2.848,2.709,3.081,4.4,77.1,37.3,49.7,1014.82,-35.63,-0.09,1.38,28.4,48.1,40.0,0,no_anomaly,0.0,0,0,0,0,13.0827017,80.2707074,1.5,0.0
2024-04-08T15:38:00.100Z,MISSION_0053,1,0,takeoff,SITE_CHE_004,13.0826967,80.2707079,3.0,329.24,0.736,0.111,0.95,-0.3601,-0.1179,329.2373,-0.96418,0.0033,0.00016,0.26524,-0.2362,0.0155,-9.8002,-0.1142,0.547,-0.0172,0.1609,3,12,0.5,0.68,0.21,24.808,29.13,98.4,45.7,21643.0,7705,7703,7716,7493,60.1,64.4,64.1,60.3,2.64,2.805,2.683,2.867,3.78,74.8,37.0,50.1,1014.85,-28.3,0.07,1.45,32.0,47.4,41.9,0,no_anomaly,0.0,0,0,0,0,13.0826967,80.2707079,3.0,0.0
2024-04-08T15:38:00.200Z,MISSION_0053,2,0,takeoff,SITE_CHE_004,13.0826951,80.2707078,4.5,327.88,0.547,0.172,1.03,0.6447,-2.5332,327.8832,-0.96076,0.00071,0.0228,0.27643,0.0153,0.1004,-9.9053,-0.2965,0.2026,-0.1642,0.2202,3,16,0.74,0.84,0.36,24.791,25.42,98.3,45.3,21622.0,7596,7445,7371,7650,64.7,60.0,66.0,64.2,2.76,2.781,2.914,2.814,4.09,59.5,37.3,49.4,1014.4,-24.55,0.97,1.26,30.8,48.7,39.2,0,no_anomaly,0.0,0,0,0,0,13.0826951,80.2707078,4.5,0.0
2024-04-08T15:38:00.300Z,MISSION_0053,3,0,takeoff,SITE_CHE_004,13.0826971,80.2707069,5.0,325.23,0.606,0.072,0.83,-3.3496,-3.5015,325.2292,-0.9532,0.037,0.02041,0.29938,0.0057,-0.0089,-9.8392,-1.1659,0.5234,0.0081,0.1563,3,10,0.72,0.6,0.2,24.823,19.72,98.2,45.5,21601.0,8088,7709,7547,7714,62.0,60.5,62.1,62.5,2.534,2.866,2.732,2.817,5.02,64.3,36.9,51.1,1015.44,-27.97,-0.2,1.47,31.4,42.3,39.6,0,no_anomaly,0.0,0,0,0,0,13.0826971,80.2707069,5.0,0.0
2024-04-08T15:38:00.400Z,MISSION_0053,4,0,takeoff,SITE_CHE_004,13.082695,80.2707099,5.0,326.75,0.454,0.006,1.23,-5.258,-3.3873,326.7483,-0.95638,0.05238,0.01517,0.28699,0.1813,-0.0959,-9.7314,1.0321,0.0474,-0.2917,0.1498,3,10,0.75,1.09,0.24,24.813,16.12,98.1,45.8,21579.0,7597,7398,7546,7578,63.9,61.3,64.2,61.9,2.826,2.68,2.924,2.678,3.79,68.5,36.9,50.0,1014.76,-27.1,-0.57,1.48,33.8,45.4,38.2,0,no_anomaly,0.0,0,0,0,0,13.082695,80.2707099,5.0,0.0
2024-04-08T15:38:00.500Z,MISSION_0053,5,0,takeoff,SITE_CHE_004,13.0826949,80.2707119,5.0,327.66,1.086,0.075,1.44,-1.6878,-5.3891,327.6637,-0.95909,0.02722,0.04105,0.27878,-0.058,-0.0244,-9.8957,0.2213,-0.1926,-0.1763,0.1391,3,14,0.73,0.66,0.26,24.701,21.02,98.0,43.9,21558.0,7425,7792,7534,7190,66.5,58.5,63.3,59.4,2.834,2.702,2.841,2.844,3.5,63.9,37.1,49.9,1014.99,-28.12,0.8,1.36,34.8,46.6,40.3,0,no_anomaly,0.0,0,0,0,0,13.0826949,80.2707119,5.0,0.0
2024-04-08T15:38:00.600Z,MISSION_0053,6,0,takeoff,SITE_CHE_004,13.0826902,80.2707113,5.0,329.92,0.832,0.179,1.67,6.5057,-3.6901,329.9246,-0.96417,-0.04643,0.04576,0.25714,-0.0541,-0.0614,-9.7991,-0.403,0.1172,0.1325,0.1801,3,14,0.79,0.97,0.38,24.668,18.46,97.9,44.0,21537.0,7466,7676,7666,7367,60.3,63.2,62.6,63.4,3.087,2.748,3.071,2.585,4.57,61.2,36.4,50.2,1014.67,-33.25,-0.31,1.36,31.0,50.0,37.3,0,no_anomaly,0.0,0,0,0,0,13.0826902,80.2707113,5.0,0.0
2024-04-08T15:38:00.700Z,MISSION_0053,7,0,takeoff,SITE_CHE_004,13.082687,80.2707094,5.0,328.88,0.797,0.131,1.79,-2.1458,-3.7653,328.8797,-0.9625,0.02684,0.02662,0.26865,-0.0389,-0.0494,-9.9222,-0.7877,0.5648,-0.4066,0.1695,3,10,0.68,0.82,0.31,24.752,15.61,97.8,44.4,21516.0,7729,7357,7558,7407,61.8,60.5,62.6,62.6,2.848,2.729,2.906,2.756,4.14,68.2,37.2,49.9,1014.7,-31.15,-0.45,1.6,30.9,44.3,40.0,0,no_anomaly,0.0,0,0,0,0,13.082687,80.2707094,5.0,0.0
2024-04-08T15:38:00.800Z,MISSION_0053,8,0,takeoff,SITE_CHE_004,13.0826882,80.2707105,5.0,328.58,1.336,0.095,1.76,1.1566,-0.1742,328.5761,-0.96259,-0.0093,0.0042,0.27077,-0.0031,0.0858,-9.6836,0.6836,0.0657,0.7003,0.1626,3,14,0.85,1.24,0.4,24.746,26.47,97.7,44.9,21494.0,7590,7509,7484,8072,63.6,58.3,60.3,63.1,2.622,3.045,2.676,2.524,4.09,67.6,37.1,49.7,1014.94,-28.88,0.41,1.62,31.2,42.6,39.3,0,no_anomaly,0.0,0,0,0,0,13.0826882,80.2707105,5.0,0.0
2024-04-08T15:38:00.900Z,MISSION_0053,9,0,takeoff,SITE_CHE_004,13.0826908,80.270712,5.0,328.05,1.826,0.107,1.68,-1.4888,-3.4575,328.0519,-0.96076,0.02079,0.02543,0.27543,-0.0775,0.062,-9.7775,0.3702,-0.1573,-0.1356,0.2189,3,12,0.77,0.83,0.37,24.697,18.12,97.6,44.7,21473.0,7524,7917,7705,7695,63.5,62.2,61.2,61.7,2.73,3.032,3.017,2.78,3.02,68.1,36.9,49.3,1015.0,-27.73,-0.06,1.59,30.3,47.9,36.2,0,no_anomaly,0.0,0,0,0,0,13.0826908,80.270712,5.0,0.0
2024-04-08T15:38:01.000Z,MISSION_0053,10,0,takeoff,SITE_CHE_004,13.0826894,80.2707192,5.0,328.26,2.08,0.063,2.44,-0.7143,-1.5388,328.26,-0.96176,0.00967,0.01121,0.27351,0.122,-0.0595,-9.785,-0.2233,0.806,-0.3167,0.2513,3,14,0.5,0.95,0.29,24.691,18.79,97.5,46.1,21452.0,7389,7728,8038,7743,63.0,60.3,61.2,65.7,2.911,2.647,2.799,2.99,3.73,64.9,37.1,49.5,1014.8,-29.87,-0.44,1.08,30.0,45.0,37.5,0,no_anomaly,0.0,0,0,0,0,13.0826894,80.2707192,5.0,0.0
2024-04-08T15:38:01.100Z,MISSION_0053,11,0,takeoff,SITE_CHE_004,13.0826903,80.2707152,5.0,326.23,2.247,0.035,2.0,-1.7684,-1.1606,326.2333,-0.95669,0.01771,0.00521,0.29052,0.1758,-0.0125,-9.8214,0.263,-0.2117,0.2729,0.1433,3,13,0.7,0.86,0.25,24.754,21.91,97.4,44.9,21430.0,7640,7376,7394,7564,61.9,66.4,61.2,64.5,3.09,2.874,2.844,2.966,4.45,69.9,37.5,49.8,1015.0,-25.3,1.09,1.42,36.2,51.6,43.6,0,no_anomaly,0.0,0,0,0,0,13.0826903,80.2707152,5.0,0.0
2024-04-08T15:38:01.200Z,MISSION_0053,12,0,takeoff,SITE_CHE_004,13.0826862,80.2707158,5.0,326.9,2.548,0.192,2.34,-2.1971,-2.9393,326.9015,-0.95794,0.02568,0.01912,0.28516,0.1971,-0.0198,-9.889,-0.2823,0.9696,-0.1668,0.1498,3,19,0.82,1.0,0.3,24.738,17.02,97.3,44.8,21409.0,7744,7447,7286,7539,61.1,63.2,63.5,62.6,2.769,2.943,3.024,2.913,3.15,62.3,37.2,49.2,1014.74,-30.98,1.49,1.43,31.1,46.1,39.5,0,no_anomaly,0.0,0,0,0,0,13.0826862,80.2707158,5.0,0.0
2024-04-08T15:38:01.300Z,MISSION_0053,13,0,takeoff,SITE_CHE_004,13.0826856,80.2707144,5.0,324.53,2.617,0.048,2.26,0.8319,-3.8471,324.5314,-0.95199,0.00331,0.03418,0.30419,-0.1628,0.021,-9.8481,0.6339,-0.497,0.051,0.176,3,20,0.63,1.02,0.29,24.684,21.67,97.2,44.9,21388.0,7711,7553,7663,7567,61.8,62.3,58.6,62.0,2.625,2.532,2.582,3.034,4.13,60.5,37.0,50.1,1014.65,-26.55,-1.48,1.39,28.6,44.1,36.3,0,no_anomaly,0.0,0,0,0,0,13.0826856,80.2707144,5.0,0.0
2024-04-08T15:38:01.400Z,MISSION_0053,14,0,takeoff,SITE_CHE_004,13.0826868,80.270713,5.0,321.67,2.511,0.139,2.06,-3.8944,1.2569,321.6668,-0.94409,0.02849,-0.02151,0.32775,-0.119,-0.03,-9.7453,0.1073,-0.8096,0.0052,0.175,3,20,0.71,1.11,0.38,24.772,17.06,97.1,45.6,21367.0,7940,7481,7605,7528,60.1,60.2,63.6,60.4,2.868,2.86,2.772,2.838,3.61,75.5,37.0,50.2,1014.75,-32.29,0.74,1.0,33.3,46.2,37.7,0,no_anomaly,0.0,0,0,0,0,13.0826868,80.270713,5.0,0.0
2024-04-08T15:38:01.500Z,MISSION_0053,15,0,takeoff,SITE_CHE_004,13.0826867,80.2707128,5.0,320.54,2.422,0.097,2.06,-0.09,-3.0697,320.5382,-0.94094,0.00978,0.02495,0.3375,0.0093,-0.0226,-9.9007,-0.1129,0.6122,0.0782,0.1796,3,12,0.72,0.67,0.4,24.675,15.01,97.0,43.8,21345.0,7579,7505,7624,7549,60.9,60.6,59.2,61.8,2.809,2.961,2.804,2.801,3.9,63.5,37.1,50.4,1014.88,-32.3,0.36,1.06,33.1,44.4,39.9,0,no_anomaly,0.0,0,0,0,0,13.0826867,80.2707128,5.0,0.0
2024-04-08T15:38:01.600Z,MISSION_0053,16,0,takeoff,SITE_CHE_004,13.0826861,80.2707168,5.0,320.67,2.72,0.111,2.43,-0.2509,-2.0803,320.6672,-0.9415,0.00817,0.01636,0.33652,0.147,-0.0032,-9.8241,0.1927,0.4022,0.5283,0.1757,3,16,0.7,1.08,0.26,24.698,23.34,96.9,45.5,21324.0,7546,7664,7165,7536,65.2,61.2,63.2,62.9,2.755,2.734,2.794,2.863,4.21,69.5,36.9,50.3,1014.87,-33.39,1.24,1.33,30.6,45.5,38.5,0,no_anomaly,0.0,0,0,0,0,13.0826861,80.2707168,5.0,0.0
2024-04-08T15:38:01.700Z,MISSION_0053,17,0,takeoff,SITE_CHE_004,13.0826849,80.2707163,5.0,318.95,3.07,0.074,2.48,-0.6458,-1.3698,318.9492,-0.93641,0.00947,0.00922,0.35065,-0.0219,0.0341,-9.8013,-0.2251,0.0743,-0.4074,0.1117,3,17,0.54,1.14,0.2,24.756,23.39,96.8,46.0,21303.0,7809,7709,7360,7676,59.0,62.3,60.7,61.1,2.669,2.586,2.591,3.012,4.66,60.7,36.9,49.9,1015.17,-29.84,-0.06,1.64,30.4,48.7,40.1,0,no_anomaly,0.0,0,0,0,0,13.0826849,80.2707163,5.0,0.0
2024-04-08T15:38:01.800Z,MISSION_0053,18,0,takeoff,SITE_CHE_004,13.082687,80.2707165,5.0,318.97,3.355,0.094,2.34,-0.097,-3.1113,318.9739,-0.93624,0.01031,0.02513,0.35031,-0.3531,0.0167,-9.8803,0.9384,-0.4718,0.4539,0.2429,3,18,0.66,0.6,0.31,24.655,18.17,96.7,44.9,21281.0,7665,7615,7566,7259,63.8,60.3,61.2,58.4,2.881,2.864,3.048,2.858,2.89,68.1,37.1,49.4,1015.03,-32.54,-0.2,1.15,34.5,52.2,40.8,0,no_anomaly,0.0,0,0,0,0,13.082687,80.2707165,5.0,0.0
2024-04-08T15:38:01.900Z,MISSION_0053,19,0,takeoff,SITE_CHE_004,13.0826864,80.2707184,5.0,317.86,3.39,0.11,2.55,-2.3056,-2.411,317.8597,-0.93259,0.02633,0.0124,0.35975,-0.2389,0.0058,-9.8065,-0.3886,-0.1591,0.0904,0.1567,3,19,0.78,0.88,0.2,24.705,15.37,96.6,45.2,21260.0,7678,7790,7601,7650,61.7,62.1,63.9,65.3,2.966,3.059,2.699,3.082,4.1,68.7,37.2,49.6,1014.77,-33.31,-1.69,1.74,31.9,46.1,39.0,0,no_anomaly,0.0,0,0,0,0,13.0826864,80.2707184,5.0,0.0
2024-04-08T15:38:02.000Z,MISSION_0053,20,0,takeoff,SITE_CHE_004,13.082691,80.2707233,5.0,320.39,3.081,0.097,2.78,-2.9686,-2.4334,320.3912,-0.94014,0.03156,0.0112,0.33914,0.1184,-0.0078,-9.7847,-0.4125,-0.4011,0.2094,0.1232,3,20,0.88,0.84,0.36,24.695,19.81,96.5,44.9,21239.0,7323,7738,7769,7596,66.5,60.7,60.6,63.2,2.553,2.689,2.723,3.022,4.05,65.5,37.1,49.0,1014.61,-31.33,-1.13,1.51,33.2,45.7,40.3,0,no_anomaly,0.0,0,0,0,0,13.082691,80.2707233,5.0,0.0
2024-04-08T15:38:02.100Z,MISSION_0053,21,0,takeoff,SITE_CHE_004,13.0826909,80.2707249,5.0,319.48,2.907,0.007,2.95,-5.0668,-1.9603,319.4799,-0.93681,0.04738,0.00073,0.3466,-0.0852,-0.0592,-9.7856,1.4619,-0.2101,0.391,0.2336,3,16,0.65,0.83,0.2,24.727,23.37,96.4,44.5,21218.0,7466,7536,7758,7886,63.9,64.6,63.7,62.7,2.791,2.552,2.794,2.916,4.32,75.9,36.9,49.9,1015.04,-30.35,-0.17,1.65,31.9,45.4,40.3,0,no_anomaly,0.0,0,0,0,0,13.0826909,80.2707249,5.0,0.0
2024-04-08T15:38:02.200Z,MISSION_0053,22,0,takeoff,SITE_CHE_004,13.0826872,80.2707284,5.0,320.25,3.006,0.091,3.46,-1.1185,-3.927,320.2478,-0.93972,0.02082,0.0289,0.34009,-0.2137,-0.0685,-9.8309,-0.1152,-0.2705,0.0265,0.0649,3,11,0.83,1.12,0.24,24.69,18.73,96.3,44.6,21196.0,7632,7650,7485,7838,63.5,58.1,65.0,61.7,2.674,2.715,2.856,2.857,3.52,70.0,37.2,49.4,1015.26,-32.61,-0.1,1.29,32.6,49.0,39.3,0,no_anomaly,0.0,0,0,0,0,13.0826872,80.2707284,5.0,0.0
2024-04-08T15:38:02.300Z,MISSION_0053,23,0,takeoff,SITE_CHE_004,13.0826846,80.2707333,5.0,320.66,3.518,0.081,4.08,1.5156,-2.3597,320.6595,-0.94146,-0.00552,0.02384,0.33625,0.0421,-0.0262,-9.7476,0.0698,-0.2902,0.2484,0.1999,3,14,0.62,0.98,0.2,24.755,18.33,96.2,45.1,21175.0,7611,7514,7690,7463,62.2,61.6,61.9,61.5,2.8,3.03,2.918,2.873,3.98,66.6,37.0,50.0,1014.75,-31.98,-0.59,1.72,33.3,48.6,40.0,0,no_anomaly,0.0,0,0,0,0,13.0826846,80.2707333,5.0,0.0
2024-04-08T15:38:02.400Z,MISSION_0053,24,0,takeoff,SITE_CHE_004,13.0826844,80.2707332,5.0,319.73,3.647,0.163,4.08,-2.1604,-2.6689,319.726,-0.9383,0.02571,0.01537,0.34452,-0.1981,-0.1237,-9.8344,0.2563,0.8807,-0.1739,0.1387,3,10,0.73,1.03,0.36,24.607,13.35,96.2,43.6,21154.0,7454,7362,7609,7597,64.2,61.2,63.8,59.7,2.881,2.946,2.757,2.651,3.63,71.9,37.1,49.2,1014.96,-31.58,-1.8,1.17,32.6,44.0,42.2,0,no_anomaly,0.0,0,0,0,0,13.0826844,80.2707332,5.0,0.0
2024-04-08T15:38:02.500Z,MISSION_0053,25,0,takeoff,SITE_CHE_004,13.0826812,80.2707316,5.0,320.99,4.008,0.064,4.1,-3.8165,-1.3322,320.994,-0.94191,0.03527,-0.00016,0.33401,-0.3481,0.0862,-9.7923,-0.488,-0.1909,0.4033,0.1017,3,20,0.79,1.14,0.29,24.705,22.35,96.1,45.3,21132.0,7449,7589,7521,7623,59.2,64.7,61.7,57.3,2.737,2.758,2.685,2.874,3.39,58.9,36.9,50.0,1014.89,-27.46,-0.69,1.64,35.0,44.0,40.5,0,no_anomaly,0.0,0,0,0,0,13.0826812,80.2707316,5.0,0.0
2024-04-08T15:38:02.600Z,MISSION_0053,26,0,takeoff,SITE_CHE_004,13.0826859,80.27073,5.0,323.72,3.854,0.197,3.69,4.2813,-2.987,323.7242,-0.94963,-0.02738,0.03638,0.31006,-0.0367,-0.0312,-9.8534,0.3699,0.6025,0.2943,0.1309,3,18,0.7,0.7,0.23,24.643,16.84,96.0,44.6,21111.0,7687,7312,7770,7555,60.1,61.7,63.1,62.1,2.731,2.481,2.736,2.616,4.27,59.9,37.0,49.4,1014.81,-31.41,-1.1,1.64,28.0,49.0,35.9,0,no_anomaly,0.0,0,0,0,0,13.0826859,80.27073,5.0,0.0
2024-04-08T15:38:02.700Z,MISSION_0053,27,0,takeoff,SITE_CHE_004,13.0826906,80.2707316,5.0,322.32,3.784,0.066,3.67,-2.094,-0.515,322.3167,-0.94622,0.01874,-0.00165,0.32297,-0.2546,-0.0207,-9.7669,-0.6475,0.5648,0.3818,0.1892,3,14,0.7,0.78,0.26,24.648,24.11,95.9,44.3,21090.0,7538,7629,7541,7716,64.1,58.7,59.8,61.5,2.848,2.864,2.987,2.999,3.92,73.4,36.9,49.2,1014.76,-33.59,-1.25,1.0,31.9,45.5,36.8,0,no_anomaly,0.0,0,0,0,0,13.0826906,80.2707316,5.0,0.0
2024-04-08T15:38:02.800Z,MISSION_0053,28,0,takeoff,SITE_CHE_004,13.082689,80.270732,5.0,323.51,3.689,0.183,3.76,-1.4084,-1.618,323.5142,-0.94952,0.01609,0.00956,0.31316,0.015,0.0396,-9.7555,0.9486,-0.2405,-0.6528,0.0926,3,19,0.5,0.7,0.2,24.713,21.26,95.8,45.5,21069.0,7538,7670,7576,7571,61.2,63.2,64.3,65.7,3.036,2.715,2.832,2.74,3.97,68.3,37.4,49.6,1015.18,-24.05,1.46,1.33,30.7,46.6,39.9,0,no_anomaly,0.0,0,0,0,0,13.082689,80.270732,5.0,0.0
2024-04-08T15:38:02.900Z,MISSION_0053,29,0,takeoff,SITE_CHE_004,13.0826914,80.2707289,5.0,319.26,3.69,0.097,3.36,0.2429,-2.3248,319.2606,-0.93729,0.00507,0.01976,0.34796,0.0551,-0.1001,-9.7337,0.5712,-0.8404,0.4294,0.1674,3,20,0.68,0.99,0.21,24.709,16.25,95.7,45.8,21047.0,7745,7490,7668,7746,63.9,60.6,64.0,64.1,3.065,2.975,2.944,2.76,4.41,68.6,36.9,49.4,1014.54,-27.76,-0.46,1.67,34.0,42.4,41.0,0,no_anomaly,0.0,0,0,0,0,13.0826914,80.2707289,5.0,0.0
2024-04-08T15:38:03.000Z,MISSION_0053,30,0,takeoff,SITE_CHE_004,13.082691,80.2707305,5.0,320.27,4.375,0.113,3.54,3.6266,-3.355,320.2662,-0.93993,-0.0198,0.03827,0.33865,0.0019,0.0217,-9.7109,0.3463,-0.8141,-0.0006,0.1129,3,19,0.76,0.88,0.35,24.752,19.11,95.6,44.6,21026.0,7488,7428,7417,7475,63.1,58.7,59.4,63.8,2.979,2.454,2.867,2.761,4.19,62.4,37.1,50.1,1015.01,-29.13,-0.29,1.65,29.6,43.3,41.2,0,no_anomaly,0.0,0,0,0,0,13.082691,80.2707305,5.0,0.0
2024-04-08T15:38:03.100Z,MISSION_0053,31,0,takeoff,SITE_CHE_004,13.0826897,80.270732,5.0,320.45,4.335,0.074,3.74,-0.9322,-1.7983,320.4537,-0.94085,0.01296,0.01202,0.33836,-0.0165,-0.0185,-9.8016,0.1734,0.229,0.132,0.1766,3,17,0.5,0.68,0.22,24.675,16.74,95.5,44.8,21005.0,7763,7497,7829,7758,61.0,62.5,65.7,63.9,2.821,2.73,2.752,2.822,4.12,63.9,36.7,50.5,1014.75,-31.87,-0.44,1.36,31.8,45.8,41.4,0,no_anomaly,0.0,0,0,0,0,13.0826897,80.270732,5.0,0.0
2024-04-08T15:38:03.200Z,MISSION_0053,32,0,takeoff,SITE_CHE_004,13.0826933,80.2707315,5.0,320.85,4.089,0.112,3.59,0.1963,-2.392,320.8546,-0.94202,0.00538,0.02024,0.3349,-0.2541,-0.0443,-9.764,0.0488,0.2604,0.0865,0.3258,3,15,0.67,0.96,0.23,24.786,21.39,95.4,45.7,20983.0,7708,7775,7407,7843,59.9,61.1,59.6,62.8,2.794,2.808,2.709,2.729,3.3,72.2,37.2,50.6,1014.97,-30.46,0.51,1.48,31.9,42.5,41.9,0,no_anomaly,0.0,0,0,0,0,13.0826933,80.2707315,5.0,0.0
2024-04-08T15:38:03.300Z,MISSION_0053,33,0,takeoff,SITE_CHE_004,13.0826969,80.2707331,5.0,321.12,4.119,0.143,3.7,-3.2675,-1.3756,321.124,-0.94244,0.03088,0.00183,0.33295,0.1822,-0.0417,-9.7895,0.7057,-0.8865,-0.0316,0.1994,3,12,0.63,0.61,0.26,24.615,24.89,95.3,45.1,20962.0,7654,7388,7479,7684,63.3,62.1,63.6,60.0,2.648,2.578,2.83,2.968,3.52,69.3,37.1,49.9,1015.12,-28.92,-0.23,1.28,29.6,49.4,38.2,0,no_anomaly,0.0,0,0,0,0,13.0826969,80.2707331,5.0,0.0
2024-04-08T15:38:03.400Z,MISSION_0053,34,0,takeoff,SITE_CHE_004,13.0826963,80.2707371,5.0,321.45,3.975,0.071,4.15,2.1714,-5.1479,321.4521,-0.94311,-0.00305,0.04863,0.32889,-0.2243,-0.0083,-9.7749,-0.2689,-0.5298,-0.2619,0.1725,3,15,0.67,0.86,0.29,24.662,23.36,95.2,45.2,20941.0,7725,7554,7839,7488,58.0,61.6,64.2,61.7,2.433,2.872,2.641,2.889,4.24,71.3,37.2,50.1,1014.97,-29.87,0.07,1.4,30.5,43.5,41.3,0,no_anomaly,0.0,0,0,0,0,13.0826963,80.2707371,5.0,0.0
2024-04-08T15:38:03.500Z,MISSION_0053,35,0,takeoff,SITE_CHE_004,13.0826987,80.2707343,5.0,322.45,4.015,0.115,3.82,-1.6827,-1.6237,322.4468,-0.94652,0.01846,0.00869,0.32201,-0.026,-0.0498,-9.7927,-0.8149,0.017,-0.4151,0.1815,3,14,0.54,0.89,0.33,24.63,20.48,95.1,45.0,20920.0,7672,7786,7525,7493,60.6,62.3,61.7,60.1,2.784,2.83,2.757,2.726,5.58,79.2,37.2,50.5,1014.61,-29.62,1.17,1.65,33.0,47.0,39.4,0,no_anomaly,0.0,0,0,0,0,13.0826987,80.2707343,5.0,0.0
2024-04-08T15:38:03.600Z,MISSION_0053,36,0,takeoff,SITE_CHE_004,13.0826994,80.2707337,5.0,324.49,4.077,0.115,3.76,0.3011,-0.3846,324.4883,-0.95236,-0.00148,0.004,0.30495,-0.1505,-0.098,-9.7162,0.2935,0.3895,0.1883,0.1756,3,14,0.78,0.96,0.37,24.809,16.61,95.0,45.6,20898.0,7291,7553,7327,7558,61.6,60.9,61.5,59.7,2.703,2.742,2.908,2.839,4.56,75.1,36.8,49.4,1014.65,-28.25,1.75,1.64,33.1,50.4,42.6,0,no_anomaly,0.0,0,0,0,0,13.0826994,80.2707337,5.0,0.0
2024-04-08T15:38:03.700Z,MISSION_0053,37,0,takeoff,SITE_CHE_004,13.0826996,80.2707321,5.0,324.47,3.932,0.097,3.58,1.1432,-3.9139,324.468,-0.95181,0.00092,0.03556,0.30461,0.1766,-0.0734,-9.6721,0.0398,0.4774,-0.1752,0.2153,3,10,0.8,0.78,0.2,24.632,19.49,94.9,43.8,20877.0,7252,7405,7479,7618,63.5,65.1,56.6,62.2,2.727,2.514,2.93,2.848,3.75,62.2,37.1,49.3,1014.55,-32.5,2.06,1.14,31.9,46.7,40.6,0,no_anomaly,0.0,0,0,0,0,13.0826996,80.2707321,5.0,0.0
2024-04-08T15:38:03.800Z,MISSION_0053,38,0,takeoff,SITE_CHE_004,13.0827043,80.2707322,5.0,325.79,3.835,0.076,3.62,-1.2887,0.0303,325.7864,-0.9557,0.01067,-0.00356,0.29413,-0.0925,0.0413,-9.7493,-0.1618,0.2549,0.1616,0.1074,3,18,0.72,0.63,0.22,24.729,20.49,94.8,45.3,20856.0,7439,7426,7445,7484,61.6,62.8,59.0,62.8,2.597,2.883,3.014,2.897,3.78,62.2,37.2,49.8,1014.33,-27.86,-0.79,1.53,31.2,48.9,41.7,0,no_anomaly,0.0,0,0,0,0,13.0827043,80.2707322,5.0,0.0
2024-04-08T15:38:03.900Z,MISSION_0053,39,0,takeoff,SITE_CHE_004,13.0827074,80.2707334,5.0,324.9,3.622,0.039,3.8,-0.5995,-3.3521,324.9016,-0.95299,0.01381,0.02631,0.30154,0.1836,-0.0082,-9.8413,0.1108,-0.0226,0.1652,0.267,3,11,0.8,0.92,0.34,24.664,28.76,94.7,44.1,20834.0,7644,7549,7506,7602,62.9,65.1,60.0,62.8,2.838,2.909,2.565,2.592,3.64,75.3,36.5,50.8,1014.94,-30.93,-1.21,1.43,33.1,45.3,40.5,0,no_anomaly,0.0,0,0,0,0,13.0827074,80.2707334,5.0,0.0
2024-04-08T15:38:04.000Z,MISSION_0053,40,0,takeoff,SITE_CHE_004,13.0827076,80.2707344,5.0,324.13,3.763,0.175,3.92,1.6895,-2.83,324.1339,-0.95114,-0.00642,0.02803,0.30743,0.0913,0.0065,-9.7607,-1.5789,0.196,0.1534,0.1455,3,10,0.71,1.06,0.2,24.677,21.79,94.6,45.1,20813.0,7360,7540,7750,7679,63.0,63.2,62.4,59.1,2.814,2.821,2.967,2.924,4.09,69.5,37.1,50.0,1014.73,-26.98,0.24,1.26,34.2,46.3,39.1,0,no_anomaly,0.0,0,0,0,0,13.0827076,80.2707344,5.0,0.0
2024-04-08T15:38:04.100Z,MISSION_0053,41,0,takeoff,SITE_CHE_004,13.0827079,80.2707414,5.0,323.54,4.115,0.055,4.69,-0.1048,-2.4077,323.5442,-0.9496,0.00744,0.01967,0.31275,-0.263,-0.0134,-9.9286,0.2502,-0.8846,-0.1755,0.074,3,15,0.69,0.96,0.3,24.635,16.06,94.5,45.1,20792.0,7662,7576,7630,7776,64.4,64.6,68.7,60.4,2.574,2.923,2.835,2.989,3.84,69.7,37.1,50.3,1014.91,-35.04,-0.23,1.91,32.6,47.5,39.7,0,no_anomaly,0.0,0,0,0,0,13.0827079,80.2707414,5.0,0.0
2024-04-08T15:38:04.200Z,MISSION_0053,42,0,takeoff,SITE_CHE_004,13.0827055,80.2707342,5.0,324.77,4.011,0.175,3.85,-4.0813,-3.6922,324.7721,-0.95167,0.04366,0.01992,0.30335,-0.0973,0.032,-9.9068,-0.1499,-0.9527,0.0743,0.1046,3,20,0.69,0.8,0.28,24.642,18.07,94.4,45.2,20771.0,7330,7384,7585,7834,60.1,64.5,62.7,62.9,2.684,2.896,2.847,2.802,4.08,54.3,36.9,49.5,1015.15,-26.82,-1.03,1.82,32.1,46.7,41.4,0,no_anomaly,0.0,0,0,0,0,13.0827055,80.2707342,5.0,0.0
2024-04-08T15:38:04.300Z,MISSION_0053,43,0,takeoff,SITE_CHE_004,13.0827047,80.2707341,5.0,323.01,4.115,0.151,3.83,-1.0924,-2.0315,323.0095,-0.9481,0.01466,0.01379,0.31732,0.0522,-0.0844,-9.7726,-0.2849,-0.549,0.4593,0.1813,3,15,0.67,0.9,0.22,24.643,19.82,94.3,44.3,20749.0,7371,7821,7602,7610,60.2,59.7,62.3,60.7,2.853,2.697,2.803,2.728,4.07,73.4,36.9,49.3,1015.09,-30.18,0.11,1.99,29.5,42.4,38.7,0,no_anomaly,0.0,0,0,0,0,13.0827047,80.2707341,5.0,0.0
2024-04-08T15:38:04.400Z,MISSION_0053,44,0,takeoff,SITE_CHE_004,13.0827072,80.2707333,5.0,323.79,4.635,0.104,3.79,-1.2412,-3.6436,323.7935,-0.94985,0.02017,0.02685,0.31088,-0.0146,0.0122,-9.8361,-0.2701,-0.9664,-0.4856,0.2087,3,10,0.65,0.83,0.22,24.724,22.66,94.2,45.2,20728.0,7618,7662,7521,7304,61.4,61.3,59.9,62.4,3.113,2.782,2.92,2.467,3.27,74.8,37.0,50.0,1015.02,-31.19,-0.45,1.27,30.6,45.0,39.8,0,no_anomaly,0.0,0,0,0,0,13.0827072,80.2707333,5.0,0.0
2024-04-08T15:38:04.500Z,MISSION_0053,45,0,takeoff,SITE_CHE_004,13.0827065,80.2707353,5.0,321.92,4.873,0.08,4.0,-0.0198,-2.0757,321.9207,-0.94514,0.00607,0.01707,0.32617,0.0819,0.0031,-9.8393,0.03,1.0578,0.2965,0.2203,3,18,0.69,0.64,0.27,24.661,20.55,94.1,45.0,20707.0,7555,7984,7424,7732,62.0,60.4,60.9,61.8,3.068,2.636,2.811,2.725,2.92,81.1,36.8,49.4,1014.87,-27.95,0.03,2.11,29.1,41.6,38.9,0,no_anomaly,0.0,0,0,0,0,13.0827065,80.2707353,5.0,0.0
2024-04-08T15:38:04.600Z,MISSION_0053,46,0,takeoff,SITE_CHE_004,13.0826997,80.2707377,5.0,321.52,5.14,0.106,4.2,-1.7112,-0.789,321.5213,-0.94399,0.01637,0.00158,0.32957,-0.0692,0.0418,-9.8069,-0.3709,0.0165,0.2354,0.1373,3,10,0.73,0.76,0.32,24.654,24.07,94.0,45.6,20685.0,7558,7677,7314,7665,60.6,63.5,61.0,63.0,2.725,2.7,2.964,3.073,3.45,70.3,36.8,49.8,1015.01,-28.22,-1.33,1.25,33.0,42.4,37.7,0,no_anomaly,0.0,0,0,0,0,13.0826997,80.2707377,5.0,0.0
2024-04-08T15:38:04.700Z,MISSION_0053,47,0,takeoff,SITE_CHE_004,13.0827016,80.2707357,5.0,319.76,5.315,0.185,3.98,-0.0496,-1.2095,319.7592,-0.93892,0.00404,0.00976,0.34398,0.0139,-0.0334,-9.743,0.6902,0.5313,-0.0079,0.1386,3,18,0.84,1.04,0.39,24.673,18.19,93.9,44.8,20664.0,7588,7668,7513,7648,62.5,58.0,60.1,64.7,3.167,2.875,2.918,2.804,4.62,67.9,37.3,49.8,1014.88,-28.3,1.62,1.51,28.7,42.9,40.7,0,no_anomaly,0.0,0,0,0,0,13.0827016,80.2707357,5.0,0.0
2024-04-08T15:38:04.800Z,MISSION_0053,48,0,takeoff,SITE_CHE_004,13.0826997,80.2707384,5.0,321.65,5.087,0.096,4.28,1.3493,-4.5255,321.649,-0.94387,0.00185,0.04115,0.32775,-0.2205,0.051,-9.7271,-0.336,0.977,0.2246,0.2563,3,17,0.56,1.12,0.2,24.607,19.58,93.8,45.9,20643.0,7829,7738,7806,7674,61.6,61.1,63.2,62.3,2.767,2.832,2.594,2.828,4.34,64.3,37.0,50.4,1014.71,-30.32,-0.57,1.26,27.7,47.5,39.2,0,no_anomaly,0.0,0,0,0,0,13.0826997,80.2707384,5.0,0.0
2024-04-08T15:38:04.900Z,MISSION_0053,49,0,takeoff,SITE_CHE_004,13.0827027,80.2707351,5.0,322.38,5.076,0.086,3.92,3.8993,-0.8805,322.3843,-0.94611,-0.02973,0.01824,0.32195,-0.1275,-0.0599,-9.7981,-0.9673,-0.4465,0.068,0.2341,3,13,0.62,1.04,0.3,24.685,22.81,93.7,45.8,20622.0,7394,7730,7733,7561,61.0,58.9,63.7,64.9,2.865,2.868,2.861,2.739,4.1,59.6,36.7,49.9,1014.74,-28.81,0.74,1.61,31.7,50.6,37.7,0,no_anomaly,0.0,0,0,0,0,13.0827027,80.2707351,5.0,0.0
2024-04-08T15:38:05.000Z,MISSION_0053,50,0,transit,SITE_CHE_004,13.082705,80.270738,5.5,323.63,4.896,0.095,4.26,-1.4983,-4.183,323.6252,-0.94918,0.0238,0.03059,0.31235,0.1218,-0.0244,-9.8231,0.2932,-0.1088,0.2948,0.1162,3,11,0.56,1.03,0.28,24.702,19.57,93.6,44.7,20600.0,7721,7409,7434,7491,61.9,63.4,61.5,64.1,2.658,2.814,2.862,2.64,3.95,71.5,37.0,49.3,1014.8,-29.04,1.79,1.49,29.7,49.2,37.4,0,no_anomaly,0.0,0,0,0,0,13.082705,80.270738,5.5,0.0
2024-04-08T15:38:05.100Z,MISSION_0053,51,0,transit,SITE_CHE_004,13.0826993,80.2707389,6.0,323.68,5.57,0.089,4.33,-4.6744,-1.2251,323.6837,-0.94922,0.04208,-0.00256,0.31178,-0.0974,0.0267,-9.8843,-0.3979,0.8389,-0.3904,0.1285,3,17,0.9,0.79,0.24,24.623,18.25,93.5,44.9,20579.0,7598,7448,7571,7580,61.8,63.1,62.6,57.3,3.127,2.814,2.614,2.883,3.87,68.2,37.0,49.8,1014.98,-31.29,-0.49,1.95,30.0,42.5,36.4,0,no_anomaly,0.0,0,0,0,0,13.0826993,80.2707389,6.0,0.0
2024-04-08T15:38:05.200Z,MISSION_0053,52,0,transit,SITE_CHE_004,13.0827018,80.2707338,6.5,321.89,5.732,0.1,3.76,2.8878,-3.0484,321.8942,-0.9448,-0.01513,0.03336,0.32559,-0.0934,-0.0588,-9.812,0.4417,-0.5242,-0.0221,0.1654,3,17,0.6,0.87,0.21,24.706,18.89,93.4,46.0,20558.0,7837,7703,7540,7722,66.5,59.4,61.2,65.4,2.711,2.612,2.794,3.028,4.5,58.7,36.9,49.8,1015.01,-28.09,0.04,1.74,31.2,45.9,37.5,0,no_anomaly,0.0,0,0,0,0,13.0827018,80.2707338,6.5,0.0
2024-04-08T15:38:05.300Z,MISSION_0053,53,0,transit,SITE_CHE_004,13.0827051,80.2707363,7.0,321.98,5.817,0.038,4.08,2.0205,-0.7481,321.9793,-0.94533,-0.01454,0.01191,0.32557,0.0939,0.0863,-9.7672,-0.123,0.317,0.2317,0.1615,3,17,0.66,0.86,0.2,24.69,21.27,93.3,45.4,20536.0,7565,7598,7544,7452,61.9,60.1,60.5,61.5,2.63,2.836,2.991,2.769,4.24,71.6,36.9,50.0,1014.98,-27.49,1.97,2.06,35.7,48.5,41.3,0,no_anomaly,0.0,0,0,0,0,13.0827051,80.2707363,7.0,0.0
2024-04-08T15:38:05.400Z,MISSION_0053,54,0,transit,SITE_CHE_004,13.0827018,80.2707311,7.5,321.38,5.488,0.09,3.47,-2.8508,-1.5677,321.3792,-0.94325,0.028,0.00468,0.33087,-0.0777,0.0754,-9.8431,-0.3139,0.7436,-0.2416,0.2424,3,11,0.72,0.75,0.2,24.68,22.12,93.3,45.4,20515.0,7883,7804,7630,7627,61.7,59.8,63.3,63.3,2.679,2.898,2.787,2.651,4.1,68.7,36.8,49.7,1014.71,-30.67,0.53,1.03,34.3,48.0,43.1,0,no_anomaly,0.0,0,0,0,0,13.0827018,80.2707311,7.5,0.0
2024-04-08T15:38:05.500Z,MISSION_0053,55,0,transit,SITE_CHE_004,13.0827025,80.2707285,8.0,320.99,5.708,0.121,3.19,-0.0286,-2.4155,320.9919,-0.94241,0.00727,0.01978,0.3338,-0.1679,0.0109,-9.7546,0.0921,-0.5855,-0.241,0.1991,3,17,0.64,0.79,0.2,24.514,22.67,93.2,45.4,20494.0,7599,7596,7741,7372,62.8,57.5,62.8,58.8,2.811,3.041,2.899,2.585,4.05,59.5,37.1,50.1,1015.14,-28.97,-0.46,1.64,30.0,48.3,41.1,0,no_anomaly,0.0,0,0,0,0,13.0827025,80.2707285,8.0,0.0
2024-04-08T15:38:05.600Z,MISSION_0053,56,0,transit,SITE_CHE_004,13.0827022,80.2707249,8.5,324.34,5.741,0.162,2.78,-0.1779,-3.5951,324.3441,-0.9515,0.01108,0.02939,0.30606,-0.0761,0.0349,-9.778,0.4496,-0.1072,0.2895,0.1773,3,16,0.53,0.74,0.23,24.676,14.24,93.1,44.5,20473.0,7493,7577,7535,7568,60.5,63.1,61.8,62.5,2.848,3.048,2.891,2.958,3.52,69.1,37.1,49.1,1015.09,-36.44,2.29,1.41,31.3,43.6,40.4,0,no_anomaly,0.0,0,0,0,0,13.0827022,80.2707249,8.5,0.0
2024-04-08T15:38:05.700Z,MISSION_0053,57,0,transit,SITE_CHE_004,13.0826984,80.2707247,9.0,325.12,6.141,0.079,2.75,-3.129,-2.41,325.1228,-0.9533,0.03234,0.01188,0.30005,-0.0606,-0.023,-9.7173,-0.2967,0.3772,-0.3166,0.1803,3,14,0.7,0.81,0.39,24.499,20.6,93.0,45.2,20451.0,7689,7734,7373,7502,63.0,60.7,61.0,61.0,2.635,2.939,2.757,2.762,4.38,65.6,37.2,49.6,1014.88,-24.04,-2.4,1.33,31.9,43.0,38.8,0,no_anomaly,0.0,0,0,0,0,13.0826984,80.2707247,9.0,0.0
2024-04-08T15:38:05.800Z,MISSION_0053,58,0,transit,SITE_CHE_004,13.0826964,80.2707226,9.5,328.74,6.209,0.086,2.54,0.7169,-0.7936,328.7411,-0.96299,-0.00416,0.00836,0.26936,0.1307,0.0909,-9.8044,-0.4671,-0.1217,-0.1401,0.1559,3,12,0.81,0.74,0.41,24.662,28.86,92.9,44.8,20430.0,7700,7513,7604,7310,62.5,58.6,58.8,60.7,2.638,2.939,2.885,2.563,4.04,62.6,36.9,49.2,1014.69,-23.91,-0.85,1.7,29.7,43.2,40.1,0,no_anomaly,0.0,0,0,0,0,13.0826964,80.2707226,9.5,0.0
2024-04-08T15:38:05.900Z,MISSION_0053,59,0,transit,SITE_CHE_004,13.082697,80.2707157,10.0,328.41,5.767,0.053,1.78,4.5209,-2.7484,328.4131,-0.96148,-0.03142,0.03379,0.27097,0.0723,-0.0447,-9.8938,-0.5299,0.0129,0.0502,0.1801,3,16,0.74,0.93,0.2,24.624,25.87,92.8,45.5,20409.0,7785,7446,7664,7729,63.8,63.9,60.7,61.3,2.661,2.907,2.76,2.727,3.99,63.5,36.9,49.4,1014.72,-25.57,-0.66,1.58,30.2,45.7,41.7,0,no_anomaly,0.0,0,0,0,0,13.082697,80.2707157,10.0,0.0
2024-04-08T15:38:06.000Z,MISSION_0053,60,0,transit,SITE_CHE_004,13.082697,80.2707217,10.5,326.93,5.973,0.107,2.44,2.1222,-0.2501,326.9322,-0.9585,-0.01713,0.00736,0.28449,0.1387,-0.0268,-9.8137,-0.2358,0.3624,-0.241,0.2058,3,10,0.62,1.33,0.23,24.614,22.85,92.7,45.1,20387.0,7732,7486,7579,7842,62.9,61.7,58.8,62.6,2.734,2.954,2.758,2.99,5.11,64.9,37.0,50.0,1014.74,-34.0,-0.78,1.44,32.4,48.7,36.5,0,no_anomaly,0.0,0,0,0,0,13.082697,80.2707217,10.5,0.0
2024-04-08T15:38:06.100Z,MISSION_0053,61,0,transit,SITE_CHE_004,13.0826939,80.2707185,11.0,325.07,6.467,0.255,2.17,-4.1479,-2.6973,325.066,-0.95275,0.04157,0.01158,0.30069,-0.0311,0.0069,-9.7947,-0.4666,-0.4416,0.6627,0.1744,3,18,0.74,0.67,0.31,24.565,22.11,92.6,45.4,20366.0,7527,7541,7351,7894,60.8,62.4,60.7,63.8,2.728,3.027,2.888,2.648,4.61,63.0,37.2,49.9,1014.88,-31.31,-1.05,1.42,31.9,48.4,42.0,0,no_anomaly,0.0,0,0,0,0,13.0826939,80.2707185,11.0,0.0
2024-04-08T15:38:06.200Z,MISSION_0053,62,0,transit,SITE_CHE_004,13.0826928,80.2707228,11.5,324.75,6.548,0.142,2.66,-1.0911,-0.4006,324.746,-0.95299,0.01013,0.00045,0.30283,-0.0528,0.0407,-9.7646,0.4985,-0.11,0.5109,0.1119,3,12,0.8,0.85,0.29,24.575,22.0,92.5,45.8,20345.0,7596,7752,7635,7704,62.5,65.3,60.4,63.2,2.677,2.873,2.837,2.623,4.16,72.6,37.0,49.3,1015.16,-28.67,0.3,1.83,34.2,50.6,40.1,0,no_anomaly,0.0,0,0,0,0,13.0826928,80.2707228,11.5,0.0
2024-04-08T15:38:06.300Z,MISSION_0053,63,0,transit,SITE_CHE_004,13.0826966,80.2707232,12.0,328.48,6.625,0.167,2.61,-3.9486,-4.611,328.4798,-0.96068,0.04405,0.02934,0.27256,0.0572,0.0259,-9.8331,0.6673,-0.2213,0.2294,0.1747,3,11,0.66,0.86,0.27,24.548,22.5,92.4,45.6,20324.0,7789,7791,7769,7557,63.1,65.5,63.4,58.2,2.658,2.792,2.788,2.679,3.81,66.2,36.9,49.7,1015.17,-29.62,-0.1,1.77,32.8,47.0,40.4,0,no_anomaly,0.0,0,0,0,0,13.0826966,80.2707232,12.0,0.0
2024-04-08T15:38:06.400Z,MISSION_0053,64,0,transit,SITE_CHE_004,13.0826929,80.2707259,12.5,327.82,6.573,0.161,2.99,1.9468,-3.1574,327.8197,-0.96045,-0.00868,0.03117,0.27655,-0.1836,-0.0324,-9.9016,-0.3631,-0.014,0.0742,0.2204,3,20,0.6,0.6,0.26,24.61,18.94,92.3,45.0,20302.0,7561,7696,7651,7395,60.1,63.2,61.2,62.0,2.763,2.739,3.012,2.664,2.99,72.6,36.8,50.3,1014.62,-25.39,-1.48,1.57,31.9,50.2,37.1,0,no_anomaly,0.0,0,0,0,0,13.0826929,80.2707259,12.5,0.0
2024-04-08T15:38:06.500Z,MISSION_0053,65,0,transit,SITE_CHE_004,13.0826932,80.2707291,13.0,326.8,6.517,0.172,3.33,3.7952,-0.2827,326.805,-0.95783,-0.03103,0.01182,0.28541,0.0535,-0.0071,-9.9057,0.2435,0.9111,-0.4832,0.2085,3,16,0.53,1.0,0.26,24.605,21.81,92.2,45.1,20281.0,7438,7788,7828,7848,62.5,62.8,60.8,61.0,3.021,2.802,2.822,2.742,3.96,73.9,37.2,49.2,1014.75,-31.33,-0.59,1.4,29.9,50.7,40.6,0,no_anomaly,0.0,0,0,0,0,13.0826932,80.2707291,13.0,0.0
2024-04-08T15:38:06.600Z,MISSION_0053,66,0,transit,SITE_CHE_004,13.0826948,80.2707271,13.5,325.97,6.788,0.111,3.08,0.4077,-2.1087,325.9679,-0.95607,0.00198,0.01864,0.29253,0.1252,0.0035,-9.6756,-0.8504,-0.2133,-0.0672,0.1733,3,11,0.73,0.9,0.37,24.603,16.36,92.1,45.3,20260.0,7586,7559,7412,7685,61.6,59.0,61.9,61.6,3.155,2.936,2.839,2.778,3.85,65.2,36.7,49.9,1014.79,-30.36,-1.05,1.95,29.5,43.6,36.7,0,no_anomaly,0.0,0,0,0,0,13.0826948,80.2707271,13.5,0.0
2024-04-08T15:38:06.700Z,MISSION_0053,67,0,transit,SITE_CHE_004,13.0827009,80.2707272,14.0,325.39,6.9,0.134,3.03,-2.8254,-2.9178,325.3853,-0.95394,0.0311,0.01697,0.29791,0.0187,-0.0796,-9.8888,0.5693,-0.0261,-0.5515,0.1336,3,20,0.72,0.86,0.25,24.598,20.13,92.0,45.4,20238.0,7448,7560,7520,7623,61.7,60.7,67.6,61.4,2.804,2.584,2.878,2.621,3.6,70.8,36.7,50.0,1014.75,-23.75,-1.63,1.3,29.3,47.3,37.9,0,no_anomaly,0.0,0,0,0,0,13.0827009,80.2707272,14.0,0.0
2024-04-08T15:38:06.800Z,MISSION_0053,68,0,transit,SITE_CHE_004,13.0827,80.2707296,14.5,326.82,6.769,0.096,3.29,-0.2688,-2.7992,326.8245,-0.95808,0.00922,0.02274,0.28545,-0.0055,-0.0191,-9.8048,-0.4116,0.0407,0.0386,0.1336,3,18,0.65,0.91,0.35,24.603,24.99,91.9,45.9,20217.0,7638,7285,7967,7512,62.0,60.3,61.9,61.6,2.989,2.674,2.719,2.619,4.58,57.3,36.4,49.8,1014.64,-33.16,0.04,1.46,30.3,42.3,39.0,0,no_anomaly,0.0,0,0,0,0,13.0827,80.2707296,14.5,0.0
2024-04-08T15:38:06.900Z,MISSION_0053,69,0,transit,SITE_CHE_004,13.0827035,80.2707288,15.0,327.58,6.39,0.077,3.23,-6.5012,-3.1524,327.5756,-0.95789,0.06209,0.01054,0.28014,-0.2158,0.0065,-9.7599,0.2393,-0.321,0.2911,0.1952,3,10,0.8,0.91,0.39,24.589,20.48,91.8,45.8,20196.0,7566,7709,7566,7753,64.8,64.7,60.6,61.7,2.614,2.667,2.994,2.757,3.81,70.2,36.9,49.5,1014.75,-28.56,0.49,1.28,32.7,41.1,40.6,0,no_anomaly,0.0,0,0,0,0,13.0827035,80.2707288,15.0,0.0
2024-04-08T15:38:07.000Z,MISSION_0053,70,0,transit,SITE_CHE_004,13.0827049,80.2707278,15.2,326.47,6.412,0.204,3.14,2.4796,-2.81,326.4666,-0.95713,-0.01364,0.02971,0.28781,-0.017,0.0071,-9.7153,0.0211,-0.9076,-0.0028,0.186,3,17,0.79,1.17,0.2,24.581,26.02,91.7,45.2,20175.0,7516,7752,7498,7509,62.0,62.3,67.3,62.8,2.887,2.656,2.818,3.059,3.85,67.0,37.1,49.5,1014.89,-30.4,-1.3,1.31,30.5,48.4,38.5,0,no_anomaly,0.0,0,0,0,0,13.0827049,80.2707278,15.2,0.0
2024-04-08T15:38:07.100Z,MISSION_0053,71,0,transit,SITE_CHE_004,13.0827018,80.2707292,15.2,326.22,6.276,0.117,3.26,2.3464,-1.6495,326.2181,-0.95665,-0.01541,0.01972,0.29018,0.2106,0.0649,-9.7673,1.0819,0.4789,-0.0915,0.2037,3,14,0.6,0.97,0.2,24.601,24.82,91.6,45.1,20153.0,7371,7694,7687,7690,61.3,60.1,63.2,63.7,2.843,2.858,2.97,2.822,4.69,69.7,37.1,49.4,1015.22,-30.98,-0.41,1.44,33.0,44.8,39.2,0,no_anomaly,0.0,0,0,0,0,13.0827018,80.2707292,15.2,0.0
2024-04-08T15:38:07.200Z,MISSION_0053,72,0,transit,SITE_CHE_004,13.0826961,80.2707273,15.2,324.63,6.38,0.063,3.07,0.5251,-1.7558,324.6254,-0.95263,0.00029,0.01599,0.30372,-0.1812,0.0479,-9.9074,-0.2337,-0.4419,-0.0394,0.1224,3,20,0.8,1.0,0.22,24.549,17.67,91.5,45.6,20132.0,7583,7606,7655,7604,63.9,63.7,60.2,64.2,2.752,2.668,2.689,2.715,3.23,71.5,37.0,48.8,1014.72,-27.87,-0.2,2.07,33.3,49.3,36.4,0,no_anomaly,0.0,0,0,0,0,13.0826961,80.2707273,15.2,0.0
2024-04-08T15:38:07.300Z,MISSION_0053,73,0,transit,SITE_CHE_004,13.082696,80.270725,15.2,324.1,6.247,0.087,2.82,-1.6054,-4.4172,324.1019,-0.95036,0.02519,0.03234,0.30843,0.1044,0.0313,-9.798,0.9009,0.6911,-0.0097,0.2202,3,18,0.75,0.99,0.31,24.622,18.18,91.4,44.7,20111.0,7570,7773,7561,7723,64.5,63.4,60.9,64.2,2.841,2.793,2.661,2.916,4.41,69.5,36.9,50.0,1014.94,-34.15,1.18,1.43,31.9,51.4,37.1,0,no_anomaly,0.0,0,0,0,0,13.082696,80.270725,15.2,0.0
2024-04-08T15:38:07.400Z,MISSION_0053,74,0,transit,SITE_CHE_004,13.0826967,80.2707273,15.2,321.23,6.465,0.193,3.06,1.6726,-1.9853,321.2273,-0.94314,-0.00802,0.02118,0.33161,-0.0584,0.0108,-9.7994,-0.3438,-0.2547,-0.4344,0.2659,3,16,0.67,0.85,0.2,24.619,18.11,91.3,45.4,20089.0,7561,7820,7711,7506,59.4,60.5,62.5,60.3,2.877,3.102,2.56,2.518,4.21,63.7,36.8,49.5,1014.82,-35.76,-0.66,1.18,35.9,45.8,39.5,0,no_anomaly,0.0,0,0,0,0,13.0826967,80.2707273,15.2,0.0
2024-04-08T15:38:07.500Z,MISSION_0053,75,0,transit,SITE_CHE_004,13.0826962,80.2707213,15.2,321.29,6.467,0.191,2.4,-4.6574,0.571,321.2876,-0.94275,0.03669,-0.01816,0.33097,-0.0417,0.0176,-9.8645,0.3057,0.5907,-0.2867,0.1285,3,16,0.66,0.73,0.23,24.533,23.51,91.2,45.3,20068.0,7644,7511,7591,7933,61.3,62.4,60.9,62.0,2.815,2.743,2.946,2.779,3.49,72.5,37.0,49.7,1014.62,-24.66,1.27,1.13,35.3,45.4,39.3,0,no_anomaly,0.0,0,0,0,0,13.0826962,80.2707213,15.2,0.0
2024-04-08T15:38:07.600Z,MISSION_0053,76,0,transit,SITE_CHE_004,13.0826997,80.270721,15.2,322.29,6.396,0.096,2.34,-2.3061,-4.3819,322.2877,-0.9452,0.03138,0.02967,0.32362,0.0595,0.0285,-9.7621,-0.1615,-0.1411,0.8258,0.1958,3,13,0.76,0.88,0.28,24.597,22.25,91.1,44.6,20047.0,7653,7427,7650,7725,62.7,64.5,61.2,67.1,2.781,2.969,2.888,3.031,3.68,72.4,37.3,48.8,1014.62,-25.36,0.8,1.44,29.0,48.0,38.5,0,no_anomaly,0.0,0,0,0,0,13.0826997,80.270721,15.2,0.0
2024-04-08T15:38:07.700Z,MISSION_0053,77,0,transit,SITE_CHE_004,13.0827018,80.2707202,15.2,322.12,5.958,0.147,2.26,-0.0857,-3.0844,322.1171,-0.9455,0.00944,0.02521,0.3245,0.0212,-0.033,-9.8147,-0.3834,-0.6407,0.2464,0.1493,3,19,0.66,0.9,0.34,24.508,22.43,91.0,45.2,20026.0,7654,7517,7561,7747,60.7,61.9,61.9,57.7,2.856,2.795,2.778,2.849,3.44,73.6,37.1,49.9,1014.74,-24.03,0.77,1.65,33.3,43.6,39.6,0,no_anomaly,0.0,0,0,0,0,13.0827018,80.2707202,15.2,0.0
2024-04-08T15:38:07.800Z,MISSION_0053,78,0,transit,SITE_CHE_004,13.0827021,80.2707173,15.2,323.83,6.759,0.053,1.94,2.7717,0.9998,323.8288,-0.95021,-0.0257,-0.00078,0.31054,0.0158,0.0111,-9.8364,-0.2228,0.3222,0.1837,0.1826,3,12,0.67,1.45,0.3,24.532,18.05,90.9,45.1,20004.0,7625,7650,7663,7879,62.1,59.9,62.9,60.9,2.763,2.778,2.834,2.88,4.41,64.6,37.4,50.7,1014.66,-31.04,-0.06,1.95,28.2,49.6,40.2,0,no_anomaly,0.0,0,0,0,0,13.0827021,80.2707173,15.2,0.0
2024-04-08T15:38:07.900Z,MISSION_0053,79,0,transit,SITE_CHE_004,13.0826982,80.2707162,15.2,319.45,6.741,0.082,1.82,-4.7884,-3.0175,319.4487,-0.93651,0.04829,0.01021,0.34715,0.155,0.1051,-9.8059,0.1648,0.1868,0.6257,0.1675,3,12,0.64,0.85,0.21,24.556,18.53,90.8,44.9,19983.0,7811,7704,7936,7744,62.9,63.2,63.1,61.5,2.595,2.793,2.62,2.815,3.98,75.7,37.0,49.9,1014.67,-25.65,0.41,1.43,28.4,48.8,36.0,0,no_anomaly,0.0,0,0,0,0,13.0826982,80.2707162,15.2,0.0
2024-04-08T15:38:08.000Z,MISSION_0053,80,0,transit,SITE_CHE_004,13.0826957,80.2707139,15.2,317.2,6.83,0.207,1.62,-3.6524,-4.2505,317.2,-0.92951,0.04317,0.02289,0.36554,0.0621,0.0673,-9.8612,0.1479,-0.6981,-0.4203,0.2158,3,16,0.54,0.95,0.2,24.535,23.99,90.7,44.6,19962.0,7355,8089,7793,7738,61.9,64.2,64.3,61.8,2.804,3.07,2.691,2.546,4.19,81.2,37.3,49.2,1015.11,-31.04,2.52,1.56,33.3,42.7,38.5,0,no_anomaly,0.0,0,0,0,0,13.0826957,80.2707139,15.2,0.0
2024-04-08T15:38:08.100Z,MISSION_0053,81,0,transit,SITE_CHE_004,13.0826997,80.2707151,15.2,315.56,6.316,0.082,1.68,3.0619,-2.3397,315.5609,-0.92542,-0.01701,0.02899,0.37744,-0.1212,0.0041,-9.8014,0.753,-0.3074,0.3076,0.1769,3,19,0.62,0.87,0.23,24.586,17.2,90.6,45.7,19940.0,7799,7648,7904,7727,61.5,62.5,62.7,61.3,2.545,2.842,2.979,2.766,3.34,59.6,36.9,49.9,1014.94,-25.52,-0.82,1.0,29.6,44.0,37.8,0,no_anomaly,0.0,0,0,0,0,13.0826997,80.2707151,15.2,0.0
2024-04-08T15:38:08.200Z,MISSION_0053,82,0,transit,SITE_CHE_004,13.0827028,80.270713,15.2,316.84,6.628,0.148,1.48,-1.8793,-4.175,316.8405,-0.92894,0.02863,0.02784,0.36806,-0.0141,0.054,-9.8276,-0.7331,-0.361,-0.0222,0.2143,3,12,0.63,0.95,0.2,24.625,17.79,90.5,45.6,19919.0,7464,7578,7506,7458,59.3,59.8,62.9,61.7,2.741,3.024,3.015,2.67,4.24,60.1,37.1,49.5,1014.97,-29.34,-0.91,1.57,31.7,47.2,42.0,0,no_anomaly,0.0,0,0,0,0,13.0827028,80.270713,15.2,0.0
2024-04-08T15:38:08.300Z,MISSION_0053,83,0,transit,SITE_CHE_004,13.0826958,80.2707137,15.2,316.55,6.131,0.051,1.6,-3.3722,-3.3148,316.5467,-0.92785,0.03802,0.01597,0.37065,0.0247,-0.03,-9.7695,0.3299,-0.0302,0.3277,0.1843,3,20,0.55,1.22,0.24,24.494,17.55,90.4,45.7,19898.0,7547,7675,7613,7665,62.8,63.7,63.7,59.9,2.787,2.937,2.902,2.783,4.48,65.7,36.6,49.4,1014.55,-25.13,0.17,2.07,31.4,49.4,42.4,0,no_anomaly,0.0,0,0,0,0,13.0826958,80.2707137,15.2,0.0
2024-04-08T15:38:08.400Z,MISSION_0053,84,0,transit,SITE_CHE_004,13.0826974,80.2707176,15.2,317.33,6.571,0.126,1.98,4.2985,-1.9696,317.3327,-0.93092,-0.02868,0.02964,0.36289,0.1574,0.0402,-9.8442,0.024,-0.2414,-0.1614,0.1174,3,13,0.73,0.97,0.36,24.558,24.9,90.3,46.5,19877.0,7702,7714,7645,7387,66.5,62.5,61.7,63.6,2.75,2.83,2.554,2.707,4.55,68.5,36.6,49.5,1015.0,-31.43,-0.8,1.43,31.9,46.3,40.5,0,no_anomaly,0.0,0,0,0,0,13.0826974,80.2707176,15.2,0.0
2024-04-08T15:38:08.500Z,MISSION_0053,85,0,transit,SITE_CHE_004,13.0826991,80.2707219,15.2,318.67,6.324,0.095,2.44,-2.5503,-1.0357,318.6703,-0.93532,0.02401,0.0006,0.35299,0.0324,0.0254,-9.8124,-0.5876,0.4953,-0.5887,0.1046,3,15,0.68,0.82,0.26,24.544,20.75,90.3,45.3,19855.0,7690,7743,7725,7623,62.9,62.8,63.6,62.7,2.829,2.843,2.782,2.765,4.38,77.6,36.9,48.7,1014.86,-31.4,1.7,1.79,32.0,48.8,41.7,0,no_anomaly,0.0,0,0,0,0,13.0826991,80.2707219,15.2,0.0
2024-04-08T15:38:08.600Z,MISSION_0053,86,0,transit,SITE_CHE_004,13.0827018,80.2707197,15.2,319.44,5.759,0.072,2.2,1.8472,-0.277,319.4372,-0.93789,-0.01428,0.00785,0.34655,0.0687,0.0581,-9.7995,-0.3007,-0.3364,-0.2595,0.1999,3,20,0.56,1.13,0.2,24.628,22.65,90.2,45.4,19834.0,7797,7627,7705,7524,60.3,63.1,63.2,61.7,2.879,2.691,2.775,2.773,4.45,64.0,37.1,49.4,1015.1,-33.0,-0.04,1.44,31.7,46.2,39.9,0,no_anomaly,0.0,0,0,0,0,13.0827018,80.2707197,15.2,0.0
2024-04-08T15:38:08.700Z,MISSION_0053,87,0,transit,SITE_CHE_004,13.0826979,80.2707184,15.2,319.26,5.589,0.107,2.06,-2.2372,-1.6578,319.2582,-0.93708,0.02333,0.00676,0.34826,0.3133,-0.0224,-9.8025,-0.0232,-0.4407,0.1155,0.2006,3,16,0.75,0.99,0.3,24.591,20.97,90.1,45.8,19813.0,7657,7667,7522,7477,65.6,64.2,62.6,60.9,2.649,2.916,2.737,2.763,4.25,65.1,37.1,49.8,1014.88,-28.71,-0.8,1.72,30.8,42.7,40.8,0,no_anomaly,0.0,0,0,0,0,13.0826979,80.2707184,15.2,0.0
2024-04-08T15:38:08.800Z,MISSION_0053,88,0,transit,SITE_CHE_004,13.0826963,80.270716,15.2,320.54,5.838,0.101,1.82,2.4932,-0.8263,320.5365,-0.94109,-0.01804,0.01413,0.33738,0.2641,0.0022,-9.7911,0.0443,1.0278,-0.1803,0.199,3,13,0.69,0.98,0.35,24.565,25.64,90.0,44.6,19791.0,7766,7612,7683,7574,61.4,60.3,58.6,60.3,2.704,2.978,2.639,2.686,3.87,69.0,36.7,50.2,1014.92,-28.01,-1.02,1.59,35.4,49.1,39.9,0,no_anomaly,0.0,0,0,0,0,13.0826963,80.270716,15.2,0.0
2024-04-08T15:38:08.900Z,MISSION_0053,89,0,transit,SITE_CHE_004,13.0826893,80.270719,15.2,321.78,5.653,0.093,2.43,-2.3352,-0.3921,321.78,-0.94467,0.02037,-0.00344,0.32738,0.1682,-0.0697,-9.9233,-0.2879,-0.4885,-0.417,0.1749,3,12,0.76,1.07,0.39,24.548,19.79,89.9,45.0,19770.0,7570,7500,7633,7717,62.0,62.9,59.5,59.7,2.869,2.942,2.701,3.032,3.99,69.4,37.0,49.7,1014.75,-36.23,0.55,1.47,31.8,50.6,40.2,0,no_anomaly,0.0,0,0,0,0,13.0826893,80.270719,15.2,0.0
2024-04-08T15:38:09.000Z,MISSION_0053,90,0,transit,SITE_CHE_004,13.0826911,80.2707219,15.2,322.34,5.296,0.107,2.63,-4.8194,-2.7589,322.3407,-0.94504,0.04755,0.0092,0.32334,-0.0142,0.0193,-9.8289,-0.7378,-0.1667,0.1905,0.0876,3,15,0.8,1.03,0.32,24.514,22.43,89.8,44.6,19749.0,7579,7851,7821,8017,61.9,63.1,59.6,58.5,2.66,2.677,2.884,3.059,3.67,59.9,37.0,49.7,1014.92,-27.72,-0.73,1.19,28.5,42.5,36.6,0,no_anomaly,0.0,0,0,0,0,13.0826911,80.2707219,15.2,0.0
2024-04-08T15:38:09.100Z,MISSION_0053,91,0,transit,SITE_CHE_004,13.0826892,80.2707264,15.2,324.37,5.426,0.121,3.18,-0.8344,-2.2749,324.3745,-0.9518,0.013,0.01667,0.30598,-0.1227,0.0428,-9.8403,0.6364,-0.549,-0.5908,0.1679,3,10,0.69,0.78,0.27,24.533,17.02,89.7,44.1,19728.0,7643,7832,7847,7611,61.5,64.4,59.4,58.6,2.452,2.81,2.671,2.554,3.13,69.8,37.0,49.2,1015.06,-24.51,0.75,1.5,30.1,50.7,39.4,0,no_anomaly,0.0,0,0,0,0,13.0826892,80.2707264,15.2,0.0
2024-04-08T15:38:09.200Z,MISSION_0053,92,0,transit,SITE_CHE_004,13.0826897,80.2707286,15.2,323.2,5.49,0.081,3.39,-0.879,-3.8983,323.2011,-0.94822,0.01801,0.02985,0.3157,-0.1631,0.0639,-9.795,-0.1268,0.2093,0.2444,0.139,3,17,0.52,0.77,0.26,24.472,28.63,89.6,45.7,19706.0,7591,7556,7736,7848,62.6,61.8,63.0,60.0,2.814,2.648,2.675,2.817,4.18,66.3,36.8,49.7,1015.08,-29.97,-0.48,1.0,29.1,42.4,39.4,0,no_anomaly,0.0,0,0,0,0,13.0826897,80.2707286,15.2,0.0
2024-04-08T15:38:09.300Z,MISSION_0053,93,0,transit,SITE_CHE_004,13.0826963,80.2707269,15.2,322.98,4.839,0.146,3.02,2.5416,-1.1395,322.9833,-0.94807,-0.01787,0.01647,0.31714,-0.0196,-0.0346,-9.7843,-0.2892,-0.5203,-0.0461,0.1134,3,18,0.9,1.2,0.3,24.499,16.3,89.5,45.8,19685.0,7748,7677,7757,7490,60.2,64.6,60.2,62.3,2.702,2.681,2.76,3.051,3.86,63.6,37.1,49.3,1014.92,-31.41,-1.32,1.68,28.7,47.7,39.2,0,no_anomaly,0.0,0,0,0,0,13.0826963,80.2707269,15.2,0.0
2024-04-08T15:38:09.400Z,MISSION_0053,94,0,transit,SITE_CHE_004,13.0826962,80.2707285,15.2,323.88,4.89,0.073,3.2,0.1148,-2.7253,323.8772,-0.95046,0.00642,0.02292,0.30993,0.1213,-0.0068,-9.7959,0.4033,-0.2981,-0.1362,0.123,3,12,0.72,0.93,0.25,24.466,24.26,89.4,45.0,19664.0,7507,7695,7863,7501,61.4,61.1,59.0,62.4,2.896,2.97,2.679,2.822,4.66,68.2,36.7,49.5,1015.12,-32.73,-1.73,1.98,35.4,47.4,38.6,0,no_anomaly,0.0,0,0,0,0,13.0826962,80.2707285,15.2,0.0
2024-04-08T15:38:09.500Z,MISSION_0053,95,0,transit,SITE_CHE_004,13.0826929,80.2707299,15.2,322.48,4.863,0.093,3.42,0.591,-2.8131,322.4815,-0.94662,0.00301,0.0249,0.32137,0.0517,-0.0339,-9.8157,-0.7384,-0.053,0.1513,0.1354,3,11,0.74,0.91,0.2,24.534,20.12,89.3,45.5,19642.0,7594,7641,7687,7599,60.2,62.0,60.0,61.4,3.078,2.68,2.663,2.902,3.82,68.3,36.8,50.0,1015.07,-29.17,-0.65,1.0,31.5,48.1,39.7,0,no_anomaly,0.0,0,0,0,0,13.0826929,80.2707299,15.2,0.0
2024-04-08T15:38:09.600Z,MISSION_0053,96,0,transit,SITE_CHE_004,13.0826956,80.2707308,15.2,319.7,4.562,0.177,3.47,2.1813,-0.5866,319.6997,-0.93864,-0.01611,0.01136,0.34432,-0.0871,0.0836,-9.7776,0.4094,0.25,0.293,0.1422,3,19,0.64,0.73,0.25,24.548,19.37,89.2,44.5,19621.0,7875,7488,7841,7275,64.5,64.5,60.9,60.6,2.856,3.062,2.856,2.417,2.91,64.7,36.7,49.4,1014.55,-28.92,-0.6,1.8,33.7,49.7,40.4,0,no_anomaly,0.0,0,0,0,0,13.0826956,80.2707308,15.2,0.0
2024-04-08T15:38:09.700Z,MISSION_0053,97,0,transit,SITE_CHE_004,13.0826994,80.2707336,15.2,322.88,3.955,0.063,3.75,2.2565,-3.9033,322.8827,-0.94748,-0.00782,0.03854,0.31739,0.0457,-0.0657,-9.7725,-0.0162,0.1112,0.2926,0.2252,3,10,0.77,0.78,0.41,24.554,13.62,89.1,45.2,19600.0,7684,7926,7749,7693,60.9,61.8,61.5,64.7,2.576,2.645,2.798,2.751,4.99,81.4,37.2,49.6,1014.54,-34.35,-0.18,2.05,29.7,41.8,38.8,0,no_anomaly,0.0,0,0,0,0,13.0826994,80.2707336,15.2,0.0
2024-04-08T15:38:09.800Z,MISSION_0053,98,0,transit,SITE_CHE_004,13.0826961,80.270735,15.2,321.99,4.285,0.191,3.93,0.1439,-3.2977,321.9874,-0.9451,0.00818,0.02761,0.3255,0.0773,0.0321,-9.7568,-0.0214,-0.8031,0.3085,0.2019,3,15,0.56,1.05,0.21,24.461,9.25,89.0,45.3,19579.0,7633,7384,7685,7717,61.5,64.1,63.6,64.1,2.861,3.061,2.699,2.464,4.21,53.7,36.8,50.4,1015.07,-31.71,0.71,1.99,29.4,42.3,36.4,0,no_anomaly,0.0,0,0,0,0,13.0826961,80.270735,15.2,0.0
2024-04-08T15:38:09.900Z,MISSION_0053,99,0,transit,SITE_CHE_004,13.082694,80.2707335,15.2,324.49,4.733,0.06,3.79,6.4529,-0.0771,324.4931,-0.95088,-0.0534,0.0178,0.3044,-0.0323,-0.0184,-9.8112,0.5792,0.1011,0.428,0.2744,3,19,0.76,0.87,0.31,24.402,25.77,88.9,44.7,19557.0,7914,7498,7427,7618,66.9,61.3,63.9,62.9,2.853,2.88,2.8,2.585,4.04,69.3,37.2,49.6,1015.21,-30.5,0.76,1.45,30.6,47.9,37.9,0,no_anomaly,0.0,0,0,0,0,13.082694,80.2707335,15.2,0.0
2024-04-08T15:38:10.000Z,MISSION_0053,100,1,transit,SITE_CHE_004,13.0826889,80.2707325,15.2,325.13,4.674,0.155,3.82,1.1977,-1.7888,325.1294,-0.95394,-0.00529,0.01802,0.29942,-0.0953,-0.0016,-9.7621,-0.9897,0.2346,-0.0683,0.1338,3,14,0.75,0.9,0.34,24.451,19.25,88.8,45.0,19536.0,7844,7766,7935,7678,60.4,60.4,61.9,60.2,2.703,2.953,2.598,2.883,4.28,76.0,37.1,50.0,1014.67,-31.25,-0.34,1.42,33.7,51.4,40.1,0,no_anomaly,0.0,0,0,0,0,13.0826889,80.2707325,15.2,0.0
2024-04-08T15:38:10.100Z,MISSION_0053,101,1,transit,SITE_CHE_004,13.0826897,80.270736,15.2,325.96,4.532,0.123,4.17,-0.6627,-2.3733,325.9573,-0.95594,0.01159,0.01811,0.29277,0.2097,0.0774,-9.8765,-0.1868,0.2933,0.1958,0.1977,3,15,0.72,0.96,0.37,24.527,18.05,88.7,46.4,19515.0,7624,7615,7875,7558,60.8,65.4,65.8,61.6,2.922,2.695,2.849,2.823,4.53,65.7,36.6,49.8,1014.93,-31.85,-1.09,1.46,32.3,49.2,44.1,0,no_anomaly,0.0,0,0,0,0,13.0826897,80.270736,15.2,0.0
2024-04-08T15:38:10.200Z,MISSION_0053,102,1,transit,SITE_CHE_004,13.0826917,80.2707308,15.2,326.68,4.767,0.137,3.55,3.3533,-1.5345,326.6788,-0.95764,-0.02419,0.02121,0.28618,-0.0576,0.1129,-9.7959,0.1011,-0.5301,0.1364,0.0779,3,15,0.65,1.16,0.2,24.512,18.87,88.6,45.1,19493.0,7426,7836,7525,7706,67.3,59.5,64.2,61.3,2.639,3.011,3.15,2.845,3.92,69.1,37.3,49.3,1014.78,-24.94,-1.41,2.03,33.4,45.7,39.0,0,no_anomaly,0.0,0,0,0,0,13.0826917,80.2707308,15.2,0.0
2024-04-08T15:38:10.300Z,MISSION_0053,103,1,transit,SITE_CHE_004,13.0826937,80.2707302,15.2,327.67,5.162,0.047,3.43,5.1795,-1.2513,327.6748,-0.95957,-0.04036,0.02305,0.27759,0.0012,-0.0047,-9.7804,-0.3913,-0.1313,-0.0737,0.2232,3,16,0.78,0.93,0.31,24.504,23.13,88.5,45.0,19472.0,7587,7677,7637,7640,65.1,62.8,61.7,59.7,2.784,2.746,2.964,2.704,3.98,66.1,36.9,50.5,1014.84,-32.18,0.7,1.24,30.9,45.5,40.2,0,no_anomaly,0.0,0,0,0,0,13.0826937,80.2707302,15.2,0.0
2024-04-08T15:38:10.400Z,MISSION_0053,104,1,transit,SITE_CHE_004,13.0826946,80.2707299,15.2,327.62,5.684,0.02,3.39,-2.0486,-3.1994,327.6154,-0.95966,0.02494,0.02182,0.27919,0.0296,-0.0552,-9.8021,-0.5194,0.4599,0.09,0.1726,3,12,0.67,0.86,0.32,24.54,25.85,88.4,45.0,19451.0,7667,7727,7452,7736,63.7,60.9,63.3,64.7,2.742,2.816,2.879,3.047,3.23,65.3,37.2,50.4,1015.0,-32.46,-0.3,1.17,29.8,47.2,38.6,0,no_anomaly,0.0,0,0,0,0,13.0826946,80.2707299,15.2,0.0
2024-04-08T15:38:10.500Z,MISSION_0053,105,1,transit,SITE_CHE_004,13.0826923,80.2707316,15.2,328.86,5.774,-0.041,3.62,-2.4006,-3.931,328.8583,-0.96233,0.02937,0.02741,0.2689,-0.1216,-0.0084,-9.7631,0.4081,0.8438,-0.306,0.1778,3,16,0.91,1.16,0.21,24.417,22.75,88.3,45.2,19430.0,7481,7479,7693,7467,63.7,62.7,63.7,59.8,2.917,2.723,2.616,2.954,3.4,67.2,36.7,49.4,1014.85,-25.75,0.26,1.32,33.4,41.3,36.4,0,no_anomaly,0.0,0,0,0,0,13.0826923,80.2707316,15.2,0.0
2024-04-08T15:38:10.600Z,MISSION_0053,106,1,transit,SITE_CHE_004,13.0826919,80.2707301,15.2,329.27,5.761,0.199,3.46,1.9758,-5.2886,329.2679,-0.96329,-0.00438,0.04904,0.2639,0.0501,0.0357,-9.7712,1.0628,1.1693,-0.1316,0.1694,3,20,0.5,0.8,0.2,24.463,16.35,88.2,44.8,19408.0,7736,7541,7835,7474,60.2,59.7,59.9,61.9,2.794,2.726,2.777,2.94,4.28,65.8,37.1,50.0,1015.26,-27.28,-0.39,1.51,30.8,45.0,40.7,0,no_anomaly,0.0,0,0,0,0,13.0826919,80.2707301,15.2,0.0
2024-04-08T15:38:10.700Z,MISSION_0053,107,1,transit,SITE_CHE_004,13.0826949,80.270735,15.2,329.45,5.587,0.073,3.94,0.7061,-2.6785,329.4495,-0.96443,0.00021,0.02417,0.26324,-0.1859,-0.1136,-9.8461,-0.6538,0.1342,-0.0068,0.1273,3,15,0.79,0.72,0.36,24.493,24.85,88.1,45.1,19387.0,7679,7698,7567,7773,60.8,62.0,61.6,64.3,2.919,2.682,2.513,2.871,3.75,81.2,36.6,49.8,1014.93,-34.72,1.09,1.11,29.7,41.7,39.5,0,no_anomaly,0.0,0,0,0,0,13.0826949,80.270735,15.2,0.0
2024-04-08T15:38:10.800Z,MISSION_0053,108,1,transit,SITE_CHE_004,13.0827013,80.2707344,15.2,328.01,5.506,0.115,3.83,-3.5726,-3.3328,328.0136,-0.96017,0.03796,0.01936,0.27614,-0.1728,-0.0385,-9.8078,0.4772,-0.0095,-0.3278,0.0707,3,16,0.74,0.99,0.45,24.484,16.8,88.0,44.5,19366.0,7781,7659,7666,7668,61.0,62.2,61.8,60.9,2.638,2.631,2.883,2.909,3.33,64.7,37.4,49.1,1014.52,-30.41,-2.67,1.01,33.5,45.7,39.7,0,no_anomaly,0.0,0,0,0,0,13.0827013,80.2707344,15.2,0.0
2024-04-08T15:38:10.900Z,MISSION_0053,109,1,transit,SITE_CHE_004,13.0826998,80.270735,15.2,329.32,5.081,0.124,3.9,1.25,-0.6436,329.3169,-0.96431,-0.00903,0.0083,0.26449,0.0062,0.0218,-9.8234,-0.6023,0.0332,-0.1597,0.1794,3,17,0.83,0.9,0.27,24.419,20.49,87.9,45.7,19344.0,7449,7709,7588,7574,61.1,62.5,60.7,58.6,2.896,2.801,2.883,3.195,4.56,65.8,37.1,49.8,1014.43,-22.06,0.04,1.15,35.6,43.7,41.5,0,no_anomaly,0.0,0,0,0,0,13.0826998,80.270735,15.2,0.0
2024-04-08T15:38:11.000Z,MISSION_0053,110,1,transit,SITE_CHE_004,13.0827046,80.2707381,15.2,328.23,4.836,0.143,4.27,2.6129,-2.6743,328.2331,-0.96145,-0.01554,0.02868,0.27302,0.1568,0.0927,-9.8307,-0.7045,0.155,0.1368,0.1569,3,11,0.79,0.79,0.36,24.452,21.36,87.8,44.4,19323.0,7417,7791,7894,7599,62.1,62.2,61.8,65.9,2.774,2.668,2.633,2.881,3.81,64.6,36.7,49.0,1015.13,-34.0,0.55,1.6,30.5,44.1,39.3,0,no_anomaly,0.0,0,0,0,0,13.0827046,80.2707381,15.2,0.0
2024-04-08T15:38:11.100Z,MISSION_0053,111,1,transit,SITE_CHE_004,13.0827011,80.2707327,15.2,329.58,4.604,0.093,3.64,4.527,-1.766,329.5755,-0.96425,-0.03407,0.02522,0.26157,-0.0236,-0.1017,-9.7663,0.5324,-0.4461,0.1133,0.2268,3,11,0.8,0.98,0.34,24.449,20.08,87.7,45.4,19302.0,7529,7461,7518,7583,57.2,61.2,61.0,65.1,2.876,2.728,2.609,2.742,3.61,60.7,36.9,50.0,1015.07,-30.17,-1.59,1.08,30.1,43.7,39.2,0,no_anomaly,0.0,0,0,0,0,13.0827011,80.2707327,15.2,0.0
2024-04-08T15:38:11.200Z,MISSION_0053,112,1,transit,SITE_CHE_004,13.0826969,80.2707359,15.2,330.67,4.507,0.062,4.01,-1.2794,-2.9775,330.6719,-0.96697,0.01737,0.02231,0.25333,0.066,0.0062,-9.8201,-0.6792,0.0713,-0.3001,0.219,3,12,0.66,1.16,0.28,24.486,22.77,87.6,45.1,19281.0,7419,7647,7695,7612,63.9,60.8,58.0,63.3,3.05,2.868,2.585,2.913,4.94,65.8,37.4,50.6,1014.65,-29.14,0.06,1.6,32.3,48.5,40.7,0,no_anomaly,0.0,0,0,0,0,13.0826969,80.2707359,15.2,0.0
2024-04-08T15:38:11.300Z,MISSION_0053,113,1,transit,SITE_CHE_004,13.0826983,80.2707361,15.2,328.14,4.587,-0.01,4.03,2.459,-2.6522,328.1374,-0.96125,-0.01428,0.02814,0.27387,0.1544,0.1251,-9.9259,0.6277,-0.1458,-0.2363,0.1168,3,13,0.6,0.67,0.25,24.437,17.15,87.5,45.8,19259.0,7706,7831,7713,7648,64.6,62.7,60.6,65.7,2.495,2.66,2.997,2.798,4.52,68.5,36.8,49.5,1014.8,-34.22,0.99,1.96,31.8,42.5,36.9,0,no_anomaly,0.0,0,0,0,0,13.0826983,80.2707361,15.2,0.0
2024-04-08T15:38:11.400Z,MISSION_0053,114,1,transit,SITE_CHE_004,13.0826967,80.2707404,15.2,326.63,4.155,-0.012,4.51,-0.496,-0.7529,326.632,-0.95786,0.00603,0.00505,0.28711,-0.3689,-0.035,-9.8613,-0.1835,-0.1874,-0.3835,0.1421,3,10,0.8,0.94,0.3,24.523,27.47,87.4,45.6,19238.0,7740,7380,7693,7746,61.6,64.2,62.3,60.8,2.959,2.764,3.065,2.839,3.56,62.5,37.3,50.0,1014.75,-29.05,0.79,1.24,30.2,45.1,39.9,0,no_anomaly,0.0,0,0,0,0,13.0826967,80.2707404,15.2,0.0
2024-04-08T15:38:11.500Z,MISSION_0053,115,1,transit,SITE_CHE_004,13.0826952,80.2707375,15.2,327.73,4.118,0.124,4.21,-0.1272,-1.1091,327.7274,-0.96055,0.00376,0.00899,0.27792,0.1551,0.0571,-9.8174,0.4896,-0.1081,0.1234,0.203,3,11,0.77,0.66,0.26,24.498,23.59,87.3,45.8,19217.0,7658,7417,7454,7919,60.6,61.2,61.0,61.1,2.988,2.786,2.71,2.875,3.21,60.8,36.8,50.2,1014.77,-29.08,-0.59,1.49,31.3,43.4,39.3,0,no_anomaly,0.0,0,0,0,0,13.0826952,80.2707375,15.2,0.0
2024-04-08T15:38:11.600Z,MISSION_0053,116,1,transit,SITE_CHE_004,13.0826928,80.2707341,15.2,326.89,3.815,0.058,3.87,3.0082,-2.6563,326.8888,-0.95813,-0.01855,0.02969,0.28419,-0.2137,0.0598,-9.8426,0.3576,0.6046,0.3586,0.1794,3,11,0.59,0.97,0.21,24.593,20.84,87.3,45.9,19195.0,7592,7792,7801,7677,64.0,59.9,61.1,62.6,2.599,2.839,2.736,2.539,4.67,65.3,37.0,49.5,1015.12,-31.47,0.74,1.75,32.4,46.6,40.3,0,no_anomaly,0.0,0,0,0,0,13.0826928,80.2707341,15.2,0.0
2024-04-08T15:38:11.700Z,MISSION_0053,117,1,transit,SITE_CHE_004,13.0826922,80.2707294,15.2,326.52,3.915,0.244,3.39,0.0821,-1.8749,326.5224,-0.9575,0.00403,0.01587,0.28796,0.1332,-0.0167,-9.8197,-1.8159,1.3115,0.4118,0.1668,3,11,0.54,1.01,0.31,24.411,20.02,87.2,45.6,19174.0,7706,7719,7597,7389,62.1,61.1,63.7,62.1,2.666,2.601,2.824,2.812,5.2,66.9,37.2,49.8,1014.92,-29.36,-0.09,1.94,32.3,46.3,41.7,0,no_anomaly,0.0,0,0,0,0,13.0826922,80.2707294,15.2,0.0
2024-04-08T15:38:11.800Z,MISSION_0053,118,1,transit,SITE_CHE_004,13.0826916,80.2707308,15.2,327.87,3.77,0.081,3.56,-0.5719,0.1563,327.8743,-0.96095,0.00442,-0.00269,0.27668,-0.1564,0.0494,-9.8871,0.2342,-0.1521,-0.182,0.1305,3,14,0.79,0.74,0.3,24.473,19.76,87.1,44.8,19153.0,7774,7571,7686,7589,63.0,63.1,67.7,65.7,2.955,2.946,2.872,2.577,4.2,62.7,36.8,49.5,1014.67,-28.76,-0.91,1.86,31.0,51.6,41.9,0,no_anomaly,0.0,0,0,0,0,13.0826916,80.2707308,15.2,0.0
2024-04-08T15:38:11.900Z,MISSION_0053,119,1,transit,SITE_CHE_004,13.0826941,80.270725,15.2,327.96,4.063,0.02,2.86,-3.8797,-0.6247,327.9593,-0.96055,0.03404,-0.00411,0.27599,-0.1349,0.012,-9.7811,-0.5635,-0.1776,-0.241,0.1917,3,11,0.59,0.96,0.28,24.501,20.75,87.0,45.6,19132.0,7551,7908,7655,7577,61.3,59.6,63.1,63.3,3.064,2.964,2.889,2.841,4.6,70.7,37.3,49.5,1015.14,-36.0,0.17,1.77,30.2,44.5,39.4,0,no_anomaly,0.0,0,0,0,0,13.0826941,80.270725,15.2,0.0
2024-04-08T15:38:12.000Z,MISSION_0053,120,1,orbit_base,SITE_CHE_004,13.0826283,80.2706646,15.5,328.71,3.64,0.004,8.91,1.0869,-2.674,328.7068,-0.9627,-0.00284,0.02502,0.2694,0.0038,-0.1138,-9.8346,0.1508,0.154,0.457,0.1702,3,14,0.64,0.71,0.24,24.424,21.65,86.9,45.6,19110.0,7571,7804,7735,7632,60.7,62.9,60.0,62.8,2.851,2.735,2.774,2.756,4.33,66.0,36.7,49.7,1015.07,-23.95,0.04,1.63,29.9,42.8,38.0,0,no_anomaly,0.0,0,0,0,0,13.0826283,80.2706646,15.5,0.0
2024-04-08T15:38:12.100Z,MISSION_0053,121,1,orbit_base,SITE_CHE_004,13.0826294,80.2706625,15.8,327.96,3.682,0.049,8.91,-1.4336,-2.458,327.9621,-0.9608,0.01794,0.01716,0.27613,-0.1009,0.003,-9.7767,-0.112,-0.0931,-0.4416,0.1147,3,18,0.72,1.14,0.23,24.509,19.96,86.8,44.8,19089.0,7706,7509,7738,7636,61.6,59.4,63.7,61.7,2.846,2.89,2.784,2.818,4.36,59.9,36.6,49.2,1015.05,-25.54,-1.68,1.18,28.3,48.5,37.3,0,no_anomaly,0.0,0,0,0,0,13.0826294,80.2706625,15.8,0.0
2024-04-08T15:38:12.200Z,MISSION_0053,122,1,orbit_base,SITE_CHE_004,13.0826305,80.2706604,16.1,326.78,4.038,0.084,8.91,-0.0194,-1.8109,326.7786,-0.95815,0.00468,0.01509,0.28583,0.0542,-0.0486,-9.6955,0.4624,-0.4679,0.4823,0.2019,3,10,0.73,0.75,0.37,24.405,22.33,86.7,44.0,19068.0,7483,7633,7474,7657,60.8,57.8,61.4,61.4,2.864,2.853,2.653,2.82,3.52,71.3,36.9,49.4,1015.21,-29.8,-1.16,1.73,33.4,43.2,42.0,0,no_anomaly,0.0,0,0,0,0,13.0826305,80.2706604,16.1,0.0
2024-04-08T15:38:12.300Z,MISSION_0053,123,1,orbit_base,SITE_CHE_004,13.0826317,80.2706583,16.4,326.68,4.044,0.114,8.91,-0.3777,-2.0469,326.6787,-0.95784,0.00828,0.01617,0.28671,-0.0178,-0.0222,-9.8331,-0.4372,0.1231,0.4918,0.217,3,10,0.57,0.87,0.2,24.483,16.65,86.6,44.8,19046.0,7607,7343,7614,7535,61.1,62.1,61.3,62.4,2.638,2.687,2.639,2.544,3.06,64.1,37.0,49.9,1014.88,-29.07,0.68,1.0,31.9,48.9,40.4,0,no_anomaly,0.0,0,0,0,0,13.0826317,80.2706583,16.4,0.0
2024-04-08T15:38:12.400Z,MISSION_0053,124,1,orbit_base,SITE_CHE_004,13.082633,80.2706563,16.7,325.04,4.612,0.127,8.91,-0.5031,-4.7165,325.0439,-0.95296,0.01654,0.03793,0.30026,-0.0994,0.0201,-9.7569,0.3724,-0.6605,0.3135,0.1332,3,13,0.87,0.87,0.4,24.393,20.72,86.5,45.7,19025.0,7596,7907,7658,7731,63.3,61.7,65.6,59.7,2.711,2.855,2.815,2.9,4.86,71.6,36.8,49.8,1014.55,-26.68,2.13,1.87,30.0,46.1,40.4,0,no_anomaly,0.0,0,0,0,0,13.082633,80.2706563,16.7,0.0
2024-04-08T15:38:12.500Z,MISSION_0053,125,1,orbit_base,SITE_CHE_004,13.0826344,80.2706543,17.0,326.13,4.364,0.092,8.91,2.025,-2.9109,326.1297,-0.95631,-0.0095,0.02944,0.29072,-0.1133,0.0414,-9.8064,0.7431,0.653,0.4801,0.1221,3,19,0.63,0.86,0.37,24.529,20.98,86.4,45.2,19004.0,7544,7507,7740,7925,63.5,63.0,62.5,63.1,2.875,2.482,2.636,2.974,3.82,77.2,37.1,50.0,1014.81,-28.08,2.02,1.94,32.4,43.1,42.4,0,no_anomaly,0.0,0,0,0,0,13.0826344,80.2706543,17.0,0.0
2024-04-08T15:38:12.600Z,MISSION_0053,126,1,orbit_base,SITE_CHE_004,13.0826358,80.2706523,17.3,325.8,4.363,0.1,8.91,4.2771,-2.7675,325.7975,-0.95511,-0.02856,0.03404,0.29291,0.0956,-0.0467,-9.7343,0.439,0.6335,-0.3365,0.2186,3,13,0.83,0.81,0.28,24.534,23.33,86.3,45.8,18983.0,7454,7514,7353,7740,61.6,60.9,63.8,61.4,2.684,2.584,2.862,2.855,3.91,63.3,37.0,49.1,1014.99,-29.28,2.29,1.46,32.3,49.2,38.0,0,no_anomaly,0.0,0,0,0,0,13.0826358,80.2706523,17.3,0.0
2024-04-08T15:38:12.700Z,MISSION_0053,127,1,orbit_base,SITE_CHE_004,13.0826372,80.2706504,17.6,323.11,4.949,0.074,8.91,1.1351,-2.6501,323.1088,-0.9484,-0.00208,0.02507,0.31609,0.2069,-0.0314,-9.8763,0.3064,0.4627,0.2683,0.2357,3,11,0.66,1.13,0.33,24.527,24.17,86.2,46.4,18961.0,7673,7701,7741,7745,57.1,63.9,64.3,63.2,2.968,2.815,2.688,2.799,3.71,67.8,36.6,49.1,1014.92,-30.48,2.76,1.87,32.5,42.3,41.2,0,no_anomaly,0.0,0,0,0,0,13.0826372,80.2706504,17.6,0.0
2024-04-08T15:38:12.800Z,MISSION_0053,128,1,orbit_base,SITE_CHE_004,13.0826387,80.2706486,17.9,325.03,4.369,0.091,8.91,3.0206,-1.486,325.0312,-0.95349,-0.02124,0.02028,0.29999,0.0293,0.0513,-9.841,0.6221,0.5873,-0.0533,0.2085,3,18,0.66,0.82,0.3,24.45,19.31,86.1,45.0,18940.0,7800,7766,7747,7719,65.2,58.9,62.7,61.9,2.965,2.75,2.886,2.701,4.38,64.4,36.7,49.7,1014.81,-30.38,-0.89,1.59,32.9,47.4,39.4,0,no_anomaly,0.0,0,0,0,0,13.0826387,80.2706486,17.9,0.0
2024-04-08T15:38:12.900Z,MISSION_0053,129,1,orbit_base,SITE_CHE_004,13.0826403,80.2706467,18.2,326.1,4.783,0.074,8.91,-1.4541,-1.9318,326.0983,-0.95628,0.01705,0.01242,0.29169,-0.1139,-0.0027,-9.8456,-0.4714,-0.3417,0.2224,0.1269,3,15,0.66,1.07,0.21,24.372,21.85,86.0,45.0,18919.0,7511,7609,7556,7639,63.2,63.7,61.7,62.2,2.938,2.87,2.452,2.782,4.34,69.0,37.0,49.2,1015.03,-28.94,-1.18,1.48,30.6,49.3,39.9,0,no_anomaly,0.0,0,0,0,0,13.0826403,80.2706467,18.2,0.0
