timestamp_utc,mission_id,frame_id,waypoint_id,inspection_phase,site_id,latitude_deg,longitude_deg,altitude_m,heading_deg,ground_speed_ms,vertical_speed_ms,distance_to_tower_m,roll_deg,pitch_deg,yaw_deg,quat_w,quat_x,quat_y,quat_z,accel_x_ms2,accel_y_ms2,accel_z_ms2,gyro_x_rads,gyro_y_rads,gyro_z_rads,vibration_level,gps_fix_type,gps_satellite_count,gps_hdop,gps_vdop,position_error_m,battery_voltage_v,battery_current_a,battery_remaining_pct,battery_temp_c,battery_capacity_mah,motor_fl_rpm,motor_fr_rpm,motor_rl_rpm,motor_rr_rpm,motor_fl_temp_c,motor_fr_temp_c,motor_rl_temp_c,motor_rr_temp_c,motor_fl_thrust_n,motor_fr_thrust_n,motor_rl_thrust_n,motor_rr_thrust_n,wind_speed_ms,wind_dir_deg,air_temp_c,humidity_pct,pressure_hpa,gimbal_pitch_deg,gimbal_roll_deg,zoom_factor,ir_temp_min_c,ir_temp_max_c,ir_temp_avg_c,anomaly_detected,anomaly_class,anomaly_confidence,anomaly_bbox_x,anomaly_bbox_y,anomaly_bbox_w,anomaly_bbox_h,anomaly_gps_lat,anomaly_gps_lon,anomaly_gps_alt_m,ir_temp_delta_c
2024-07-10T11:13:00.000Z,MISSION_0007,0,0,takeoff,SITE_AMD_008,23.0225005,72.5713991,1.5,143.65,0.146,0.061,0.12,2.0165,-1.7177,143.6526,0.31157,0.01973,0.01204,0.94994,0.0699,-0.0134,-9.7811,0.0256,-0.6995,0.3087,0.0839,3,16,0.59,0.89,0.2,24.752,18.47,96.6,35.0,21255.0,8855,8875,8959,8902,48.8,52.5,49.7,52.3,2.84,2.708,3.076,2.742,3.85,119.4,26.5,37.9,1013.42,-27.86,2.04,1.03,21.2,35.6,28.5,0,no_anomaly,0.0,0,0,0,0,23.0225005,72.5713991,1.5,0.0
2024-07-10T11:13:00.100Z,MISSION_0007,1,0,takeoff,SITE_AMD_008,23.0225003,72.5714009,3.0,143.19,0.374,0.094,0.11,2.8583,-1.5626,143.1948,0.31524,0.02081,0.01936,0.94859,-0.0234,0.0013,-9.7623,0.3592,-0.3899,0.1087,0.2116,3,18,0.62,0.81,0.2,24.771,18.21,96.6,34.9,21243.0,8769,8514,8861,8803,52.7,53.3,50.2,50.6,2.794,3.038,2.481,3.144,4.12,116.4,26.9,36.9,1013.05,-29.32,-0.87,1.5,19.7,32.9,25.4,0,no_anomaly,0.0,0,0,0,0,23.0225003,72.5714009,3.0,0.0
2024-07-10T11:13:00.200Z,MISSION_0007,2,0,takeoff,SITE_AMD_008,23.0225065,72.5714029,4.5,145.27,0.849,0.102,0.8,-3.7068,-2.05,145.2718,0.29879,0.00741,-0.0362,0.9536,0.0621,-0.0529,-9.8939,-0.2,0.1168,0.4311,0.1808,3,11,0.87,0.62,0.41,24.757,20.37,96.5,34.5,21231.0,8740,8791,8839,9153,48.1,53.0,50.2,51.9,2.942,2.833,2.549,2.64,3.54,126.1,26.7,36.9,1013.03,-25.01,-1.25,1.74,22.1,40.4,30.0,0,no_anomaly,0.0,0,0,0,0,23.0225065,72.5714029,4.5,0.0
2024-07-10T11:13:00.300Z,MISSION_0007,3,0,takeoff,SITE_AMD_008,23.0225081,72.5714099,5.0,146.06,1.09,0.157,1.43,-1.7834,-3.6924,146.0566,0.29219,0.02627,-0.02428,0.95569,-0.1569,0.0133,-9.7686,-0.5458,1.0004,-0.177,0.2036,3,16,0.5,0.9,0.25,24.735,19.87,96.4,33.8,21219.0,8657,8827,8546,8759,49.4,52.0,53.9,53.9,2.783,2.893,2.761,2.727,3.69,114.7,26.4,36.5,1013.21,-31.64,-1.27,1.52,22.5,33.9,29.3,0,no_anomaly,0.0,0,0,0,0,23.0225081,72.5714099,5.0,0.0
2024-07-10T11:13:00.400Z,MISSION_0007,4,0,takeoff,SITE_AMD_008,23.0225092,72.5714051,5.0,145.74,1.019,0.149,1.17,-2.7266,-0.6758,145.7362,0.29462,-0.00137,-0.02447,0.9553,-0.0651,-0.0808,-9.8395,-0.4543,-0.0124,0.2823,0.1856,3,17,0.57,1.2,0.2,24.691,20.41,96.4,34.3,21207.0,9021,8784,8775,8758,52.2,55.5,54.9,50.6,2.604,2.699,2.903,2.61,3.28,129.7,26.6,35.8,1013.28,-29.15,0.25,1.36,18.5,31.8,30.8,0,no_anomaly,0.0,0,0,0,0,23.0225092,72.5714051,5.0,0.0
2024-07-10T11:13:00.500Z,MISSION_0007,5,0,takeoff,SITE_AMD_008,23.0225137,72.5714017,5.0,145.29,1.259,0.156,1.53,-1.8447,-3.5027,145.2883,0.2986,0.02437,-0.02447,0.95375,-0.1328,0.0253,-9.7685,-0.2237,0.2051,0.1205,0.2059,3,13,0.91,0.76,0.27,24.692,21.06,96.3,34.5,21195.0,8793,8833,8902,8904,52.8,50.9,49.6,47.1,2.88,2.704,2.983,2.709,3.67,112.7,26.6,36.7,1013.46,-32.1,2.17,1.88,18.8,33.2,30.3,0,no_anomaly,0.0,0,0,0,0,23.0225137,72.5714017,5.0,0.0
2024-07-10T11:13:00.600Z,MISSION_0007,6,0,takeoff,SITE_AMD_008,23.0225128,72.5714032,5.0,144.33,1.611,0.252,1.47,-3.1518,-1.5791,144.3329,0.30647,0.00469,-0.0304,0.95138,-0.1275,0.0292,-9.8449,0.3893,-0.2158,-0.0296,0.1131,3,17,0.64,0.85,0.24,24.694,18.03,96.3,34.5,21183.0,9049,8753,8645,8899,51.7,53.0,52.4,50.4,2.888,2.681,2.596,2.675,4.09,126.0,26.5,37.6,1012.8,-31.48,-0.19,1.92,25.4,37.0,32.2,0,no_anomaly,0.0,0,0,0,0,23.0225128,72.5714032,5.0,0.0
2024-07-10T11:13:00.700Z,MISSION_0007,7,0,takeoff,SITE_AMD_008,23.0225111,72.5713991,5.0,147.31,2.127,0.102,1.24,-0.6187,-3.0027,147.3099,0.28146,0.02362,-0.01255,0.9592,0.0064,-0.0285,-9.8572,-0.4295,-0.0464,-0.1556,0.2266,3,16,0.68,0.71,0.27,24.719,17.26,96.2,35.2,21171.0,8823,8863,8642,8630,51.3,55.4,49.7,51.1,2.671,2.971,2.639,2.581,4.07,122.7,27.0,35.5,1013.33,-31.0,-1.21,1.51,24.6,37.4,32.4,0,no_anomaly,0.0,0,0,0,0,23.0225111,72.5713991,5.0,0.0
2024-07-10T11:13:00.800Z,MISSION_0007,8,0,takeoff,SITE_AMD_008,23.022511,72.5714022,5.0,148.91,1.811,0.117,1.25,-1.0265,-0.3339,148.9094,0.26801,0.00041,-0.00941,0.96337,0.0407,0.016,-9.7967,0.2154,0.2725,-0.4828,0.2328,3,11,0.8,1.03,0.2,24.769,16.36,96.2,35.1,21159.0,8902,8864,8857,8605,50.5,50.9,50.2,55.6,2.922,2.702,3.073,2.803,3.74,115.2,26.6,37.5,1012.99,-29.57,-0.62,1.85,20.0,35.3,30.0,0,no_anomaly,0.0,0,0,0,0,23.022511,72.5714022,5.0,0.0
2024-07-10T11:13:00.900Z,MISSION_0007,9,0,takeoff,SITE_AMD_008,23.0225137,72.5714017,5.0,148.17,1.721,0.106,1.54,-0.1398,-2.0039,148.167,0.27421,0.01648,-0.00597,0.96151,-0.4208,0.028,-9.8972,-0.5043,-0.3923,0.444,0.189,3,20,0.66,0.88,0.23,24.642,15.76,96.1,35.5,21146.0,8791,9134,8668,8558,50.6,54.0,50.5,52.1,3.072,2.951,2.505,2.546,4.61,114.2,26.5,37.1,1013.15,-32.53,-0.94,1.5,23.4,35.9,27.4,0,no_anomaly,0.0,0,0,0,0,23.0225137,72.5714017,5.0,0.0
2024-07-10T11:13:01.000Z,MISSION_0007,10,0,takeoff,SITE_AMD_008,23.0225145,72.571398,5.0,149.34,1.512,0.096,1.63,0.2137,-2.7162,149.3362,0.26429,0.02335,-0.00447,0.96415,0.0659,-0.005,-9.7697,0.621,0.1116,-0.0274,0.2095,3,19,0.71,0.86,0.24,24.734,19.15,96.1,35.7,21134.0,8994,8730,8864,8728,52.6,50.0,48.8,52.7,2.585,2.629,2.603,2.798,3.21,115.9,26.8,36.3,1013.21,-30.99,-2.54,1.77,17.8,37.0,26.1,0,no_anomaly,0.0,0,0,0,0,23.0225145,72.571398,5.0,0.0
2024-07-10T11:13:01.100Z,MISSION_0007,11,0,takeoff,SITE_AMD_008,23.0225187,72.5713959,5.0,150.12,1.969,0.094,2.13,-1.2587,-2.9177,150.1199,0.25798,0.02177,-0.01717,0.96575,-0.1273,0.0257,-9.8467,0.0391,0.482,0.528,0.1342,3,13,0.59,0.89,0.2,24.666,17.39,96.0,34.9,21122.0,8905,8936,8778,8802,53.2,55.0,51.2,46.6,2.545,3.049,2.866,2.54,3.99,115.6,26.7,36.9,1013.2,-29.84,-2.06,1.22,19.6,36.1,31.9,0,no_anomaly,0.0,0,0,0,0,23.0225187,72.5713959,5.0,0.0
2024-07-10T11:13:01.200Z,MISSION_0007,12,0,takeoff,SITE_AMD_008,23.0225161,72.5713912,5.0,150.68,1.838,0.169,2.04,2.7869,-3.9595,150.6833,0.25202,0.03956,0.01477,0.9668,0.0431,-0.0316,-9.755,0.4558,0.0749,0.1318,0.1097,3,16,0.56,1.21,0.2,24.731,24.1,96.0,34.7,21110.0,9030,8819,9030,8819,53.4,53.5,51.6,49.8,3.142,2.888,2.933,2.785,3.64,112.9,26.9,36.7,1013.71,-28.4,0.7,1.93,22.5,36.2,32.3,0,no_anomaly,0.0,0,0,0,0,23.0225161,72.5713912,5.0,0.0
2024-07-10T11:13:01.300Z,MISSION_0007,13,0,takeoff,SITE_AMD_008,23.0225118,72.5713868,5.0,149.66,1.659,0.029,1.97,-0.9404,-3.0012,149.6607,0.26179,0.02313,-0.01477,0.96474,0.0004,-0.0627,-9.8336,0.0433,0.3156,-0.2881,0.221,3,14,0.73,0.99,0.2,24.65,17.49,95.9,34.8,21098.0,8918,8631,8856,8626,53.0,51.0,52.8,50.0,2.709,2.656,2.829,2.717,2.41,122.9,27.0,36.6,1013.45,-30.27,1.3,1.02,22.6,40.7,29.8,0,no_anomaly,0.0,0,0,0,0,23.0225118,72.5713868,5.0,0.0
2024-07-10T11:13:01.400Z,MISSION_0007,14,0,takeoff,SITE_AMD_008,23.0225097,72.5713868,5.0,148.32,1.808,0.095,1.83,0.9584,-4.1456,148.3169,0.2725,0.03708,-0.00183,0.96144,0.0904,-0.0136,-9.8092,0.1757,-0.9751,0.3235,0.1723,3,16,0.93,0.89,0.5,24.724,18.55,95.8,35.4,21086.0,8826,8870,8640,8489,55.6,53.6,53.3,54.8,2.795,2.688,2.657,2.835,3.97,122.1,26.4,36.3,1013.45,-30.61,-0.59,1.37,23.0,39.5,31.4,0,no_anomaly,0.0,0,0,0,0,23.0225097,72.5713868,5.0,0.0
2024-07-10T11:13:01.500Z,MISSION_0007,15,0,takeoff,SITE_AMD_008,23.0225089,72.5713868,5.0,149.06,2.092,0.111,1.77,-4.247,-2.4874,149.062,0.26725,0.01102,-0.04149,0.96267,-0.0579,-0.0622,-9.8035,0.2928,-0.0179,0.0792,0.2804,3,13,0.5,0.97,0.2,24.683,17.09,95.8,34.5,21074.0,8721,8813,8527,8902,52.4,54.5,50.2,53.3,2.727,3.109,2.52,2.93,3.92,123.1,27.0,37.7,1012.86,-27.04,-2.37,1.9,19.3,32.4,24.9,0,no_anomaly,0.0,0,0,0,0,23.0225089,72.5713868,5.0,0.0
2024-07-10T11:13:01.600Z,MISSION_0007,16,0,takeoff,SITE_AMD_008,23.0225104,72.5713919,5.0,145.85,2.022,0.126,1.47,1.1337,0.9203,145.8522,0.29366,-0.00477,0.01181,0.95583,-0.1625,-0.0508,-9.8529,0.1956,-0.3583,-0.5993,0.2066,3,14,0.65,0.71,0.23,24.638,22.39,95.7,35.3,21062.0,8679,8880,8868,8605,52.1,50.5,53.7,50.4,3.131,2.733,2.754,2.865,3.63,120.8,26.6,36.4,1013.46,-33.0,-1.49,1.45,18.5,38.9,28.1,0,no_anomaly,0.0,0,0,0,0,23.0225104,72.5713919,5.0,0.0
2024-07-10T11:13:01.700Z,MISSION_0007,17,0,takeoff,SITE_AMD_008,23.0225097,72.5713991,5.0,146.55,1.874,0.019,1.08,3.0545,-1.6487,146.5521,0.28726,0.02144,0.02138,0.95737,0.0451,0.1058,-9.8427,0.2814,0.0319,0.1782,0.2301,3,17,0.84,0.85,0.47,24.624,20.09,95.7,35.3,21050.0,8784,8968,8854,8881,51.7,50.5,51.2,52.8,3.008,2.831,2.679,2.438,2.78,127.6,26.7,37.0,1012.86,-26.66,-0.86,1.54,18.5,35.9,26.4,0,no_anomaly,0.0,0,0,0,0,23.0225097,72.5713991,5.0,0.0
2024-07-10T11:13:01.800Z,MISSION_0007,18,0,takeoff,SITE_AMD_008,23.022511,72.5713938,5.0,143.99,1.25,0.1,1.41,-0.1947,-3.4536,143.9882,0.30902,0.02813,-0.01093,0.95058,-0.1839,0.0407,-9.8684,1.084,1.3055,0.0633,0.1022,3,15,0.65,0.91,0.32,24.622,15.76,95.6,33.9,21038.0,8604,8783,8695,8832,50.5,54.3,53.6,48.1,2.8,2.96,2.955,2.747,3.85,116.7,26.6,37.0,1012.96,-30.42,0.98,1.13,19.6,32.7,31.2,0,no_anomaly,0.0,0,0,0,0,23.022511,72.5713938,5.0,0.0
2024-07-10T11:13:01.900Z,MISSION_0007,19,0,takeoff,SITE_AMD_008,23.0225085,72.5713913,5.0,143.57,0.954,0.214,1.35,2.212,-3.0144,143.5683,0.31195,0.03101,0.01011,0.94954,-0.1721,0.1206,-9.7524,0.4402,0.908,-0.308,0.1112,3,12,0.64,1.03,0.33,24.619,13.82,95.6,35.3,21026.0,8468,8864,8490,8973,53.2,49.8,54.4,53.3,2.842,2.763,2.806,2.714,3.71,118.1,26.7,36.7,1013.52,-33.64,-0.64,1.27,21.7,40.5,29.1,0,no_anomaly,0.0,0,0,0,0,23.0225085,72.5713913,5.0,0.0
2024-07-10T11:13:02.000Z,MISSION_0007,20,0,takeoff,SITE_AMD_008,23.0225013,72.5713944,5.0,143.85,0.861,0.151,0.64,1.11,1.151,143.8471,0.31035,-0.00654,0.01232,0.95052,0.0179,0.0359,-9.7749,0.0371,0.2162,0.1062,0.1861,3,13,0.6,0.77,0.22,24.628,16.97,95.5,34.5,21014.0,8740,8788,8955,8797,48.4,52.6,52.3,50.0,2.908,2.954,2.823,2.812,4.88,109.2,26.8,35.9,1013.11,-31.09,-1.15,2.07,20.1,39.1,30.3,0,no_anomaly,0.0,0,0,0,0,23.0225013,72.5713944,5.0,0.0
2024-07-10T11:13:02.100Z,MISSION_0007,21,0,takeoff,SITE_AMD_008,23.022505,72.5713936,5.0,142.33,0.675,0.12,0.91,-0.2382,-2.0981,142.3344,0.32279,0.01666,-0.00788,0.94629,0.0425,-0.184,-9.8044,0.1823,0.3371,0.1829,0.1668,3,16,0.51,1.02,0.23,24.643,14.05,95.5,33.9,21002.0,8813,8469,8713,9080,50.9,51.5,49.7,47.9,2.741,2.606,2.88,2.795,3.74,125.6,27.1,37.6,1013.1,-28.83,0.82,1.24,20.8,39.9,31.7,0,no_anomaly,0.0,0,0,0,0,23.022505,72.5713936,5.0,0.0
2024-07-10T11:13:02.200Z,MISSION_0007,22,0,takeoff,SITE_AMD_008,23.0225015,72.5713884,5.0,143.22,0.922,0.185,1.3,-0.9024,-3.8728,143.2218,0.31553,0.02958,-0.01813,0.94828,-0.0323,-0.0404,-9.8521,-0.3915,0.1616,0.3902,0.1972,3,14,0.65,0.69,0.34,24.692,21.34,95.4,34.7,20990.0,9022,9007,8864,8484,54.8,52.9,48.6,54.5,2.656,2.812,2.782,2.668,2.79,130.3,26.9,36.6,1013.19,-26.15,0.43,1.68,21.2,39.2,29.5,0,no_anomaly,0.0,0,0,0,0,23.0225015,72.5713884,5.0,0.0
2024-07-10T11:13:02.300Z,MISSION_0007,23,0,takeoff,SITE_AMD_008,23.0224995,72.5713926,5.0,144.52,0.694,0.077,0.82,-3.7811,0.3086,144.5212,0.30444,-0.01262,-0.0306,0.95196,-0.0113,0.074,-9.8462,-0.4917,-0.123,-0.026,0.1956,3,13,0.67,0.87,0.22,24.738,20.8,95.4,34.4,20978.0,9253,8589,8953,8737,53.1,54.7,51.1,52.2,3.013,2.867,2.608,2.631,3.9,113.2,26.5,37.2,1013.19,-29.78,1.61,1.84,23.7,36.7,30.1,0,no_anomaly,0.0,0,0,0,0,23.0224995,72.5713926,5.0,0.0
2024-07-10T11:13:02.400Z,MISSION_0007,24,0,takeoff,SITE_AMD_008,23.0224954,72.5713901,5.0,144.61,0.834,0.115,1.21,2.2332,-2.4658,144.6147,0.30338,0.02642,0.01202,0.95243,0.0308,0.0163,-9.8318,-0.422,-0.1705,0.1774,0.2176,3,16,0.71,1.02,0.2,24.63,19.07,95.3,35.3,20966.0,8880,9061,8958,8578,53.2,49.8,49.6,49.0,2.798,2.754,2.701,2.853,3.95,116.8,26.7,37.2,1013.18,-30.82,-0.27,1.26,20.2,41.1,30.7,0,no_anomaly,0.0,0,0,0,0,23.0224954,72.5713901,5.0,0.0
2024-07-10T11:13:02.500Z,MISSION_0007,25,0,takeoff,SITE_AMD_008,23.0224952,72.5713933,5.0,141.56,0.415,0.08,0.92,2.3208,-1.5397,141.5614,0.32883,0.01935,0.0147,0.94408,-0.1561,0.058,-9.7652,0.0622,-0.584,0.2104,0.1706,3,13,0.74,0.74,0.25,24.581,17.23,95.2,35.0,20954.0,8522,8589,8635,8848,50.5,52.9,50.8,53.4,2.785,2.57,2.503,2.736,5.23,119.8,26.6,36.3,1013.03,-31.6,-0.02,1.24,24.7,37.2,28.8,0,no_anomaly,0.0,0,0,0,0,23.0224952,72.5713933,5.0,0.0
2024-07-10T11:13:02.600Z,MISSION_0007,26,0,takeoff,SITE_AMD_008,23.0224945,72.5713984,5.0,139.78,0.597,0.185,0.64,5.2766,-3.0554,139.7804,0.34218,0.04083,0.03405,0.93813,0.3158,-0.0006,-9.8295,-0.0464,0.2612,0.6184,0.2818,3,11,0.66,0.69,0.23,24.625,15.02,95.2,34.2,20941.0,8736,8839,8679,8759,51.7,50.4,52.3,51.5,2.872,2.643,2.838,2.739,3.75,112.7,26.8,37.3,1013.16,-24.68,-0.5,1.8,24.6,32.5,30.5,0,no_anomaly,0.0,0,0,0,0,23.0224945,72.5713984,5.0,0.0
2024-07-10T11:13:02.700Z,MISSION_0007,27,0,takeoff,SITE_AMD_008,23.0224957,72.5714041,5.0,139.97,0.128,0.147,0.66,-2.526,-3.3963,139.9747,0.34261,0.0203,-0.03084,0.93875,-0.0142,-0.0522,-9.7698,-1.2522,0.6941,-0.0867,0.1257,3,17,0.57,0.78,0.2,24.669,18.38,95.1,35.0,20929.0,8736,8745,8726,8570,54.3,52.1,53.3,51.1,2.935,2.707,2.895,2.865,3.15,125.1,26.5,36.4,1013.28,-31.09,1.46,1.26,20.9,34.9,27.8,0,no_anomaly,0.0,0,0,0,0,23.0224957,72.5714041,5.0,0.0
2024-07-10T11:13:02.800Z,MISSION_0007,28,0,takeoff,SITE_AMD_008,23.0225026,72.5714048,5.0,140.55,0.0,0.096,0.61,5.0752,-2.1507,140.5503,0.33633,0.03259,0.03534,0.94052,-0.1024,-0.0036,-9.7591,0.2865,0.0004,0.0151,0.1815,3,19,0.69,0.77,0.26,24.759,20.12,95.1,34.8,20917.0,8931,9254,8979,8831,53.2,51.4,52.5,50.2,2.969,3.113,2.669,2.887,4.19,115.7,26.7,37.2,1013.31,-22.51,-0.31,1.78,20.0,30.9,27.4,0,no_anomaly,0.0,0,0,0,0,23.0225026,72.5714048,5.0,0.0
2024-07-10T11:13:02.900Z,MISSION_0007,29,0,takeoff,SITE_AMD_008,23.0225058,72.571403,5.0,141.72,0.001,0.136,0.73,1.2063,-3.079,141.7219,0.32746,0.02883,0.00113,0.94443,-0.0054,-0.0864,-9.8769,-0.1571,0.435,0.2461,0.2685,3,18,0.73,0.91,0.26,24.718,16.23,95.0,34.6,20905.0,8717,8955,8876,8878,51.5,50.3,51.7,51.4,2.915,2.644,2.849,2.94,4.46,121.6,26.9,36.6,1013.07,-32.8,0.67,1.3,19.3,33.0,30.8,0,no_anomaly,0.0,0,0,0,0,23.0225058,72.571403,5.0,0.0
2024-07-10T11:13:03.000Z,MISSION_0007,30,0,takeoff,SITE_AMD_008,23.0225045,72.5713991,5.0,137.8,0.164,0.107,0.51,-0.7581,-3.8572,137.7967,0.36002,0.02902,-0.01828,0.93231,-0.028,-0.0547,-9.7863,-0.079,0.4741,-0.1523,0.2176,3,17,0.76,0.75,0.27,24.687,20.03,95.0,34.6,20893.0,8845,8824,8922,8838,53.5,52.1,53.3,51.7,2.777,3.113,2.907,2.787,3.8,119.7,26.8,37.2,1013.64,-33.5,0.33,1.22,21.8,36.8,30.4,0,no_anomaly,0.0,0,0,0,0,23.0225045,72.5713991,5.0,0.0
2024-07-10T11:13:03.100Z,MISSION_0007,31,0,takeoff,SITE_AMD_008,23.0225023,72.5714018,5.0,137.85,0.374,0.178,0.33,1.7205,-2.515,137.8455,0.35919,0.02587,0.00611,0.93289,0.1586,0.0345,-9.8611,-0.3576,0.3305,0.166,0.1224,3,10,0.61,0.8,0.2,24.66,12.03,94.9,33.7,20881.0,8821,8887,8820,8493,55.5,52.6,53.5,55.1,2.693,2.781,2.675,2.819,3.88,121.2,26.8,37.5,1013.44,-28.17,-0.29,1.19,19.9,36.1,29.3,0,no_anomaly,0.0,0,0,0,0,23.0225023,72.5714018,5.0,0.0
2024-07-10T11:13:03.200Z,MISSION_0007,32,0,takeoff,SITE_AMD_008,23.0225034,72.5714018,5.0,139.9,0.077,0.146,0.43,-0.5768,-2.3209,139.8992,0.34287,0.0173,-0.01167,0.93915,-0.1271,-0.0287,-9.7972,0.0534,-0.0749,0.3634,0.2152,3,10,0.57,0.74,0.22,24.706,16.09,94.9,35.6,20869.0,8790,8781,8713,8841,48.4,52.9,50.8,49.9,2.845,2.706,2.813,2.699,3.75,110.3,26.5,37.1,1013.1,-33.02,-1.19,1.77,19.1,39.2,27.8,0,no_anomaly,0.0,0,0,0,0,23.0225034,72.5714018,5.0,0.0
2024-07-10T11:13:03.300Z,MISSION_0007,33,0,takeoff,SITE_AMD_008,23.0225032,72.5714033,5.0,139.43,0.0,0.076,0.5,0.3735,-0.4918,139.4324,0.34665,0.00516,0.00157,0.93798,-0.0942,0.0125,-9.8431,-0.0323,0.1355,0.2752,0.1525,3,14,0.69,0.8,0.2,24.603,22.0,94.8,34.5,20857.0,8939,8817,8841,8879,53.5,51.6,56.1,52.8,2.978,2.615,2.909,2.627,4.53,114.0,26.9,36.7,1013.44,-32.17,-0.7,1.45,23.2,36.4,32.2,0,no_anomaly,0.0,0,0,0,0,23.0225032,72.5714033,5.0,0.0
2024-07-10T11:13:03.400Z,MISSION_0007,34,0,takeoff,SITE_AMD_008,23.0225052,72.5714021,5.0,139.77,0.0,0.041,0.63,-0.6702,-0.516,139.7745,0.34388,0.00222,-0.00704,0.93898,-0.3651,-0.043,-9.8427,0.1436,0.5157,0.1199,0.0862,3,16,0.74,0.6,0.3,24.68,16.63,94.8,35.2,20845.0,8885,8867,8579,8946,53.3,52.3,51.4,52.0,2.888,2.592,2.982,3.014,5.07,112.4,26.6,36.3,1013.5,-24.11,0.38,1.75,23.0,39.0,31.7,0,no_anomaly,0.0,0,0,0,0,23.0225052,72.5714021,5.0,0.0
2024-07-10T11:13:03.500Z,MISSION_0007,35,0,takeoff,SITE_AMD_008,23.0225079,72.571406,5.0,141.46,0.711,0.074,1.1,5.3865,-1.3072,141.4594,0.32913,0.02626,0.04059,0.94304,0.163,-0.1359,-9.8304,-0.2782,-0.5165,-0.4574,0.2617,3,13,0.6,0.83,0.3,24.675,22.89,94.7,35.6,20833.0,8841,8944,8847,8672,53.9,52.8,51.8,50.3,2.687,3.22,3.146,2.762,3.79,111.6,26.3,37.3,1013.09,-33.05,1.07,1.8,24.4,38.2,31.2,0,no_anomaly,0.0,0,0,0,0,23.0225079,72.571406,5.0,0.0
2024-07-10T11:13:03.600Z,MISSION_0007,36,0,takeoff,SITE_AMD_008,23.0225038,72.5714091,5.0,140.5,0.314,0.062,1.1,0.2812,-2.753,140.497,0.33779,0.02344,-0.00581,0.94091,0.0891,0.0081,-9.8081,0.425,-0.1866,0.5492,0.1526,3,12,0.85,1.03,0.3,24.673,22.48,94.6,34.1,20821.0,8696,8803,8714,8789,54.4,50.3,48.8,52.3,2.678,2.655,2.706,2.915,4.22,118.9,27.1,36.9,1012.88,-32.87,-0.39,1.84,22.8,34.7,29.4,0,no_anomaly,0.0,0,0,0,0,23.0225038,72.5714091,5.0,0.0
2024-07-10T11:13:03.700Z,MISSION_0007,37,0,takeoff,SITE_AMD_008,23.0225036,72.5714137,5.0,141.74,0.246,0.108,1.57,0.7567,-1.0576,141.7441,0.3276,0.01088,0.00321,0.94475,0.1483,-0.0391,-9.8324,-0.7019,-0.4107,0.0131,0.1619,3,11,0.85,0.61,0.32,24.68,11.81,94.6,35.1,20809.0,9033,8756,8768,8855,52.7,53.4,49.3,51.5,2.898,2.774,2.785,2.641,3.58,116.2,26.9,36.6,1013.25,-27.42,-0.52,1.08,22.8,41.0,32.1,0,no_anomaly,0.0,0,0,0,0,23.0225036,72.5714137,5.0,0.0
2024-07-10T11:13:03.800Z,MISSION_0007,38,0,takeoff,SITE_AMD_008,23.0225029,72.5714123,5.0,141.98,0.0,0.128,1.4,-2.959,0.1779,141.9785,0.3256,-0.00988,-0.02391,0.94515,-0.0694,-0.0408,-9.8579,0.6902,0.1698,0.2178,0.1597,3,17,0.64,0.69,0.27,24.657,21.56,94.5,35.3,20797.0,9066,8799,8900,8590,54.1,49.5,51.2,50.3,2.61,2.815,2.716,2.716,3.62,115.0,26.7,37.2,1013.26,-28.07,0.86,1.54,19.7,40.3,31.4,0,no_anomaly,0.0,0,0,0,0,23.0225029,72.5714123,5.0,0.0
2024-07-10T11:13:03.900Z,MISSION_0007,39,0,takeoff,SITE_AMD_008,23.022502,72.571412,5.0,142.23,0.0,0.042,1.35,1.7189,-0.1321,142.2289,0.32363,0.00595,0.01382,0.94607,-0.0604,0.0362,-9.8289,0.137,-0.0224,0.0205,0.2061,3,14,0.77,0.92,0.33,24.637,14.37,94.5,35.1,20785.0,8904,8804,8839,8811,53.4,50.9,53.4,49.2,2.838,2.787,2.694,2.825,3.55,119.8,26.6,37.7,1013.26,-29.83,-0.85,1.66,23.0,35.2,29.0,0,no_anomaly,0.0,0,0,0,0,23.022502,72.571412,5.0,0.0
2024-07-10T11:13:04.000Z,MISSION_0007,40,0,takeoff,SITE_AMD_008,23.0225039,72.5714143,5.0,142.92,0.0,0.093,1.65,-0.1254,-1.8099,142.9163,0.31797,0.01463,-0.00606,0.94797,0.1301,0.0309,-9.8412,-0.9096,0.4705,0.2772,0.267,3,16,0.81,1.14,0.28,24.538,17.79,94.4,34.7,20773.0,9072,9003,8933,8810,49.1,51.3,50.7,49.6,2.779,2.596,2.912,2.526,3.64,110.4,26.5,36.7,1013.22,-32.05,0.74,1.62,22.6,34.7,26.3,0,no_anomaly,0.0,0,0,0,0,23.0225039,72.5714143,5.0,0.0
2024-07-10T11:13:04.100Z,MISSION_0007,41,0,takeoff,SITE_AMD_008,23.0225046,72.5714153,5.0,144.14,0.0,0.089,1.78,0.8909,-1.1109,144.1374,0.30778,0.01162,0.00441,0.95138,0.0244,0.0868,-9.7901,0.1044,-0.6412,-0.1116,0.0747,3,13,0.62,0.6,0.29,24.719,16.6,94.4,34.1,20761.0,8804,8858,8725,8674,54.7,52.3,50.5,50.0,2.733,2.537,2.666,2.854,3.61,117.0,26.7,37.5,1013.37,-28.41,-0.94,1.36,20.6,37.7,29.9,0,no_anomaly,0.0,0,0,0,0,23.0225046,72.5714153,5.0,0.0
2024-07-10T11:13:04.200Z,MISSION_0007,42,0,takeoff,SITE_AMD_008,23.0225047,72.5714105,5.0,144.81,0.0,0.007,1.28,-3.2576,-2.6749,144.8103,0.30271,0.01365,-0.03414,0.95237,0.2585,0.0111,-9.7303,-0.2976,0.1848,0.2536,0.1441,3,10,0.83,0.74,0.35,24.759,17.55,94.3,34.2,20749.0,8631,9015,8704,8687,49.5,49.8,51.3,51.0,2.849,2.809,2.529,2.943,4.59,109.9,27.0,36.3,1012.96,-33.09,-1.81,1.22,22.1,41.2,30.0,0,no_anomaly,0.0,0,0,0,0,23.0225047,72.5714105,5.0,0.0
2024-07-10T11:13:04.300Z,MISSION_0007,43,0,takeoff,SITE_AMD_008,23.0225052,72.5714192,5.0,144.31,0.0,0.082,2.22,-2.9871,-1.6956,144.307,0.3067,0.00609,-0.02934,0.95134,-0.0246,0.0339,-9.7351,1.0918,-0.0956,0.1597,0.1529,3,19,0.58,0.89,0.28,24.694,18.34,94.3,35.4,20737.0,8866,8537,8727,8944,50.9,52.7,54.9,49.0,2.76,2.974,2.726,2.679,3.75,122.4,26.6,36.2,1013.58,-29.07,1.71,2.06,22.0,36.9,30.9,0,no_anomaly,0.0,0,0,0,0,23.0225052,72.5714192,5.0,0.0
2024-07-10T11:13:04.400Z,MISSION_0007,44,0,takeoff,SITE_AMD_008,23.0225052,72.5714202,5.0,146.28,0.251,0.075,2.32,0.5502,-3.1533,146.276,0.28983,0.02772,-0.00339,0.95667,-0.0698,0.0398,-9.8323,0.8034,-0.3904,-0.5072,0.3004,3,15,0.79,0.94,0.23,24.681,21.08,94.2,34.4,20724.0,8930,8888,8694,9066,50.6,47.5,51.8,50.0,2.766,3.083,2.7,2.869,3.94,125.6,26.5,37.5,1013.27,-36.89,-1.19,1.36,21.6,39.2,30.6,0,no_anomaly,0.0,0,0,0,0,23.0225052,72.5714202,5.0,0.0
2024-07-10T11:13:04.500Z,MISSION_0007,45,0,takeoff,SITE_AMD_008,23.0225045,72.5714222,5.0,147.55,0.0,0.131,2.52,-4.4215,-1.4376,147.5507,0.27964,0.00126,-0.04054,0.95925,-0.0479,0.136,-9.6727,-0.6987,0.5977,-0.0971,0.2189,3,14,0.69,0.97,0.26,24.628,15.47,94.1,35.0,20712.0,8977,8866,8918,9308,52.0,51.5,49.5,55.1,2.976,2.534,2.442,2.626,3.0,108.0,26.4,36.3,1013.5,-30.5,1.32,1.51,22.7,41.9,30.4,0,no_anomaly,0.0,0,0,0,0,23.0225045,72.5714222,5.0,0.0
2024-07-10T11:13:04.600Z,MISSION_0007,46,0,takeoff,SITE_AMD_008,23.0225042,72.5714202,5.0,147.67,0.0,0.055,2.3,3.1813,-3.3305,147.6743,0.27737,0.03562,0.01856,0.95992,-0.1212,-0.0566,-9.8034,-0.04,-0.2648,0.0312,0.1598,3,15,0.52,0.83,0.31,24.611,16.15,94.1,34.7,20700.0,8621,8665,8655,8714,49.6,49.1,49.5,52.4,2.912,2.82,2.822,2.613,4.65,116.3,26.7,37.8,1013.12,-32.32,0.57,1.61,18.8,35.4,28.2,0,no_anomaly,0.0,0,0,0,0,23.0225042,72.5714202,5.0,0.0
2024-07-10T11:13:04.700Z,MISSION_0007,47,0,takeoff,SITE_AMD_008,23.0225019,72.5714184,5.0,146.5,0.0,0.034,2.06,-0.4217,-3.238,146.5046,0.28814,0.02599,-0.01166,0.95716,-0.1043,-0.046,-9.7697,0.1445,0.5606,0.4798,0.1831,3,14,0.76,0.75,0.39,24.652,13.65,94.0,34.1,20688.0,8828,8874,8618,8848,48.7,52.2,51.6,51.5,2.735,2.836,2.757,2.426,3.71,106.5,26.6,36.6,1013.26,-31.76,-1.6,1.57,19.0,40.0,31.1,0,no_anomaly,0.0,0,0,0,0,23.0225019,72.5714184,5.0,0.0
2024-07-10T11:13:04.800Z,MISSION_0007,48,0,takeoff,SITE_AMD_008,23.0225031,72.5714107,5.0,147.03,0.39,0.048,1.24,1.0241,-0.3637,147.0265,0.28375,0.00558,0.00767,0.95885,0.0149,0.0406,-9.7237,0.036,-0.542,-0.1234,0.1251,3,13,0.61,1.06,0.29,24.644,19.51,94.0,35.5,20676.0,8835,8877,8967,8774,52.6,53.7,51.9,55.3,2.741,3.043,2.91,2.806,3.51,119.3,26.2,36.7,1013.44,-28.5,-0.06,1.0,21.2,35.7,28.9,0,no_anomaly,0.0,0,0,0,0,23.0225031,72.5714107,5.0,0.0
2024-07-10T11:13:04.900Z,MISSION_0007,49,0,takeoff,SITE_AMD_008,23.0224981,72.5714081,5.0,146.32,0.249,0.108,0.92,2.386,-2.1752,146.319,0.28922,0.02419,0.01443,0.95685,-0.0721,-0.0034,-9.8347,0.3821,-0.4912,0.4103,0.258,3,14,0.86,0.7,0.35,24.609,17.68,93.9,34.0,20664.0,8796,8961,8580,8778,49.7,53.6,50.0,50.6,3.019,2.774,2.695,2.952,4.18,113.6,26.5,36.8,1013.16,-32.55,-0.61,1.0,23.8,39.6,26.0,0,no_anomaly,0.0,0,0,0,0,23.0224981,72.5714081,5.0,0.0
2024-07-10T11:13:05.000Z,MISSION_0007,50,0,takeoff,SITE_AMD_008,23.0224981,72.5714069,5.0,148.27,0.259,0.089,0.8,3.534,-0.9042,148.2677,0.27302,0.01602,0.0275,0.96148,0.0235,0.1041,-9.815,-0.3647,0.2346,0.5085,0.2542,3,17,0.76,0.85,0.39,24.699,17.8,93.9,34.6,20652.0,8941,8668,8587,9060,54.0,54.8,50.8,50.4,2.841,2.896,2.868,2.756,3.58,116.7,26.5,36.4,1013.33,-28.69,0.85,1.98,21.7,34.7,27.7,0,no_anomaly,0.0,0,0,0,0,23.0224981,72.5714069,5.0,0.0
2024-07-10T11:13:05.100Z,MISSION_0007,51,0,takeoff,SITE_AMD_008,23.0224969,72.5714083,5.0,147.12,0.806,0.049,0.99,-5.7985,-1.7969,147.1247,0.28334,0.00071,-0.05294,0.95756,-0.0427,0.0265,-9.8208,-0.35,0.0093,-0.1008,0.2093,3,17,0.72,0.92,0.39,24.584,14.73,93.8,34.8,20640.0,8873,8815,9064,8737,48.1,51.2,52.3,51.8,2.885,2.897,2.72,2.967,3.1,124.9,26.8,37.9,1012.93,-31.24,0.24,1.46,21.8,33.9,26.3,0,no_anomaly,0.0,0,0,0,0,23.0224969,72.5714083,5.0,0.0
2024-07-10T11:13:05.200Z,MISSION_0007,52,0,takeoff,SITE_AMD_008,23.0224962,72.5714118,5.0,147.89,0.793,0.078,1.38,-0.2002,-1.2551,147.8875,0.27658,0.01004,-0.00471,0.96093,-0.142,-0.0591,-9.7593,0.2679,-0.3232,-0.1443,0.1308,3,17,0.7,0.75,0.2,24.671,22.2,93.8,34.5,20628.0,8578,8706,8905,8896,52.7,51.4,53.5,51.5,2.599,2.833,2.719,2.979,3.48,116.7,27.0,36.2,1013.13,-28.82,0.57,1.91,20.9,39.0,28.5,0,no_anomaly,0.0,0,0,0,0,23.0224962,72.5714118,5.0,0.0
2024-07-10T11:13:05.300Z,MISSION_0007,53,0,takeoff,SITE_AMD_008,23.0224987,72.5714158,5.0,146.24,0.392,-0.005,1.76,-1.5041,-0.354,146.2435,0.29035,-0.00086,-0.01346,0.95683,0.28,0.0164,-9.7585,0.3163,0.654,0.2678,0.1173,3,19,0.64,0.86,0.22,24.639,13.52,93.7,35.6,20616.0,8986,8639,8823,8821,53.6,51.0,55.1,50.1,2.812,2.849,2.747,2.567,3.86,108.6,26.9,36.2,1013.03,-27.08,0.76,1.99,19.1,37.6,27.9,0,no_anomaly,0.0,0,0,0,0,23.0224987,72.5714158,5.0,0.0
2024-07-10T11:13:05.400Z,MISSION_0007,54,0,takeoff,SITE_AMD_008,23.0225041,72.5714191,5.0,143.76,0.0,0.1,2.18,-4.5086,0.1634,143.7552,0.31075,-0.01359,-0.03694,0.94968,-0.163,0.0795,-9.8499,0.3424,0.3963,-0.3795,0.1899,3,10,0.67,1.22,0.25,24.66,18.37,93.7,34.1,20604.0,8904,8905,8820,8746,52.5,48.4,48.8,51.5,3.172,2.98,2.599,2.657,3.98,116.3,26.8,37.3,1013.64,-28.56,0.35,1.45,22.2,35.4,27.8,0,no_anomaly,0.0,0,0,0,0,23.0225041,72.5714191,5.0,0.0
2024-07-10T11:13:05.500Z,MISSION_0007,55,0,takeoff,SITE_AMD_008,23.0225004,72.5714236,5.0,143.91,0.0,0.125,2.62,-2.9621,-2.9148,143.9079,0.3102,0.01617,-0.03244,0.94998,0.324,-0.0367,-9.8245,-0.0417,-0.5663,-0.1484,0.2153,3,16,0.65,1.01,0.33,24.53,13.22,93.6,35.2,20592.0,9056,8613,8855,8776,53.7,48.8,52.1,53.2,2.661,2.87,2.803,3.053,4.21,125.1,26.8,36.7,1013.63,-27.62,0.55,1.23,21.0,33.8,27.7,0,no_anomaly,0.0,0,0,0,0,23.0225004,72.5714236,5.0,0.0
2024-07-10T11:13:05.600Z,MISSION_0007,56,0,takeoff,SITE_AMD_008,23.0225019,72.5714222,5.0,145.04,0.0,0.186,2.48,4.7257,-1.6664,145.0368,0.29954,0.02624,0.03496,0.95308,-0.1756,0.0739,-9.886,0.386,-0.8824,0.0845,0.1636,3,13,0.66,0.78,0.27,24.561,18.03,93.5,34.4,20580.0,8664,8777,8755,8388,52.9,53.5,51.8,53.0,2.957,2.831,2.675,2.694,3.77,109.6,26.6,36.6,1013.35,-31.02,2.27,1.58,19.9,38.6,28.1,0,no_anomaly,0.0,0,0,0,0,23.0225019,72.5714222,5.0,0.0
2024-07-10T11:13:05.700Z,MISSION_0007,57,0,takeoff,SITE_AMD_008,23.022501,72.5714222,5.0,143.96,0.274,0.046,2.47,4.7296,-0.9662,143.9575,0.30876,0.02078,0.03663,0.95021,0.0154,-0.0505,-9.8351,1.1019,-0.191,-0.1966,0.2499,3,18,0.51,0.72,0.2,24.583,17.95,93.5,34.8,20568.0,8843,8864,8632,8942,54.4,51.1,51.6,55.2,2.857,2.943,2.827,2.989,3.72,121.1,27.0,37.3,1012.96,-28.66,1.98,1.77,17.7,38.6,28.9,0,no_anomaly,0.0,0,0,0,0,23.022501,72.5714222,5.0,0.0
2024-07-10T11:13:05.800Z,MISSION_0007,58,0,takeoff,SITE_AMD_008,23.0225006,72.5714259,5.0,142.86,0.819,0.092,2.89,4.3684,-2.9088,142.8649,0.31717,0.03617,0.02804,0.94726,-0.1837,0.0722,-9.8713,-0.0299,0.6372,-0.583,0.2328,3,16,0.69,0.89,0.29,24.596,17.75,93.4,35.4,20556.0,8791,8849,8848,9013,51.7,53.0,52.8,54.3,2.743,2.627,2.752,2.721,3.66,116.4,26.5,36.0,1013.25,-34.07,-0.42,1.37,21.7,34.3,26.8,0,no_anomaly,0.0,0,0,0,0,23.0225006,72.5714259,5.0,0.0
2024-07-10T11:13:05.900Z,MISSION_0007,59,0,takeoff,SITE_AMD_008,23.022502,72.5714212,5.0,144.85,0.419,0.089,2.37,4.8006,-1.2417,144.8465,0.30127,0.02297,0.03665,0.95256,0.1274,0.0468,-9.8054,-0.449,0.3724,0.5129,0.1646,3,13,0.68,0.86,0.25,24.674,14.61,93.4,34.4,20544.0,8592,8833,8727,8671,49.1,53.5,54.6,52.2,2.816,2.651,2.591,2.855,3.53,111.6,26.4,37.2,1013.47,-28.77,2.88,1.25,18.6,32.1,27.9,0,no_anomaly,0.0,0,0,0,0,23.022502,72.5714212,5.0,0.0
2024-07-10T11:13:06.000Z,MISSION_0007,60,0,takeoff,SITE_AMD_008,23.0225015,72.5714247,5.0,142.76,0.697,0.113,2.76,0.9247,-2.1637,142.759,0.31909,0.02047,0.00162,0.9475,0.2473,0.0397,-9.7976,-0.0636,1.1511,0.501,0.2593,3,10,0.74,0.72,0.41,24.68,18.43,93.3,34.8,20532.0,8896,8669,8620,8899,50.8,53.6,53.2,48.5,2.975,2.55,2.95,2.651,2.17,115.0,26.3,36.3,1013.25,-33.9,-0.05,1.0,19.7,39.6,28.8,0,no_anomaly,0.0,0,0,0,0,23.0225015,72.5714247,5.0,0.0
2024-07-10T11:13:06.100Z,MISSION_0007,61,0,takeoff,SITE_AMD_008,23.0225035,72.571431,5.0,143.28,0.151,0.199,3.47,1.5149,-0.9958,143.2838,0.31481,0.01241,0.00981,0.94902,0.0551,-0.057,-9.8299,0.504,0.6951,-0.5809,0.1489,3,10,0.76,0.87,0.33,24.622,16.7,93.3,35.3,20519.0,8638,8750,8863,8604,53.2,54.2,52.6,50.7,2.678,2.614,2.834,2.669,2.76,118.9,26.6,37.6,1013.32,-30.45,1.26,1.32,17.8,30.4,27.3,0,no_anomaly,0.0,0,0,0,0,23.0225035,72.571431,5.0,0.0
2024-07-10T11:13:06.200Z,MISSION_0007,62,0,takeoff,SITE_AMD_008,23.0225015,72.5714301,5.0,145.38,0.29,0.16,3.35,0.2138,-3.0926,145.3786,0.2974,0.02632,-0.00625,0.95437,-0.0463,-0.0572,-9.7888,-0.1415,-0.7827,0.236,0.0905,3,19,0.67,0.94,0.31,24.553,22.59,93.2,34.7,20507.0,8756,9040,9214,8767,52.0,52.1,52.9,55.7,2.84,2.79,2.767,2.606,3.69,124.8,26.9,36.9,1013.45,-30.99,0.23,1.38,20.0,32.1,30.1,0,no_anomaly,0.0,0,0,0,0,23.0225015,72.5714301,5.0,0.0
2024-07-10T11:13:06.300Z,MISSION_0007,63,0,takeoff,SITE_AMD_008,23.0224997,72.5714274,5.0,144.52,0.836,0.04,3.05,1.5368,-2.8714,144.5245,0.30422,0.02795,0.00514,0.95218,0.0003,-0.05,-9.8235,0.0922,-0.3775,-0.0238,0.1116,3,14,0.86,0.8,0.39,24.666,16.83,93.2,34.3,20495.0,8900,8788,8862,8882,50.5,51.7,53.8,54.0,3.036,2.852,2.857,2.742,3.88,109.5,26.5,37.1,1013.05,-27.27,0.16,1.23,23.2,41.2,30.5,0,no_anomaly,0.0,0,0,0,0,23.0224997,72.5714274,5.0,0.0
2024-07-10T11:13:06.400Z,MISSION_0007,64,0,takeoff,SITE_AMD_008,23.022498,72.5714252,5.0,145.13,0.816,0.01,2.82,0.0934,-2.5012,145.1327,0.29951,0.02107,-0.00576,0.95384,0.1876,0.0134,-9.8108,0.6293,-0.5363,0.2131,0.1894,3,16,0.86,0.93,0.33,24.608,14.57,93.1,34.5,20483.0,9042,8602,8734,8977,51.6,55.4,54.8,51.8,2.876,2.888,2.437,2.821,4.29,112.0,26.6,37.3,1013.59,-33.45,-0.52,1.0,23.1,36.6,29.4,0,no_anomaly,0.0,0,0,0,0,23.022498,72.5714252,5.0,0.0
2024-07-10T11:13:06.500Z,MISSION_0007,65,0,takeoff,SITE_AMD_008,23.0224986,72.5714277,5.0,144.7,0.926,0.086,3.08,-1.4918,-0.1037,144.7008,0.30318,-0.00308,-0.01268,0.95284,0.0349,0.0158,-9.7915,-0.3053,-0.6883,-0.0502,0.1577,3,18,0.66,0.83,0.27,24.572,17.41,93.1,34.7,20471.0,9047,8850,8901,8667,51.5,52.1,52.6,53.6,2.492,2.857,2.641,2.823,4.09,117.6,26.7,36.2,1013.24,-31.97,-1.99,1.65,23.2,41.0,32.8,0,no_anomaly,0.0,0,0,0,0,23.0224986,72.5714277,5.0,0.0
2024-07-10T11:13:06.600Z,MISSION_0007,66,0,takeoff,SITE_AMD_008,23.0225011,72.5714298,5.0,144.6,1.292,0.134,3.32,3.1458,-1.8799,144.601,0.30344,0.02397,0.02116,0.95231,-0.2315,-0.0599,-9.8183,-0.0516,-0.2344,0.0386,0.1128,3,11,0.56,0.92,0.2,24.648,15.95,93.0,34.8,20459.0,8789,8866,8836,8884,50.9,50.6,51.3,52.6,2.787,2.653,2.781,2.845,3.02,115.6,27.1,37.0,1013.21,-30.64,0.45,1.12,24.3,32.9,31.3,0,no_anomaly,0.0,0,0,0,0,23.0225011,72.5714298,5.0,0.0
2024-07-10T11:13:06.700Z,MISSION_0007,67,0,takeoff,SITE_AMD_008,23.0225007,72.5714289,5.0,145.39,1.234,0.068,3.22,1.3069,-1.1859,145.3883,0.29732,0.01327,0.00781,0.95465,-0.0716,-0.026,-9.7803,0.2022,-0.1902,0.2783,0.2202,3,18,0.64,0.62,0.26,24.643,19.97,92.9,34.4,20447.0,8894,8849,8715,8796,52.9,52.7,46.4,50.6,2.775,2.839,2.68,2.991,3.98,114.2,26.6,35.8,1012.94,-28.09,1.14,1.26,23.8,41.7,31.0,0,no_anomaly,0.0,0,0,0,0,23.0225007,72.5714289,5.0,0.0
2024-07-10T11:13:06.800Z,MISSION_0007,68,0,takeoff,SITE_AMD_008,23.0225039,72.5714343,5.0,145.6,1.046,0.184,3.84,1.3404,-1.7461,145.602,0.29547,0.01801,0.00667,0.95516,-0.0498,-0.0361,-9.8957,0.4723,0.3636,-0.1834,0.0774,3,14,0.61,0.95,0.2,24.62,18.97,92.9,35.9,20435.0,8813,8902,8822,8924,50.9,51.7,49.8,52.1,2.931,2.793,2.396,2.898,4.11,127.8,26.8,36.5,1012.98,-29.75,-1.72,1.41,23.3,33.5,31.4,0,no_anomaly,0.0,0,0,0,0,23.0225039,72.5714343,5.0,0.0
2024-07-10T11:13:06.900Z,MISSION_0007,69,0,takeoff,SITE_AMD_008,23.0225011,72.571433,5.0,146.48,1.407,0.074,3.68,-4.7961,-3.1013,146.4835,0.28906,0.01383,-0.04785,0.95601,0.064,-0.0365,-9.7456,0.7613,0.0939,-0.1538,0.0828,3,17,0.69,0.92,0.2,24.687,17.34,92.8,34.5,20423.0,8875,8750,8713,9040,52.0,51.4,52.3,51.1,2.591,2.645,2.688,2.866,4.18,116.0,27.0,37.9,1013.07,-33.47,-1.06,1.84,22.1,41.0,29.3,0,no_anomaly,0.0,0,0,0,0,23.0225011,72.571433,5.0,0.0
2024-07-10T11:13:07.000Z,MISSION_0007,70,0,takeoff,SITE_AMD_008,23.0225083,72.571435,5.0,145.62,1.752,0.006,4.01,-1.0671,-3.9094,145.6219,0.29564,0.02983,-0.01897,0.95464,-0.0212,0.0766,-9.8364,-0.1635,0.8615,0.036,0.1714,3,20,0.71,1.29,0.47,24.642,15.98,92.8,34.9,20411.0,8695,8662,8572,9095,51.6,50.7,50.9,52.3,2.961,2.776,2.713,2.906,3.4,110.9,26.4,37.9,1013.61,-35.45,0.83,1.84,21.1,35.4,25.6,0,no_anomaly,0.0,0,0,0,0,23.0225083,72.571435,5.0,0.0
2024-07-10T11:13:07.100Z,MISSION_0007,71,0,takeoff,SITE_AMD_008,23.0225061,72.5714402,5.0,145.75,2.02,-0.017,4.53,-6.0093,-2.6093,145.753,0.29509,0.0063,-0.05678,0.95376,-0.0326,-0.0044,-9.8004,-0.872,-0.8915,0.4404,0.1243,3,17,0.77,1.11,0.28,24.635,20.85,92.7,33.9,20399.0,8740,8708,8733,8701,50.7,53.2,50.3,53.9,2.661,2.739,3.01,2.737,3.68,128.8,26.7,37.9,1013.02,-28.44,-0.51,1.5,20.8,36.3,30.6,0,no_anomaly,0.0,0,0,0,0,23.0225061,72.5714402,5.0,0.0
2024-07-10T11:13:07.200Z,MISSION_0007,72,0,takeoff,SITE_AMD_008,23.0225099,72.5714363,5.0,142.79,2.122,0.158,4.18,-4.1257,-1.4773,142.7934,0.31922,0.00073,-0.03822,0.94691,-0.0992,0.0104,-9.7584,0.155,0.1768,0.196,0.1564,3,16,0.68,1.08,0.33,24.588,15.7,92.7,35.0,20387.0,8473,9133,8649,9039,51.5,51.1,54.5,48.5,2.615,2.753,2.941,2.9,3.47,120.3,26.3,36.3,1013.38,-34.5,1.19,1.38,22.3,34.1,30.7,0,no_anomaly,0.0,0,0,0,0,23.0225099,72.5714363,5.0,0.0
2024-07-10T11:13:07.300Z,MISSION_0007,73,0,takeoff,SITE_AMD_008,23.0225043,72.571435,5.0,143.56,2.062,0.143,3.93,-2.0472,-0.9499,143.5611,0.31274,0.00229,-0.01956,0.94964,0.0691,0.0489,-9.7748,-0.831,-0.0176,-0.0856,0.1539,3,15,0.68,0.8,0.35,24.545,23.71,92.6,34.8,20375.0,8708,8762,8727,8757,51.0,51.7,49.6,50.2,2.758,2.967,2.878,2.63,3.63,125.5,26.8,36.9,1013.0,-32.07,0.7,1.33,21.1,36.0,29.0,0,no_anomaly,0.0,0,0,0,0,23.0225043,72.571435,5.0,0.0
2024-07-10T11:13:07.400Z,MISSION_0007,74,0,takeoff,SITE_AMD_008,23.0225047,72.5714332,5.0,144.03,1.518,0.047,3.73,0.6474,0.3809,144.0294,0.30878,-0.00142,0.0064,0.95111,0.0421,-0.0007,-9.7989,-0.6351,1.0052,-0.3049,0.1706,3,19,0.73,0.67,0.41,24.595,14.9,92.6,35.0,20363.0,8855,8662,9120,8610,46.8,48.1,51.5,52.8,2.683,2.82,2.693,2.813,3.36,122.3,26.6,36.0,1013.13,-25.76,1.55,1.6,20.8,31.5,29.5,0,no_anomaly,0.0,0,0,0,0,23.0225047,72.5714332,5.0,0.0
2024-07-10T11:13:07.500Z,MISSION_0007,75,0,takeoff,SITE_AMD_008,23.0225071,72.5714353,5.0,145.59,1.894,0.091,4.0,-0.3112,-1.8562,145.5929,0.29577,0.01467,-0.00738,0.95512,-0.15,-0.0235,-9.7814,-1.7133,0.5382,-0.0425,0.1628,3,11,0.69,1.06,0.21,24.583,18.15,92.5,35.1,20351.0,8951,8681,9108,8764,51.2,53.7,51.1,53.2,2.733,2.768,2.815,2.947,3.22,123.6,26.5,36.4,1013.24,-33.52,0.7,1.39,24.1,34.4,28.9,0,no_anomaly,0.0,0,0,0,0,23.0225071,72.5714353,5.0,0.0
2024-07-10T11:13:07.600Z,MISSION_0007,76,0,takeoff,SITE_AMD_008,23.0225077,72.5714366,5.0,145.35,2.281,0.094,4.17,2.9929,-2.4602,145.3473,0.29711,0.02826,0.01853,0.95425,0.0319,0.1262,-9.737,-0.0034,0.4078,0.197,0.193,3,13,0.84,1.0,0.48,24.608,18.31,92.4,36.1,20339.0,8491,8970,8656,9045,50.6,53.2,50.4,53.6,2.938,2.709,2.621,2.84,3.31,116.4,26.5,38.3,1013.26,-30.08,-0.47,1.73,24.5,33.3,30.0,0,no_anomaly,0.0,0,0,0,0,23.0225077,72.5714366,5.0,0.0
2024-07-10T11:13:07.700Z,MISSION_0007,77,0,takeoff,SITE_AMD_008,23.0225126,72.5714375,5.0,144.47,1.758,0.063,4.41,0.8309,-0.6149,144.4711,0.30506,0.00732,0.00527,0.95229,0.0375,-0.001,-9.7294,-0.1269,0.1988,0.6082,0.2711,3,17,0.54,0.64,0.25,24.64,16.27,92.4,34.9,20327.0,8662,8726,8915,8759,51.9,47.4,56.7,51.5,2.983,2.935,2.712,3.084,4.44,110.1,26.7,37.1,1013.33,-28.13,0.09,2.0,21.6,34.0,26.2,0,no_anomaly,0.0,0,0,0,0,23.0225126,72.5714375,5.0,0.0
2024-07-10T11:13:07.800Z,MISSION_0007,78,0,takeoff,SITE_AMD_008,23.0225104,72.5714413,5.0,146.31,1.474,0.109,4.74,-4.7848,-1.8226,146.3128,0.29011,0.00311,-0.04455,0.95595,-0.0394,-0.0063,-9.8613,0.0007,-0.3631,-0.111,0.2091,3,14,0.63,0.94,0.31,24.658,22.2,92.3,33.9,20315.0,8894,8808,8703,8585,52.4,51.1,52.9,49.1,3.028,2.722,2.946,2.639,3.51,118.3,27.4,36.8,1013.66,-25.57,1.0,1.1,19.5,38.3,29.6,0,no_anomaly,0.0,0,0,0,0,23.0225104,72.5714413,5.0,0.0
2024-07-10T11:13:07.900Z,MISSION_0007,79,0,takeoff,SITE_AMD_008,23.0225131,72.5714474,5.0,144.87,1.559,0.19,5.48,0.1591,-2.7578,144.8691,0.30168,0.02336,-0.00594,0.95311,-0.1987,0.0148,-9.7643,-0.5141,-0.9825,0.222,0.1874,3,16,0.7,1.08,0.28,24.666,18.11,92.3,35.5,20302.0,8863,8766,8822,8667,54.7,54.6,50.2,56.4,2.631,2.981,2.738,2.833,4.47,118.3,26.9,37.2,1013.38,-29.39,-0.56,1.43,24.3,34.0,28.7,0,no_anomaly,0.0,0,0,0,0,23.0225131,72.5714474,5.0,0.0
2024-07-10T11:13:08.000Z,MISSION_0007,80,0,takeoff,SITE_AMD_008,23.0225125,72.571444,5.0,145.36,1.268,0.109,5.09,1.2266,0.0974,145.3632,0.29767,0.00237,0.01047,0.95461,0.0298,-0.0201,-9.7289,0.5424,-0.2534,0.3349,0.1022,3,15,0.52,0.94,0.2,24.593,14.86,92.2,34.0,20290.0,8550,8943,8541,8755,51.9,53.5,51.4,50.8,2.685,2.67,2.685,2.972,3.37,114.1,26.2,36.4,1013.34,-32.33,0.24,1.55,26.3,42.4,31.3,0,no_anomaly,0.0,0,0,0,0,23.0225125,72.571444,5.0,0.0
2024-07-10T11:13:08.100Z,MISSION_0007,81,0,takeoff,SITE_AMD_008,23.0225158,72.5714424,5.0,147.17,1.068,0.189,5.04,0.5171,-0.4547,147.1704,0.28257,0.00508,0.00321,0.95923,0.0204,0.0031,-9.9165,-0.1819,-0.273,0.3162,0.2094,3,16,0.5,0.6,0.2,24.584,17.13,92.2,35.2,20278.0,9084,8860,8864,8874,50.8,53.0,45.8,51.1,2.731,2.847,2.657,2.761,3.59,112.2,26.8,36.9,1013.31,-34.08,0.6,1.69,25.6,37.6,30.0,0,no_anomaly,0.0,0,0,0,0,23.0225158,72.5714424,5.0,0.0
2024-07-10T11:13:08.200Z,MISSION_0007,82,0,takeoff,SITE_AMD_008,23.0225147,72.5714427,5.0,147.59,0.989,0.106,5.03,-0.4516,-2.6596,147.591,0.27908,0.02119,-0.01026,0.95998,-0.2928,-0.0572,-9.8662,0.0234,-0.9371,-0.2332,0.1641,3,13,0.65,0.6,0.2,24.585,19.16,92.1,34.4,20266.0,8741,8702,8830,8690,51.9,46.4,50.4,53.7,2.794,2.789,2.868,2.702,4.21,117.4,26.7,36.5,1013.11,-29.04,0.63,1.43,24.4,38.6,28.2,0,no_anomaly,0.0,0,0,0,0,23.0225147,72.5714427,5.0,0.0
2024-07-10T11:13:08.300Z,MISSION_0007,83,0,takeoff,SITE_AMD_008,23.0225159,72.5714392,5.0,148.42,0.966,0.102,4.71,-0.4972,-2.6246,148.4248,0.27209,0.02086,-0.01041,0.96199,-0.0488,-0.0787,-9.8531,0.1171,0.3057,0.1086,0.153,3,17,0.72,0.97,0.27,24.584,19.94,92.1,35.1,20254.0,8945,8754,8941,8988,55.7,54.9,50.1,53.1,2.825,2.763,2.793,2.796,4.16,123.2,26.8,37.3,1013.6,-25.94,0.94,1.4,20.4,36.8,27.6,0,no_anomaly,0.0,0,0,0,0,23.0225159,72.5714392,5.0,0.0
2024-07-10T11:13:08.400Z,MISSION_0007,84,0,takeoff,SITE_AMD_008,23.0225199,72.5714402,5.0,147.63,0.821,0.153,4.99,3.8478,-1.6688,147.632,0.27807,0.02333,0.02818,0.95986,-0.0815,0.0277,-9.803,-0.1942,-0.5995,0.3536,0.2418,3,17,0.71,1.07,0.29,24.59,15.71,92.0,35.1,20242.0,8687,8658,8866,8771,50.2,48.7,54.8,53.1,2.625,2.707,2.841,2.753,3.76,127.5,26.5,36.4,1013.31,-25.86,-0.87,1.41,22.2,34.0,26.6,0,no_anomaly,0.0,0,0,0,0,23.0225199,72.5714402,5.0,0.0
2024-07-10T11:13:08.500Z,MISSION_0007,85,0,takeoff,SITE_AMD_008,23.0225183,72.5714414,5.0,146.99,1.001,0.063,5.04,0.4845,-2.4198,146.9889,0.28396,0.02145,-0.00195,0.9586,0.0129,0.0639,-9.8182,0.6107,-0.3617,-0.4008,0.1273,3,13,0.8,1.01,0.21,24.619,17.43,92.0,35.3,20230.0,8633,8813,8693,8921,49.3,52.9,53.3,51.7,2.737,2.605,2.865,2.962,4.22,113.1,26.7,36.4,1013.13,-33.37,0.04,1.0,22.7,34.3,27.2,0,no_anomaly,0.0,0,0,0,0,23.0225183,72.5714414,5.0,0.0
2024-07-10T11:13:08.600Z,MISSION_0007,86,0,transit,SITE_AMD_008,23.0225195,72.5714414,5.5,147.23,0.836,-0.015,5.09,1.3495,-2.4594,147.2283,0.28178,0.02391,0.00524,0.95917,-0.1023,-0.0218,-9.7852,0.5631,-0.2407,0.4379,0.0826,3,20,0.89,1.17,0.29,24.633,22.89,91.9,35.2,20218.0,9071,8831,8442,8683,49.3,53.7,51.6,51.0,2.736,2.644,2.663,2.773,4.6,122.6,26.9,36.5,1013.06,-30.63,-0.06,1.25,24.0,39.2,30.9,0,no_anomaly,0.0,0,0,0,0,23.0225195,72.5714414,5.5,0.0
2024-07-10T11:13:08.700Z,MISSION_0007,87,0,transit,SITE_AMD_008,23.0225213,72.5714371,6.0,149.77,0.746,0.1,4.76,2.1127,0.1225,149.7743,0.2607,0.00378,0.01808,0.96524,-0.0177,-0.0393,-9.8801,1.1062,-0.5537,0.21,0.1586,3,17,0.77,0.87,0.39,24.629,22.52,91.8,35.2,20206.0,8807,8838,8861,8836,52.9,49.6,50.0,50.2,2.91,2.686,2.645,3.092,4.07,117.0,26.5,36.4,1013.09,-31.66,0.15,1.64,20.1,39.3,30.9,0,no_anomaly,0.0,0,0,0,0,23.0225213,72.5714371,6.0,0.0
2024-07-10T11:13:08.800Z,MISSION_0007,88,0,transit,SITE_AMD_008,23.0225245,72.5714324,6.5,154.0,0.456,0.183,4.53,1.7911,0.0073,154.0047,0.22488,0.00345,0.01524,0.97426,-0.0049,-0.0076,-9.7645,0.1547,0.3135,0.5254,0.2654,3,18,0.81,0.72,0.22,24.557,23.57,91.8,34.9,20194.0,8749,8935,8697,8771,50.5,51.9,54.5,52.9,2.743,2.731,2.713,3.184,3.92,117.6,26.8,36.3,1013.46,-32.62,-1.12,1.43,19.3,38.7,30.6,0,no_anomaly,0.0,0,0,0,0,23.0225245,72.5714324,6.5,0.0
2024-07-10T11:13:08.900Z,MISSION_0007,89,0,transit,SITE_AMD_008,23.0225226,72.5714323,7.0,153.99,0.503,0.066,4.39,-0.0839,-2.5153,153.9901,0.225,0.02122,-0.00565,0.97411,-0.0285,-0.0448,-9.901,0.302,0.1863,-0.1975,0.1791,3,16,0.76,0.83,0.34,24.576,19.47,91.7,35.8,20182.0,8939,8820,8857,8865,49.0,55.6,51.4,48.8,2.728,3.125,2.836,2.844,3.7,122.7,26.6,36.9,1013.35,-28.9,-0.89,1.31,22.8,41.5,31.6,0,no_anomaly,0.0,0,0,0,0,23.0225226,72.5714323,7.0,0.0
2024-07-10T11:13:09.000Z,MISSION_0007,90,0,transit,SITE_AMD_008,23.022522,72.5714353,7.5,154.42,0.47,0.078,4.63,-1.199,-3.7109,154.423,0.22155,0.02926,-0.01737,0.97455,0.0554,-0.0068,-9.8047,0.6721,-0.5875,-0.1208,0.1715,3,17,0.67,0.78,0.34,24.577,19.78,91.7,34.7,20170.0,8793,8608,8982,8574,51.9,53.8,47.9,51.1,2.738,2.659,2.826,2.772,4.23,123.4,26.7,37.3,1013.52,-24.12,0.9,1.39,21.4,32.3,30.1,0,no_anomaly,0.0,0,0,0,0,23.022522,72.5714353,7.5,0.0
2024-07-10T11:13:09.100Z,MISSION_0007,91,0,transit,SITE_AMD_008,23.0225261,72.5714369,8.0,153.52,0.19,0.075,5.03,2.4364,-3.5234,153.5238,0.2282,0.03478,0.01365,0.9729,0.0746,0.0214,-9.77,-0.3463,-0.1342,0.1322,0.1302,3,15,0.67,0.98,0.27,24.674,21.84,91.6,35.8,20158.0,8928,9217,8881,8647,48.9,51.9,51.3,54.7,2.638,2.794,2.632,2.833,4.5,120.2,26.4,37.6,1013.34,-33.26,0.81,1.69,24.2,38.4,26.7,0,no_anomaly,0.0,0,0,0,0,23.0225261,72.5714369,8.0,0.0
2024-07-10T11:13:09.200Z,MISSION_0007,92,0,transit,SITE_AMD_008,23.0225206,72.5714297,8.5,154.23,0.128,0.186,4.03,2.0451,-4.7499,154.2253,0.22209,0.04437,0.00814,0.97398,0.0729,-0.0857,-9.7745,0.9151,-0.187,-0.1953,0.1773,3,15,0.64,0.88,0.2,24.555,20.9,91.6,34.5,20146.0,8883,8782,8935,8878,55.5,54.4,51.3,50.0,2.602,2.673,2.725,3.032,3.5,124.7,26.5,37.3,1013.35,-30.49,0.39,1.4,23.3,35.4,32.9,0,no_anomaly,0.0,0,0,0,0,23.0225206,72.5714297,8.5,0.0
2024-07-10T11:13:09.300Z,MISSION_0007,93,0,transit,SITE_AMD_008,23.0225208,72.5714347,9.0,154.23,0.258,0.166,4.5,-3.4204,-3.9965,154.2267,0.2238,0.02732,-0.03685,0.97355,-0.0021,0.0113,-9.8922,-0.2504,1.2824,-0.0263,0.2029,3,16,0.73,0.9,0.26,24.528,17.66,91.5,35.5,20134.0,8590,8802,9086,8906,51.6,52.1,52.1,54.4,2.82,2.562,2.732,2.83,3.63,122.7,26.8,36.3,1013.1,-24.32,-0.23,1.61,22.6,39.5,29.6,0,no_anomaly,0.0,0,0,0,0,23.0225208,72.5714347,9.0,0.0
2024-07-10T11:13:09.400Z,MISSION_0007,94,0,transit,SITE_AMD_008,23.0225193,72.5714372,9.5,155.81,0.198,0.12,4.67,-5.5146,-4.6601,155.8144,0.21099,0.02964,-0.05551,0.97546,-0.1312,0.1312,-9.761,-1.4239,-0.0229,0.0994,0.0551,3,13,0.88,0.85,0.35,24.599,18.73,91.5,34.2,20122.0,8770,9191,8851,8728,49.8,49.5,49.9,54.7,2.92,2.749,3.006,2.868,2.66,115.9,26.6,36.0,1013.4,-27.67,-1.21,1.53,17.9,39.9,29.5,0,no_anomaly,0.0,0,0,0,0,23.0225193,72.5714372,9.5,0.0
2024-07-10T11:13:09.500Z,MISSION_0007,95,0,transit,SITE_AMD_008,23.0225197,72.5714398,10.0,153.26,0.688,0.143,4.94,4.27,-2.5365,153.263,0.23019,0.03013,0.03112,0.97218,0.1082,0.018,-9.8501,-0.0205,0.2853,0.2166,0.1769,3,15,0.51,0.89,0.2,24.638,21.21,91.4,34.4,20110.0,8947,8851,8853,8681,55.6,52.2,47.2,54.5,2.802,3.146,2.699,2.947,2.63,117.3,26.8,36.5,1013.53,-36.38,-0.6,1.1,19.5,37.3,27.8,0,no_anomaly,0.0,0,0,0,0,23.0225197,72.5714398,10.0,0.0
2024-07-10T11:13:09.600Z,MISSION_0007,96,0,transit,SITE_AMD_008,23.0225246,72.5714363,10.5,151.15,1.099,0.102,4.88,-1.6478,0.3131,151.1497,0.24905,-0.00623,-0.01325,0.96838,-0.0758,-0.0044,-9.8445,0.4095,-0.088,0.4265,0.1602,3,19,0.6,0.77,0.26,24.6,22.68,91.4,35.7,20097.0,8753,8549,8702,8912,51.6,51.7,53.8,51.6,2.835,3.077,2.876,2.702,4.56,123.3,26.4,37.8,1012.87,-34.96,-0.56,1.92,21.2,38.9,29.2,0,no_anomaly,0.0,0,0,0,0,23.0225246,72.5714363,10.5,0.0
2024-07-10T11:13:09.700Z,MISSION_0007,97,0,transit,SITE_AMD_008,23.0225248,72.5714374,11.0,153.06,1.496,0.097,4.99,1.7209,-0.8475,153.0565,0.23283,0.01069,0.01288,0.97237,0.0213,-0.019,-9.7845,0.7444,0.7814,-0.5468,0.2071,3,10,0.77,0.6,0.47,24.529,23.67,91.3,34.1,20085.0,8989,8661,8637,8804,51.1,47.6,51.2,53.7,3.043,2.883,2.833,2.484,3.83,116.7,26.5,36.1,1013.16,-33.59,-0.58,1.41,19.3,36.3,29.6,0,no_anomaly,0.0,0,0,0,0,23.0225248,72.5714374,11.0,0.0
2024-07-10T11:13:09.800Z,MISSION_0007,98,0,transit,SITE_AMD_008,23.0225218,72.571442,11.5,152.61,1.742,0.162,5.26,-1.6825,-0.9672,152.6112,0.23683,0.00472,-0.01626,0.9714,0.0809,0.0114,-9.7141,0.2263,-0.3144,0.0912,0.1837,3,20,0.77,0.82,0.21,24.514,18.19,91.2,35.6,20073.0,8955,8729,8730,8707,56.6,48.0,52.6,50.6,2.614,2.633,2.606,2.79,4.53,110.1,26.5,36.5,1013.07,-34.33,-0.58,1.66,18.1,30.7,25.8,0,no_anomaly,0.0,0,0,0,0,23.0225218,72.571442,11.5,0.0
2024-07-10T11:13:09.900Z,MISSION_0007,99,0,transit,SITE_AMD_008,23.022522,72.5714381,12.0,151.0,1.69,0.114,4.9,-6.0063,-3.6441,151.0045,0.25148,0.01763,-0.05865,0.96592,-0.0009,-0.0084,-9.8521,-1.1762,0.4236,0.1953,0.0702,3,18,0.78,1.01,0.24,24.551,15.89,91.2,34.6,20061.0,8774,8642,8631,8768,50.9,49.8,51.4,52.2,2.775,2.715,2.924,2.678,3.07,115.8,26.7,37.8,1013.04,-28.8,-1.84,1.53,17.3,33.5,29.2,0,no_anomaly,0.0,0,0,0,0,23.022522,72.5714381,12.0,0.0
2024-07-10T11:13:10.000Z,MISSION_0007,100,0,transit,SITE_AMD_008,23.0225238,72.5714427,12.5,152.72,1.474,-0.007,5.44,1.9776,-4.3544,152.7223,0.23496,0.04098,0.0078,0.97111,-0.0041,-0.0443,-9.8223,0.7506,0.6992,0.0188,0.1922,3,11,0.62,1.05,0.34,24.581,20.7,91.1,35.3,20049.0,8644,8846,8693,8872,52.9,50.4,55.7,50.7,2.888,2.828,2.691,2.695,3.3,120.8,26.7,36.9,1013.19,-27.28,0.13,1.46,21.4,34.1,28.8,0,no_anomaly,0.0,0,0,0,0,23.0225238,72.5714427,12.5,0.0
2024-07-10T11:13:10.100Z,MISSION_0007,101,0,transit,SITE_AMD_008,23.0225205,72.5714429,13.0,151.62,1.529,0.076,5.3,3.1443,-2.3695,151.6162,0.24448,0.02676,0.02153,0.96905,-0.0392,0.0404,-9.8051,-0.5312,0.2777,0.1481,0.1149,3,13,0.77,0.66,0.3,24.473,16.48,91.1,34.9,20037.0,8550,8897,8783,8697,52.8,51.6,52.5,50.4,2.764,2.698,2.853,3.038,3.53,124.6,26.5,36.7,1013.14,-31.45,-1.34,1.46,20.3,40.0,26.0,0,no_anomaly,0.0,0,0,0,0,23.0225205,72.5714429,13.0,0.0
2024-07-10T11:13:10.200Z,MISSION_0007,102,0,transit,SITE_AMD_008,23.0225209,72.5714434,13.5,151.78,1.549,0.119,5.36,3.3198,-0.6251,151.7763,0.24356,0.01235,0.02676,0.96944,-0.083,0.0495,-9.797,-0.0808,-0.5219,-0.1872,0.1925,3,13,0.68,0.95,0.24,24.551,13.44,91.0,35.9,20025.0,8843,8794,8811,8755,54.8,50.1,51.9,50.2,3.049,2.585,2.639,2.547,4.03,123.7,26.5,36.8,1013.3,-29.95,0.77,1.28,23.5,40.0,30.2,0,no_anomaly,0.0,0,0,0,0,23.0225209,72.5714434,13.5,0.0
2024-07-10T11:13:10.300Z,MISSION_0007,103,0,transit,SITE_AMD_008,23.0225231,72.5714481,14.0,152.29,1.846,0.091,5.93,-3.0103,-1.4359,152.2899,0.23968,0.00587,-0.0285,0.97041,-0.1079,-0.0761,-9.7898,0.8174,-0.2151,-0.4632,0.2057,3,18,0.61,0.74,0.29,24.566,20.5,91.0,35.1,20013.0,8980,8956,9155,8926,50.8,54.4,51.8,54.3,2.601,2.723,3.148,2.746,4.25,128.4,26.6,37.5,1013.34,-30.54,3.36,1.19,18.8,38.8,29.8,0,no_anomaly,0.0,0,0,0,0,23.0225231,72.5714481,14.0,0.0
2024-07-10T11:13:10.400Z,MISSION_0007,104,0,transit,SITE_AMD_008,23.0225267,72.5714511,14.5,153.68,1.845,0.121,6.42,2.2329,1.0818,153.6829,0.22777,-0.00476,0.02112,0.97347,0.0849,-0.0235,-9.7754,-0.7361,0.3834,0.5802,0.222,3,13,0.78,0.91,0.3,24.635,13.17,90.9,35.0,20001.0,8891,9184,8811,8685,55.9,51.0,49.6,52.9,2.68,3.065,2.802,2.53,4.75,118.6,27.2,37.9,1013.0,-30.08,0.08,1.64,18.1,31.5,27.1,0,no_anomaly,0.0,0,0,0,0,23.0225267,72.5714511,14.5,0.0
2024-07-10T11:13:10.500Z,MISSION_0007,105,0,transit,SITE_AMD_008,23.022531,72.5714516,15.0,153.6,1.45,0.092,6.7,2.3362,-2.4626,153.5994,0.22783,0.02557,0.01494,0.97325,-0.0178,0.0243,-9.8257,-0.8269,-0.4724,-0.1962,0.2329,3,16,0.69,0.96,0.35,24.527,20.81,90.9,35.0,19989.0,8563,8850,8782,8763,51.4,53.2,53.5,51.9,2.577,2.927,2.824,2.88,4.04,116.3,26.4,37.2,1013.14,-26.92,-1.18,1.2,25.0,34.4,31.2,0,no_anomaly,0.0,0,0,0,0,23.022531,72.5714516,15.0,0.0
2024-07-10T11:13:10.600Z,MISSION_0007,106,0,transit,SITE_AMD_008,23.0225261,72.5714533,15.5,154.83,1.84,0.038,6.6,2.692,-2.7786,154.8256,0.21725,0.02877,0.01764,0.97553,0.2154,0.0759,-9.8625,0.5724,-0.7006,0.0453,0.2472,3,12,0.57,0.83,0.2,24.593,18.53,90.8,35.5,19977.0,8888,8836,8992,9094,50.1,53.6,53.4,51.9,2.678,3.001,2.766,2.926,4.12,113.9,26.8,35.3,1012.97,-33.78,0.62,1.32,22.6,33.1,29.9,0,no_anomaly,0.0,0,0,0,0,23.0225261,72.5714533,15.5,0.0
2024-07-10T11:13:10.700Z,MISSION_0007,107,0,transit,SITE_AMD_008,23.0225252,72.571453,16.0,153.07,1.515,0.117,6.53,3.9444,-3.9212,153.067,0.23146,0.04126,0.02549,0.97164,-0.2093,0.0826,-9.7574,-0.766,-0.2124,0.2253,0.17,3,15,0.61,0.89,0.22,24.578,24.37,90.7,35.0,19965.0,8957,8764,8704,8896,51.4,53.1,52.4,54.6,2.85,2.842,2.84,2.774,3.29,119.5,26.6,37.1,1013.03,-26.36,-0.25,1.47,21.7,39.6,28.3,0,no_anomaly,0.0,0,0,0,0,23.0225252,72.571453,16.0,0.0
2024-07-10T11:13:10.800Z,MISSION_0007,108,0,transit,SITE_AMD_008,23.0225228,72.5714488,16.5,155.47,1.503,0.092,6.0,-0.4395,-3.1522,155.4674,0.21248,0.02606,-0.00959,0.97677,0.035,0.0129,-9.8081,0.2433,0.4053,0.4709,0.1396,3,10,0.72,0.71,0.25,24.484,20.75,90.7,34.9,19953.0,8698,8728,8881,8921,55.2,49.9,52.9,50.3,2.922,2.982,2.892,2.588,3.72,122.6,26.8,37.2,1013.09,-27.04,0.82,1.0,17.9,37.3,25.5,0,no_anomaly,0.0,0,0,0,0,23.0225228,72.5714488,16.5,0.0
2024-07-10T11:13:10.900Z,MISSION_0007,109,0,transit,SITE_AMD_008,23.022523,72.5714453,17.0,155.25,1.49,0.119,5.65,-0.4742,-0.1658,155.2466,0.21434,0.00053,-0.00435,0.97675,-0.1223,-0.0301,-9.7561,0.743,0.2323,-0.1711,0.1578,3,11,0.65,0.7,0.23,24.567,18.09,90.6,35.4,19941.0,8819,8847,8589,8674,52.4,51.0,54.7,50.4,3.3,2.916,2.674,2.853,4.54,113.3,26.7,36.7,1012.89,-31.67,0.09,1.15,22.8,34.4,32.4,0,no_anomaly,0.0,0,0,0,0,23.022523,72.5714453,17.0,0.0
2024-07-10T11:13:11.000Z,MISSION_0007,110,0,transit,SITE_AMD_008,23.0225238,72.5714524,17.5,152.75,1.76,0.112,6.41,-0.8237,-2.0824,152.7504,0.23564,0.01597,-0.01127,0.97164,0.0638,0.0142,-9.822,-0.8561,-0.4537,0.1228,0.1613,3,14,0.8,0.99,0.42,24.557,20.59,90.6,35.4,19929.0,8456,9049,8799,8700,50.0,50.9,49.2,50.3,2.752,2.86,3.216,2.74,3.59,124.3,26.6,37.1,1013.55,-29.27,1.24,1.49,24.1,32.5,30.3,0,no_anomaly,0.0,0,0,0,0,23.0225238,72.5714524,17.5,0.0
2024-07-10T11:13:11.100Z,MISSION_0007,111,0,transit,SITE_AMD_008,23.0225305,72.5714484,18.0,150.26,1.341,0.117,6.37,-4.1797,-3.5365,150.2632,0.25739,0.02045,-0.04314,0.96513,0.0479,0.0542,-9.7988,0.0888,-0.5343,-0.4912,0.183,3,11,0.63,0.93,0.29,24.543,21.01,90.5,35.6,19917.0,9048,8849,8759,8891,50.9,49.2,51.9,54.2,2.778,2.983,2.959,2.866,3.28,114.9,26.7,36.6,1013.18,-26.55,0.36,1.79,24.1,33.1,31.7,0,no_anomaly,0.0,0,0,0,0,23.0225305,72.5714484,18.0,0.0
2024-07-10T11:13:11.200Z,MISSION_0007,112,0,transit,SITE_AMD_008,23.0225311,72.5714504,18.0,149.4,1.089,0.03,6.6,-0.0889,-1.9618,149.3988,0.26386,0.01631,-0.00527,0.96441,-0.0396,-0.0547,-9.7558,-0.356,-0.0403,0.1774,0.183,3,15,0.64,0.6,0.33,24.585,18.14,90.5,34.5,19905.0,8908,9105,8800,8838,51.4,54.1,51.1,51.4,2.972,2.738,3.095,2.563,3.32,120.0,26.9,37.6,1013.0,-26.96,0.73,1.44,22.4,40.1,31.4,0,no_anomaly,0.0,0,0,0,0,23.0225311,72.5714504,18.0,0.0
2024-07-10T11:13:11.300Z,MISSION_0007,113,0,transit,SITE_AMD_008,23.0225304,72.5714531,18.0,148.72,1.091,0.123,6.82,-0.6924,-1.811,148.7164,0.26968,0.01359,-0.01008,0.9628,-0.246,-0.0251,-9.7792,-0.0033,-0.5504,-0.501,0.1913,3,15,0.88,0.75,0.5,24.492,22.62,90.4,34.7,19893.0,8672,8860,9120,8889,52.9,54.9,49.9,52.1,2.999,3.137,2.772,2.718,3.27,118.8,26.8,35.4,1012.97,-29.7,0.61,1.61,23.4,33.6,30.8,0,no_anomaly,0.0,0,0,0,0,23.0225304,72.5714531,18.0,0.0
2024-07-10T11:13:11.400Z,MISSION_0007,114,0,transit,SITE_AMD_008,23.0225341,72.5714527,18.0,148.52,0.699,0.13,6.98,-3.3895,-0.8453,148.5163,0.27139,-0.00093,-0.03047,0.96199,-0.1098,-0.0234,-9.9103,-0.1868,-0.8642,-0.4424,0.1817,3,14,0.51,0.64,0.21,24.518,15.14,90.4,34.9,19880.0,8982,8993,8981,8770,52.8,53.1,51.4,49.9,2.655,2.846,2.821,2.692,3.03,113.7,27.0,36.0,1013.25,-28.56,1.28,1.73,26.0,37.4,28.5,0,no_anomaly,0.0,0,0,0,0,23.0225341,72.5714527,18.0,0.0
2024-07-10T11:13:11.500Z,MISSION_0007,115,0,transit,SITE_AMD_008,23.0225414,72.5714528,18.0,149.31,0.551,0.086,7.47,-3.9135,-0.6814,149.3059,0.2647,-0.00331,-0.0345,0.96371,0.1024,-0.003,-9.8167,-0.1841,-0.1342,-0.1561,0.1947,3,11,0.69,0.93,0.39,24.558,15.45,90.3,35.0,19868.0,8912,9036,9109,8997,47.5,52.4,53.6,52.5,2.759,2.893,3.016,2.569,4.19,121.8,26.7,37.0,1013.48,-32.91,1.16,1.54,19.0,37.5,30.8,0,no_anomaly,0.0,0,0,0,0,23.0225414,72.5714528,18.0,0.0
2024-07-10T11:13:11.600Z,MISSION_0007,116,0,transit,SITE_AMD_008,23.0225455,72.5714508,18.0,151.1,0.838,0.119,7.59,0.2371,-1.4607,151.1038,0.24946,0.01286,-0.00118,0.9683,0.2217,-0.003,-9.8807,0.2642,-0.1362,-0.1521,0.1945,3,16,0.65,0.85,0.2,24.516,18.01,90.3,35.1,19856.0,8834,8888,8815,8316,52.6,48.7,50.3,51.4,2.89,2.938,2.741,2.99,2.94,115.6,26.7,36.2,1012.88,-25.74,-0.07,1.35,23.7,38.4,31.2,0,no_anomaly,0.0,0,0,0,0,23.0225455,72.5714508,18.0,0.0
2024-07-10T11:13:11.700Z,MISSION_0007,117,0,transit,SITE_AMD_008,23.0225485,72.5714498,18.0,150.38,0.935,0.114,7.74,3.5572,-0.1359,150.3845,0.25542,0.00908,0.0297,0.96633,0.1829,0.0123,-9.8675,0.0458,0.184,-0.0105,0.0721,3,15,0.68,0.94,0.23,24.561,16.52,90.2,35.7,19844.0,8816,8797,8951,8799,56.1,49.1,51.4,53.6,3.053,2.982,3.106,2.806,3.94,113.3,26.8,36.5,1013.16,-29.36,-2.09,1.55,25.1,38.1,33.2,0,no_anomaly,0.0,0,0,0,0,23.0225485,72.5714498,18.0,0.0
2024-07-10T11:13:11.800Z,MISSION_0007,118,0,transit,SITE_AMD_008,23.0225505,72.571459,18.0,152.07,0.96,0.13,8.64,-1.2946,-2.962,152.0697,0.24152,0.02235,-0.0172,0.96999,-0.0107,0.0218,-9.7554,0.3668,-0.145,-0.0903,0.1709,3,16,0.76,0.84,0.3,24.561,20.64,90.1,34.7,19832.0,9080,8907,8731,8797,49.7,55.3,53.3,50.3,2.862,2.818,2.251,2.832,4.22,118.6,26.5,36.7,1013.38,-36.27,0.52,1.57,24.5,40.9,29.5,0,no_anomaly,0.0,0,0,0,0,23.0225505,72.571459,18.0,0.0
2024-07-10T11:13:11.900Z,MISSION_0007,119,0,transit,SITE_AMD_008,23.0225494,72.5714617,18.0,152.03,0.631,0.056,8.8,-4.1917,-4.2129,152.0261,0.24268,0.02681,-0.04434,0.96872,-0.1645,-0.0551,-9.7581,-0.3574,0.7413,0.3488,0.1301,3,14,0.72,0.68,0.44,24.549,24.38,90.1,34.7,19820.0,8798,8854,8864,8731,51.0,53.3,53.9,53.9,2.719,2.751,2.852,2.761,4.65,117.4,27.0,37.1,1013.39,-27.46,0.85,1.35,24.4,37.7,32.0,0,no_anomaly,0.0,0,0,0,0,23.0225494,72.5714617,18.0,0.0
2024-07-10T11:13:12.000Z,MISSION_0007,120,0,transit,SITE_AMD_008,23.0225492,72.5714661,18.0,150.66,1.032,0.032,9.17,2.4063,-3.1441,150.6596,0.25255,0.03185,0.01336,0.96697,0.1302,0.0264,-9.787,-0.6524,-0.0244,0.3701,0.1356,3,19,0.98,0.88,0.35,24.586,12.27,90.0,34.8,19808.0,8953,8651,8946,8845,48.4,49.8,53.4,52.3,3.031,2.97,2.863,2.848,3.46,110.4,26.4,37.6,1013.34,-30.65,0.15,1.16,22.6,34.6,32.9,0,no_anomaly,0.0,0,0,0,0,23.0225492,72.5714661,18.0,0.0
2024-07-10T11:13:12.100Z,MISSION_0007,121,0,transit,SITE_AMD_008,23.0225477,72.5714634,18.0,153.24,1.099,0.133,8.83,-2.1213,-2.8209,153.2448,0.2317,0.01966,-0.0237,0.9723,0.1765,-0.0338,-9.8411,-0.5093,-0.1768,-0.3616,0.1507,3,19,0.73,0.86,0.33,24.537,20.29,90.0,34.9,19796.0,8548,8889,8780,9014,51.7,53.4,50.6,53.7,2.806,2.704,2.469,2.797,3.33,114.3,26.6,37.3,1013.22,-28.15,-1.95,2.07,24.7,34.8,30.4,0,no_anomaly,0.0,0,0,0,0,23.0225477,72.5714634,18.0,0.0
2024-07-10T11:13:12.200Z,MISSION_0007,122,0,transit,SITE_AMD_008,23.0225481,72.5714689,18.0,153.45,1.671,0.016,9.36,-1.9346,-2.0564,153.4531,0.22982,0.01359,-0.02055,0.97292,-0.0733,-0.0674,-9.7937,0.6175,0.0704,-0.2246,0.2162,3,20,0.6,0.99,0.2,24.574,16.41,89.9,34.6,19784.0,8825,8689,8859,8928,51.3,50.8,54.1,55.9,2.771,2.593,3.022,2.572,4.08,120.0,26.6,37.4,1013.6,-33.54,-0.55,1.92,21.8,35.5,28.0,0,no_anomaly,0.0,0,0,0,0,23.0225481,72.5714689,18.0,0.0
2024-07-10T11:13:12.300Z,MISSION_0007,123,0,transit,SITE_AMD_008,23.0225499,72.5714672,18.0,150.17,1.899,0.201,9.32,1.0342,-1.7122,150.1673,0.25724,0.01676,0.00487,0.96619,-0.116,0.0859,-9.8012,-0.0422,-0.9499,-0.049,0.0929,3,11,0.79,1.06,0.3,24.603,19.51,89.9,34.9,19772.0,8793,8920,8833,8971,51.3,50.1,53.8,52.2,2.754,2.84,2.735,2.732,3.84,110.2,26.6,37.9,1013.12,-31.4,0.42,1.19,24.6,41.5,31.3,0,no_anomaly,0.0,0,0,0,0,23.0225499,72.5714672,18.0,0.0
2024-07-10T11:13:12.400Z,MISSION_0007,124,0,transit,SITE_AMD_008,23.0225508,72.5714713,18.0,149.13,2.217,0.092,9.74,-2.0397,0.4831,149.1338,0.266,-0.0088,-0.01604,0.9638,-0.2155,-0.0963,-9.8221,0.5052,0.1103,0.5787,0.1229,3,16,0.63,0.83,0.31,24.449,16.05,89.8,35.7,19760.0,8870,8959,8985,8888,53.7,53.7,54.2,51.1,2.769,2.792,2.662,3.069,4.12,124.0,26.8,38.0,1013.24,-25.26,-0.81,1.47,17.6,34.3,28.5,0,no_anomaly,0.0,0,0,0,0,23.0225508,72.5714713,18.0,0.0
2024-07-10T11:13:12.500Z,MISSION_0007,125,0,transit,SITE_AMD_008,23.022551,72.5714673,18.0,148.71,2.042,0.05,9.4,2.8609,-0.6704,148.708,0.26946,0.01236,0.02246,0.96267,-0.0526,-0.0237,-9.8021,0.9166,0.2886,-0.0937,0.2311,3,10,0.59,0.75,0.26,24.66,20.1,89.8,35.5,19748.0,8797,8830,8967,8735,50.7,53.7,53.5,55.3,2.761,2.731,2.596,3.155,2.81,122.1,26.8,36.9,1013.41,-32.12,0.6,1.28,23.4,38.3,29.9,0,no_anomaly,0.0,0,0,0,0,23.022551,72.5714673,18.0,0.0
2024-07-10T11:13:12.600Z,MISSION_0007,126,0,transit,SITE_AMD_008,23.0225509,72.5714696,18.0,149.57,2.114,0.116,9.6,2.3968,-3.1223,149.5735,0.26171,0.03177,0.01303,0.96454,0.0477,0.0356,-9.6985,-0.3255,0.126,0.23,0.1691,3,18,0.72,0.91,0.33,24.455,17.04,89.7,35.4,19736.0,8798,9166,9020,8903,53.3,50.6,50.1,52.7,2.691,2.786,2.744,2.706,3.01,112.6,26.6,37.1,1013.06,-32.03,-0.86,1.4,20.1,32.5,27.2,0,no_anomaly,0.0,0,0,0,0,23.0225509,72.5714696,18.0,0.0
2024-07-10T11:13:12.700Z,MISSION_0007,127,0,transit,SITE_AMD_008,23.0225495,72.5714681,18.0,147.73,2.069,0.04,9.37,-0.9201,-2.8888,147.7262,0.27803,0.02198,-0.01472,0.96021,0.2584,0.0383,-9.8217,-0.5263,-0.8876,0.5807,0.1247,3,11,0.63,1.11,0.29,24.53,17.29,89.7,35.2,19724.0,8401,8872,8975,8973,47.5,51.5,51.1,52.4,2.763,2.777,2.701,3.095,4.29,111.1,26.9,37.0,1013.06,-26.51,-0.17,1.56,22.5,33.4,31.1,0,no_anomaly,0.0,0,0,0,0,23.0225495,72.5714681,18.0,0.0
2024-07-10T11:13:12.800Z,MISSION_0007,128,0,transit,SITE_AMD_008,23.0225532,72.5714658,18.0,148.32,2.12,0.107,9.42,-4.354,-3.7822,148.32,0.27381,0.02136,-0.04553,0.96047,-0.0191,0.0449,-9.845,0.0038,0.0392,0.089,0.1474,3,12,0.53,0.62,0.2,24.601,17.92,89.6,35.0,19712.0,8806,8982,8906,9243,52.0,52.1,51.7,53.5,3.02,3.029,3.082,2.74,3.88,114.6,26.9,36.2,1012.98,-32.14,-0.1,1.06,23.7,32.5,30.7,0,no_anomaly,0.0,0,0,0,0,23.0225532,72.5714658,18.0,0.0
2024-07-10T11:13:12.900Z,MISSION_0007,129,0,transit,SITE_AMD_008,23.022552,72.5714617,18.0,146.37,2.542,0.127,8.98,0.2572,0.3454,146.3722,0.28927,-0.00224,0.00302,0.95724,0.0678,-0.0073,-9.7597,0.9542,0.1355,0.5256,0.1588,3,15,0.52,0.88,0.24,24.527,15.65,89.5,34.7,19700.0,8885,8967,8759,9050,52.6,49.8,49.8,51.4,2.559,2.738,3.096,2.556,3.76,115.6,26.5,36.4,1012.85,-32.38,0.4,1.43,19.9,36.5,30.7,0,no_anomaly,0.0,0,0,0,0,23.022552,72.5714617,18.0,0.0
