timestamp_utc,mission_id,frame_id,waypoint_id,inspection_phase,site_id,latitude_deg,longitude_deg,altitude_m,heading_deg,ground_speed_ms,vertical_speed_ms,distance_to_tower_m,roll_deg,pitch_deg,yaw_deg,quat_w,quat_x,quat_y,quat_z,accel_x_ms2,accel_y_ms2,accel_z_ms2,gyro_x_rads,gyro_y_rads,gyro_z_rads,vibration_level,gps_fix_type,gps_satellite_count,gps_hdop,gps_vdop,position_error_m,battery_voltage_v,battery_current_a,battery_remaining_pct,battery_temp_c,battery_capacity_mah,motor_fl_rpm,motor_fr_rpm,motor_rl_rpm,motor_rr_rpm,motor_fl_temp_c,motor_fr_temp_c,motor_rl_temp_c,motor_rr_temp_c,motor_fl_thrust_n,motor_fr_thrust_n,motor_rl_thrust_n,motor_rr_thrust_n,wind_speed_ms,wind_dir_deg,air_temp_c,humidity_pct,pressure_hpa,gimbal_pitch_deg,gimbal_roll_deg,zoom_factor,ir_temp_min_c,ir_temp_max_c,ir_temp_avg_c,anomaly_detected,anomaly_class,anomaly_confidence,anomaly_bbox_x,anomaly_bbox_y,anomaly_bbox_w,anomaly_bbox_h,anomaly_gps_lat,anomaly_gps_lon,anomaly_gps_alt_m,ir_temp_delta_c
2024-04-04T17:19:00.000Z,MISSION_0065,0,0,takeoff,SITE_KOL_006,22.5726069,88.3639027,1.5,138.77,0.0,0.131,0.82,-1.1983,-0.6697,138.7734,0.35209,0.00179,-0.01185,0.93589,0.1281,-0.0183,-9.7986,-0.0785,0.4087,-0.9469,0.1309,3,16,0.67,0.87,0.26,24.806,18.44,98.9,47.5,21750.0,7730,7676,7454,7415,68.0,63.7,66.3,64.4,2.817,2.672,2.688,2.696,0.62,187.1,39.7,76.0,1015.11,-26.55,-0.29,1.2,32.7,47.9,41.1,0,no_anomaly,0.0,0,0,0,0,22.5726069,88.3639027,1.5,0.0
2024-04-04T17:19:00.100Z,MISSION_0065,1,0,takeoff,SITE_KOL_006,22.5726052,88.3639073,3.0,140.31,0.0,0.171,1.0,-0.4248,-2.1187,140.3054,0.33952,0.01613,-0.00976,0.94041,-0.1179,-0.0905,-9.8444,-0.441,0.3438,-0.2481,0.1357,3,13,0.55,0.6,0.2,24.745,18.0,98.8,47.7,21731.0,7561,7473,7358,7362,66.7,66.0,66.5,65.5,2.747,2.835,2.743,2.728,1.72,186.2,39.9,76.8,1014.94,-31.44,-0.04,1.32,34.5,48.8,44.1,0,no_anomaly,0.0,0,0,0,0,22.5726052,88.3639073,3.0,0.0
2024-04-04T17:19:00.200Z,MISSION_0065,2,0,takeoff,SITE_KOL_006,22.5726048,88.3639092,4.5,140.84,0.052,0.125,1.15,-1.0073,-3.1974,140.8419,0.33519,0.02334,-0.01763,0.94169,0.0561,-0.0399,-9.7903,0.6543,-0.32,0.2333,0.1385,3,16,0.64,0.9,0.2,24.804,19.76,98.7,47.6,21713.0,7518,7275,7543,7409,60.4,65.2,64.4,65.6,2.743,2.803,2.726,2.79,1.37,183.8,40.3,76.6,1014.76,-35.0,-1.72,1.43,31.9,53.0,41.1,0,no_anomaly,0.0,0,0,0,0,22.5726048,88.3639092,4.5,0.0
2024-04-04T17:19:00.300Z,MISSION_0065,3,0,takeoff,SITE_KOL_006,22.5726016,88.3639092,5.0,139.78,0.004,0.164,1.04,1.5763,-1.8208,139.7769,0.34357,0.01965,0.00745,0.93889,-0.0647,0.0598,-9.8515,0.0874,-0.0977,-0.4467,0.0687,3,14,0.63,0.88,0.23,24.757,16.65,98.6,47.4,21695.0,7316,7378,7403,7358,66.1,63.9,65.0,66.4,2.753,3.057,2.793,2.83,1.92,185.0,39.8,76.5,1014.31,-33.8,-1.7,1.38,36.7,51.0,41.6,0,no_anomaly,0.0,0,0,0,0,22.5726016,88.3639092,5.0,0.0
2024-04-04T17:19:00.400Z,MISSION_0065,4,0,takeoff,SITE_KOL_006,22.5726007,88.3639127,5.0,139.14,0.222,0.086,1.41,-0.5021,-2.3896,139.139,0.34908,0.01801,-0.01138,0.93685,0.0389,-0.0527,-9.7047,0.3805,0.2527,0.0149,0.23,3,14,0.72,1.1,0.29,24.79,17.11,98.5,47.9,21676.0,7425,7682,7566,7579,64.1,64.8,64.7,63.9,2.833,2.923,2.74,2.641,1.63,177.1,40.0,76.3,1014.86,-25.79,1.75,1.69,34.1,53.3,44.2,0,no_anomaly,0.0,0,0,0,0,22.5726007,88.3639127,5.0,0.0
2024-04-04T17:19:00.500Z,MISSION_0065,5,0,takeoff,SITE_KOL_006,22.5725997,88.36391,5.0,140.11,0.343,0.167,1.11,0.6989,-1.9824,140.1053,0.341,0.01834,-0.00017,0.93988,-0.1296,-0.0098,-9.8393,-0.2724,0.051,0.2092,0.1253,3,15,0.65,1.02,0.2,24.779,18.73,98.4,47.5,21658.0,7672,7405,7544,7576,63.0,65.2,66.6,62.5,2.898,2.894,2.886,2.91,1.73,182.9,39.8,77.0,1014.35,-26.19,0.01,1.71,34.7,53.5,44.8,0,no_anomaly,0.0,0,0,0,0,22.5725997,88.36391,5.0,0.0
2024-04-04T17:19:00.600Z,MISSION_0065,6,0,takeoff,SITE_KOL_006,22.572598,88.3639087,5.0,141.38,0.447,0.169,0.99,0.5819,-1.1492,141.3818,0.3306,0.01114,0.00148,0.94371,-0.0594,0.0127,-9.8037,0.1408,-0.3287,0.0148,0.132,3,10,0.68,1.04,0.2,24.753,16.03,98.4,48.6,21640.0,7556,7655,7523,7557,66.1,64.2,65.4,63.1,3.107,2.889,2.889,2.73,1.34,182.5,40.0,77.2,1014.76,-35.18,0.51,1.42,35.0,53.4,44.8,0,no_anomaly,0.0,0,0,0,0,22.572598,88.3639087,5.0,0.0
2024-04-04T17:19:00.700Z,MISSION_0065,7,0,takeoff,SITE_KOL_006,22.5725976,88.3639128,5.0,144.15,0.326,0.091,1.45,1.6071,-1.6123,144.1514,0.30751,0.0177,0.00901,0.95134,-0.0475,-0.1196,-9.811,1.2469,-0.1985,0.3578,0.1751,3,11,0.59,0.88,0.25,24.781,23.58,98.3,47.5,21621.0,7520,7687,7556,7310,66.3,63.6,66.8,63.1,2.989,2.389,2.82,2.847,2.03,183.9,40.1,76.8,1014.62,-33.87,-1.02,1.69,32.9,46.9,42.3,0,no_anomaly,0.0,0,0,0,0,22.5725976,88.3639128,5.0,0.0
2024-04-04T17:19:00.800Z,MISSION_0065,8,0,takeoff,SITE_KOL_006,22.572599,88.3639177,5.0,143.88,0.527,0.117,1.98,-1.6273,-3.8909,143.8848,0.31022,0.02787,-0.02402,0.94995,0.0673,0.037,-9.7776,0.4932,-0.6128,-0.2111,0.0044,3,14,0.82,0.94,0.33,24.75,23.66,98.2,48.1,21603.0,7279,7595,7462,7419,67.0,67.4,69.9,65.5,2.594,2.852,2.743,2.692,1.2,183.4,39.9,77.0,1014.63,-30.29,0.61,1.53,34.1,51.0,42.5,0,no_anomaly,0.0,0,0,0,0,22.572599,88.3639177,5.0,0.0
2024-04-04T17:19:00.900Z,MISSION_0065,9,0,takeoff,SITE_KOL_006,22.5726007,88.3639169,5.0,144.29,0.63,-0.028,1.88,2.4588,-0.7491,144.2915,0.30639,0.0128,0.01842,0.95164,0.0174,0.0252,-9.7716,-0.3486,-0.5586,-0.2174,0.1507,3,16,0.63,0.78,0.21,24.743,13.42,98.1,49.1,21585.0,7382,7405,7499,7415,64.6,66.0,61.1,64.1,2.553,2.999,2.833,2.658,1.31,184.5,39.8,77.3,1014.76,-31.45,0.18,1.49,30.8,49.0,40.8,0,no_anomaly,0.0,0,0,0,0,22.5726007,88.3639169,5.0,0.0
2024-04-04T17:19:01.000Z,MISSION_0065,10,0,takeoff,SITE_KOL_006,22.5726012,88.3639128,5.0,145.12,0.4,0.182,1.44,-0.8313,-2.0837,145.1212,0.29977,0.01517,-0.01237,0.95381,-0.0373,0.0625,-9.7376,-0.1297,0.573,-0.0482,0.157,3,17,0.67,0.93,0.3,24.746,16.02,98.0,47.5,21566.0,7497,7699,7373,7571,63.2,68.6,64.5,60.1,2.568,2.472,2.998,2.93,1.46,190.0,40.1,77.1,1014.33,-28.16,-1.81,1.41,36.6,54.1,41.9,0,no_anomaly,0.0,0,0,0,0,22.5726012,88.3639128,5.0,0.0
2024-04-04T17:19:01.100Z,MISSION_0065,11,0,takeoff,SITE_KOL_006,22.5726056,88.3639086,5.0,143.36,0.0,0.009,1.15,3.7161,-1.4927,143.3611,0.31372,0.02255,0.02669,0.94887,-0.0346,-0.0114,-9.8384,-0.0173,0.2039,-0.0831,0.1,3,14,0.54,0.74,0.21,24.763,16.02,97.9,47.8,21548.0,7615,7234,7354,7420,65.6,61.1,63.4,64.9,3.022,2.61,2.841,2.741,1.8,188.5,39.7,77.2,1014.78,-29.83,-0.88,1.52,33.8,52.8,41.8,0,no_anomaly,0.0,0,0,0,0,22.5726056,88.3639086,5.0,0.0
2024-04-04T17:19:01.200Z,MISSION_0065,12,0,takeoff,SITE_KOL_006,22.5726039,88.3639106,5.0,142.91,0.269,0.027,1.25,-3.5793,-2.2053,142.9108,0.3184,0.0083,-0.03572,0.94725,-0.0822,0.0035,-9.8194,-0.6774,-0.5897,0.0687,0.1658,3,13,0.7,0.92,0.22,24.67,14.3,97.9,48.1,21530.0,7564,7560,7303,7945,64.9,65.0,61.9,63.2,2.861,2.728,2.884,3.105,0.47,189.4,39.9,76.6,1014.81,-35.05,0.83,1.8,33.2,45.5,43.2,0,no_anomaly,0.0,0,0,0,0,22.5726039,88.3639106,5.0,0.0
2024-04-04T17:19:01.300Z,MISSION_0065,13,0,takeoff,SITE_KOL_006,22.5726046,88.3639089,5.0,140.18,0.169,0.068,1.12,-3.3551,-3.6563,140.1835,0.34107,0.02002,-0.03837,0.93904,-0.1632,0.0449,-9.8653,-0.4508,0.0121,-0.3936,0.1504,3,15,0.83,0.86,0.28,24.707,17.96,97.8,47.0,21511.0,7691,7220,7486,7585,63.1,63.8,65.2,66.0,2.883,2.852,2.633,2.872,0.64,189.1,40.0,76.8,1014.74,-31.24,1.36,1.65,33.6,49.7,41.2,0,no_anomaly,0.0,0,0,0,0,22.5726046,88.3639089,5.0,0.0
2024-04-04T17:19:01.400Z,MISSION_0065,14,0,takeoff,SITE_KOL_006,22.5726033,88.3639054,5.0,140.08,0.444,0.026,0.7,-0.1698,-2.3273,140.0797,0.34132,0.01858,-0.00833,0.93973,-0.024,0.0813,-9.7718,0.8701,0.3186,-0.271,0.1334,3,14,0.89,1.06,0.44,24.722,20.76,97.7,47.8,21493.0,7613,7502,7426,7443,66.5,64.6,64.2,63.9,2.961,2.746,2.853,2.822,2.08,194.1,40.1,76.6,1014.53,-30.45,-0.61,1.27,34.1,47.8,44.3,0,no_anomaly,0.0,0,0,0,0,22.5726033,88.3639054,5.0,0.0
2024-04-04T17:19:01.500Z,MISSION_0065,15,0,takeoff,SITE_KOL_006,22.5726048,88.3638998,5.0,137.44,0.85,0.047,0.53,-0.6814,-0.5466,137.4395,0.36295,0.00229,-0.00727,0.93178,-0.1243,0.0858,-9.8807,-0.101,-0.1053,0.1578,0.1249,3,14,0.92,1.06,0.2,24.818,18.09,97.6,47.0,21474.0,7745,7389,7266,7208,63.5,64.7,63.8,64.2,2.998,2.718,2.887,2.824,2.58,192.1,40.1,76.5,1014.75,-30.53,1.42,1.98,35.2,50.5,40.7,0,no_anomaly,0.0,0,0,0,0,22.5726048,88.3638998,5.0,0.0
2024-04-04T17:19:01.600Z,MISSION_0065,16,0,takeoff,SITE_KOL_006,22.572603,88.3638977,5.0,138.29,0.336,0.043,0.42,-1.1796,0.409,138.2874,0.35597,-0.007,-0.00835,0.93443,-0.031,-0.0692,-9.7418,-0.5581,0.4294,0.4683,0.1088,3,15,0.9,0.93,0.45,24.697,13.4,97.5,48.4,21456.0,7624,7583,7401,7525,64.5,63.1,68.4,67.2,2.708,2.917,3.013,2.875,0.93,186.5,39.7,77.3,1014.97,-30.46,-0.41,1.45,36.9,51.7,43.2,0,no_anomaly,0.0,0,0,0,0,22.572603,88.3638977,5.0,0.0
2024-04-04T17:19:01.700Z,MISSION_0065,17,0,takeoff,SITE_KOL_006,22.5726029,88.3638961,5.0,137.38,0.351,0.195,0.54,1.5081,-1.6759,137.375,0.3632,0.01841,0.00694,0.9315,0.0631,-0.0214,-9.7757,-0.1489,0.0084,0.6208,0.1255,3,16,0.59,0.99,0.24,24.676,18.21,97.4,47.7,21438.0,7641,7589,7629,7675,67.2,70.1,62.3,63.2,2.748,2.474,2.998,2.839,1.24,187.5,39.9,77.4,1014.92,-29.29,-0.51,1.38,36.2,51.7,43.0,0,no_anomaly,0.0,0,0,0,0,22.5726029,88.3638961,5.0,0.0
2024-04-04T17:19:01.800Z,MISSION_0065,18,0,takeoff,SITE_KOL_006,22.5726034,88.3638962,5.0,137.55,0.468,0.125,0.57,-0.3679,-3.5509,137.5485,0.36196,0.02772,-0.01421,0.93167,0.0103,0.0603,-9.8306,-0.0121,0.2677,0.4221,0.1381,3,15,0.68,0.89,0.25,24.735,12.37,97.4,46.9,21419.0,7775,7601,7632,7611,61.1,64.5,65.3,62.7,2.852,2.734,3.033,2.903,1.57,188.4,39.8,76.3,1014.68,-28.81,0.82,1.55,35.0,52.7,42.6,0,no_anomaly,0.0,0,0,0,0,22.5726034,88.3638962,5.0,0.0
2024-04-04T17:19:01.900Z,MISSION_0065,19,0,takeoff,SITE_KOL_006,22.5726047,88.3638981,5.0,138.17,0.736,0.004,0.57,0.6742,-3.1169,138.1655,0.35673,0.0275,-0.00422,0.93379,-0.0256,-0.0297,-9.758,-0.8409,0.0818,-0.1937,0.1916,3,10,0.72,0.71,0.32,24.782,15.53,97.3,48.0,21401.0,7748,7565,7434,7626,66.2,64.9,65.8,64.9,3.06,2.776,3.025,2.704,1.78,185.5,40.3,76.6,1015.22,-33.83,-1.88,1.4,34.8,46.4,39.8,0,no_anomaly,0.0,0,0,0,0,22.5726047,88.3638981,5.0,0.0
2024-04-04T17:19:02.000Z,MISSION_0065,20,0,takeoff,SITE_KOL_006,22.5726059,88.3638964,5.0,138.88,0.671,0.156,0.76,1.7066,-2.0277,138.8769,0.35087,0.02179,0.00773,0.93614,0.0305,0.0242,-9.7842,1.0113,0.6226,0.0658,0.1776,3,14,0.59,1.08,0.23,24.813,18.05,97.2,48.0,21383.0,7321,7520,7464,7625,63.2,60.9,62.5,66.4,2.557,2.713,2.899,2.769,1.32,179.7,39.7,76.9,1014.3,-31.34,0.5,1.0,38.3,52.5,45.4,0,no_anomaly,0.0,0,0,0,0,22.5726059,88.3638964,5.0,0.0
2024-04-04T17:19:02.100Z,MISSION_0065,21,0,takeoff,SITE_KOL_006,22.5726045,88.3638943,5.0,139.96,0.829,0.063,0.81,0.8137,-4.314,139.9576,0.34187,0.03779,-0.00622,0.93897,-0.0333,-0.0062,-9.8178,-0.3295,0.0689,0.1868,0.1092,3,16,0.79,0.99,0.33,24.722,14.63,97.1,48.7,21364.0,7417,7777,7828,7529,64.2,63.4,66.3,66.2,2.743,2.728,2.824,2.476,1.61,185.5,40.1,77.6,1014.42,-32.29,1.49,1.55,36.5,50.0,44.0,0,no_anomaly,0.0,0,0,0,0,22.5726045,88.3638943,5.0,0.0
2024-04-04T17:19:02.200Z,MISSION_0065,22,0,takeoff,SITE_KOL_006,22.5725975,88.363897,5.0,138.87,1.256,0.14,0.43,0.6827,-2.3907,138.8717,0.35106,0.02162,-0.00175,0.9361,-0.0617,0.0434,-9.7988,-0.6232,-0.4402,0.5259,0.1137,3,16,0.8,0.88,0.37,24.737,20.55,97.0,48.0,21346.0,7477,7638,7535,7853,67.1,66.5,66.2,63.9,2.662,2.768,2.875,2.641,1.51,186.1,40.0,77.7,1014.74,-27.76,-0.37,2.0,34.8,50.9,41.7,0,no_anomaly,0.0,0,0,0,0,22.5725975,88.363897,5.0,0.0
2024-04-04T17:19:02.300Z,MISSION_0065,23,0,takeoff,SITE_KOL_006,22.5725993,88.3638974,5.0,137.16,1.06,0.115,0.3,-0.7243,-1.8872,137.1631,0.36522,0.01302,-0.0119,0.93076,0.0471,-0.0668,-9.8262,0.2098,0.0366,0.0512,0.144,3,13,0.73,1.09,0.45,24.878,18.98,96.9,47.9,21328.0,7471,7330,7280,7626,66.1,61.5,66.5,60.8,2.732,2.774,2.868,2.995,0.7,188.2,40.0,76.6,1015.14,-33.37,-0.16,1.6,33.6,50.7,43.2,0,no_anomaly,0.0,0,0,0,0,22.5725993,88.3638974,5.0,0.0
2024-04-04T17:19:02.400Z,MISSION_0065,24,0,takeoff,SITE_KOL_006,22.5725948,88.3638991,5.0,139.72,1.389,0.092,0.59,-0.1022,-0.4649,139.7233,0.34429,0.0035,-0.00223,0.93885,-0.0831,0.1351,-9.8363,0.4899,0.8282,-0.225,0.1917,3,11,0.56,0.9,0.3,24.707,19.78,96.9,47.9,21309.0,7378,7351,7618,7444,64.8,62.1,68.2,68.7,2.627,2.95,2.785,2.802,1.65,184.0,40.0,77.2,1014.91,-26.46,-0.78,1.34,34.0,49.8,44.3,0,no_anomaly,0.0,0,0,0,0,22.5725948,88.3638991,5.0,0.0
2024-04-04T17:19:02.500Z,MISSION_0065,25,0,takeoff,SITE_KOL_006,22.5725999,88.3638977,5.0,140.34,0.83,0.006,0.25,0.145,-3.4713,140.3407,0.33903,0.02892,-0.00908,0.94029,0.04,-0.0294,-9.8444,-0.3713,-0.0397,-0.2415,0.1135,3,16,0.65,0.73,0.24,24.711,19.59,96.8,47.6,21291.0,7188,7413,7512,7559,60.4,68.8,65.5,64.3,2.646,2.777,2.777,2.636,1.67,192.3,39.9,76.8,1014.76,-27.5,-0.1,1.72,31.9,47.8,42.5,0,no_anomaly,0.0,0,0,0,0,22.5725999,88.3638977,5.0,0.0
2024-04-04T17:19:02.600Z,MISSION_0065,26,0,takeoff,SITE_KOL_006,22.5726014,88.3638987,5.0,142.78,0.754,0.091,0.21,1.6442,-0.3676,142.7826,0.31902,0.00762,0.01257,0.94763,-0.1059,-0.0744,-9.7888,-0.0461,0.077,0.2013,0.0683,3,12,0.84,0.97,0.2,24.717,13.89,96.7,48.1,21273.0,7353,7708,7439,7687,64.5,64.4,66.8,69.0,2.84,2.853,2.923,2.657,1.58,188.7,39.9,77.0,1014.3,-29.27,1.02,1.16,37.0,46.3,45.1,0,no_anomaly,0.0,0,0,0,0,22.5726014,88.3638987,5.0,0.0
2024-04-04T17:19:02.700Z,MISSION_0065,27,0,takeoff,SITE_KOL_006,22.5726031,88.3638992,5.0,144.06,1.224,0.062,0.36,0.8408,-0.7418,144.0565,0.30849,0.00842,0.00498,0.95118,0.0599,-0.0065,-9.7715,-0.3398,0.492,0.3023,0.0973,3,16,0.61,0.63,0.2,24.739,23.08,96.6,47.9,21254.0,7484,7714,7477,7471,60.8,62.1,66.5,66.1,2.679,3.045,2.621,2.96,1.78,178.6,39.8,76.1,1014.99,-26.75,0.24,1.13,38.1,55.2,42.7,0,no_anomaly,0.0,0,0,0,0,22.5726031,88.3638992,5.0,0.0
2024-04-04T17:19:02.800Z,MISSION_0065,28,0,takeoff,SITE_KOL_006,22.5726027,88.3638967,5.0,145.01,1.534,0.084,0.47,-1.5655,-1.8784,145.0134,0.30074,0.01153,-0.01795,0.95347,-0.0393,0.0452,-9.8502,-0.476,-0.2194,0.0541,0.1212,3,11,0.54,1.03,0.25,24.718,18.6,96.5,48.7,21236.0,7625,7671,7567,7620,70.3,67.4,65.7,61.4,2.816,2.595,3.127,2.923,0.97,190.0,40.0,76.4,1015.01,-29.17,-1.14,1.26,34.4,45.4,43.1,0,no_anomaly,0.0,0,0,0,0,22.5726027,88.3638967,5.0,0.0
2024-04-04T17:19:02.900Z,MISSION_0065,29,0,takeoff,SITE_KOL_006,22.572602,88.3639015,5.0,145.25,1.158,0.111,0.28,1.6124,-3.7944,145.2529,0.29796,0.03579,0.00354,0.9539,0.027,0.0754,-9.7866,-0.8227,0.404,-0.2955,0.0759,3,10,0.67,0.91,0.32,24.685,24.52,96.4,47.5,21218.0,7537,7882,7360,7390,65.1,64.9,65.4,65.7,2.672,2.999,2.807,2.797,2.42,185.6,40.0,76.8,1014.43,-32.43,-0.52,1.57,34.5,52.9,40.4,0,no_anomaly,0.0,0,0,0,0,22.572602,88.3639015,5.0,0.0
2024-04-04T17:19:03.000Z,MISSION_0065,30,0,takeoff,SITE_KOL_006,22.5725993,88.3639043,5.0,147.05,1.228,0.063,0.49,0.006,0.0688,147.0456,0.28363,-0.00056,0.00022,0.95893,0.2177,-0.1163,-9.8742,-0.5613,-0.2113,-0.2387,0.2128,3,11,0.78,0.87,0.25,24.634,15.21,96.4,47.4,21199.0,7582,7619,7502,7790,63.6,65.3,63.5,68.3,2.665,2.824,2.855,2.89,1.74,182.6,39.8,76.9,1014.87,-30.42,1.02,1.82,33.9,49.2,42.0,0,no_anomaly,0.0,0,0,0,0,22.5725993,88.3639043,5.0,0.0
2024-04-04T17:19:03.100Z,MISSION_0065,31,0,takeoff,SITE_KOL_006,22.5726013,88.363902,5.0,147.04,1.28,0.042,0.27,0.5929,-3.4806,147.0404,0.28339,0.03059,-0.00366,0.95851,-0.0414,-0.05,-9.9048,-0.5608,-0.0486,0.2571,0.1254,3,14,0.81,0.83,0.29,24.634,21.35,96.3,47.9,21181.0,7504,7578,7371,7570,63.0,61.6,64.5,62.6,2.721,2.712,2.5,2.879,1.84,197.2,40.1,76.9,1014.66,-35.2,-1.73,1.53,33.9,53.5,43.1,0,no_anomaly,0.0,0,0,0,0,22.5726013,88.363902,5.0,0.0
2024-04-04T17:19:03.200Z,MISSION_0065,32,0,takeoff,SITE_KOL_006,22.5726049,88.3639016,5.0,148.52,1.689,0.132,0.58,1.2287,-2.4912,148.516,0.271,0.02383,0.00442,0.96227,0.0367,-0.0071,-9.7957,0.5945,0.1609,0.0509,0.0713,3,19,0.5,0.73,0.2,24.738,17.28,96.2,47.8,21163.0,7489,7842,7300,7278,68.0,61.1,65.0,64.8,2.784,2.694,2.709,2.97,0.93,187.7,39.8,76.6,1014.96,-35.07,0.81,1.97,33.2,50.1,43.1,0,no_anomaly,0.0,0,0,0,0,22.5726049,88.3639016,5.0,0.0
2024-04-04T17:19:03.300Z,MISSION_0065,33,0,takeoff,SITE_KOL_006,22.5725981,88.363898,5.0,146.73,1.758,0.135,0.31,-0.1049,-2.2757,146.734,0.2862,0.01876,-0.00656,0.95796,0.0194,-0.0611,-9.7651,0.2979,-0.4525,0.1805,0.1028,3,13,0.7,0.93,0.27,24.672,17.53,96.1,48.1,21144.0,7556,7352,7506,7787,65.7,65.0,64.0,65.2,2.839,3.005,2.924,2.809,1.33,193.8,40.1,77.0,1014.39,-27.29,0.46,1.45,32.3,50.9,41.4,0,no_anomaly,0.0,0,0,0,0,22.5725981,88.363898,5.0,0.0
2024-04-04T17:19:03.400Z,MISSION_0065,34,0,takeoff,SITE_KOL_006,22.572602,88.3638914,5.0,145.7,1.583,0.183,0.98,-3.0128,-2.8721,145.7025,0.29529,0.01619,-0.0325,0.95472,0.0234,-0.104,-9.7442,-0.0984,0.0548,-0.1167,0.0644,3,15,0.75,0.95,0.4,24.781,14.68,96.0,48.1,21126.0,7480,7533,7468,7416,64.7,64.8,64.3,63.6,2.636,3.073,2.828,2.552,1.08,193.0,39.8,76.4,1014.74,-30.06,1.12,1.11,35.0,48.6,42.1,0,no_anomaly,0.0,0,0,0,0,22.572602,88.3638914,5.0,0.0
2024-04-04T17:19:03.500Z,MISSION_0065,35,0,takeoff,SITE_KOL_006,22.5726033,88.3638892,5.0,144.77,1.746,0.113,1.26,-0.8532,-2.2056,144.7724,0.30267,0.01609,-0.01292,0.95287,-0.1016,-0.039,-9.7826,-1.1796,0.8106,0.3537,0.0769,3,13,0.67,0.64,0.37,24.637,14.45,95.9,48.6,21107.0,7557,7577,7554,7609,66.6,64.9,63.5,67.9,2.653,2.926,2.881,2.864,1.02,184.1,39.9,76.7,1014.76,-30.3,-0.49,1.78,37.8,49.4,45.1,0,no_anomaly,0.0,0,0,0,0,22.5726033,88.3638892,5.0,0.0
2024-04-04T17:19:03.600Z,MISSION_0065,36,0,takeoff,SITE_KOL_006,22.5726032,88.3638887,5.0,144.37,1.889,0.141,1.31,0.5524,-0.2628,144.3668,0.30596,0.00366,0.00389,0.95203,0.1279,0.012,-9.7721,-0.309,0.492,0.4004,0.0971,3,20,0.73,1.02,0.4,24.765,17.51,95.9,48.2,21089.0,7421,7640,7502,7380,65.0,69.1,67.3,61.3,2.614,2.644,2.696,2.788,1.23,185.9,40.0,77.2,1014.76,-27.96,-1.07,1.93,33.4,48.3,42.7,0,no_anomaly,0.0,0,0,0,0,22.5726032,88.3638887,5.0,0.0
2024-04-04T17:19:03.700Z,MISSION_0065,37,0,takeoff,SITE_KOL_006,22.5726075,88.3638897,5.0,143.5,1.628,0.134,1.42,-1.1128,-0.7005,143.498,0.31322,0.00276,-0.01114,0.94961,-0.0377,-0.0955,-9.8343,0.0897,-0.1807,0.1833,0.0975,3,11,0.64,0.93,0.31,24.685,17.46,95.8,48.5,21071.0,7370,7694,7383,7556,63.6,66.6,64.8,66.5,2.862,2.863,2.738,2.807,0.75,183.9,39.8,77.1,1014.52,-33.98,-0.05,1.77,33.9,55.8,41.7,0,no_anomaly,0.0,0,0,0,0,22.5726075,88.3638897,5.0,0.0
2024-04-04T17:19:03.800Z,MISSION_0065,38,0,takeoff,SITE_KOL_006,22.5726052,88.3638894,5.0,141.62,1.506,0.059,1.31,-1.1994,-4.3558,141.6192,0.32883,0.03245,-0.02237,0.94357,0.012,0.0565,-9.7888,-0.5049,0.093,0.0511,0.078,3,16,0.72,0.84,0.34,24.713,22.74,95.7,48.4,21052.0,7518,7515,7440,7673,62.8,64.6,65.0,64.2,2.58,2.759,2.719,3.081,1.0,176.5,40.0,77.4,1014.69,-28.12,1.01,1.57,31.7,49.2,44.2,0,no_anomaly,0.0,0,0,0,0,22.5726052,88.3638894,5.0,0.0
2024-04-04T17:19:03.900Z,MISSION_0065,39,0,takeoff,SITE_KOL_006,22.5726003,88.3638929,5.0,144.09,0.861,0.127,0.79,0.0874,-1.9605,144.0892,0.30822,0.01651,-0.00455,0.95116,0.0113,-0.0759,-9.79,-0.2739,-0.3806,-0.5231,0.2145,3,11,0.66,0.81,0.23,24.631,16.69,95.6,48.2,21034.0,7456,7367,7725,7481,61.7,61.9,65.9,65.3,2.64,2.968,2.659,2.832,0.35,183.8,40.0,77.5,1015.0,-29.65,-0.35,1.46,35.3,52.8,40.8,0,no_anomaly,0.0,0,0,0,0,22.5726003,88.3638929,5.0,0.0
2024-04-04T17:19:04.000Z,MISSION_0065,40,0,takeoff,SITE_KOL_006,22.5725979,88.3638969,5.0,145.71,0.492,0.158,0.42,-1.7665,-2.8233,145.7103,0.29503,0.01899,-0.02199,0.95505,-0.0254,0.0516,-9.8521,0.3113,0.1642,0.272,0.093,3,14,0.61,0.74,0.22,24.492,15.87,95.5,48.3,21016.0,7398,7507,7560,7643,67.0,68.0,65.1,68.4,2.879,2.531,2.954,2.748,1.02,187.5,40.0,77.7,1014.94,-29.54,-1.37,1.32,35.2,46.7,40.9,0,no_anomaly,0.0,0,0,0,0,22.5725979,88.3638969,5.0,0.0
2024-04-04T17:19:04.100Z,MISSION_0065,41,0,takeoff,SITE_KOL_006,22.5726,88.3638986,5.0,146.87,0.531,0.106,0.15,-0.2314,0.3554,146.8749,0.28505,-0.00355,-0.00105,0.9585,0.0885,0.004,-9.8732,0.4878,-1.0287,-0.3548,0.039,3,10,0.76,0.68,0.26,24.737,22.67,95.4,47.5,20997.0,7412,7425,7532,7337,64.7,63.3,63.3,65.2,2.772,2.879,3.001,2.67,0.38,185.7,40.1,77.7,1014.63,-31.81,0.94,1.27,36.8,45.5,40.3,0,no_anomaly,0.0,0,0,0,0,22.5726,88.3638986,5.0,0.0
2024-04-04T17:19:04.200Z,MISSION_0065,42,0,takeoff,SITE_KOL_006,22.5725987,88.3639064,5.0,146.15,0.702,0.169,0.72,0.699,-0.1447,146.1531,0.29108,0.00298,0.00547,0.95668,-0.0059,0.0432,-9.8355,0.0848,-0.1934,0.1307,0.1367,3,14,0.84,0.97,0.36,24.609,21.18,95.4,48.3,20979.0,7373,7616,7338,7555,62.1,64.6,63.8,68.2,2.9,2.855,2.677,2.699,1.25,192.9,40.2,76.5,1014.38,-33.91,0.64,1.73,33.3,52.4,42.2,0,no_anomaly,0.0,0,0,0,0,22.5725987,88.3639064,5.0,0.0
2024-04-04T17:19:04.300Z,MISSION_0065,43,0,takeoff,SITE_KOL_006,22.5726031,88.3639068,5.0,145.84,0.72,0.036,0.83,1.3562,-2.7081,145.8442,0.2933,0.02606,0.00437,0.95565,0.0513,0.0265,-9.778,-0.2396,0.4299,-0.2199,0.088,3,16,0.53,0.84,0.26,24.688,19.48,95.3,48.6,20961.0,7615,7426,7440,7568,64.2,65.5,65.9,64.5,3.003,2.854,2.822,2.862,1.06,188.9,39.9,76.9,1014.88,-28.71,0.65,1.67,34.5,46.6,41.4,0,no_anomaly,0.0,0,0,0,0,22.5726031,88.3639068,5.0,0.0
2024-04-04T17:19:04.400Z,MISSION_0065,44,0,takeoff,SITE_KOL_006,22.5725971,88.363906,5.0,146.14,0.584,0.085,0.75,0.9481,-2.4836,146.137,0.29098,0.02314,0.0016,0.95645,-0.0217,0.0036,-9.8019,-0.0601,0.0282,0.0895,0.1322,3,15,0.65,0.81,0.2,24.609,22.31,95.2,47.9,20942.0,7328,7472,7368,7241,61.0,64.8,62.7,61.5,3.15,2.762,2.869,2.853,0.15,188.9,39.6,76.9,1015.09,-30.0,-0.16,2.22,34.0,49.8,41.9,0,no_anomaly,0.0,0,0,0,0,22.5725971,88.363906,5.0,0.0
2024-04-04T17:19:04.500Z,MISSION_0065,45,0,takeoff,SITE_KOL_006,22.5725942,88.3639028,5.0,145.05,0.832,0.104,0.72,3.192,-2.9026,145.049,0.29941,0.03251,0.01895,0.95338,-0.1042,-0.1019,-9.8095,-0.0373,0.0468,-0.372,0.0966,3,14,0.7,0.85,0.29,24.665,21.07,95.1,48.0,20924.0,7657,7444,7536,7264,62.6,67.2,67.8,60.8,2.764,2.782,2.86,2.942,1.44,190.1,39.8,76.6,1014.36,-22.84,-0.38,1.61,36.2,50.6,44.3,0,no_anomaly,0.0,0,0,0,0,22.5725942,88.3639028,5.0,0.0
2024-04-04T17:19:04.600Z,MISSION_0065,46,0,takeoff,SITE_KOL_006,22.5725924,88.3639062,5.0,145.86,0.931,0.12,1.09,-2.993,-3.2472,145.8567,0.29406,0.01941,-0.03327,0.95501,0.1181,-0.0561,-9.851,0.2521,0.3866,0.4032,0.1726,3,20,0.62,0.82,0.32,24.656,13.9,95.0,47.8,20906.0,7570,7451,7779,7644,69.7,66.2,69.6,66.5,2.572,2.759,2.878,2.73,2.39,181.9,39.7,76.3,1014.67,-28.95,1.15,1.97,36.3,47.0,41.2,0,no_anomaly,0.0,0,0,0,0,22.5725924,88.3639062,5.0,0.0
2024-04-04T17:19:04.700Z,MISSION_0065,47,0,takeoff,SITE_KOL_006,22.5725849,88.3639085,5.0,148.25,0.951,0.197,1.93,2.1333,-0.9986,148.2493,0.27333,0.01347,0.01552,0.9617,-0.0478,-0.0214,-9.8234,-0.2105,0.2019,-0.017,0.12,3,12,0.57,1.0,0.2,24.614,21.69,94.9,48.4,20887.0,7626,7760,7553,7458,63.5,62.6,66.2,64.8,2.782,2.885,2.613,2.837,1.67,192.1,40.0,75.9,1014.46,-32.09,1.6,2.1,34.1,53.5,44.6,0,no_anomaly,0.0,0,0,0,0,22.5725849,88.3639085,5.0,0.0
2024-04-04T17:19:04.800Z,MISSION_0065,48,0,takeoff,SITE_KOL_006,22.5725824,88.3639098,5.0,150.11,0.901,0.097,2.24,2.2412,-0.0366,150.1125,0.25782,0.00535,0.01881,0.966,0.0009,-0.0054,-9.8566,0.2881,-0.119,-0.0565,0.0833,3,18,0.79,1.28,0.3,24.642,19.88,94.9,47.3,20869.0,7460,7701,7621,7663,62.6,67.3,64.2,69.1,2.797,2.805,2.623,2.604,0.18,183.4,40.0,76.7,1014.74,-35.62,-0.05,1.47,36.7,47.6,43.6,0,no_anomaly,0.0,0,0,0,0,22.5725824,88.3639098,5.0,0.0
2024-04-04T17:19:04.900Z,MISSION_0065,49,0,takeoff,SITE_KOL_006,22.5725856,88.3639087,5.0,148.89,0.511,0.104,1.87,-1.0144,-3.1911,148.886,0.26832,0.02445,-0.01599,0.96289,-0.1118,-0.0556,-9.7678,-1.1824,0.2188,0.38,0.1569,3,18,0.66,0.74,0.2,24.663,15.49,94.8,48.1,20851.0,7636,7626,7593,7470,63.5,63.7,61.9,63.8,2.854,2.929,2.741,2.502,0.82,195.7,39.7,77.0,1014.49,-27.57,0.26,1.69,34.8,46.5,43.3,0,no_anomaly,0.0,0,0,0,0,22.5725856,88.3639087,5.0,0.0
2024-04-04T17:19:05.000Z,MISSION_0065,50,0,takeoff,SITE_KOL_006,22.5725843,88.3639147,5.0,147.7,0.0,0.057,2.4,-1.593,-2.6793,147.6989,0.27837,0.01859,-0.01985,0.96009,0.0026,0.0316,-9.7466,-0.2999,-0.7409,-0.4818,0.1746,3,12,0.74,0.76,0.29,24.767,24.42,94.7,47.4,20832.0,7404,7293,7658,7585,64.7,64.7,64.7,64.8,3.094,2.86,2.726,2.711,1.5,186.2,40.0,76.4,1014.73,-32.12,0.54,1.71,35.2,54.6,45.7,0,no_anomaly,0.0,0,0,0,0,22.5725843,88.3639147,5.0,0.0
2024-04-04T17:19:05.100Z,MISSION_0065,51,0,takeoff,SITE_KOL_006,22.5725863,88.3639087,5.0,150.21,0.0,0.138,1.81,1.3228,-4.2334,150.209,0.25645,0.03866,0.00165,0.96578,-0.0674,0.0054,-9.7638,0.1553,0.3181,0.6418,0.0934,3,15,0.68,0.85,0.37,24.691,19.33,94.6,48.2,20814.0,7490,7706,7537,7733,66.8,65.1,66.0,65.1,2.938,2.841,2.762,2.787,0.49,185.2,39.9,77.2,1014.46,-26.1,0.29,1.41,33.7,48.3,44.4,0,no_anomaly,0.0,0,0,0,0,22.5725863,88.3639087,5.0,0.0
2024-04-04T17:19:05.200Z,MISSION_0065,52,0,takeoff,SITE_KOL_006,22.5725881,88.3639102,5.0,148.58,0.215,0.127,1.75,-0.5105,-0.5486,148.5797,0.27079,0.0034,-0.00559,0.96262,0.0902,0.0173,-9.8397,0.2071,0.0724,-0.2709,0.1206,3,16,0.78,0.61,0.38,24.58,19.04,94.5,48.2,20795.0,7412,7559,7238,7342,68.2,63.8,65.3,64.5,2.521,2.725,2.802,2.755,2.01,188.3,40.4,77.0,1014.8,-30.76,-0.45,1.42,32.5,47.4,43.6,0,no_anomaly,0.0,0,0,0,0,22.5725881,88.3639102,5.0,0.0
2024-04-04T17:19:05.300Z,MISSION_0065,53,0,takeoff,SITE_KOL_006,22.5725918,88.3639093,5.0,149.23,0.398,0.057,1.38,0.2583,-1.7633,149.2278,0.26526,0.01543,-0.00191,0.96405,0.1032,-0.0547,-9.8385,-0.3584,-0.2837,-0.1409,0.1866,3,16,0.66,0.94,0.2,24.527,19.58,94.4,48.2,20777.0,7476,7699,7640,7507,65.1,64.8,62.8,63.0,3.142,2.603,2.972,2.737,2.04,197.2,40.1,77.9,1014.54,-28.02,0.06,1.41,37.8,54.8,42.4,0,no_anomaly,0.0,0,0,0,0,22.5725918,88.3639093,5.0,0.0
2024-04-04T17:19:05.400Z,MISSION_0065,54,0,takeoff,SITE_KOL_006,22.5725935,88.363908,5.0,148.02,0.388,0.181,1.15,0.9569,-0.8749,148.0158,0.27543,0.00964,0.00592,0.96126,0.0155,-0.0825,-9.7957,-0.5435,-0.3181,0.505,0.1386,3,16,0.96,1.1,0.58,24.708,18.72,94.4,48.8,20759.0,7535,7371,7516,7400,66.3,62.8,64.1,63.5,2.9,2.756,2.793,2.853,1.71,179.2,40.1,76.7,1014.57,-27.88,-0.45,1.7,36.3,49.0,39.5,0,no_anomaly,0.0,0,0,0,0,22.5725935,88.363908,5.0,0.0
2024-04-04T17:19:05.500Z,MISSION_0065,55,0,takeoff,SITE_KOL_006,22.5725962,88.3639059,5.0,149.75,1.012,0.067,0.78,2.3566,1.14,149.7541,0.26102,-0.00424,0.02245,0.96506,0.0377,0.0728,-9.9297,0.7763,0.4705,0.276,0.1326,3,15,0.52,0.86,0.28,24.667,17.88,94.3,47.5,20740.0,7784,7684,7539,7487,62.8,65.9,60.2,68.3,2.949,2.656,2.574,2.909,1.43,180.6,40.1,76.5,1015.02,-34.11,0.98,1.42,34.0,48.7,41.6,0,no_anomaly,0.0,0,0,0,0,22.5725962,88.3639059,5.0,0.0
2024-04-04T17:19:05.600Z,MISSION_0065,56,0,takeoff,SITE_KOL_006,22.5725964,88.3639046,5.0,146.56,0.813,0.15,0.66,-0.0715,-0.5209,146.5631,0.28767,0.00417,-0.00191,0.95772,-0.1134,0.0909,-9.776,0.5387,-0.4817,-0.2464,0.2316,3,20,0.78,0.73,0.36,24.719,15.9,94.2,48.8,20722.0,7447,7367,7521,7696,66.4,62.3,64.0,66.2,2.646,2.958,2.663,2.567,1.21,183.6,39.8,76.9,1015.04,-30.98,-1.47,1.34,35.3,54.1,42.9,0,no_anomaly,0.0,0,0,0,0,22.5725964,88.3639046,5.0,0.0
2024-04-04T17:19:05.700Z,MISSION_0065,57,0,takeoff,SITE_KOL_006,22.5725964,88.36391,5.0,147.17,0.653,0.018,1.19,2.8696,-3.0024,147.1666,0.28181,0.0322,0.01661,0.95879,0.0742,0.0303,-9.7541,-0.2074,-0.0793,0.0762,0.1166,3,10,0.63,0.9,0.3,24.65,18.95,94.1,47.6,20704.0,7609,7570,7550,7507,65.0,67.7,67.7,68.3,2.898,2.595,2.819,2.835,0.87,191.3,39.7,75.5,1015.1,-27.68,-2.76,1.61,37.3,45.9,41.9,0,no_anomaly,0.0,0,0,0,0,22.5725964,88.36391,5.0,0.0
2024-04-04T17:19:05.800Z,MISSION_0065,58,0,takeoff,SITE_KOL_006,22.5725948,88.363911,5.0,146.04,1.056,0.066,1.36,1.0693,-1.1865,146.0376,0.29194,0.01263,0.0059,0.95634,0.0415,0.0415,-9.8987,-0.1429,-0.3708,0.1685,0.0702,3,20,0.77,0.8,0.33,24.62,16.07,94.0,48.5,20685.0,7490,7362,7516,7742,64.2,68.8,62.8,67.1,2.947,2.731,2.811,2.742,1.13,182.2,39.6,75.5,1014.92,-30.09,1.14,1.96,35.8,47.2,41.6,0,no_anomaly,0.0,0,0,0,0,22.5725948,88.363911,5.0,0.0
2024-04-04T17:19:05.900Z,MISSION_0065,59,0,takeoff,SITE_KOL_006,22.572588,88.3639109,5.0,145.03,1.777,0.177,1.8,-0.7133,0.7211,145.0308,0.3004,-0.00787,-0.00405,0.95377,0.1383,-0.0091,-9.7773,0.3748,0.7573,0.1255,0.171,3,20,0.62,0.93,0.32,24.6,16.6,93.9,48.1,20667.0,7568,7387,7530,7450,65.8,64.6,62.9,68.6,2.891,3.069,2.862,2.722,1.56,183.2,39.5,77.1,1015.03,-30.11,-1.14,1.54,31.7,50.2,41.9,0,no_anomaly,0.0,0,0,0,0,22.572588,88.3639109,5.0,0.0
2024-04-04T17:19:06.000Z,MISSION_0065,60,0,takeoff,SITE_KOL_006,22.5725858,88.3639066,5.0,146.15,1.401,0.103,1.74,1.9398,0.4619,146.1474,0.29116,0.00107,0.01737,0.95652,0.1233,0.0468,-9.8283,0.3461,-0.4195,0.2574,0.1469,3,11,0.58,0.64,0.28,24.694,19.4,93.9,48.0,20649.0,7698,7473,7402,7616,65.3,66.1,62.8,63.6,2.931,2.949,2.741,2.809,1.23,198.1,39.7,77.4,1015.07,-30.02,0.47,1.46,34.0,51.8,43.5,0,no_anomaly,0.0,0,0,0,0,22.5725858,88.3639066,5.0,0.0
2024-04-04T17:19:06.100Z,MISSION_0065,61,0,takeoff,SITE_KOL_006,22.5725888,88.3639077,5.0,148.69,0.997,0.104,1.51,-0.0899,-5.8098,148.6889,0.26954,0.04859,-0.01443,0.96165,0.0484,0.0155,-9.9134,0.6093,-0.0954,-0.6504,0.0469,3,11,0.66,0.96,0.39,24.653,17.41,93.8,48.0,20630.0,7465,7451,7451,7507,63.5,62.0,63.3,60.9,2.962,2.962,2.732,2.862,2.05,184.8,40.1,77.3,1014.69,-31.38,0.63,1.91,34.6,44.6,41.1,0,no_anomaly,0.0,0,0,0,0,22.5725888,88.3639077,5.0,0.0
2024-04-04T17:19:06.200Z,MISSION_0065,62,0,takeoff,SITE_KOL_006,22.5725855,88.3639086,5.0,147.24,0.928,0.089,1.88,-1.0136,0.0533,147.2405,0.28199,-0.00294,-0.00836,0.95938,0.1256,0.0965,-9.875,-0.3,-0.6248,-0.2761,0.1739,3,13,0.66,0.74,0.27,24.66,17.83,93.7,48.4,20612.0,7554,7553,7474,7305,69.2,63.1,67.5,64.5,2.644,3.003,2.595,2.654,1.04,188.0,40.1,77.4,1014.96,-29.05,1.01,1.78,37.1,46.3,43.5,0,no_anomaly,0.0,0,0,0,0,22.5725855,88.3639086,5.0,0.0
2024-04-04T17:19:06.300Z,MISSION_0065,63,0,takeoff,SITE_KOL_006,22.572582,88.3639119,5.0,147.41,1.004,0.146,2.4,0.195,0.0917,147.4065,0.28061,-0.00029,0.00186,0.95982,0.0021,0.0353,-9.8203,0.8493,-0.5637,-0.0962,0.1033,3,13,0.65,0.82,0.27,24.682,20.75,93.6,47.9,20594.0,7243,7126,7681,7606,62.9,65.4,67.3,62.0,2.659,2.83,2.747,2.467,0.8,185.4,40.2,77.6,1014.72,-38.77,0.43,1.92,31.0,51.2,41.7,0,no_anomaly,0.0,0,0,0,0,22.572582,88.3639119,5.0,0.0
2024-04-04T17:19:06.400Z,MISSION_0065,64,0,takeoff,SITE_KOL_006,22.5725796,88.3639159,5.0,151.08,0.325,0.098,2.88,-2.1322,-1.5649,151.0806,0.24988,0.00858,-0.02142,0.968,0.0017,0.0516,-9.8501,0.1041,0.5144,0.1168,0.0918,3,14,0.58,0.64,0.24,24.638,21.71,93.5,47.8,20575.0,7525,7500,7201,7153,67.3,66.3,64.4,67.1,3.12,2.618,2.937,2.889,1.62,193.4,40.1,77.3,1014.93,-34.19,-1.83,1.66,30.8,43.9,41.9,0,no_anomaly,0.0,0,0,0,0,22.5725796,88.3639159,5.0,0.0
2024-04-04T17:19:06.500Z,MISSION_0065,65,0,takeoff,SITE_KOL_006,22.5725748,88.3639147,5.0,151.51,0.698,0.175,3.24,-0.6568,-3.1609,151.5117,0.24611,0.02532,-0.01234,0.96883,-0.08,0.023,-9.8238,-0.3318,-1.0233,-0.2657,0.137,3,16,0.81,0.99,0.45,24.616,23.34,93.4,48.0,20557.0,7848,7520,7367,7645,62.0,69.0,64.1,67.3,2.928,2.808,2.772,2.881,1.85,195.8,40.1,76.3,1014.87,-30.27,0.51,1.75,37.9,48.4,45.9,0,no_anomaly,0.0,0,0,0,0,22.5725748,88.3639147,5.0,0.0
2024-04-04T17:19:06.600Z,MISSION_0065,66,0,takeoff,SITE_KOL_006,22.5725754,88.3639156,5.0,150.46,0.751,0.147,3.25,-1.8373,-0.9627,150.4605,0.25502,0.00403,-0.01764,0.96677,-0.1045,0.0372,-9.7447,-0.7967,-0.0723,-0.0871,0.1186,3,20,0.79,1.07,0.25,24.54,14.27,93.4,47.6,20539.0,7494,7679,7615,7466,63.7,70.4,68.1,69.1,2.981,2.944,2.803,2.755,1.22,187.6,40.1,77.8,1014.7,-31.33,-1.02,1.14,34.4,44.9,41.9,0,no_anomaly,0.0,0,0,0,0,22.5725754,88.3639156,5.0,0.0
2024-04-04T17:19:06.700Z,MISSION_0065,67,0,takeoff,SITE_KOL_006,22.5725738,88.3639118,5.0,149.65,0.919,0.068,3.2,-1.6226,-3.9469,149.6495,0.26206,0.02953,-0.02267,0.96433,-0.0001,-0.0179,-9.7661,-1.0402,0.0388,0.4336,0.0536,3,19,0.7,0.6,0.3,24.557,18.77,93.3,48.3,20520.0,7506,7229,7615,7653,66.0,65.0,63.2,63.8,2.739,2.902,2.804,2.84,0.8,185.5,40.2,76.7,1014.96,-28.46,2.09,1.0,37.4,54.3,44.9,0,no_anomaly,0.0,0,0,0,0,22.5725738,88.3639118,5.0,0.0
2024-04-04T17:19:06.800Z,MISSION_0065,68,0,takeoff,SITE_KOL_006,22.5725686,88.3639085,5.0,148.51,1.128,0.072,3.62,0.726,-0.9408,148.5089,0.2713,0.00962,0.00387,0.96244,-0.0641,0.0629,-9.8297,0.199,-0.4347,0.2304,0.2044,3,12,0.78,0.99,0.4,24.671,14.82,93.2,49.0,20502.0,7688,7612,7519,7452,67.9,65.1,65.8,60.8,2.871,3.134,2.613,2.599,0.0,184.7,40.0,77.1,1014.52,-28.16,-0.49,1.28,35.0,56.2,43.0,0,no_anomaly,0.0,0,0,0,0,22.5725686,88.3639085,5.0,0.0
2024-04-04T17:19:06.900Z,MISSION_0065,69,0,takeoff,SITE_KOL_006,22.5725697,88.3639102,5.0,144.87,1.24,0.04,3.56,1.5746,-0.93,144.8673,0.30166,0.01188,0.01065,0.95328,0.0193,-0.0217,-9.9064,0.6271,0.131,-0.2175,0.0983,3,20,0.64,0.67,0.23,24.647,21.72,93.1,47.7,20484.0,7584,7423,7761,7474,68.7,67.4,66.7,66.0,2.579,2.717,2.832,2.762,1.36,178.5,39.8,76.2,1014.64,-25.78,1.06,1.23,35.8,49.8,42.4,0,no_anomaly,0.0,0,0,0,0,22.5725697,88.3639102,5.0,0.0
2024-04-04T17:19:07.000Z,MISSION_0065,70,0,takeoff,SITE_KOL_006,22.5725715,88.3639053,5.0,145.29,0.969,0.205,3.22,-2.3864,-0.7046,145.294,0.29831,-0.00034,-0.02171,0.95422,0.0418,0.0095,-9.8485,0.1783,0.106,0.4479,0.2125,3,13,0.83,0.68,0.34,24.644,21.1,93.0,48.1,20465.0,7399,7661,7551,7637,66.7,65.2,61.8,67.0,2.615,2.868,2.911,2.802,1.0,192.9,40.2,77.1,1014.66,-29.64,-0.93,1.65,35.1,54.9,44.7,0,no_anomaly,0.0,0,0,0,0,22.5725715,88.3639053,5.0,0.0
2024-04-04T17:19:07.100Z,MISSION_0065,71,0,transit,SITE_KOL_006,22.5725716,88.3639055,5.5,147.64,1.142,0.078,3.22,-0.2636,-2.3897,147.6382,0.27866,0.01939,-0.00802,0.96016,-0.0877,-0.0705,-9.8543,0.348,0.3922,-0.1761,0.2179,3,13,0.55,1.02,0.2,24.655,21.45,92.9,47.7,20447.0,7580,7613,7441,7445,67.8,65.1,67.2,65.3,2.788,2.801,2.752,2.965,1.26,187.7,39.8,77.4,1014.66,-31.27,-1.02,1.61,34.9,47.0,42.4,0,no_anomaly,0.0,0,0,0,0,22.5725716,88.3639055,5.5,0.0
2024-04-04T17:19:07.200Z,MISSION_0065,72,0,transit,SITE_KOL_006,22.5725718,88.3639056,6.0,145.02,0.957,0.104,3.2,0.846,-1.6203,145.0188,0.30041,0.0157,0.00279,0.95368,-0.0068,-0.0336,-9.746,0.591,-0.1833,0.1804,0.1022,3,14,0.61,0.99,0.21,24.65,18.98,92.9,48.3,20428.0,7381,7720,7636,7784,67.0,66.0,61.1,58.6,2.741,2.727,2.592,2.999,1.02,187.9,40.3,77.2,1014.61,-26.14,-0.12,2.12,32.6,54.4,45.4,0,no_anomaly,0.0,0,0,0,0,22.5725718,88.3639056,6.0,0.0
2024-04-04T17:19:07.300Z,MISSION_0065,73,0,transit,SITE_KOL_006,22.5725693,88.3639104,6.5,145.88,0.635,0.038,3.6,-2.4911,-1.3139,145.879,0.29353,0.00458,-0.02414,0.95563,0.0539,0.0343,-9.823,0.654,-0.5206,0.1169,0.0883,3,20,0.66,0.88,0.31,24.624,14.87,92.8,48.0,20410.0,7545,7628,7629,7693,66.2,65.8,65.3,62.8,2.594,2.836,2.959,2.604,1.17,182.5,40.2,77.6,1015.07,-33.35,0.51,1.55,34.3,47.0,42.2,0,no_anomaly,0.0,0,0,0,0,22.5725693,88.3639104,6.5,0.0
2024-04-04T17:19:07.400Z,MISSION_0065,74,0,transit,SITE_KOL_006,22.5725714,88.3639063,7.0,146.97,0.813,0.083,3.26,0.631,-0.3985,146.9729,0.28422,0.0049,0.00429,0.95874,-0.1109,0.0519,-9.766,0.5995,0.4321,-0.1283,0.1237,3,18,0.67,0.68,0.25,24.57,11.85,92.7,48.7,20392.0,7439,7624,7375,7312,63.0,66.8,64.2,62.4,2.728,2.74,2.685,2.914,0.91,190.0,39.9,76.3,1014.36,-28.99,1.75,1.76,35.2,49.6,42.4,0,no_anomaly,0.0,0,0,0,0,22.5725714,88.3639063,7.0,0.0
2024-04-04T17:19:07.500Z,MISSION_0065,75,0,transit,SITE_KOL_006,22.572569,88.3638984,7.5,147.1,0.604,0.054,3.46,0.0039,-1.3204,147.1035,0.28313,0.01106,-0.00323,0.95901,0.0148,-0.0704,-9.8708,-0.5071,-0.1766,0.0459,0.03,3,12,0.74,1.16,0.23,24.559,15.89,92.6,48.3,20373.0,7660,7591,7588,7599,64.2,67.6,65.9,61.9,2.801,2.92,2.747,2.6,0.99,189.2,39.5,76.7,1014.91,-29.86,2.08,1.21,38.5,49.2,45.9,0,no_anomaly,0.0,0,0,0,0,22.572569,88.3638984,7.5,0.0
2024-04-04T17:19:07.600Z,MISSION_0065,76,0,transit,SITE_KOL_006,22.5725691,88.3638986,8.0,147.71,0.042,0.082,3.44,-3.4596,-2.1463,147.7118,0.27842,0.00959,-0.0342,0.9598,-0.076,0.0127,-9.7977,-0.0358,-0.0981,-0.2004,0.1291,3,17,0.84,0.93,0.49,24.59,17.08,92.5,48.5,20355.0,7326,7442,7694,7620,65.7,63.8,63.3,65.0,2.829,2.685,2.354,2.898,1.67,188.1,40.1,77.4,1014.9,-27.44,0.39,1.42,37.5,52.1,43.2,0,no_anomaly,0.0,0,0,0,0,22.5725691,88.3638986,8.0,0.0
2024-04-04T17:19:07.700Z,MISSION_0065,77,0,transit,SITE_KOL_006,22.5725625,88.3638973,8.5,146.0,0.0,0.11,4.18,0.3313,-2.5174,145.9993,0.29224,0.02185,-0.00366,0.95609,-0.0066,0.0609,-9.7808,-0.0125,0.3881,-0.0575,0.1471,3,15,0.7,1.06,0.36,24.567,19.24,92.4,48.1,20337.0,7378,7483,7570,7438,61.5,64.9,68.8,63.9,2.888,2.428,2.332,2.9,1.78,190.0,40.0,77.1,1014.92,-32.56,0.87,2.0,34.4,47.9,40.8,0,no_anomaly,0.0,0,0,0,0,22.5725625,88.3638973,8.5,0.0
2024-04-04T17:19:07.800Z,MISSION_0065,78,0,transit,SITE_KOL_006,22.5725662,88.3638984,9.0,144.9,0.337,0.127,3.77,-0.5977,-1.5474,144.9042,0.30154,0.0113,-0.00904,0.95334,-0.1082,-0.043,-9.7933,-0.46,-0.1877,0.2259,0.2249,3,18,0.79,0.76,0.22,24.581,20.17,92.4,48.0,20318.0,7704,7656,7531,7747,65.7,62.2,66.3,67.7,2.716,2.803,2.72,2.566,0.88,186.9,40.1,77.3,1014.68,-32.78,0.38,1.59,32.1,53.1,41.4,0,no_anomaly,0.0,0,0,0,0,22.5725662,88.3638984,9.0,0.0
2024-04-04T17:19:07.900Z,MISSION_0065,79,0,transit,SITE_KOL_006,22.572567,88.3638997,9.5,143.18,0.694,0.211,3.67,-0.5427,-1.333,143.1773,0.31586,0.00954,-0.00817,0.94872,-0.1267,0.0111,-9.7507,-0.1499,-0.7177,-0.6228,0.0616,3,13,0.65,0.74,0.31,24.592,13.71,92.3,48.6,20300.0,7347,7456,7467,7255,64.6,67.2,69.2,61.8,2.487,2.841,2.882,2.755,1.52,184.4,39.8,77.1,1014.48,-31.18,0.79,1.41,35.4,53.9,40.5,0,no_anomaly,0.0,0,0,0,0,22.572567,88.3638997,9.5,0.0
2024-04-04T17:19:08.000Z,MISSION_0065,80,0,transit,SITE_KOL_006,22.5725639,88.3638997,10.0,143.14,0.099,0.196,4.01,0.7617,-1.6158,143.1411,0.31601,0.01548,0.00185,0.94863,-0.1114,-0.0723,-9.7798,-0.0726,-0.3221,0.0669,0.1711,3,13,0.5,0.86,0.2,24.542,19.51,92.2,48.5,20282.0,7467,7499,7655,7396,64.3,69.1,64.3,66.1,2.784,2.873,2.828,2.718,1.21,187.8,40.0,77.0,1014.67,-26.48,0.3,1.59,35.3,49.6,38.9,0,no_anomaly,0.0,0,0,0,0,22.5725639,88.3638997,10.0,0.0
2024-04-04T17:19:08.100Z,MISSION_0065,81,0,transit,SITE_KOL_006,22.5725675,88.3639014,10.5,143.39,0.227,0.139,3.62,-0.2257,-1.3318,143.3899,0.31408,0.01042,-0.00552,0.94932,0.0524,0.0604,-9.7573,0.4974,-0.7444,0.2963,0.2205,3,12,0.91,0.88,0.39,24.588,12.77,92.1,48.3,20263.0,7394,7637,7472,7347,63.6,66.3,63.4,60.8,2.87,2.578,2.704,2.873,0.68,195.5,39.6,77.7,1015.01,-27.33,0.19,1.33,38.4,55.1,44.0,0,no_anomaly,0.0,0,0,0,0,22.5725675,88.3639014,10.5,0.0
2024-04-04T17:19:08.200Z,MISSION_0065,82,0,transit,SITE_KOL_006,22.5725699,88.3638991,11.0,143.61,0.596,-0.072,3.36,2.8017,-4.0019,143.6088,0.31117,0.04079,0.01231,0.9494,-0.0605,-0.0418,-9.774,-0.1426,1.1883,0.2106,0.0505,3,19,0.68,0.88,0.21,24.533,16.58,92.0,49.0,20245.0,7693,7976,7760,7455,63.4,63.1,66.5,65.6,3.147,2.621,2.611,2.74,1.37,187.5,39.8,76.1,1014.76,-27.5,-1.51,1.33,33.7,48.3,42.6,0,no_anomaly,0.0,0,0,0,0,22.5725699,88.3638991,11.0,0.0
2024-04-04T17:19:08.300Z,MISSION_0065,83,0,transit,SITE_KOL_006,22.57257,88.3639069,11.5,144.1,0.533,0.15,3.43,-0.0194,-2.6028,144.1012,0.3081,0.02155,-0.00716,0.95108,-0.0418,-0.0026,-9.8805,-0.566,0.3427,0.4781,0.1915,3,10,0.74,0.77,0.2,24.611,22.13,91.9,47.7,20227.0,7400,7538,7295,7496,63.6,67.1,66.0,67.6,2.785,2.538,3.004,2.862,0.61,197.2,39.5,76.2,1014.78,-32.85,1.61,1.66,35.5,47.3,42.0,0,no_anomaly,0.0,0,0,0,0,22.57257,88.3639069,11.5,0.0
2024-04-04T17:19:08.400Z,MISSION_0065,84,0,transit,SITE_KOL_006,22.5725727,88.3639114,12.0,146.16,0.269,0.069,3.29,2.1992,-0.2836,146.1606,0.29093,0.00795,0.01764,0.95655,-0.0555,-0.0252,-9.8553,-0.2259,-0.2551,-0.2026,0.1586,3,15,0.72,0.9,0.2,24.635,22.49,91.9,48.4,20208.0,7781,7513,7640,7616,62.9,65.5,65.9,66.3,2.938,2.801,2.715,2.985,0.51,188.7,39.9,76.5,1014.82,-37.0,1.44,1.85,34.5,50.4,41.6,0,no_anomaly,0.0,0,0,0,0,22.5725727,88.3639114,12.0,0.0
2024-04-04T17:19:08.500Z,MISSION_0065,85,0,transit,SITE_KOL_006,22.5725755,88.3639191,12.5,145.63,0.202,0.171,3.46,1.4288,-0.515,145.629,0.29539,0.00798,0.01058,0.95529,-0.0021,-0.0307,-9.8234,-0.7601,0.1464,-0.8171,0.132,3,19,0.65,0.83,0.34,24.562,19.85,91.8,48.5,20190.0,7858,7716,7560,7759,62.1,61.8,64.1,67.6,2.854,3.083,2.851,2.889,1.72,189.4,39.9,77.9,1014.77,-27.09,-0.99,1.28,38.3,47.0,44.7,0,no_anomaly,0.0,0,0,0,0,22.5725755,88.3639191,12.5,0.0
2024-04-04T17:19:08.600Z,MISSION_0065,86,0,transit,SITE_KOL_006,22.5725742,88.3639179,13.0,145.32,0.557,0.039,3.49,-1.0724,-1.2479,145.3164,0.29814,0.00761,-0.01218,0.95441,0.1549,0.0306,-9.8609,1.4095,-0.3656,0.2579,0.1553,3,11,0.5,0.93,0.2,24.621,19.42,91.7,48.6,20172.0,7718,7812,7650,7397,67.3,66.4,64.3,65.5,2.632,2.803,2.979,2.939,1.05,194.6,39.9,76.9,1014.98,-33.94,2.18,1.2,37.5,47.3,42.9,0,no_anomaly,0.0,0,0,0,0,22.5725742,88.3639179,13.0,0.0
2024-04-04T17:19:08.700Z,MISSION_0065,87,0,transit,SITE_KOL_006,22.5725786,88.3639166,13.5,145.65,0.299,0.146,3.01,1.3922,-3.4285,145.65,0.29479,0.03216,0.00277,0.95502,0.064,-0.0267,-9.8018,-0.9539,-0.334,0.2292,0.1646,3,16,0.6,1.15,0.25,24.655,17.4,91.6,49.0,20153.0,7587,7755,7982,7553,62.5,64.0,62.1,64.7,2.857,3.053,2.945,2.428,0.89,189.3,39.7,77.1,1014.75,-28.16,0.25,1.89,34.1,46.8,43.4,0,no_anomaly,0.0,0,0,0,0,22.5725786,88.3639166,13.5,0.0
2024-04-04T17:19:08.800Z,MISSION_0065,88,0,transit,SITE_KOL_006,22.572578,88.3639173,14.0,144.18,0.0,0.014,3.11,0.4893,-1.8891,144.1779,0.30743,0.017,-0.00101,0.95142,-0.046,0.0796,-9.8453,0.393,0.1818,0.3389,0.1281,3,15,0.63,0.6,0.23,24.693,15.84,91.5,47.4,20135.0,7421,7612,7556,7622,63.7,61.8,62.8,63.1,2.868,2.866,2.645,2.843,1.01,185.9,39.9,78.0,1014.95,-36.56,0.32,1.36,36.7,53.1,44.1,0,no_anomaly,0.0,0,0,0,0,22.572578,88.3639173,14.0,0.0
2024-04-04T17:19:08.900Z,MISSION_0065,89,0,transit,SITE_KOL_006,22.5725827,88.3639179,14.5,144.06,0.0,0.073,2.77,-1.1514,-3.3894,144.0584,0.30866,0.02503,-0.01868,0.95066,0.0042,-0.0017,-9.8145,0.5781,0.3456,0.0753,0.086,3,10,0.64,1.05,0.24,24.539,21.23,91.4,48.3,20117.0,7865,7580,7663,7532,66.3,68.9,68.1,65.5,3.292,2.769,2.972,2.929,0.52,187.0,40.0,77.2,1015.11,-29.21,1.78,1.68,36.3,52.6,41.0,0,no_anomaly,0.0,0,0,0,0,22.5725827,88.3639179,14.5,0.0
2024-04-04T17:19:09.000Z,MISSION_0065,90,0,transit,SITE_KOL_006,22.5725803,88.3639209,15.0,143.84,0.0,0.143,3.2,-0.5695,-3.1254,143.8405,0.31035,0.02438,-0.01319,0.95022,0.0415,-0.0004,-9.7619,0.6834,-0.3412,-0.1242,0.1659,3,20,0.73,0.89,0.2,24.621,16.25,91.4,48.4,20098.0,7791,7555,7450,7136,66.0,65.6,65.4,67.5,2.7,2.515,2.875,2.512,0.64,176.8,40.0,76.8,1014.75,-30.4,0.6,1.49,32.9,50.4,41.8,0,no_anomaly,0.0,0,0,0,0,22.5725803,88.3639209,15.0,0.0
2024-04-04T17:19:09.100Z,MISSION_0065,91,0,transit,SITE_KOL_006,22.5725837,88.3639216,15.5,141.61,0.0,0.246,3.01,-1.4183,-2.781,141.6125,0.32892,0.01885,-0.01966,0.94396,0.135,0.0537,-9.8256,-0.434,1.2156,-0.3948,0.0768,3,13,0.68,1.05,0.29,24.565,20.97,91.3,48.3,20080.0,7748,7685,7501,7300,63.3,62.4,64.1,64.3,2.749,2.835,2.528,2.811,1.52,186.3,40.1,76.3,1014.86,-35.5,-0.66,1.29,31.8,50.8,40.8,0,no_anomaly,0.0,0,0,0,0,22.5725837,88.3639216,15.5,0.0
2024-04-04T17:19:09.200Z,MISSION_0065,92,0,transit,SITE_KOL_006,22.5725857,88.3639225,16.0,142.43,0.031,0.077,2.96,-0.039,-1.9528,142.4273,0.322,0.01602,-0.00581,0.94659,0.0173,0.0525,-9.8064,-0.5699,0.274,-0.1968,0.1585,3,15,0.65,0.95,0.2,24.589,20.77,91.2,48.5,20061.0,7559,7833,7400,7608,66.8,63.8,64.2,61.7,2.711,3.072,2.795,2.774,1.02,186.4,39.8,76.7,1014.66,-30.88,0.44,1.58,36.5,52.2,43.9,0,no_anomaly,0.0,0,0,0,0,22.5725857,88.3639225,16.0,0.0
2024-04-04T17:19:09.300Z,MISSION_0065,93,0,transit,SITE_KOL_006,22.5725888,88.363922,16.5,145.17,0.01,0.113,2.74,2.1353,-5.074,145.1723,0.29814,0.0478,0.00452,0.95331,0.0048,-0.0342,-9.7747,-0.4393,0.702,-0.6771,0.0134,3,14,0.91,1.09,0.3,24.541,20.07,91.1,47.8,20043.0,7416,7589,7492,7400,63.1,64.7,63.0,64.5,2.956,2.571,2.691,2.835,1.46,191.3,40.3,76.1,1014.94,-32.08,-0.63,1.33,36.9,50.7,40.1,0,no_anomaly,0.0,0,0,0,0,22.5725888,88.363922,16.5,0.0
2024-04-04T17:19:09.400Z,MISSION_0065,94,0,transit,SITE_KOL_006,22.572592,88.3639203,17.0,144.64,0.495,0.068,2.43,-0.786,-2.542,144.6434,0.30374,0.01905,-0.01327,0.95247,0.0182,-0.0043,-9.8894,0.5185,0.2713,0.059,0.0898,3,15,0.79,0.73,0.24,24.562,13.35,91.0,47.5,20025.0,7601,7417,7857,7738,66.9,62.0,65.1,62.3,2.504,2.717,2.761,2.885,1.74,184.6,40.1,76.8,1014.78,-30.75,0.26,1.65,31.4,50.9,41.2,0,no_anomaly,0.0,0,0,0,0,22.572592,88.3639203,17.0,0.0
2024-04-04T17:19:09.500Z,MISSION_0065,95,0,transit,SITE_KOL_006,22.5725865,88.3639184,17.5,142.91,0.836,0.053,2.54,0.407,-2.0809,142.9104,0.31793,0.01835,-0.00241,0.94793,-0.1087,-0.1393,-9.8352,0.4024,-0.6837,0.1645,0.1403,3,17,0.69,0.94,0.28,24.528,25.54,90.9,48.1,20006.0,7834,7269,7426,7715,68.8,66.3,62.1,64.0,3.081,2.697,2.664,2.823,1.87,191.9,39.8,77.4,1014.69,-28.34,0.01,1.39,37.3,49.2,44.0,0,no_anomaly,0.0,0,0,0,0,22.5725865,88.3639184,17.5,0.0
2024-04-04T17:19:09.600Z,MISSION_0065,96,0,transit,SITE_KOL_006,22.572582,88.3639159,18.0,145.21,1.105,0.182,2.67,0.5465,-3.0447,145.2067,0.29875,0.02678,-0.00339,0.95395,0.0683,0.0825,-9.8502,0.3248,0.1247,0.0317,0.0688,3,14,0.72,0.86,0.38,24.593,18.1,90.9,47.2,19988.0,7617,7306,7640,7291,67.7,66.2,63.7,65.8,2.668,2.863,2.813,2.764,1.31,191.4,39.4,76.6,1014.61,-27.07,-2.16,1.22,35.5,50.2,43.7,0,no_anomaly,0.0,0,0,0,0,22.572582,88.3639159,18.0,0.0
2024-04-04T17:19:09.700Z,MISSION_0065,97,0,transit,SITE_KOL_006,22.5725825,88.3639152,18.5,147.99,0.716,0.044,2.59,-2.2287,-1.5503,147.9929,0.27587,0.00764,-0.02242,0.9609,0.1354,-0.0417,-9.8383,-0.543,0.4869,-0.0696,0.1107,3,12,0.85,0.84,0.23,24.592,17.64,90.8,47.9,19970.0,7618,7660,7431,7403,66.0,64.3,66.0,64.1,2.787,2.879,2.758,2.563,1.04,184.4,39.9,76.2,1015.02,-32.45,-1.19,2.0,37.7,51.1,42.7,0,no_anomaly,0.0,0,0,0,0,22.5725825,88.3639152,18.5,0.0
2024-04-04T17:19:09.800Z,MISSION_0065,98,0,transit,SITE_KOL_006,22.5725797,88.3639133,19.0,146.14,0.597,0.152,2.7,-2.0555,0.1238,146.144,0.2911,-0.00626,-0.01685,0.95652,-0.1204,-0.0348,-9.7397,0.2948,-0.6784,-0.3491,0.1606,3,12,0.8,0.74,0.32,24.607,14.4,90.7,48.0,19951.0,7497,7442,7762,7515,65.1,68.2,65.5,66.6,2.697,3.06,2.459,2.89,0.67,190.9,39.9,76.6,1014.58,-28.24,-0.66,1.83,35.0,52.0,40.9,0,no_anomaly,0.0,0,0,0,0,22.5725797,88.3639133,19.0,0.0
2024-04-04T17:19:09.900Z,MISSION_0065,99,0,transit,SITE_KOL_006,22.572582,88.3639156,19.2,146.23,0.209,0.084,2.65,2.3792,-4.8194,146.2263,0.28933,0.04625,0.00764,0.95608,-0.0126,-0.0277,-9.7612,-0.1323,-0.1064,-0.0904,0.1721,3,19,0.79,1.2,0.4,24.475,13.21,90.6,48.5,19933.0,7720,7478,7393,7609,68.2,62.0,66.7,64.2,2.64,2.665,2.855,2.799,2.09,198.4,40.1,75.6,1014.8,-29.53,1.41,1.7,37.2,45.6,41.7,0,no_anomaly,0.0,0,0,0,0,22.572582,88.3639156,19.2,0.0
2024-04-04T17:19:10.000Z,MISSION_0065,100,0,transit,SITE_KOL_006,22.572584,88.363913,19.2,146.25,0.0,0.145,2.3,-1.0339,-3.0512,146.245,0.29044,0.02286,-0.01636,0.95648,0.0053,0.0472,-9.8656,1.0556,-0.5698,-0.0947,0.1535,3,17,0.5,0.93,0.24,24.478,15.76,90.5,47.6,19915.0,7411,7666,7612,7602,66.3,64.9,63.5,63.3,2.774,2.897,2.735,2.725,1.3,180.1,39.7,77.2,1014.87,-28.62,1.63,1.63,32.0,49.4,43.1,0,no_anomaly,0.0,0,0,0,0,22.572584,88.363913,19.2,0.0
2024-04-04T17:19:10.100Z,MISSION_0065,101,0,transit,SITE_KOL_006,22.5725842,88.3639092,19.2,146.03,0.183,0.027,2.03,-2.4362,-0.9669,146.0266,0.29224,0.00186,-0.02279,0.95607,-0.0088,0.1191,-9.8242,-1.3446,0.3591,0.0781,0.0249,3,13,0.66,0.74,0.2,24.541,22.98,90.4,48.8,19896.0,7589,7367,7588,7553,69.3,67.4,64.3,64.3,2.92,2.724,2.55,2.675,1.38,193.5,40.0,76.9,1014.56,-32.42,0.58,1.62,36.4,47.7,42.7,0,no_anomaly,0.0,0,0,0,0,22.5725842,88.3639092,19.2,0.0
2024-04-04T17:19:10.200Z,MISSION_0065,102,0,transit,SITE_KOL_006,22.572586,88.3639092,19.2,146.17,0.424,0.147,1.87,0.1105,-2.2906,146.1696,0.29088,0.0194,-0.00489,0.95655,0.195,-0.0192,-9.8528,0.3242,0.7536,0.0355,0.0735,3,20,0.71,0.99,0.32,24.581,20.7,90.4,47.9,19878.0,7701,7736,7835,7571,64.9,68.5,68.7,66.0,2.956,2.889,2.676,2.841,0.84,186.5,39.8,77.1,1014.66,-33.14,1.36,1.66,34.9,52.7,44.5,0,no_anomaly,0.0,0,0,0,0,22.572586,88.3639092,19.2,0.0
2024-04-04T17:19:10.300Z,MISSION_0065,103,0,transit,SITE_KOL_006,22.5725849,88.3639132,19.2,143.97,0.0,0.165,2.23,2.536,-3.4743,143.9685,0.30842,0.03566,0.01166,0.95051,0.1007,-0.0685,-9.769,-0.029,-1.1418,-0.4068,0.188,3,18,0.73,0.92,0.21,24.505,24.08,90.3,47.8,19860.0,7567,7671,7822,7574,64.7,66.1,58.1,67.8,2.7,2.894,2.801,2.821,0.81,187.9,39.7,76.8,1014.98,-28.81,-0.26,1.7,32.5,50.8,41.1,0,no_anomaly,0.0,0,0,0,0,22.5725849,88.3639132,19.2,0.0
2024-04-04T17:19:10.400Z,MISSION_0065,104,0,transit,SITE_KOL_006,22.5725826,88.3639107,19.2,143.98,0.339,0.1,2.28,-1.0901,-0.2351,143.9836,0.30916,-0.00099,-0.00968,0.95096,-0.1321,-0.041,-9.802,-0.4983,-0.8224,-0.4242,0.1515,3,10,0.75,0.79,0.28,24.54,17.49,90.2,47.8,19841.0,7722,7411,7743,7464,70.4,64.3,62.5,63.1,2.865,2.874,3.108,2.72,1.48,194.1,39.9,76.2,1014.56,-31.65,-1.57,1.75,34.9,49.6,39.1,0,no_anomaly,0.0,0,0,0,0,22.5725826,88.3639107,19.2,0.0
2024-04-04T17:19:10.500Z,MISSION_0065,105,0,transit,SITE_KOL_006,22.5725861,88.3639066,19.2,143.13,0.27,0.084,1.71,-1.1355,-1.1357,143.1271,0.31632,0.00627,-0.01253,0.94855,0.1271,0.0245,-9.7757,-0.1019,-0.6076,0.3113,0.204,3,13,0.67,0.71,0.27,24.504,23.94,90.1,49.0,19823.0,8075,7879,7532,7749,68.1,64.7,65.0,67.1,2.921,2.66,2.687,2.79,1.17,175.7,39.9,76.1,1014.6,-26.12,0.37,1.38,32.3,47.9,43.1,0,no_anomaly,0.0,0,0,0,0,22.5725861,88.3639066,19.2,0.0
2024-04-04T17:19:10.600Z,MISSION_0065,106,0,transit,SITE_KOL_006,22.5725894,88.3639111,19.2,142.63,0.385,0.075,1.71,0.6705,-1.5778,142.629,0.32026,0.01492,0.00113,0.94721,-0.0499,-0.0829,-9.8042,-1.016,0.2825,0.2361,0.032,3,16,0.74,0.69,0.24,24.496,21.73,90.0,47.5,19805.0,7554,7481,7689,7296,64.3,68.8,63.7,63.4,2.713,2.888,2.996,2.93,0.98,196.7,39.7,76.6,1014.96,-29.95,0.17,1.91,36.5,54.0,43.1,0,no_anomaly,0.0,0,0,0,0,22.5725894,88.3639111,19.2,0.0
2024-04-04T17:19:10.700Z,MISSION_0065,107,0,transit,SITE_KOL_006,22.5725854,88.363909,19.2,142.23,0.612,0.114,1.91,1.1189,0.5094,142.225,0.32373,-0.00105,0.01068,0.94609,-0.1437,-0.0115,-9.791,0.121,-0.8127,-0.0635,0.1473,3,10,0.63,0.93,0.26,24.617,18.47,89.9,47.7,19786.0,7605,7596,7588,7989,64.6,61.2,67.1,65.4,2.44,2.748,3.016,2.762,1.69,171.9,39.8,76.5,1014.42,-30.03,0.33,1.84,35.2,50.1,47.0,0,no_anomaly,0.0,0,0,0,0,22.5725854,88.363909,19.2,0.0
2024-04-04T17:19:10.800Z,MISSION_0065,108,0,transit,SITE_KOL_006,22.5725826,88.3639119,19.2,143.29,0.0,0.153,2.34,2.5291,-2.2268,143.2893,0.31437,0.02539,0.01482,0.94885,-0.0351,0.0029,-9.8602,-0.459,0.0502,0.0837,0.1308,3,14,0.59,0.92,0.2,24.5,15.25,89.9,47.9,19768.0,7527,7349,7577,7477,65.0,62.3,61.8,68.1,2.914,2.75,2.703,2.849,1.1,194.2,39.9,76.3,1014.69,-29.06,-2.4,1.35,32.7,45.3,41.5,0,no_anomaly,0.0,0,0,0,0,22.5725826,88.3639119,19.2,0.0
2024-04-04T17:19:10.900Z,MISSION_0065,109,0,transit,SITE_KOL_006,22.5725797,88.3639118,19.2,143.87,0.0,0.15,2.61,3.4152,-0.2696,143.8745,0.30985,0.01148,0.0276,0.95031,0.1296,-0.004,-9.8381,-0.3967,-0.3127,-0.3213,0.1189,3,20,0.66,0.86,0.24,24.546,18.4,89.8,47.5,19749.0,7452,7594,7673,7643,67.1,67.8,64.9,66.4,2.693,2.744,2.789,2.679,2.33,188.7,39.8,76.6,1015.25,-27.74,-0.1,1.21,37.1,55.2,44.4,0,no_anomaly,0.0,0,0,0,0,22.5725797,88.3639118,19.2,0.0
2024-04-04T17:19:11.000Z,MISSION_0065,110,0,transit,SITE_KOL_006,22.5725807,88.3639135,19.2,143.22,0.071,0.156,2.63,-0.4984,-5.6079,143.2163,0.31534,0.04505,-0.01956,0.94771,0.0185,0.0254,-9.7737,-0.0024,-0.5802,0.4658,0.054,3,15,0.63,0.87,0.25,24.524,17.23,89.7,48.1,19731.0,7353,7686,7708,7442,64.4,70.5,61.9,65.9,3.047,2.808,2.785,2.698,0.23,189.4,40.0,76.8,1014.87,-22.63,-1.43,1.48,33.6,54.0,41.8,0,no_anomaly,0.0,0,0,0,0,22.5725807,88.3639135,19.2,0.0
2024-04-04T17:19:11.100Z,MISSION_0065,111,0,transit,SITE_KOL_006,22.5725769,88.3639146,19.2,140.91,0.681,0.008,3.05,0.2619,-2.7613,140.9123,0.33438,0.02347,-0.00591,0.94213,0.0686,0.0187,-9.8639,-0.2018,0.6032,-0.0412,0.2242,3,16,0.7,0.79,0.29,24.522,21.82,89.6,48.7,19713.0,7668,7524,7729,7599,65.7,68.9,66.8,67.3,2.555,2.812,2.635,2.773,1.24,186.4,40.1,76.9,1015.06,-26.36,-1.73,1.0,33.4,50.0,41.9,0,no_anomaly,0.0,0,0,0,0,22.5725769,88.3639146,19.2,0.0
2024-04-04T17:19:11.200Z,MISSION_0065,112,0,transit,SITE_KOL_006,22.5725774,88.3639162,19.2,140.86,0.607,0.103,3.1,-0.7756,-1.7852,140.8633,0.33498,0.01241,-0.01159,0.94207,-0.0946,-0.0083,-9.864,0.0883,0.5853,0.1234,0.1089,3,10,0.63,1.22,0.33,24.544,22.23,89.5,48.8,19694.0,7845,7669,7597,7528,68.5,65.1,63.6,67.9,2.534,2.727,3.041,2.682,1.38,185.5,40.1,76.6,1014.96,-26.79,0.51,1.68,36.3,52.3,44.5,0,no_anomaly,0.0,0,0,0,0,22.5725774,88.3639162,19.2,0.0
2024-04-04T17:19:11.300Z,MISSION_0065,113,0,transit,SITE_KOL_006,22.5725786,88.363915,19.2,136.93,0.378,0.093,2.9,0.3066,1.2943,136.9299,0.36707,-0.00952,0.00663,0.93012,0.0592,-0.0206,-9.7714,-0.1949,-0.0181,-0.1549,0.0,3,20,0.9,0.98,0.48,24.562,13.08,89.4,48.0,19676.0,7853,7803,7598,7641,61.0,65.4,66.6,66.9,2.883,3.074,2.958,2.7,1.6,184.4,39.6,76.2,1014.42,-28.03,-0.84,1.48,33.2,54.5,42.2,0,no_anomaly,0.0,0,0,0,0,22.5725786,88.363915,19.2,0.0
2024-04-04T17:19:11.400Z,MISSION_0065,114,0,transit,SITE_KOL_006,22.5725773,88.3639123,19.2,137.47,1.003,0.022,2.87,1.7353,-2.5674,137.4725,0.36221,0.02637,0.00598,0.9317,0.0451,0.0715,-9.8243,-0.3634,-0.201,0.2423,0.1633,3,13,0.8,1.0,0.29,24.578,18.35,89.4,48.2,19658.0,7451,7630,7866,7800,66.7,66.1,62.5,68.5,2.847,2.858,2.81,2.681,0.96,188.3,39.8,76.8,1014.7,-30.71,-0.46,1.8,35.4,51.9,43.5,0,no_anomaly,0.0,0,0,0,0,22.5725773,88.3639123,19.2,0.0
2024-04-04T17:19:11.500Z,MISSION_0065,115,0,transit,SITE_KOL_006,22.572577,88.3639119,19.2,139.29,0.713,0.047,2.88,-2.714,-2.9721,139.2908,0.34819,0.01607,-0.03121,0.93677,0.0727,-0.0128,-9.6732,0.4178,0.5742,0.4243,0.1353,3,12,0.54,0.72,0.2,24.456,19.68,89.3,48.5,19639.0,7592,7630,7588,7153,64.6,64.7,63.9,64.3,3.025,2.795,2.959,2.941,1.68,180.0,39.8,77.8,1015.2,-25.37,0.66,1.4,35.0,51.0,43.1,0,no_anomaly,0.0,0,0,0,0,22.572577,88.3639119,19.2,0.0
2024-04-04T17:19:11.600Z,MISSION_0065,116,0,transit,SITE_KOL_006,22.5725739,88.3639155,19.2,138.01,0.669,0.102,3.38,-2.5919,-3.1963,138.0067,0.35867,0.01793,-0.0311,0.93277,-0.04,0.0913,-9.8511,-0.2676,1.0682,0.1678,0.1829,3,15,0.53,0.93,0.25,24.519,21.0,89.2,48.1,19621.0,7466,7487,7592,7775,64.0,61.7,67.0,63.0,2.832,2.647,2.888,2.723,0.77,190.7,40.0,77.2,1014.34,-37.92,-1.99,1.4,36.2,54.1,43.6,0,no_anomaly,0.0,0,0,0,0,22.5725739,88.3639155,19.2,0.0
2024-04-04T17:19:11.700Z,MISSION_0065,117,0,transit,SITE_KOL_006,22.572579,88.3639164,19.2,137.27,0.526,0.107,2.97,-2.6583,-1.416,137.2725,0.36443,0.00306,-0.0261,0.93086,0.0257,0.0373,-9.852,-0.9956,-0.6255,0.1635,0.0959,3,11,0.74,0.93,0.31,24.454,18.18,89.1,47.3,19603.0,7411,7670,7736,7594,62.4,60.5,66.7,64.2,2.744,2.649,2.979,2.848,1.87,196.1,40.1,76.5,1014.59,-29.36,-0.06,1.77,37.0,47.3,40.0,0,no_anomaly,0.0,0,0,0,0,22.572579,88.3639164,19.2,0.0
2024-04-04T17:19:11.800Z,MISSION_0065,118,0,transit,SITE_KOL_006,22.5725855,88.3639144,19.2,136.48,0.492,0.008,2.27,0.0598,-3.2706,136.4828,0.37053,0.0267,-0.01009,0.92838,-0.0931,0.0282,-9.8109,-0.1468,0.6732,-0.1641,0.1773,3,20,0.84,0.91,0.2,24.434,20.57,89.0,47.3,19584.0,7580,7502,7544,7463,64.1,62.9,62.8,66.4,2.841,2.929,2.961,2.791,0.0,188.1,39.9,76.8,1014.62,-27.82,-2.22,1.26,35.4,49.9,43.5,0,no_anomaly,0.0,0,0,0,0,22.5725855,88.3639144,19.2,0.0
2024-04-04T17:19:11.900Z,MISSION_0065,119,0,transit,SITE_KOL_006,22.5725789,88.3639156,19.2,138.54,0.827,0.04,2.92,-0.4692,-3.2185,138.5427,0.35391,0.02482,-0.01377,0.93485,0.0716,-0.0372,-9.8332,0.2956,0.2047,-0.1655,0.0675,3,18,0.83,0.83,0.28,24.416,17.13,88.9,48.1,19566.0,7368,7660,7516,7708,66.6,67.5,68.1,63.3,2.77,2.665,2.588,2.694,0.92,186.7,40.2,76.6,1014.62,-34.77,-1.07,1.86,36.2,50.7,41.5,0,no_anomaly,0.0,0,0,0,0,22.5725789,88.3639156,19.2,0.0
2024-04-04T17:19:12.000Z,MISSION_0065,120,0,transit,SITE_KOL_006,22.5725775,88.3639142,19.2,138.74,0.776,-0.038,2.96,-0.6233,-3.4321,138.7357,0.35236,0.02611,-0.01564,0.93537,-0.0122,0.1295,-9.7918,0.0269,0.6659,0.0778,0.2085,3,19,0.81,1.02,0.28,24.434,17.66,88.9,47.5,19548.0,7430,7322,7446,7680,66.4,66.9,64.2,61.5,2.855,2.658,2.783,2.835,1.35,181.5,39.8,76.6,1014.66,-32.36,1.16,1.77,35.4,51.3,40.8,0,no_anomaly,0.0,0,0,0,0,22.5725775,88.3639142,19.2,0.0
2024-04-04T17:19:12.100Z,MISSION_0065,121,0,transit,SITE_KOL_006,22.5725737,88.3639136,19.2,138.38,0.857,0.09,3.3,-0.2154,-0.0415,138.3806,0.35527,-0.00033,-0.00189,0.93476,-0.0366,0.0778,-9.7817,-0.448,-0.7153,-0.1143,0.1972,3,10,0.55,0.97,0.23,24.5,15.54,88.8,48.3,19529.0,7845,7527,7711,7546,69.3,65.3,65.8,62.8,2.881,2.616,2.736,2.546,0.8,185.7,39.8,76.2,1014.88,-34.62,-0.1,1.28,35.7,52.5,39.9,0,no_anomaly,0.0,0,0,0,0,22.5725737,88.3639136,19.2,0.0
2024-04-04T17:19:12.200Z,MISSION_0065,122,0,transit,SITE_KOL_006,22.5725736,88.3639137,19.2,136.62,0.98,0.049,3.31,0.3798,-1.4663,136.6195,0.36952,0.01311,-0.00165,0.92913,-0.0176,-0.0979,-9.768,-0.9487,-0.3219,-0.2918,0.1076,3,13,0.93,0.75,0.35,24.493,15.82,88.7,48.3,19511.0,7749,7724,7569,7490,65.1,66.4,64.3,64.7,2.791,2.811,3.026,3.151,0.78,190.6,40.0,77.2,1014.98,-30.36,0.99,1.85,33.2,50.3,42.7,0,no_anomaly,0.0,0,0,0,0,22.5725736,88.3639137,19.2,0.0
2024-04-04T17:19:12.300Z,MISSION_0065,123,0,transit,SITE_KOL_006,22.5725755,88.3639113,19.2,136.04,0.915,0.135,3.01,3.3202,0.5674,136.0353,0.37429,0.00625,0.02872,0.92684,0.0088,0.0187,-9.8071,0.0221,-0.2395,0.4973,0.0834,3,15,0.71,0.86,0.2,24.332,20.4,88.6,48.0,19493.0,7709,7829,7659,7781,63.4,68.8,63.7,68.2,2.842,2.857,2.869,2.866,0.72,179.6,40.0,77.0,1014.93,-31.76,1.16,1.51,37.2,46.2,43.3,0,no_anomaly,0.0,0,0,0,0,22.5725755,88.3639113,19.2,0.0
2024-04-04T17:19:12.400Z,MISSION_0065,124,0,transit,SITE_KOL_006,22.5725751,88.36391,19.2,138.94,0.498,0.167,2.99,-2.8325,-1.062,138.9438,0.35076,1e-05,-0.02639,0.93609,0.0077,-0.0347,-9.8168,-0.0033,0.7424,0.1845,0.1165,3,10,0.8,0.87,0.36,24.511,15.91,88.5,47.8,19474.0,7499,7410,7540,7368,63.8,64.0,63.9,64.0,2.775,2.808,3.034,2.691,1.16,176.0,40.0,77.6,1014.54,-29.57,2.22,1.6,39.2,52.0,42.7,0,no_anomaly,0.0,0,0,0,0,22.5725751,88.36391,19.2,0.0
2024-04-04T17:19:12.500Z,MISSION_0065,125,0,transit,SITE_KOL_006,22.5725796,88.363909,19.2,136.59,0.244,0.112,2.49,-1.0568,-2.0329,136.5893,0.36991,0.01307,-0.01513,0.92885,0.0735,0.1204,-9.8185,0.6515,0.5735,-0.2277,0.1638,3,19,0.5,1.05,0.33,24.476,19.22,88.4,48.1,19456.0,7783,7625,7385,7478,69.5,64.3,67.1,63.0,2.699,2.804,2.935,2.626,1.58,183.4,40.0,76.4,1014.44,-31.0,-0.44,1.87,39.1,48.8,42.5,0,no_anomaly,0.0,0,0,0,0,22.5725796,88.363909,19.2,0.0
2024-04-04T17:19:12.600Z,MISSION_0065,126,0,transit,SITE_KOL_006,22.5725845,88.3639099,19.2,134.62,0.038,0.084,2.05,2.618,-2.8467,134.6203,0.385,0.03172,0.01149,0.9223,0.1073,-0.0961,-9.772,0.0045,0.5009,-0.1525,0.1246,3,15,0.66,0.83,0.29,24.483,19.31,88.4,48.3,19438.0,7757,7680,7465,7639,67.1,64.7,65.4,66.1,2.841,2.828,2.91,2.818,0.93,190.5,40.0,76.6,1014.7,-26.25,0.67,1.45,36.3,49.4,45.0,0,no_anomaly,0.0,0,0,0,0,22.5725845,88.3639099,19.2,0.0
2024-04-04T17:19:12.700Z,MISSION_0065,127,0,transit,SITE_KOL_006,22.5725855,88.363908,19.2,135.84,0.0,0.066,1.85,0.1042,-5.4437,135.8419,0.37542,0.04435,-0.01701,0.92564,-0.0426,-0.0315,-9.8131,-0.3272,-0.0979,0.3109,0.0289,3,11,0.58,0.9,0.23,24.516,19.04,88.3,48.7,19419.0,7711,7733,7507,7628,64.3,65.7,63.9,62.4,2.838,3.087,2.902,2.963,1.24,177.2,39.7,76.2,1014.84,-33.13,0.01,2.03,35.7,48.0,42.5,0,no_anomaly,0.0,0,0,0,0,22.5725855,88.363908,19.2,0.0
2024-04-04T17:19:12.800Z,MISSION_0065,128,0,transit,SITE_KOL_006,22.5725851,88.3639098,19.2,136.87,0.0,0.096,1.99,-0.8118,-1.0797,136.8741,0.36756,0.00616,-0.01005,0.92993,0.0926,-0.0402,-9.8761,-0.2956,0.103,-0.1839,0.0933,3,18,0.71,0.98,0.23,24.483,13.1,88.2,48.9,19401.0,7341,7447,7654,7729,67.0,63.1,67.5,67.4,2.705,2.922,2.842,2.805,1.11,188.1,40.2,77.4,1014.44,-26.35,1.53,1.65,37.3,45.3,43.2,0,no_anomaly,0.0,0,0,0,0,22.5725851,88.3639098,19.2,0.0
2024-04-04T17:19:12.900Z,MISSION_0065,129,0,transit,SITE_KOL_006,22.5725859,88.3639084,19.2,139.91,0.378,0.093,1.83,0.6435,-1.7539,139.906,0.34266,0.0163,3e-05,0.93932,-0.0558,-0.0747,-9.7992,-0.1708,-0.5675,-0.1377,0.1875,3,16,0.71,0.89,0.39,24.5,16.22,88.1,48.5,19382.0,7699,7597,7381,7727,65.4,62.0,64.5,63.1,2.544,2.466,2.732,2.949,1.35,182.0,39.7,75.8,1014.78,-28.48,1.21,1.82,34.9,49.8,42.8,0,no_anomaly,0.0,0,0,0,0,22.5725859,88.3639084,19.2,0.0
