timestamp_utc,mission_id,frame_id,waypoint_id,inspection_phase,site_id,latitude_deg,longitude_deg,altitude_m,heading_deg,ground_speed_ms,vertical_speed_ms,distance_to_tower_m,roll_deg,pitch_deg,yaw_deg,quat_w,quat_x,quat_y,quat_z,accel_x_ms2,accel_y_ms2,accel_z_ms2,gyro_x_rads,gyro_y_rads,gyro_z_rads,vibration_level,gps_fix_type,gps_satellite_count,gps_hdop,gps_vdop,position_error_m,battery_voltage_v,battery_current_a,battery_remaining_pct,battery_temp_c,battery_capacity_mah,motor_fl_rpm,motor_fr_rpm,motor_rl_rpm,motor_rr_rpm,motor_fl_temp_c,motor_fr_temp_c,motor_rl_temp_c,motor_rr_temp_c,motor_fl_thrust_n,motor_fr_thrust_n,motor_rl_thrust_n,motor_rr_thrust_n,wind_speed_ms,wind_dir_deg,air_temp_c,humidity_pct,pressure_hpa,gimbal_pitch_deg,gimbal_roll_deg,zoom_factor,ir_temp_min_c,ir_temp_max_c,ir_temp_avg_c,anomaly_detected,anomaly_class,anomaly_confidence,anomaly_bbox_x,anomaly_bbox_y,anomaly_bbox_w,anomaly_bbox_h,anomaly_gps_lat,anomaly_gps_lon,anomaly_gps_alt_m,ir_temp_delta_c
2024-02-02T11:51:00.000Z,MISSION_0041,0,0,takeoff,SITE_DEL_002,28.6139038,77.2089966,1.5,354.74,0.0,0.101,0.57,1.4063,-1.0098,354.74,-0.99884,-0.01185,0.00936,0.04577,-0.0377,0.0027,-9.7649,-0.1734,0.5637,0.1862,0.0844,3,19,0.65,0.93,0.2,24.727,19.61,98.4,40.9,21638.0,7452,7180,7501,7182,57.9,56.7,55.6,58.1,2.745,2.896,2.852,2.901,1.24,261.0,33.2,67.2,1008.26,-30.81,1.01,1.15,24.6,40.0,35.1,0,no_anomaly,0.0,0,0,0,0,28.6139038,77.2089966,1.5,0.0
2024-02-02T11:51:00.100Z,MISSION_0041,1,0,takeoff,SITE_DEL_002,28.613907,77.2089989,3.0,356.2,0.556,0.018,0.79,1.4152,-0.0991,356.2033,-0.99937,-0.01231,0.00127,0.03311,0.081,0.0382,-9.7525,-0.2053,0.03,0.1607,0.0989,3,15,0.55,0.68,0.2,24.713,19.65,98.3,42.0,21622.0,7464,7292,7290,7188,59.5,59.3,58.7,53.1,2.895,2.966,2.654,2.854,1.21,264.3,32.7,67.3,1008.24,-36.51,-0.6,1.76,27.7,47.0,34.0,0,no_anomaly,0.0,0,0,0,0,28.613907,77.2089989,3.0,0.0
2024-02-02T11:51:00.200Z,MISSION_0041,2,0,takeoff,SITE_DEL_002,28.613912,77.2090009,4.5,358.04,0.22,0.107,1.34,2.85,-2.0582,358.0403,-0.99939,-0.02455,0.01838,0.01665,-0.0637,-0.0073,-9.7579,-0.4867,-0.1698,-0.3057,0.1405,3,16,0.58,1.05,0.28,24.779,19.09,98.2,40.5,21606.0,7268,7294,7425,7510,58.4,59.3,57.9,56.3,2.711,2.528,2.76,2.876,1.17,255.8,33.1,66.2,1008.4,-32.38,0.04,1.79,26.3,47.2,37.2,0,no_anomaly,0.0,0,0,0,0,28.613912,77.2090009,4.5,0.0
2024-02-02T11:51:00.300Z,MISSION_0041,3,0,takeoff,SITE_DEL_002,28.613914,77.2089991,5.0,358.6,0.305,0.043,1.56,-1.0423,1.4547,358.6043,-0.99981,0.00894,-0.0128,0.01206,0.046,-0.0088,-9.832,0.2574,-0.4637,0.2551,0.0,3,17,0.79,0.99,0.48,24.742,21.62,98.1,40.5,21591.0,7299,7479,7383,7332,60.3,55.8,57.8,60.2,3.062,2.715,2.823,2.724,0.49,253.4,33.1,66.5,1008.29,-30.86,1.02,1.74,31.0,45.8,38.1,0,no_anomaly,0.0,0,0,0,0,28.613914,77.2089991,5.0,0.0
2024-02-02T11:51:00.400Z,MISSION_0041,4,0,takeoff,SITE_DEL_002,28.613911,77.2089989,5.0,0.27,0.226,0.093,1.23,-1.2322,0.6714,0.2688,0.99992,-0.01077,0.00583,0.00241,0.0107,-0.0331,-9.9058,0.3302,0.4716,-0.0867,0.1421,3,12,0.71,0.74,0.31,24.766,16.46,98.1,40.8,21575.0,7145,7591,7201,7477,57.4,58.2,55.7,59.1,2.576,2.87,2.587,2.647,1.05,259.1,33.3,67.2,1008.38,-30.83,0.45,1.69,29.5,38.4,35.0,0,no_anomaly,0.0,0,0,0,0,28.613911,77.2089989,5.0,0.0
2024-02-02T11:51:00.500Z,MISSION_0041,5,0,takeoff,SITE_DEL_002,28.6139058,77.2089957,5.0,1.51,0.047,0.114,0.81,1.0964,-2.6819,1.5096,0.99959,0.00987,-0.02327,0.01339,-0.0229,-0.0143,-9.7696,-0.7241,-0.0453,0.4224,0.1694,3,10,0.83,0.71,0.36,24.745,18.04,98.0,40.4,21559.0,7507,7588,7465,7469,60.1,56.0,56.8,56.4,2.795,2.797,2.597,3.008,1.63,264.7,33.2,65.9,1008.47,-29.04,-1.41,1.08,26.0,41.8,34.5,0,no_anomaly,0.0,0,0,0,0,28.6139058,77.2089957,5.0,0.0
2024-02-02T11:51:00.600Z,MISSION_0041,6,0,takeoff,SITE_DEL_002,28.6139082,77.2090001,5.0,3.82,0.142,0.128,0.91,-1.1805,-0.0603,3.8198,0.99939,-0.01028,-0.00087,0.03332,0.0336,0.0174,-9.8464,0.8314,-0.6367,0.0321,0.1141,3,15,0.76,1.22,0.2,24.809,16.42,97.9,40.3,21543.0,7509,7286,7284,7268,55.9,57.8,57.6,58.4,2.786,2.93,2.788,2.768,1.39,252.9,33.0,65.9,1008.26,-26.15,-0.39,1.36,24.9,43.4,35.0,0,no_anomaly,0.0,0,0,0,0,28.6139082,77.2090001,5.0,0.0
2024-02-02T11:51:00.700Z,MISSION_0041,7,0,takeoff,SITE_DEL_002,28.6139104,77.2090005,5.0,4.37,0.138,0.114,1.16,-1.4533,-4.5302,4.3706,0.99843,-0.01116,-0.03997,0.0376,0.0568,-0.0748,-9.8019,0.36,-0.3548,-0.3705,0.1149,3,15,0.78,0.9,0.4,24.709,20.15,97.9,41.5,21527.0,7515,7419,7517,7367,59.1,57.4,61.0,59.2,2.795,2.696,2.78,2.856,0.8,259.4,32.9,66.4,1008.37,-32.8,0.61,1.72,32.0,41.7,34.7,0,no_anomaly,0.0,0,0,0,0,28.6139104,77.2090005,5.0,0.0
2024-02-02T11:51:00.800Z,MISSION_0041,8,0,takeoff,SITE_DEL_002,28.6139123,77.2090034,5.0,3.81,0.0,0.187,1.42,-1.9925,-2.9614,3.8122,0.99898,-0.01651,-0.0264,0.0328,-0.0614,-0.0234,-9.8846,0.6067,-0.1027,0.1748,0.0844,3,15,0.77,1.15,0.37,24.774,20.53,97.8,40.5,21512.0,7432,7281,7500,7504,57.6,60.4,57.5,56.1,2.528,2.837,2.699,2.781,1.71,263.7,32.9,66.5,1008.37,-29.56,2.48,1.83,26.6,46.6,36.9,0,no_anomaly,0.0,0,0,0,0,28.6139123,77.2090034,5.0,0.0
2024-02-02T11:51:00.900Z,MISSION_0041,9,0,takeoff,SITE_DEL_002,28.6139154,77.2090106,5.0,4.3,0.0,0.129,2.08,0.8024,-3.1571,4.2989,0.99889,0.00803,-0.02727,0.03768,-0.1456,-0.017,-9.7501,0.053,0.1599,0.4807,0.0452,3,12,0.69,0.87,0.22,24.721,15.32,97.7,41.4,21496.0,7479,7408,7233,7292,57.8,61.3,58.2,58.3,2.706,3.099,2.705,2.973,0.93,261.0,33.6,67.3,1008.13,-30.93,0.56,1.66,29.9,41.1,36.4,0,no_anomaly,0.0,0,0,0,0,28.6139154,77.2090106,5.0,0.0
2024-02-02T11:51:01.000Z,MISSION_0041,10,0,takeoff,SITE_DEL_002,28.6139153,77.2090112,5.0,5.21,0.0,0.103,2.1,-2.0576,-2.1784,5.2146,0.99864,-0.01707,-0.0198,0.04513,-0.0804,0.0779,-9.7767,-0.3348,0.0191,-0.5208,0.1075,3,16,0.58,0.94,0.22,24.766,20.27,97.6,41.8,21480.0,7348,7477,7369,7408,60.8,61.2,57.4,61.1,2.757,2.975,2.844,2.817,2.01,259.5,32.8,67.6,1008.2,-27.33,-0.83,1.34,29.0,42.5,35.6,0,no_anomaly,0.0,0,0,0,0,28.6139153,77.2090112,5.0,0.0
2024-02-02T11:51:01.100Z,MISSION_0041,11,0,takeoff,SITE_DEL_002,28.6139146,77.2090136,5.0,5.06,0.003,0.068,2.23,0.4383,-2.7382,5.0637,0.99873,0.00488,-0.0237,0.04425,0.0429,-0.0236,-9.7805,-0.0949,-0.3768,-0.0108,0.145,3,17,0.78,1.1,0.44,24.767,16.55,97.6,42.0,21464.0,7314,7392,7545,7234,55.3,55.8,56.0,58.4,2.772,2.87,2.998,2.721,0.92,264.4,32.9,66.9,1008.21,-33.39,-1.62,1.92,28.4,47.5,36.3,0,no_anomaly,0.0,0,0,0,0,28.6139146,77.2090136,5.0,0.0
2024-02-02T11:51:01.200Z,MISSION_0041,12,0,takeoff,SITE_DEL_002,28.6139128,77.2090152,5.0,7.12,0.072,0.076,2.21,-1.2223,-2.7584,7.1231,0.99774,-0.00915,-0.02468,0.06184,0.0681,0.0365,-9.7799,-0.2128,0.5046,-0.0789,0.1768,3,11,0.78,0.76,0.26,24.759,21.66,97.5,41.7,21449.0,7082,7195,7323,7677,59.5,55.9,57.1,58.5,2.751,2.847,2.897,2.617,1.05,258.8,32.9,67.2,1008.37,-31.47,-0.6,1.85,26.0,41.6,34.2,0,no_anomaly,0.0,0,0,0,0,28.6139128,77.2090152,5.0,0.0
2024-02-02T11:51:01.300Z,MISSION_0041,13,0,takeoff,SITE_DEL_002,28.6139141,77.2090091,5.0,6.78,0.178,0.03,1.87,-1.1714,-0.8676,6.7809,0.99817,-0.00976,-0.00816,0.05906,-0.1253,-0.0311,-9.7752,-0.0418,-0.3049,-0.3074,0.133,3,20,0.64,0.77,0.27,24.75,20.81,97.4,41.0,21433.0,7166,7490,7367,7410,59.3,58.6,60.8,60.4,2.783,2.59,3.262,2.67,2.01,258.0,33.1,67.3,1008.1,-27.33,1.42,1.47,28.4,43.9,37.0,0,no_anomaly,0.0,0,0,0,0,28.6139141,77.2090091,5.0,0.0
2024-02-02T11:51:01.400Z,MISSION_0041,14,0,takeoff,SITE_DEL_002,28.6139108,77.2090089,5.0,3.5,0.188,0.245,1.56,0.4592,-1.1171,3.4953,0.99948,0.0043,-0.00962,0.03054,-0.0127,0.0484,-9.7475,-0.0972,-0.018,0.2315,0.1096,3,19,0.73,0.88,0.32,24.782,14.24,97.3,41.1,21417.0,7644,7370,7230,7474,56.2,56.7,61.4,62.7,2.889,2.854,2.655,2.919,0.7,260.4,32.8,67.4,1008.41,-27.39,-0.81,1.0,28.8,49.0,38.6,0,no_anomaly,0.0,0,0,0,0,28.6139108,77.2090089,5.0,0.0
2024-02-02T11:51:01.500Z,MISSION_0041,15,0,takeoff,SITE_DEL_002,28.613912,77.20901,5.0,3.37,0.0,0.137,1.74,-2.1958,-3.4469,3.3667,0.99895,-0.01826,-0.03062,0.02878,0.055,-0.0656,-9.7808,-0.705,-0.205,-0.4205,0.1493,3,11,0.84,0.95,0.4,24.736,20.3,97.3,41.2,21401.0,7337,7409,7293,7462,59.3,59.4,56.8,54.9,2.867,2.735,3.0,2.853,2.58,260.4,33.1,67.5,1008.44,-28.45,-0.81,1.22,31.1,39.9,36.1,0,no_anomaly,0.0,0,0,0,0,28.613912,77.20901,5.0,0.0
2024-02-02T11:51:01.600Z,MISSION_0041,16,0,takeoff,SITE_DEL_002,28.6139177,77.2090078,5.0,359.01,0.069,0.069,2.15,-2.71,-2.3378,359.0148,-0.99947,0.02382,0.02019,0.00908,-0.1145,0.0491,-9.8193,-0.4498,-0.2055,0.0745,0.1413,3,15,0.7,0.98,0.47,24.722,15.62,97.2,41.1,21385.0,7431,7342,7256,7304,56.9,58.3,57.8,58.1,2.802,2.873,2.457,2.634,1.37,263.1,33.4,66.9,1008.25,-29.9,0.63,1.45,28.9,40.8,33.0,0,no_anomaly,0.0,0,0,0,0,28.6139177,77.2090078,5.0,0.0
2024-02-02T11:51:01.700Z,MISSION_0041,17,0,takeoff,SITE_DEL_002,28.6139228,77.2090022,5.0,359.75,0.321,0.176,2.55,-1.7485,-4.5463,359.7461,-0.99909,0.01533,0.03963,0.00282,-0.0333,-0.0516,-9.8061,0.3794,-0.6237,0.4683,0.0505,3,20,0.82,0.71,0.45,24.689,21.0,97.1,42.1,21370.0,7183,7264,7202,7201,59.0,59.4,57.6,62.1,2.684,2.636,2.979,3.069,1.29,271.6,32.9,67.3,1008.51,-28.26,-0.82,1.04,31.3,48.8,35.5,0,no_anomaly,0.0,0,0,0,0,28.6139228,77.2090022,5.0,0.0
2024-02-02T11:51:01.800Z,MISSION_0041,18,0,takeoff,SITE_DEL_002,28.6139233,77.2089991,5.0,358.63,0.279,0.166,2.6,-1.9687,-2.8946,358.6322,-0.99946,0.01747,0.02505,0.01236,-0.1347,0.0137,-9.7297,-0.413,-0.0509,0.0787,0.1405,3,10,0.7,0.78,0.3,24.793,16.74,97.1,40.0,21354.0,7516,7431,7303,7295,55.3,57.1,57.2,59.0,2.732,2.772,2.733,2.942,1.44,253.4,33.0,66.9,1008.19,-27.49,-0.93,1.68,28.0,38.4,36.7,0,no_anomaly,0.0,0,0,0,0,28.6139233,77.2089991,5.0,0.0
2024-02-02T11:51:01.900Z,MISSION_0041,19,0,takeoff,SITE_DEL_002,28.6139232,77.2090043,5.0,357.87,0.496,0.092,2.63,0.9632,-3.8993,357.8741,-0.99922,-0.00777,0.03417,0.01825,0.0036,0.088,-9.8481,0.2905,-0.4134,0.3827,0.2004,3,18,0.65,0.78,0.2,24.759,18.23,97.0,40.9,21338.0,7545,7622,7245,7354,61.5,60.2,61.3,59.8,2.796,2.907,2.858,2.79,1.37,255.7,32.9,66.2,1008.13,-30.68,-0.26,1.47,24.5,42.2,36.7,0,no_anomaly,0.0,0,0,0,0,28.6139232,77.2090043,5.0,0.0
2024-02-02T11:51:02.000Z,MISSION_0041,20,0,takeoff,SITE_DEL_002,28.6139234,77.2090022,5.0,358.84,1.019,0.126,2.62,-1.7076,-1.8036,358.836,-0.99971,0.01506,0.01558,0.01039,0.0732,-0.0608,-9.7777,0.8529,0.294,-0.1669,0.1469,3,13,0.74,0.81,0.37,24.694,14.73,96.9,41.4,21322.0,7662,7490,7403,7449,58.8,57.5,59.6,56.9,2.643,2.656,2.77,2.809,1.97,265.9,33.3,67.0,1007.98,-34.35,-0.07,1.1,30.1,44.7,36.0,0,no_anomaly,0.0,0,0,0,0,28.6139234,77.2090022,5.0,0.0
2024-02-02T11:51:02.100Z,MISSION_0041,21,0,takeoff,SITE_DEL_002,28.6139307,77.2090037,5.0,357.96,0.834,0.058,3.44,-3.9867,-1.4649,357.9638,-0.99915,0.035,0.01216,0.0182,0.0011,-0.0582,-9.8394,0.5056,-0.2722,0.1877,0.1646,3,15,0.72,0.85,0.31,24.751,19.77,96.8,41.3,21307.0,7142,7508,7325,7471,60.3,57.8,57.9,57.4,2.932,2.892,2.764,2.785,2.25,254.3,33.4,67.0,1008.11,-27.88,1.05,1.68,28.0,43.0,33.9,0,no_anomaly,0.0,0,0,0,0,28.6139307,77.2090037,5.0,0.0
2024-02-02T11:51:02.200Z,MISSION_0041,22,0,takeoff,SITE_DEL_002,28.6139298,77.2090017,5.0,355.18,0.355,0.181,3.32,0.7494,-4.5022,355.1833,-0.99834,-0.00488,0.03952,0.04173,0.0962,-0.0288,-9.8408,-1.098,0.2568,-0.231,0.1808,3,12,0.6,0.92,0.2,24.771,16.55,96.8,40.4,21291.0,7422,7166,7239,7194,58.5,58.1,61.4,59.1,2.995,2.768,2.95,2.689,2.29,260.2,33.2,67.4,1007.91,-32.26,-0.93,1.27,24.5,42.8,34.2,0,no_anomaly,0.0,0,0,0,0,28.6139298,77.2090017,5.0,0.0
2024-02-02T11:51:02.300Z,MISSION_0041,23,0,takeoff,SITE_DEL_002,28.613929,77.2090006,5.0,355.92,0.242,0.189,3.23,-1.3352,-3.2461,355.9152,-0.99888,0.01265,0.02789,0.03595,0.0789,-0.0677,-9.8161,-0.0436,-0.2615,0.3238,0.156,3,18,0.63,1.05,0.25,24.709,22.08,96.7,40.9,21275.0,7270,7519,7339,7363,56.9,58.1,56.2,56.0,2.856,2.755,2.645,2.748,1.0,261.4,33.2,67.0,1008.06,-32.46,0.06,1.63,31.7,49.1,34.8,0,no_anomaly,0.0,0,0,0,0,28.613929,77.2090006,5.0,0.0
2024-02-02T11:51:02.400Z,MISSION_0041,24,0,takeoff,SITE_DEL_002,28.6139339,77.2089985,5.0,355.65,0.0,0.02,3.78,1.1307,-3.1504,355.65,-0.99886,-0.00881,0.02784,0.03766,0.0354,0.0644,-9.7762,0.1781,0.4577,0.1473,0.1138,3,19,0.71,0.72,0.31,24.654,14.77,96.6,40.7,21259.0,7316,7216,7637,7519,58.5,56.6,56.7,57.4,2.848,2.725,2.697,2.998,0.94,254.4,33.2,66.8,1008.0,-29.99,-0.3,1.91,27.9,38.0,35.0,0,no_anomaly,0.0,0,0,0,0,28.6139339,77.2089985,5.0,0.0
2024-02-02T11:51:02.500Z,MISSION_0041,25,0,takeoff,SITE_DEL_002,28.6139336,77.2090036,5.0,353.9,0.193,0.12,3.77,-3.5629,-2.4726,353.8998,-0.99783,0.03218,0.01988,0.05384,-0.0101,-0.0318,-9.8344,0.7451,0.4227,-0.0229,0.0639,3,10,0.8,0.64,0.34,24.717,19.39,96.6,42.1,21243.0,7126,7597,7228,7292,56.6,58.8,59.7,58.6,2.772,2.759,2.777,2.63,0.68,265.2,33.1,66.7,1007.91,-31.03,-1.12,1.58,28.9,42.5,36.8,0,no_anomaly,0.0,0,0,0,0,28.6139336,77.2090036,5.0,0.0
2024-02-02T11:51:02.600Z,MISSION_0041,26,0,takeoff,SITE_DEL_002,28.6139345,77.2090019,5.0,352.58,0.029,0.124,3.84,-1.3867,-3.2444,352.5766,-0.99741,0.0139,0.02746,0.06505,-0.0067,-0.0163,-9.7906,-0.2087,0.0956,0.3942,0.1344,3,17,0.72,1.01,0.3,24.753,20.11,96.5,40.4,21228.0,7246,7268,7391,7376,55.3,60.0,56.0,58.2,2.755,2.823,2.693,2.735,2.11,261.5,32.9,66.7,1008.27,-29.05,-0.03,1.14,31.7,40.4,37.1,0,no_anomaly,0.0,0,0,0,0,28.6139345,77.2090019,5.0,0.0
2024-02-02T11:51:02.700Z,MISSION_0041,27,0,takeoff,SITE_DEL_002,28.6139355,77.2090005,5.0,355.18,0.0,0.04,3.95,1.5223,-1.1366,355.1758,-0.99898,-0.01285,0.01047,0.04195,0.051,0.0847,-9.8912,0.6225,0.8011,0.3558,0.2036,3,10,0.66,0.94,0.24,24.604,17.05,96.4,41.5,21212.0,7366,7519,7193,6902,56.4,59.2,60.5,59.3,3.051,2.991,2.849,2.534,1.75,251.6,33.2,67.1,1008.19,-31.83,0.83,1.5,31.8,48.9,38.3,0,no_anomaly,0.0,0,0,0,0,28.6139355,77.2090005,5.0,0.0
2024-02-02T11:51:02.800Z,MISSION_0041,28,0,takeoff,SITE_DEL_002,28.6139411,77.2090017,5.0,354.14,0.593,0.046,4.58,0.2079,-2.1948,354.1415,-0.99851,-0.00083,0.01922,0.05106,-0.0573,0.0564,-9.8551,-0.9495,-0.3522,-0.087,0.0,3,12,0.65,0.71,0.21,24.653,18.51,96.3,41.6,21196.0,7295,7498,7215,7580,58.8,59.8,58.5,56.5,2.927,2.728,2.786,2.593,2.58,261.8,33.0,67.6,1008.02,-32.7,-2.39,1.64,27.7,41.6,35.5,0,no_anomaly,0.0,0,0,0,0,28.6139411,77.2090017,5.0,0.0
2024-02-02T11:51:02.900Z,MISSION_0041,29,0,takeoff,SITE_DEL_002,28.6139449,77.2089945,5.0,354.14,0.483,0.097,5.03,-0.3491,-2.3467,354.1352,-0.99847,0.00409,0.02029,0.05121,-0.05,-0.0075,-9.8117,0.2946,-0.8223,0.2094,0.1245,3,17,0.5,1.04,0.2,24.67,21.93,96.3,41.0,21180.0,7435,7320,7518,7446,59.6,56.3,58.3,59.4,2.828,3.044,2.798,2.617,1.17,266.9,33.2,66.7,1007.99,-31.99,0.71,1.02,28.5,41.0,34.2,0,no_anomaly,0.0,0,0,0,0,28.6139449,77.2089945,5.0,0.0
2024-02-02T11:51:03.000Z,MISSION_0041,30,0,takeoff,SITE_DEL_002,28.6139418,77.2089913,5.0,351.42,0.337,0.084,4.76,-0.9878,0.4911,351.4196,-0.99715,0.00828,-0.00492,0.07477,0.0097,-0.0089,-9.744,-0.2399,-0.4227,-0.341,0.0819,3,12,0.61,0.84,0.27,24.66,26.19,96.2,40.7,21165.0,7462,7314,7694,7351,55.8,56.3,56.3,59.4,2.884,2.79,2.433,3.009,0.93,253.9,33.2,67.6,1008.2,-31.6,-0.5,1.21,29.0,46.2,36.7,0,no_anomaly,0.0,0,0,0,0,28.6139418,77.2089913,5.0,0.0
2024-02-02T11:51:03.100Z,MISSION_0041,31,0,takeoff,SITE_DEL_002,28.6139432,77.2089873,5.0,351.65,0.361,0.172,5.02,-3.2731,-0.7841,351.648,-0.9969,0.02898,0.00474,0.07298,-0.0974,-0.0221,-9.7967,-0.5707,0.9212,-0.1661,0.0057,3,13,0.72,0.76,0.37,24.876,21.9,96.1,40.5,21149.0,7434,7245,7518,7149,58.4,57.0,58.2,59.8,2.608,2.791,2.773,2.571,1.61,256.4,33.1,67.4,1008.11,-28.06,0.23,1.84,31.1,44.8,38.4,0,no_anomaly,0.0,0,0,0,0,28.6139432,77.2089873,5.0,0.0
2024-02-02T11:51:03.200Z,MISSION_0041,32,0,takeoff,SITE_DEL_002,28.6139427,77.2089871,5.0,350.8,0.606,0.139,4.96,-3.5402,-1.8167,350.8005,-0.99614,0.03206,0.01332,0.08063,0.1424,-0.0213,-9.8568,-0.3263,0.9214,0.2979,0.0791,3,16,0.61,0.83,0.2,24.683,18.9,96.1,41.2,21133.0,7205,7257,7407,7445,60.5,61.2,57.6,55.9,2.81,2.544,2.801,2.833,1.12,258.5,32.9,66.6,1008.18,-30.4,-2.2,1.14,28.0,45.2,35.0,0,no_anomaly,0.0,0,0,0,0,28.6139427,77.2089871,5.0,0.0
2024-02-02T11:51:03.300Z,MISSION_0041,33,0,takeoff,SITE_DEL_002,28.6139425,77.2089911,5.0,351.07,0.608,0.11,4.83,-1.6334,-4.2695,351.0663,-0.99613,0.0171,0.03602,0.07835,-0.078,0.0028,-9.9348,-0.6695,0.259,0.166,0.2295,3,15,0.63,1.09,0.2,24.659,22.23,96.0,41.3,21117.0,7582,7294,7354,7119,56.4,57.2,56.1,60.7,2.578,2.88,2.902,2.751,1.23,251.5,33.0,67.3,1008.29,-27.63,-0.16,1.08,27.8,39.9,36.7,0,no_anomaly,0.0,0,0,0,0,28.6139425,77.2089911,5.0,0.0
2024-02-02T11:51:03.400Z,MISSION_0041,34,0,takeoff,SITE_DEL_002,28.6139433,77.2089924,5.0,348.45,0.635,0.145,4.89,0.7126,2.252,348.4469,-0.9947,-0.00816,-0.01893,0.10075,0.0688,-0.041,-9.8119,-0.4875,0.3014,0.1969,0.073,3,17,0.68,0.93,0.27,24.645,17.79,95.9,41.3,21101.0,7799,7260,7255,7035,58.0,56.1,55.5,58.5,2.78,2.894,2.6,2.755,1.64,261.4,33.0,66.6,1008.28,-29.67,-0.33,1.44,27.2,40.5,38.2,0,no_anomaly,0.0,0,0,0,0,28.6139433,77.2089924,5.0,0.0
2024-02-02T11:51:03.500Z,MISSION_0041,35,0,takeoff,SITE_DEL_002,28.6139438,77.2089898,5.0,346.08,0.472,0.082,5.0,0.5526,-1.6026,346.0751,-0.99253,-0.00309,0.01447,0.12114,0.042,-0.054,-9.7496,-1.1717,0.8639,-0.3608,0.1939,3,14,0.73,1.09,0.42,24.658,16.43,95.8,41.7,21086.0,7129,7468,7227,7049,60.2,62.8,54.9,60.5,2.636,2.548,3.257,2.994,1.26,256.0,32.9,66.5,1008.33,-33.63,0.65,1.25,30.2,40.1,37.2,0,no_anomaly,0.0,0,0,0,0,28.6139438,77.2089898,5.0,0.0
2024-02-02T11:51:03.600Z,MISSION_0041,36,0,takeoff,SITE_DEL_002,28.6139478,77.2089893,5.0,347.21,0.592,0.07,5.45,3.4123,-2.902,347.2079,-0.9931,-0.02676,0.02847,0.11057,-0.1492,-0.0105,-9.7914,0.1184,-0.1763,0.104,0.101,3,20,0.77,0.98,0.26,24.655,17.81,95.8,41.1,21070.0,7387,7429,7187,7420,58.7,63.8,57.8,61.3,2.977,2.81,2.584,2.941,1.6,257.2,33.1,66.3,1008.51,-25.04,0.64,1.23,25.6,41.9,35.8,0,no_anomaly,0.0,0,0,0,0,28.6139478,77.2089893,5.0,0.0
2024-02-02T11:51:03.700Z,MISSION_0041,37,0,takeoff,SITE_DEL_002,28.613948,77.2089965,5.0,346.2,0.751,0.04,5.36,1.0791,-0.7899,346.1993,-0.9927,-0.00852,0.00797,0.12007,0.058,-0.0454,-9.8542,0.1275,0.659,-0.1028,0.1418,3,20,0.68,0.95,0.2,24.651,14.35,95.7,40.2,21054.0,7524,7387,7385,7175,58.7,57.1,58.3,56.1,2.773,2.94,2.509,2.849,1.33,257.1,33.1,67.6,1008.41,-31.48,0.08,2.43,30.0,43.6,34.5,0,no_anomaly,0.0,0,0,0,0,28.613948,77.2089965,5.0,0.0
2024-02-02T11:51:03.800Z,MISSION_0041,38,0,takeoff,SITE_DEL_002,28.6139458,77.2089924,5.0,342.29,0.92,0.068,5.17,1.0646,-5.0828,342.2889,-0.98713,-0.00234,0.04524,0.15338,0.1193,-0.0091,-9.7981,-0.6375,-0.1595,0.5396,0.1688,3,12,0.71,0.87,0.31,24.71,16.43,95.6,41.1,21038.0,7355,7219,7294,7348,59.6,58.7,61.1,57.9,2.928,2.647,3.004,2.73,0.15,254.7,32.7,66.9,1008.09,-30.12,0.29,1.09,24.1,44.6,36.3,0,no_anomaly,0.0,0,0,0,0,28.6139458,77.2089924,5.0,0.0
2024-02-02T11:51:03.900Z,MISSION_0041,39,0,takeoff,SITE_DEL_002,28.6139491,77.2089962,5.0,341.7,1.157,0.081,5.48,2.5272,-1.6038,341.6972,-0.98698,-0.01954,0.01732,0.15869,-0.0081,-0.0705,-9.8255,-0.7285,0.0888,-0.7127,0.1194,3,19,0.74,0.92,0.34,24.666,18.99,95.6,41.7,21022.0,7305,7324,7211,7390,61.3,58.9,59.4,57.9,2.965,2.817,2.885,2.926,2.07,257.2,32.8,67.1,1008.05,-30.86,0.4,1.37,27.9,47.0,35.6,0,no_anomaly,0.0,0,0,0,0,28.6139491,77.2089962,5.0,0.0
2024-02-02T11:51:04.000Z,MISSION_0041,40,0,takeoff,SITE_DEL_002,28.6139463,77.2089911,5.0,340.05,1.222,0.075,5.25,0.2433,-1.6276,340.0543,-0.98479,0.00037,0.01436,0.17313,-0.105,0.0267,-9.8346,0.0249,0.3692,0.2898,0.124,3,15,0.56,0.69,0.28,24.673,13.16,95.5,41.5,21007.0,7024,7185,7220,7336,55.9,58.7,58.8,55.4,2.981,2.729,2.858,2.811,1.74,260.0,32.9,67.2,1008.39,-33.7,-0.84,2.16,29.9,46.0,38.0,0,no_anomaly,0.0,0,0,0,0,28.6139463,77.2089911,5.0,0.0
2024-02-02T11:51:04.100Z,MISSION_0041,41,0,takeoff,SITE_DEL_002,28.6139446,77.2089895,5.0,339.06,0.682,0.088,5.1,-0.1638,1.9062,339.0554,-0.98321,-0.00162,-0.01662,0.18171,-0.012,-0.0991,-9.7787,0.287,0.4848,0.1955,0.1551,3,18,0.73,0.7,0.34,24.683,14.85,95.4,41.7,20991.0,7316,7426,7416,7250,57.7,56.7,57.4,57.8,2.649,2.934,2.783,2.657,1.45,257.4,33.1,66.5,1008.42,-34.61,-0.37,1.2,29.5,44.1,34.1,0,no_anomaly,0.0,0,0,0,0,28.6139446,77.2089895,5.0,0.0
2024-02-02T11:51:04.200Z,MISSION_0041,42,0,takeoff,SITE_DEL_002,28.61395,77.2089944,5.0,336.49,0.367,0.144,5.61,2.6561,-2.0546,336.489,-0.97869,-0.01904,0.02227,0.20324,-0.0957,-0.0156,-9.8047,0.4481,0.1292,-0.454,0.1742,3,10,0.5,0.67,0.2,24.653,15.3,95.3,41.1,20975.0,7550,7373,7178,7223,57.1,61.4,60.0,57.5,2.767,2.963,2.891,2.704,1.75,255.4,33.0,66.2,1008.22,-27.74,0.76,1.0,25.1,40.3,37.3,0,no_anomaly,0.0,0,0,0,0,28.61395,77.2089944,5.0,0.0
2024-02-02T11:51:04.300Z,MISSION_0041,43,0,takeoff,SITE_DEL_002,28.6139495,77.2089925,5.0,334.22,0.244,0.058,5.57,-4.1068,-1.9563,334.2154,-0.97389,0.03873,0.00864,0.22354,-0.1048,-0.0207,-9.8598,-0.0313,-1.1873,-0.0262,0.2004,3,11,0.58,0.77,0.27,24.692,23.23,95.3,42.1,20959.0,7341,7403,7506,7693,58.9,60.3,58.7,59.3,2.681,2.738,2.622,2.775,1.15,256.9,32.8,67.0,1008.58,-31.54,-0.24,1.81,29.2,43.1,35.9,0,no_anomaly,0.0,0,0,0,0,28.6139495,77.2089925,5.0,0.0
2024-02-02T11:51:04.400Z,MISSION_0041,44,0,transit,SITE_DEL_002,28.6139536,77.2089935,5.5,333.64,0.221,0.034,6.02,-5.3485,-1.283,333.6407,-0.97242,0.04798,0.00025,0.22825,-0.0196,-0.0854,-9.9835,-0.8625,0.0711,-0.2426,0.1141,3,10,0.8,0.69,0.3,24.71,15.11,95.2,40.8,20944.0,7502,7450,7410,7181,58.9,57.0,56.5,55.8,2.468,2.753,2.562,2.91,0.9,257.7,33.2,66.5,1008.34,-31.26,-0.62,1.63,25.4,45.8,35.9,0,no_anomaly,0.0,0,0,0,0,28.6139536,77.2089935,5.5,0.0
2024-02-02T11:51:04.500Z,MISSION_0041,45,0,transit,SITE_DEL_002,28.6139493,77.2089955,6.0,333.27,0.604,0.192,5.51,2.5823,-1.5111,333.2665,-0.97265,-0.01887,0.01803,0.23082,0.0249,-0.0424,-9.8064,-0.371,-0.04,0.0672,0.0923,3,14,0.53,1.0,0.21,24.64,18.21,95.1,41.0,20928.0,7468,7423,7129,7463,57.8,55.4,59.9,58.1,2.739,2.73,2.676,2.807,1.81,257.2,33.1,66.3,1008.02,-30.59,1.21,2.14,28.0,38.6,33.4,0,no_anomaly,0.0,0,0,0,0,28.6139493,77.2089955,6.0,0.0
2024-02-02T11:51:04.600Z,MISSION_0041,46,0,transit,SITE_DEL_002,28.6139487,77.2089954,6.5,333.09,0.788,0.081,5.45,2.1114,-2.5702,333.0905,-0.97224,-0.0127,0.02609,0.23218,-0.0817,-0.0258,-9.7748,-0.1475,-0.3554,-0.5878,0.0928,3,19,0.79,0.96,0.25,24.702,14.43,95.1,41.8,20912.0,7037,7290,7356,7319,59.1,56.9,58.3,59.9,2.866,2.775,2.611,2.751,1.5,254.0,33.1,66.8,1008.3,-32.67,-0.02,1.34,26.4,48.1,38.9,0,no_anomaly,0.0,0,0,0,0,28.6139487,77.2089954,6.5,0.0
2024-02-02T11:51:04.700Z,MISSION_0041,47,0,transit,SITE_DEL_002,28.6139505,77.2090002,7.0,331.07,0.723,0.171,5.63,-0.8158,-5.646,331.0721,-0.96702,0.01919,0.04591,0.2498,-0.0751,-0.0474,-9.7709,0.7377,0.1158,0.1686,0.1656,3,13,0.72,0.73,0.25,24.614,17.71,95.0,41.3,20896.0,7591,7269,7386,7240,59.7,55.6,58.2,57.9,2.999,2.571,2.671,2.805,1.33,253.5,32.9,67.4,1008.3,-31.17,1.03,1.78,28.2,41.1,38.1,0,no_anomaly,0.0,0,0,0,0,28.6139505,77.2090002,7.0,0.0
2024-02-02T11:51:04.800Z,MISSION_0041,48,0,transit,SITE_DEL_002,28.613948,77.2089969,7.5,329.71,0.885,0.008,5.36,0.284,0.4267,329.7065,-0.96525,-0.00336,-0.00295,0.2613,-0.1016,0.0259,-9.7577,0.1534,0.1153,-0.2978,0.1106,3,15,0.62,1.0,0.22,24.629,15.4,94.9,41.5,20880.0,7409,7580,7061,7600,58.1,58.0,58.8,55.8,2.716,2.775,2.739,2.904,1.06,261.1,33.1,65.9,1008.47,-31.21,-1.04,1.43,29.9,40.8,36.7,0,no_anomaly,0.0,0,0,0,0,28.613948,77.2089969,7.5,0.0
2024-02-02T11:51:04.900Z,MISSION_0041,49,0,transit,SITE_DEL_002,28.6139455,77.2089999,8.0,330.53,0.993,0.071,5.06,0.1497,-1.3993,330.5326,-0.96705,0.00184,0.01214,0.25429,0.059,-0.0582,-9.7226,0.755,-0.5223,0.4581,0.0721,3,12,0.67,1.0,0.3,24.649,22.48,94.8,40.7,20865.0,7426,7593,7261,7348,57.3,58.8,57.9,57.7,2.792,2.749,2.795,2.915,1.63,252.9,33.0,67.8,1008.06,-24.74,-1.76,1.54,27.0,46.2,37.5,0,no_anomaly,0.0,0,0,0,0,28.6139455,77.2089999,8.0,0.0
2024-02-02T11:51:05.000Z,MISSION_0041,50,0,transit,SITE_DEL_002,28.6139454,77.2090038,8.5,331.31,1.166,0.055,5.08,-2.5559,-3.5949,331.3064,-0.96792,0.02937,0.02486,0.24828,-0.072,-0.0538,-9.7499,-0.3517,-0.7825,0.4807,0.124,3,10,0.67,1.01,0.26,24.678,15.55,94.8,40.3,20849.0,7244,7453,7553,7356,59.2,56.8,61.6,61.2,2.797,2.757,2.812,2.631,1.19,252.1,33.1,67.6,1008.22,-31.53,0.27,1.36,28.9,43.3,33.6,0,no_anomaly,0.0,0,0,0,0,28.6139454,77.2090038,8.5,0.0
2024-02-02T11:51:05.100Z,MISSION_0041,51,0,transit,SITE_DEL_002,28.6139423,77.2090038,9.0,329.73,0.808,0.094,4.72,-1.9033,-4.3686,329.7283,-0.96431,0.02597,0.03245,0.26149,-0.1046,0.0008,-9.819,-0.2133,-0.823,-0.0471,0.1335,3,10,0.72,1.05,0.2,24.678,15.93,94.7,41.8,20833.0,7277,7441,7289,7259,55.7,58.0,58.7,58.8,2.625,2.701,2.925,2.672,0.56,259.0,33.1,67.5,1008.24,-32.59,-0.59,1.41,29.4,45.0,34.0,0,no_anomaly,0.0,0,0,0,0,28.6139423,77.2090038,9.0,0.0
2024-02-02T11:51:05.200Z,MISSION_0041,52,0,transit,SITE_DEL_002,28.6139437,77.2090016,9.5,327.56,0.768,0.074,4.87,0.5806,-2.0318,327.5567,-0.96005,9e-05,0.01844,0.27922,-0.0115,0.0397,-9.848,-0.312,-0.4334,-0.161,0.0729,3,19,0.62,0.87,0.24,24.764,15.64,94.6,41.9,20817.0,7205,7214,7472,7411,58.6,55.3,58.1,57.4,2.866,2.813,2.599,2.832,2.26,257.6,32.8,67.0,1008.37,-28.97,-1.86,1.21,27.8,41.4,34.4,0,no_anomaly,0.0,0,0,0,0,28.6139437,77.2090016,9.5,0.0
2024-02-02T11:51:05.300Z,MISSION_0041,53,0,transit,SITE_DEL_002,28.613948,77.2090053,10.0,326.94,0.743,0.125,5.38,-0.3429,-3.1856,326.9368,-0.95826,0.01078,0.0258,0.28451,0.0439,0.0215,-9.8404,-0.2332,-0.124,0.6174,0.0874,3,18,0.55,1.18,0.26,24.578,16.63,94.6,39.8,20802.0,7453,7536,7329,7618,52.7,57.2,56.1,60.6,2.783,2.728,2.891,2.714,0.61,259.1,33.3,66.8,1008.31,-30.1,-0.22,1.61,29.3,39.9,37.7,0,no_anomaly,0.0,0,0,0,0,28.613948,77.2090053,10.0,0.0
2024-02-02T11:51:05.400Z,MISSION_0041,54,0,transit,SITE_DEL_002,28.6139465,77.2090021,10.5,324.19,1.398,0.058,5.18,1.0781,-3.089,324.1948,-0.95127,-0.00066,0.02854,0.30703,0.068,0.0292,-9.7058,-0.7504,0.8315,0.3298,0.1896,3,15,0.62,1.24,0.2,24.705,17.87,94.5,42.0,20786.0,7355,7261,7379,7294,57.6,61.0,56.9,54.6,2.601,2.808,2.919,2.859,1.59,271.8,33.2,66.5,1008.35,-31.32,0.96,2.11,29.8,40.9,37.1,0,no_anomaly,0.0,0,0,0,0,28.6139465,77.2090021,10.5,0.0
2024-02-02T11:51:05.500Z,MISSION_0041,55,0,transit,SITE_DEL_002,28.6139441,77.2089992,11.0,324.27,1.526,0.076,4.91,0.5887,-2.7327,324.274,-0.95155,0.00243,0.02427,0.30653,-0.0987,0.0688,-9.692,0.2916,-0.0575,0.1388,0.1247,3,12,0.58,0.99,0.27,24.686,12.52,94.4,40.0,20770.0,7211,7183,7127,7677,56.6,58.7,57.9,58.1,3.043,2.841,2.994,2.822,1.13,256.6,33.1,67.3,1008.25,-31.92,0.66,1.17,23.2,45.2,33.1,0,no_anomaly,0.0,0,0,0,0,28.6139441,77.2089992,11.0,0.0
2024-02-02T11:51:05.600Z,MISSION_0041,56,0,transit,SITE_DEL_002,28.6139457,77.2089976,11.5,326.07,1.604,0.125,5.1,1.8521,-3.4029,326.0697,-0.95608,-0.00679,0.03311,0.29116,0.0333,-0.0247,-9.8236,0.7149,0.0561,0.372,0.1179,3,15,0.55,0.95,0.21,24.587,17.53,94.3,41.3,20754.0,7367,7329,7370,7270,55.4,54.8,61.2,56.5,2.586,2.814,2.872,2.808,2.33,254.1,33.0,67.0,1008.12,-25.54,-0.09,1.65,28.3,41.6,36.9,0,no_anomaly,0.0,0,0,0,0,28.6139457,77.2089976,11.5,0.0
2024-02-02T11:51:05.700Z,MISSION_0041,57,0,transit,SITE_DEL_002,28.613945,77.2089945,12.0,324.68,1.39,0.113,5.05,2.3657,-1.7737,324.6812,-0.95266,-0.01497,0.02101,0.30295,0.0189,0.0213,-9.877,0.6377,0.2093,0.3295,0.1375,3,14,0.73,0.91,0.42,24.64,20.2,94.3,41.4,20738.0,7495,7472,7136,7414,60.2,56.2,56.4,56.8,2.859,3.012,2.861,2.749,1.45,262.8,33.0,67.2,1008.31,-31.52,-2.37,1.33,23.4,37.5,31.2,0,no_anomaly,0.0,0,0,0,0,28.613945,77.2089945,12.0,0.0
2024-02-02T11:51:05.800Z,MISSION_0041,58,0,transit,SITE_DEL_002,28.6139403,77.2089941,12.5,325.91,1.76,0.103,4.54,-0.8139,-1.0062,325.9077,-0.95599,0.00936,0.00631,0.29318,-0.0133,0.0505,-9.7051,0.6705,0.0696,0.2362,0.1876,3,16,0.55,0.95,0.27,24.686,20.15,94.2,41.6,20723.0,7457,7215,7387,7569,62.0,59.9,58.9,59.5,2.573,2.769,2.732,2.941,1.89,264.0,33.2,67.5,1008.32,-23.09,-0.79,1.0,26.1,40.7,33.8,0,no_anomaly,0.0,0,0,0,0,28.6139403,77.2089941,12.5,0.0
2024-02-02T11:51:05.900Z,MISSION_0041,59,0,transit,SITE_DEL_002,28.6139433,77.2089959,13.0,326.71,1.477,0.057,4.84,0.7206,-2.6295,326.7126,-0.95787,0.00055,0.02378,0.2862,-0.0753,0.0132,-9.8317,0.3347,0.5423,-0.0338,0.0647,3,14,0.78,1.08,0.24,24.627,20.09,94.1,40.6,20707.0,7066,7491,7388,7329,55.0,57.9,59.2,57.3,2.71,2.922,2.837,2.539,2.16,266.0,33.1,66.5,1007.59,-27.56,-0.24,1.14,27.6,38.9,32.4,0,no_anomaly,0.0,0,0,0,0,28.6139433,77.2089959,13.0,0.0
2024-02-02T11:51:06.000Z,MISSION_0041,60,0,transit,SITE_DEL_002,28.613939,77.2090007,13.5,326.4,1.517,0.142,4.34,-1.6008,0.1628,326.3989,-0.95723,0.01296,-0.0054,0.28899,-0.0494,0.1164,-9.8978,-0.3252,0.8414,0.2592,0.1276,3,14,0.77,0.84,0.35,24.662,17.14,94.1,41.7,20691.0,7531,7429,7472,7336,55.8,58.2,58.1,59.4,2.687,2.905,2.789,2.745,1.3,259.0,33.0,66.6,1008.09,-31.7,-0.32,1.44,25.3,44.1,32.7,0,no_anomaly,0.0,0,0,0,0,28.613939,77.2090007,13.5,0.0
2024-02-02T11:51:06.100Z,MISSION_0041,61,0,transit,SITE_DEL_002,28.6139389,77.2090013,14.0,328.3,1.6,0.102,4.33,1.985,-4.5858,328.3011,-0.96126,-0.00572,0.04321,0.27218,0.1106,-0.0509,-9.8839,-0.3638,0.2294,-0.4166,0.0772,3,13,0.64,1.0,0.25,24.638,17.8,94.0,41.5,20675.0,7440,7058,7624,7564,56.2,62.7,58.2,56.3,2.466,2.722,2.942,2.987,0.83,257.1,33.2,67.1,1008.34,-31.89,1.01,1.03,30.6,40.0,35.7,0,no_anomaly,0.0,0,0,0,0,28.6139389,77.2090013,14.0,0.0
2024-02-02T11:51:06.200Z,MISSION_0041,62,0,transit,SITE_DEL_002,28.6139342,77.2090047,14.0,330.64,1.431,0.005,3.84,2.3854,0.6201,330.6399,-0.9671,-0.02151,4e-05,0.25347,0.0595,0.0341,-9.7818,0.8177,-0.8645,0.1986,0.1286,3,15,0.76,0.89,0.33,24.679,20.64,93.9,41.7,20660.0,7417,7198,7250,7492,58.3,58.0,57.5,58.1,3.091,2.658,2.656,2.827,1.32,267.4,33.4,67.3,1008.51,-30.9,-0.49,1.57,26.0,41.2,35.8,0,no_anomaly,0.0,0,0,0,0,28.6139342,77.2090047,14.0,0.0
2024-02-02T11:51:06.300Z,MISSION_0041,63,0,transit,SITE_DEL_002,28.6139328,77.208999,14.0,331.0,0.837,0.098,3.65,2.9507,-2.5154,330.9958,-0.96773,-0.01943,0.02769,0.24972,-0.055,-0.0052,-9.8072,-0.0262,-0.1417,-0.3573,0.1225,3,15,0.7,0.65,0.2,24.691,16.7,93.8,40.6,20644.0,7459,7590,7486,7544,58.7,58.8,58.2,58.0,2.999,2.841,2.927,3.186,1.18,263.8,32.9,66.9,1008.7,-28.69,-1.32,1.78,30.8,47.3,38.5,0,no_anomaly,0.0,0,0,0,0,28.6139328,77.208999,14.0,0.0
2024-02-02T11:51:06.400Z,MISSION_0041,64,0,transit,SITE_DEL_002,28.6139334,77.2089984,14.0,333.3,1.043,0.123,3.72,0.6837,-1.5942,333.3008,-0.97289,-0.00259,0.01491,0.23079,-0.0153,0.0975,-9.8512,0.2715,-0.6391,0.0297,0.1077,3,10,0.7,0.96,0.27,24.588,15.63,93.8,41.9,20628.0,7192,7198,7431,7385,57.8,59.6,55.0,59.8,2.448,2.604,2.762,2.816,0.84,258.1,33.5,66.9,1008.12,-31.06,-1.07,1.0,30.7,45.2,37.9,0,no_anomaly,0.0,0,0,0,0,28.6139334,77.2089984,14.0,0.0
2024-02-02T11:51:06.500Z,MISSION_0041,65,0,transit,SITE_DEL_002,28.6139327,77.209001,14.0,331.36,1.18,0.108,3.64,0.513,-2.6692,331.3636,-0.96869,0.00142,0.02367,0.24714,-0.0241,-0.0451,-9.8676,0.3938,-0.4389,0.1978,0.1952,3,19,0.79,1.19,0.2,24.646,10.49,93.7,41.4,20612.0,7422,7501,7599,7197,58.6,61.2,56.7,59.7,2.834,2.718,2.972,2.976,1.7,257.6,33.1,66.6,1008.53,-29.13,-0.37,1.12,27.5,41.2,32.6,0,no_anomaly,0.0,0,0,0,0,28.6139327,77.209001,14.0,0.0
2024-02-02T11:51:06.600Z,MISSION_0041,66,0,transit,SITE_DEL_002,28.6139364,77.2089985,14.0,329.37,1.561,0.097,4.05,-1.4114,-2.5472,329.3747,-0.96412,0.01775,0.01818,0.26426,0.0475,0.0357,-9.8418,-0.5407,-0.025,0.6243,0.1064,3,18,0.78,1.37,0.24,24.702,21.95,93.6,41.3,20596.0,7605,7578,7372,7177,58.1,59.6,60.2,59.7,2.807,2.818,2.811,2.804,2.14,250.1,33.3,67.5,1008.48,-31.26,0.19,1.57,25.5,43.8,37.3,0,no_anomaly,0.0,0,0,0,0,28.6139364,77.2089985,14.0,0.0
2024-02-02T11:51:06.700Z,MISSION_0041,67,0,transit,SITE_DEL_002,28.6139353,77.2089982,14.0,327.57,2.032,0.112,3.93,1.5417,-1.412,327.5743,-0.96012,-0.00948,0.01559,0.279,0.0574,0.0235,-9.8563,0.308,-0.2834,-0.2781,0.1152,3,13,0.79,0.88,0.26,24.619,17.13,93.5,41.1,20581.0,7301,7487,7670,7255,58.4,57.1,59.2,56.3,2.928,2.889,3.39,2.617,2.43,256.7,33.1,67.3,1007.78,-33.4,-1.28,1.61,28.6,40.5,33.5,0,no_anomaly,0.0,0,0,0,0,28.6139353,77.2089982,14.0,0.0
2024-02-02T11:51:06.800Z,MISSION_0041,68,0,transit,SITE_DEL_002,28.613931,77.2090012,14.0,329.76,2.356,0.141,3.46,-2.3468,-2.9276,329.7578,-0.96472,0.02643,0.01932,0.26123,0.0411,0.1178,-9.783,0.2403,0.1087,0.1348,0.0242,3,10,0.72,0.97,0.27,24.607,13.32,93.5,42.2,20565.0,7601,7469,7560,7416,57.7,58.1,55.2,57.1,2.705,3.022,2.774,2.96,1.46,253.5,33.3,67.2,1008.47,-27.5,-2.28,1.64,26.7,41.2,36.2,0,no_anomaly,0.0,0,0,0,0,28.613931,77.2090012,14.0,0.0
2024-02-02T11:51:06.900Z,MISSION_0041,69,0,transit,SITE_DEL_002,28.613938,77.2090054,14.0,330.07,1.916,0.062,4.27,-0.1612,-4.1555,330.0664,-0.96543,0.01072,0.03466,0.25814,-0.0177,-0.0232,-9.9037,0.8578,-0.0587,-0.0788,0.1902,3,18,0.71,0.85,0.33,24.633,20.02,93.4,41.1,20549.0,7613,7386,7524,7273,58.7,62.7,57.5,56.6,2.897,2.812,2.634,2.871,1.28,267.4,33.2,67.0,1008.45,-30.57,0.53,1.6,30.7,44.7,37.9,0,no_anomaly,0.0,0,0,0,0,28.613938,77.2090054,14.0,0.0
2024-02-02T11:51:07.000Z,MISSION_0041,70,0,transit,SITE_DEL_002,28.6139371,77.2090081,14.0,330.06,1.636,0.092,4.23,2.782,-4.3822,330.0598,-0.96531,-0.01356,0.04319,0.25715,-0.0972,0.0129,-9.8157,0.4129,0.5144,-0.2194,0.1934,3,19,0.66,0.77,0.28,24.672,25.82,93.3,41.7,20533.0,7455,7386,7357,7394,59.5,59.4,57.4,56.7,2.683,3.326,2.798,2.99,1.57,254.9,33.1,67.1,1008.2,-30.34,-0.41,1.28,28.6,43.5,38.4,0,no_anomaly,0.0,0,0,0,0,28.6139371,77.2090081,14.0,0.0
2024-02-02T11:51:07.100Z,MISSION_0041,71,0,transit,SITE_DEL_002,28.6139357,77.2090115,14.0,332.89,1.895,0.075,4.18,0.831,-0.701,332.8855,-0.9721,-0.00562,0.00765,0.23436,-0.0112,-0.0036,-9.7765,-0.0112,0.4295,0.3107,0.1407,3,19,0.55,0.98,0.26,24.761,18.53,93.3,41.3,20518.0,7330,7616,7592,7603,57.8,58.5,59.3,58.2,2.952,2.843,2.789,2.937,1.22,262.2,33.4,65.9,1008.13,-29.1,-0.1,1.12,30.1,48.9,36.3,0,no_anomaly,0.0,0,0,0,0,28.6139357,77.2090115,14.0,0.0
2024-02-02T11:51:07.200Z,MISSION_0041,72,0,transit,SITE_DEL_002,28.6139361,77.2090102,14.0,336.27,2.085,0.073,4.18,0.4201,0.2851,336.2721,-0.97863,-0.0041,-0.00168,0.2056,-0.0654,-0.032,-9.7718,-0.3205,0.5164,0.3239,0.2398,3,18,0.74,1.15,0.23,24.544,23.12,93.2,41.5,20502.0,7229,7248,7170,7421,60.4,58.9,60.8,57.1,2.892,2.794,2.895,2.884,1.16,255.4,32.9,66.4,1008.51,-32.04,2.34,1.36,29.9,43.5,34.2,0,no_anomaly,0.0,0,0,0,0,28.6139361,77.2090102,14.0,0.0
2024-02-02T11:51:07.300Z,MISSION_0041,73,0,transit,SITE_DEL_002,28.6139358,77.2090116,14.0,334.69,2.085,0.021,4.19,-0.5066,-0.6898,334.6856,-0.97567,0.00563,0.0049,0.21914,0.0126,-0.0318,-9.7821,-0.2856,0.2581,-0.0198,0.0646,3,14,0.62,1.05,0.2,24.641,19.32,93.1,40.8,20486.0,7196,7207,7454,7542,60.0,59.3,56.9,60.6,2.832,2.895,2.956,2.626,1.93,252.5,32.9,66.0,1008.31,-32.36,-1.58,1.52,28.8,44.8,37.3,0,no_anomaly,0.0,0,0,0,0,28.6139358,77.2090116,14.0,0.0
2024-02-02T11:51:07.400Z,MISSION_0041,74,0,transit,SITE_DEL_002,28.6139379,77.2090094,14.0,335.04,2.13,0.12,4.34,-0.8087,-1.4005,335.0397,-0.97626,0.00953,0.01041,0.21616,-0.0107,0.0316,-9.7319,-0.2801,-0.1361,0.3233,0.1572,3,12,0.94,0.82,0.67,24.599,18.05,93.0,41.0,20470.0,7597,7493,7249,7179,60.3,55.6,57.5,60.2,2.747,2.855,2.674,2.877,1.57,258.4,32.8,66.8,1008.33,-26.73,-1.05,1.05,27.4,40.8,36.3,0,no_anomaly,0.0,0,0,0,0,28.6139379,77.2090094,14.0,0.0
2024-02-02T11:51:07.500Z,MISSION_0041,75,0,transit,SITE_DEL_002,28.6139404,77.209015,14.0,336.83,2.48,0.089,4.8,-0.0275,-3.4503,336.8333,-0.97919,0.00628,0.02944,0.20071,-0.0259,-0.0129,-9.7727,1.2498,-0.6917,0.2008,0.197,3,10,0.79,0.88,0.42,24.537,21.11,93.0,41.5,20454.0,7680,7570,7288,7264,54.5,55.9,58.4,58.8,2.845,2.822,3.125,2.96,1.55,260.5,32.8,67.6,1008.31,-28.63,0.54,1.78,28.0,47.0,35.5,0,no_anomaly,0.0,0,0,0,0,28.6139404,77.209015,14.0,0.0
2024-02-02T11:51:07.600Z,MISSION_0041,76,0,transit,SITE_DEL_002,28.6139361,77.2090158,14.0,335.03,2.259,0.066,4.39,-6.6796,-2.6558,335.0312,-0.97414,0.06187,0.01,0.21707,0.04,-0.0407,-9.7499,-0.4987,-0.6265,0.5396,0.1158,3,14,0.77,0.81,0.31,24.634,16.26,92.9,40.9,20439.0,7493,7375,7492,7491,59.6,60.1,61.8,59.3,2.872,2.636,2.916,2.837,1.42,263.8,33.4,66.2,1007.93,-27.58,-1.19,1.72,30.6,45.3,35.5,0,no_anomaly,0.0,0,0,0,0,28.6139361,77.2090158,14.0,0.0
2024-02-02T11:51:07.700Z,MISSION_0041,77,0,transit,SITE_DEL_002,28.6139367,77.2090164,14.0,332.43,1.827,0.008,4.48,0.5718,-1.3385,332.4312,-0.97113,-0.00206,0.01253,0.23819,0.038,-0.0511,-9.7964,-0.6417,0.1792,-0.0475,0.1269,3,10,0.81,0.71,0.48,24.605,14.32,92.8,40.8,20423.0,7476,7340,7254,7483,58.3,58.2,59.3,59.8,2.653,2.491,3.039,2.867,2.12,248.4,33.3,66.8,1008.05,-32.79,0.52,1.65,29.4,39.3,35.6,0,no_anomaly,0.0,0,0,0,0,28.6139367,77.2090164,14.0,0.0
2024-02-02T11:51:07.800Z,MISSION_0041,78,0,transit,SITE_DEL_002,28.6139369,77.209018,14.0,330.9,1.62,0.096,4.57,-2.6592,-1.6158,330.897,-0.96748,0.026,0.00781,0.25147,0.0417,-0.0014,-9.8376,0.3255,0.2716,-0.0084,0.0249,3,15,0.85,0.92,0.4,24.616,19.82,92.8,41.0,20407.0,7310,7298,7640,7380,58.9,59.2,58.4,58.1,2.911,2.827,3.133,2.855,1.34,250.2,33.3,67.8,1008.19,-30.55,-0.35,1.68,25.2,40.4,33.7,0,no_anomaly,0.0,0,0,0,0,28.6139369,77.209018,14.0,0.0
2024-02-02T11:51:07.900Z,MISSION_0041,79,0,transit,SITE_DEL_002,28.6139365,77.2090187,14.0,327.19,1.617,0.135,4.57,-4.1116,-0.6112,327.1909,-0.95861,0.03592,-0.00502,0.28242,-0.0536,0.0029,-9.8493,-0.953,0.1086,-0.0878,0.1534,3,20,0.5,0.97,0.26,24.567,15.33,92.7,41.7,20391.0,7474,7367,7120,7370,56.0,58.7,56.0,55.6,2.811,2.88,2.967,2.441,0.78,252.5,33.1,67.4,1008.48,-23.94,-0.28,1.81,23.9,43.2,33.0,0,no_anomaly,0.0,0,0,0,0,28.6139365,77.2090187,14.0,0.0
2024-02-02T11:51:08.000Z,MISSION_0041,80,0,transit,SITE_DEL_002,28.6139359,77.2090218,14.0,326.78,1.738,0.072,4.67,1.2358,-3.6421,326.7832,-0.95784,-0.00125,0.03353,0.28534,-0.0941,-0.0582,-9.8211,0.1794,-0.4122,-0.5133,0.1568,3,15,0.8,0.9,0.23,24.666,24.1,92.6,40.7,20376.0,7526,7278,7469,7318,53.4,53.4,55.6,58.6,2.764,2.878,2.661,2.88,1.62,263.6,32.8,66.0,1008.35,-27.05,0.64,1.54,29.8,40.7,34.0,0,no_anomaly,0.0,0,0,0,0,28.6139359,77.2090218,14.0,0.0
2024-02-02T11:51:08.100Z,MISSION_0041,81,0,transit,SITE_DEL_002,28.6139366,77.2090248,14.0,326.68,1.927,0.071,4.93,-0.9467,-2.8057,326.6789,-0.95764,0.01493,0.02109,0.2868,0.0283,0.0765,-9.759,-0.6312,-0.3868,-0.0088,0.1228,3,14,0.62,0.75,0.2,24.766,18.17,92.5,41.3,20360.0,7564,7525,7464,7222,57.0,59.5,60.1,57.9,2.613,2.819,2.434,2.836,1.84,251.5,33.1,67.6,1008.51,-33.31,-0.93,1.18,29.9,42.6,34.5,0,no_anomaly,0.0,0,0,0,0,28.6139366,77.2090248,14.0,0.0
2024-02-02T11:51:08.200Z,MISSION_0041,82,0,transit,SITE_DEL_002,28.6139371,77.2090244,14.0,329.06,1.83,0.089,4.95,-1.0497,-3.2717,329.0583,-0.96326,0.01644,0.02507,0.26688,-0.0563,-0.022,-9.8471,0.0527,0.1999,-0.7114,0.1259,3,13,0.59,0.94,0.3,24.628,22.85,92.5,41.2,20344.0,7360,7297,7473,7405,56.5,57.4,59.3,55.9,2.769,2.834,2.617,2.841,1.91,258.3,33.1,67.3,1008.47,-32.1,1.34,1.5,32.0,42.7,36.0,0,no_anomaly,0.0,0,0,0,0,28.6139371,77.2090244,14.0,0.0
2024-02-02T11:51:08.300Z,MISSION_0041,83,0,transit,SITE_DEL_002,28.6139305,77.2090234,14.0,328.49,1.754,0.115,4.28,-1.1759,-1.0413,328.4903,-0.96232,0.01234,0.00596,0.27159,0.1293,-0.0039,-9.6991,0.289,-0.1529,0.0573,0.1401,3,20,0.53,1.0,0.2,24.57,23.32,92.4,41.0,20328.0,7580,7426,7382,7503,55.8,57.0,56.8,54.6,2.841,2.961,2.656,2.737,1.98,256.1,33.2,66.5,1008.35,-33.11,-0.47,1.49,28.4,46.8,37.5,0,no_anomaly,0.0,0,0,0,0,28.6139305,77.2090234,14.0,0.0
2024-02-02T11:51:08.400Z,MISSION_0041,84,0,transit,SITE_DEL_002,28.6139311,77.2090281,14.0,327.6,1.491,0.057,4.67,-5.3278,-3.668,327.5953,-0.95834,0.05353,0.01774,0.28001,0.0659,0.0466,-9.8661,0.5007,-0.4461,-0.1523,0.058,3,14,0.64,0.87,0.2,24.567,15.2,92.3,42.2,20312.0,7432,7126,7509,7302,56.3,55.3,59.1,56.2,2.673,2.776,2.878,3.097,1.91,268.0,33.1,66.8,1008.1,-29.34,0.58,1.5,27.8,37.6,36.3,0,no_anomaly,0.0,0,0,0,0,28.6139311,77.2090281,14.0,0.0
2024-02-02T11:51:08.500Z,MISSION_0041,85,0,transit,SITE_DEL_002,28.6139321,77.2090311,14.0,328.12,1.418,0.168,4.97,1.4661,-2.9824,328.1189,-0.96123,-0.00515,0.02853,0.2742,0.0755,-0.0724,-9.7566,0.0733,0.2305,-0.2502,0.1185,3,14,0.61,0.85,0.25,24.605,19.93,92.3,41.1,20297.0,7437,7202,7038,7336,56.2,54.2,56.5,58.4,2.586,2.632,2.585,2.638,0.93,253.5,32.7,65.8,1008.64,-32.07,1.33,1.8,30.3,42.3,35.2,0,no_anomaly,0.0,0,0,0,0,28.6139321,77.2090311,14.0,0.0
2024-02-02T11:51:08.600Z,MISSION_0041,86,0,transit,SITE_DEL_002,28.613933,77.209032,14.0,330.16,1.691,0.088,5.12,0.3647,-4.3058,330.1562,-0.96562,0.0066,0.03712,0.2572,-0.0125,0.0484,-9.7406,-0.2919,-0.3931,0.4097,0.1929,3,10,0.58,1.04,0.26,24.601,17.81,92.2,41.2,20281.0,7246,7682,7568,7375,58.5,52.3,58.5,61.0,2.904,2.81,2.632,2.476,0.83,263.1,33.2,66.6,1008.19,-31.74,0.36,1.2,28.3,41.3,35.4,0,no_anomaly,0.0,0,0,0,0,28.613933,77.209032,14.0,0.0
2024-02-02T11:51:08.700Z,MISSION_0041,87,0,transit,SITE_DEL_002,28.6139351,77.2090308,14.0,330.12,2.015,0.093,5.2,3.6996,0.2442,330.1243,-0.96568,-0.03174,0.00626,0.2577,-0.0186,0.0528,-9.7472,0.5278,0.3821,0.0483,0.0607,3,17,0.65,0.78,0.22,24.596,21.11,92.1,42.2,20265.0,7258,7737,7313,7552,59.0,59.5,60.7,59.5,2.815,2.829,2.936,2.909,2.42,259.8,32.9,66.8,1008.24,-31.42,-1.2,1.22,28.8,47.0,36.8,0,no_anomaly,0.0,0,0,0,0,28.6139351,77.2090308,14.0,0.0
2024-02-02T11:51:08.800Z,MISSION_0041,88,1,transit,SITE_DEL_002,28.6139312,77.2090223,14.0,330.2,2.243,0.092,4.27,-1.5145,2.3528,330.2034,-0.96617,0.00749,-0.02324,0.25677,0.0126,0.0653,-9.8358,0.3136,0.7462,-0.1829,0.0682,3,18,0.65,1.3,0.24,24.493,22.96,92.0,41.7,20249.0,7289,7193,7371,7544,56.8,55.4,60.8,59.1,2.946,2.677,2.83,2.977,1.13,255.6,32.7,67.2,1008.28,-24.64,0.86,1.65,26.3,44.1,32.7,0,no_anomaly,0.0,0,0,0,0,28.6139312,77.2090223,14.0,0.0
2024-02-02T11:51:08.900Z,MISSION_0041,89,1,transit,SITE_DEL_002,28.6139281,77.2090193,14.0,326.4,2.036,0.158,3.8,-0.1306,-3.002,326.3977,-0.95698,0.00866,0.02475,0.28898,-0.0392,-0.0612,-9.8364,0.0019,-0.6065,-0.1827,0.223,3,13,0.75,0.97,0.45,24.596,16.64,92.0,41.8,20233.0,7194,7248,7397,7337,58.5,61.2,56.6,56.5,2.94,2.757,2.886,2.831,2.29,270.2,33.2,66.0,1008.42,-29.96,0.44,1.89,26.5,41.5,35.5,0,no_anomaly,0.0,0,0,0,0,28.6139281,77.2090193,14.0,0.0
2024-02-02T11:51:09.000Z,MISSION_0041,90,1,transit,SITE_DEL_002,28.6139344,77.2090166,14.0,327.05,2.188,0.174,4.25,2.3531,-0.3098,327.0461,-0.95874,-0.01892,0.00842,0.28352,-0.0122,-0.0313,-9.7839,0.486,0.0488,-0.4125,0.0821,3,16,0.52,0.78,0.25,24.562,21.44,91.9,41.3,20218.0,7514,7494,7545,7488,55.5,60.5,59.2,60.9,2.739,2.871,2.72,2.802,2.08,268.4,32.9,65.3,1008.11,-29.5,-0.73,1.71,30.3,49.1,38.0,0,no_anomaly,0.0,0,0,0,0,28.6139344,77.2090166,14.0,0.0
2024-02-02T11:51:09.100Z,MISSION_0041,91,1,transit,SITE_DEL_002,28.6139359,77.2090133,14.0,327.14,2.081,0.102,4.26,-0.0941,-3.4868,327.1429,-0.95872,0.00939,0.02895,0.28271,0.1108,0.0901,-9.8791,0.4823,0.5188,-0.1162,0.2493,3,16,0.74,0.6,0.39,24.668,14.61,91.8,40.8,20202.0,7264,7459,7430,7407,60.7,57.4,57.1,59.1,2.813,2.89,2.852,2.806,1.36,260.8,33.4,67.1,1007.87,-27.74,-0.3,1.41,29.9,38.5,37.0,0,no_anomaly,0.0,0,0,0,0,28.6139359,77.2090133,14.0,0.0
2024-02-02T11:51:09.200Z,MISSION_0041,92,1,transit,SITE_DEL_002,28.613932,77.209015,14.0,327.39,1.823,0.121,3.94,3.6647,-0.2437,327.3869,-0.9593,-0.03009,0.01102,0.28057,0.0264,0.0042,-9.7932,0.5128,-0.3003,0.3707,0.0226,3,18,0.78,0.97,0.23,24.565,22.18,91.8,41.6,20186.0,7332,7537,7353,7183,56.3,55.9,60.8,58.5,2.781,2.587,2.687,2.68,1.91,261.5,33.3,67.1,1008.02,-25.7,-0.86,1.5,33.0,41.2,38.9,0,no_anomaly,0.0,0,0,0,0,28.613932,77.209015,14.0,0.0
2024-02-02T11:51:09.300Z,MISSION_0041,93,1,transit,SITE_DEL_002,28.6139373,77.2090124,14.0,329.03,1.713,0.061,4.38,-0.8457,-4.0023,329.0283,-0.96301,0.01643,0.03168,0.26708,-0.0547,-0.0805,-9.7901,-0.9114,0.2701,-0.4202,0.1609,3,17,0.77,1.03,0.2,24.7,19.79,91.7,41.1,20170.0,7497,7630,7056,7458,59.7,59.6,58.5,55.3,2.747,2.529,2.675,2.839,1.0,260.2,33.0,66.8,1008.33,-28.17,0.99,1.68,31.5,47.8,38.9,0,no_anomaly,0.0,0,0,0,0,28.6139373,77.2090124,14.0,0.0
2024-02-02T11:51:09.400Z,MISSION_0041,94,1,transit,SITE_DEL_002,28.6139407,77.2090155,14.0,331.14,1.97,0.107,4.84,1.9189,-0.6165,331.1431,-0.96833,-0.01488,0.00938,0.24904,-0.0413,-0.0908,-9.8446,0.3807,-0.0124,-0.394,0.039,3,10,0.69,1.08,0.24,24.633,13.61,91.6,40.8,20155.0,7350,7559,7005,7509,60.5,57.8,55.3,55.7,2.637,2.809,2.75,2.844,1.91,257.1,33.1,66.0,1008.59,-26.91,0.96,1.89,25.9,41.6,34.6,0,no_anomaly,0.0,0,0,0,0,28.6139407,77.2090155,14.0,0.0
2024-02-02T11:51:09.500Z,MISSION_0041,95,1,transit,SITE_DEL_002,28.6139418,77.2090142,14.0,332.7,2.029,0.122,4.92,-2.258,-3.5958,332.6984,-0.97094,0.02654,0.02583,0.23644,0.0808,-0.0413,-9.859,0.3002,-0.3012,0.151,0.0912,3,16,0.56,0.94,0.2,24.606,21.72,91.5,41.5,20139.0,7589,7439,7324,7182,56.4,56.8,56.7,57.8,2.58,2.945,2.96,2.656,1.15,260.3,32.9,66.7,1008.46,-29.93,-1.88,1.6,27.3,42.4,34.0,0,no_anomaly,0.0,0,0,0,0,28.6139418,77.2090142,14.0,0.0
2024-02-02T11:51:09.600Z,MISSION_0041,96,1,transit,SITE_DEL_002,28.6139458,77.2090177,14.0,331.83,1.87,0.157,5.47,-4.5788,-2.2199,331.8256,-0.96878,0.04345,0.00905,0.24391,0.1597,0.004,-9.8198,0.4796,-0.0915,0.6521,0.1573,3,19,0.69,0.85,0.4,24.565,21.35,91.5,40.4,20123.0,7384,7399,7324,7378,57.4,57.4,54.7,59.8,3.062,2.8,2.835,2.732,2.08,247.6,33.0,67.2,1008.48,-32.43,-1.48,1.0,27.1,38.3,33.9,0,no_anomaly,0.0,0,0,0,0,28.6139458,77.2090177,14.0,0.0
2024-02-02T11:51:09.700Z,MISSION_0041,97,1,transit,SITE_DEL_002,28.613948,77.2090154,14.0,331.14,2.187,0.046,5.61,-0.3713,0.1655,331.143,-0.96845,0.00278,-0.00221,0.24917,0.0565,-0.0593,-9.7701,-0.4725,0.1171,-0.1229,0.1135,3,17,0.75,0.79,0.34,24.603,22.3,91.4,40.8,20107.0,7186,7374,6987,7503,59.5,57.4,60.8,55.5,2.72,2.848,2.932,2.904,1.27,263.5,33.1,67.4,1008.37,-30.67,0.74,1.5,30.1,39.7,38.6,0,no_anomaly,0.0,0,0,0,0,28.613948,77.2090154,14.0,0.0
2024-02-02T11:51:09.800Z,MISSION_0041,98,1,transit,SITE_DEL_002,28.6139447,77.2090147,14.0,330.76,2.561,0.141,5.24,0.688,-0.9209,330.763,-0.96759,-0.00378,0.00929,0.25232,0.0342,-0.069,-9.7984,1.0172,0.3393,-0.3513,0.132,3,20,0.77,0.9,0.27,24.562,20.45,91.3,41.7,20091.0,7442,7708,7312,7445,59.1,59.7,61.6,58.0,2.784,2.941,2.691,2.809,1.2,255.5,33.3,67.0,1008.33,-29.41,-0.83,1.88,28.0,46.5,35.6,0,no_anomaly,0.0,0,0,0,0,28.6139447,77.2090147,14.0,0.0
2024-02-02T11:51:09.900Z,MISSION_0041,99,1,transit,SITE_DEL_002,28.6139446,77.2090145,14.0,336.33,2.875,0.109,5.22,2.7621,-0.1838,336.3326,-0.97847,-0.02326,0.00651,0.20497,-0.0402,-0.0694,-9.7895,-0.074,0.7212,0.0434,0.0795,3,11,0.96,0.61,0.33,24.661,19.87,91.3,41.3,20076.0,7171,7636,7467,7694,60.0,59.9,56.0,56.0,2.762,2.979,2.91,2.967,1.09,257.9,32.8,66.0,1008.28,-27.3,0.36,1.53,29.1,41.9,38.5,0,no_anomaly,0.0,0,0,0,0,28.6139446,77.2090145,14.0,0.0
2024-02-02T11:51:10.000Z,MISSION_0041,100,1,transit,SITE_DEL_002,28.6139427,77.2090158,14.0,338.93,2.853,0.039,5.07,0.3487,-2.1028,338.9277,-0.98298,0.00036,0.0186,0.18277,-0.0186,-0.0349,-9.8033,-0.4507,0.0614,-0.11,0.1556,3,15,0.75,0.95,0.35,24.496,13.48,91.2,41.2,20060.0,7410,7308,7488,7259,61.9,53.8,61.0,60.9,2.843,2.924,2.924,2.964,1.4,253.2,32.8,67.1,1008.35,-24.34,0.85,1.69,30.1,49.3,36.4,0,no_anomaly,0.0,0,0,0,0,28.6139427,77.2090158,14.0,0.0
2024-02-02T11:51:10.100Z,MISSION_0041,101,1,transit,SITE_DEL_002,28.6139402,77.2090151,14.0,341.43,2.7,0.078,4.78,-2.0188,-1.3434,341.4277,-0.98664,0.01928,0.00873,0.16153,0.0339,0.0783,-9.8128,-0.3177,-0.2223,-0.3609,0.1382,3,15,0.75,0.98,0.32,24.584,20.73,91.1,42.1,20044.0,7316,7292,7301,7437,58.8,55.9,59.4,53.9,2.829,2.618,2.915,2.86,1.95,260.6,33.1,67.3,1008.79,-26.03,1.64,1.09,28.2,42.2,34.8,0,no_anomaly,0.0,0,0,0,0,28.6139402,77.2090151,14.0,0.0
2024-02-02T11:51:10.200Z,MISSION_0041,102,1,transit,SITE_DEL_002,28.6139427,77.2090142,14.0,341.32,2.283,0.152,5.01,-1.1309,-0.8261,341.3152,-0.98665,0.01091,0.00551,0.16239,-0.1262,0.0315,-9.779,-0.37,-0.4635,0.0308,0.1343,3,15,0.59,1.03,0.29,24.592,22.16,91.0,42.3,20028.0,7314,7731,7118,7417,60.3,57.8,60.0,58.1,2.739,3.032,2.922,3.06,2.02,264.4,33.3,66.6,1008.06,-28.04,0.78,1.3,30.6,43.2,36.4,0,no_anomaly,0.0,0,0,0,0,28.6139427,77.2090142,14.0,0.0
2024-02-02T11:51:10.300Z,MISSION_0041,103,1,transit,SITE_DEL_002,28.6139414,77.2090153,14.0,341.92,2.073,0.056,4.91,1.7066,-0.4242,341.9176,-0.98747,-0.01413,0.006,0.15707,-0.1506,0.0288,-9.7846,-0.1234,0.4335,-0.208,0.1754,3,11,0.82,0.96,0.35,24.626,21.47,91.0,41.5,20013.0,7217,7232,7504,7425,52.2,61.2,58.3,58.5,2.788,2.988,2.806,2.777,1.39,252.6,33.1,67.3,1008.18,-31.03,-0.02,1.75,30.2,41.9,35.3,0,no_anomaly,0.0,0,0,0,0,28.6139414,77.2090153,14.0,0.0
2024-02-02T11:51:10.400Z,MISSION_0041,104,1,transit,SITE_DEL_002,28.6139386,77.2090129,14.0,344.38,2.22,0.14,4.53,0.9697,-0.9526,344.3785,-0.99066,-0.00725,0.00939,0.13582,0.0088,-0.0932,-9.8019,-0.2514,-1.1275,0.2198,0.1367,3,14,0.6,0.72,0.21,24.63,17.99,90.9,41.9,19997.0,7709,7208,7214,7304,57.9,55.4,56.3,55.9,3.132,2.863,2.759,2.912,1.6,261.6,32.5,67.1,1008.15,-29.67,0.09,1.39,28.3,40.7,37.5,0,no_anomaly,0.0,0,0,0,0,28.6139386,77.2090129,14.0,0.0
2024-02-02T11:51:10.500Z,MISSION_0041,105,1,orbit_base,SITE_DEL_002,28.61382,77.2089993,14.3,344.56,2.457,0.081,8.91,-2.7861,-0.328,344.5567,-0.99063,0.02448,-0.00043,0.13439,-0.0868,-0.0672,-9.8624,0.1535,0.3782,0.0856,0.1362,3,18,0.61,0.98,0.2,24.644,15.88,90.8,41.7,19981.0,7420,7156,7443,7154,60.0,56.8,58.1,53.2,2.577,2.733,2.783,2.619,1.36,257.7,33.3,66.3,1008.12,-27.66,1.02,1.56,28.2,36.5,35.4,0,no_anomaly,0.0,0,0,0,0,28.61382,77.2089993,14.3,0.0
2024-02-02T11:51:10.600Z,MISSION_0041,106,1,orbit_base,SITE_DEL_002,28.6138201,77.2089969,14.6,344.54,2.491,0.093,8.91,-0.0133,-0.9058,344.5449,-0.99089,0.00118,0.00782,0.13446,-0.0807,-0.0087,-9.8845,-0.3652,0.033,-0.2662,0.127,3,13,0.76,0.61,0.38,24.52,16.69,90.8,41.0,19965.0,7119,7454,7288,7438,59.9,56.6,59.6,60.3,3.177,2.903,2.744,2.538,0.48,255.4,32.9,67.1,1008.36,-30.64,-1.0,1.07,29.0,46.1,34.3,0,no_anomaly,0.0,0,0,0,0,28.6138201,77.2089969,14.6,0.0
2024-02-02T11:51:10.700Z,MISSION_0041,107,1,orbit_base,SITE_DEL_002,28.6138202,77.2089945,14.9,342.5,2.631,0.104,8.91,0.2687,-3.118,342.5035,-0.98801,0.00182,0.02725,0.15197,-0.0184,0.0003,-9.851,-0.2194,-0.9108,-0.2875,0.0429,3,18,0.69,1.04,0.32,24.599,21.64,90.7,41.8,19949.0,7299,7551,7567,7126,59.7,59.1,58.5,60.3,2.92,3.092,2.64,2.825,1.86,264.9,33.2,67.2,1008.32,-28.74,-1.34,1.23,27.5,38.7,38.1,0,no_anomaly,0.0,0,0,0,0,28.6138202,77.2089945,14.9,0.0
2024-02-02T11:51:10.800Z,MISSION_0041,108,1,orbit_base,SITE_DEL_002,28.6138204,77.2089921,15.2,344.36,2.758,0.097,8.91,0.0168,-3.272,344.361,-0.9903,0.00374,0.0283,0.13599,0.0223,-0.0879,-9.8617,-1.1081,0.3956,0.7629,0.1299,3,18,0.8,1.09,0.35,24.62,21.2,90.6,41.9,19934.0,7479,7426,7121,7341,58.2,61.5,59.9,60.2,2.891,2.629,2.839,2.703,0.94,261.9,33.0,66.6,1008.4,-24.98,-0.95,1.98,27.2,48.4,38.2,0,no_anomaly,0.0,0,0,0,0,28.6138204,77.2089921,15.2,0.0
2024-02-02T11:51:10.900Z,MISSION_0041,109,1,orbit_base,SITE_DEL_002,28.6138207,77.2089898,15.5,344.08,2.428,0.067,8.91,-0.4639,1.1072,344.0767,-0.99031,0.00267,-0.01013,0.13846,0.0178,-0.1037,-9.8157,0.4095,0.3115,0.1508,0.1589,3,16,0.7,0.6,0.31,24.525,19.19,90.5,40.9,19918.0,7289,7667,7527,7477,58.4,58.3,56.1,57.9,2.551,2.539,3.166,2.998,1.54,260.2,33.3,66.6,1008.56,-27.0,-0.33,1.6,26.9,48.7,37.6,0,no_anomaly,0.0,0,0,0,0,28.6138207,77.2089898,15.5,0.0
2024-02-02T11:51:11.000Z,MISSION_0041,110,1,orbit_base,SITE_DEL_002,28.613821,77.2089874,15.8,344.04,2.746,0.041,8.91,-1.0276,-3.4348,344.0358,-0.98979,0.01304,0.02843,0.13906,-0.0241,-0.0427,-9.925,0.1608,-0.3973,-0.6197,0.1953,3,20,0.75,0.82,0.37,24.596,13.21,90.5,40.6,19902.0,7433,7554,7298,7653,56.4,58.4,60.5,55.2,2.768,2.778,2.812,2.691,2.06,253.3,33.0,66.6,1008.27,-24.03,-0.74,1.61,26.8,38.8,34.4,0,no_anomaly,0.0,0,0,0,0,28.613821,77.2089874,15.8,0.0
2024-02-02T11:51:11.100Z,MISSION_0041,111,1,orbit_base,SITE_DEL_002,28.6138214,77.208985,16.1,345.1,2.539,0.055,8.91,3.1906,-3.8396,345.1011,-0.99074,-0.02325,0.03681,0.1286,-0.1076,-0.0185,-9.8334,0.3068,-0.3564,-0.0606,0.0321,3,17,0.78,1.27,0.45,24.593,16.73,90.4,41.3,19886.0,7392,7481,7638,7358,57.5,59.6,59.4,58.1,2.52,2.681,2.896,3.21,1.81,260.5,33.2,66.9,1008.52,-26.25,-0.34,1.35,27.4,44.4,35.6,0,no_anomaly,0.0,0,0,0,0,28.6138214,77.208985,16.1,0.0
2024-02-02T11:51:11.200Z,MISSION_0041,112,1,orbit_base,SITE_DEL_002,28.6138219,77.2089827,16.4,346.43,2.192,0.083,8.91,-0.8727,-1.4994,346.4344,-0.99288,0.00911,0.01209,0.11819,0.0872,0.0049,-9.7992,-0.61,-0.0983,-0.1025,0.1899,3,10,0.5,1.23,0.23,24.55,23.06,90.3,41.5,19871.0,7193,7271,7216,7471,60.1,59.6,57.4,58.6,2.627,2.642,2.93,2.984,1.5,263.8,33.0,66.4,1008.07,-26.63,0.04,1.04,29.4,37.3,32.5,0,no_anomaly,0.0,0,0,0,0,28.6138219,77.2089827,16.4,0.0
2024-02-02T11:51:11.300Z,MISSION_0041,113,1,orbit_base,SITE_DEL_002,28.6138225,77.2089803,16.7,345.4,2.33,0.126,8.91,-1.4408,-1.6847,345.3961,-0.99168,0.01434,0.01298,0.12726,-0.0648,-0.0486,-9.7348,-0.3101,-0.958,0.5908,0.181,3,19,0.9,0.83,0.24,24.533,16.58,90.2,41.5,19855.0,7441,7526,7215,7689,59.5,57.0,59.2,58.6,2.931,3.072,2.531,2.799,1.07,266.3,33.3,67.3,1008.27,-26.12,-0.33,1.52,26.3,45.2,35.4,0,no_anomaly,0.0,0,0,0,0,28.6138225,77.2089803,16.7,0.0
2024-02-02T11:51:11.400Z,MISSION_0041,114,1,orbit_base,SITE_DEL_002,28.6138231,77.208978,17.0,343.09,2.241,0.078,8.91,0.6593,-2.5539,343.0937,-0.98889,-0.00241,0.02289,0.14683,0.0566,0.0041,-9.7597,-1.4675,-0.8577,0.1967,0.1315,3,14,0.75,0.93,0.37,24.485,19.48,90.2,41.1,19839.0,7484,7138,7646,7434,57.3,58.7,60.2,57.2,2.551,2.794,2.815,2.556,1.61,256.6,33.2,67.6,1008.33,-25.22,0.21,1.29,25.2,38.9,34.8,0,no_anomaly,0.0,0,0,0,0,28.6138231,77.208978,17.0,0.0
2024-02-02T11:51:11.500Z,MISSION_0041,115,1,orbit_base,SITE_DEL_002,28.6138238,77.2089757,17.3,343.27,2.108,0.121,8.91,0.315,-1.0118,343.268,-0.98932,-0.00143,0.00914,0.14547,-0.051,-0.009,-9.806,-0.343,-0.0753,-0.013,0.221,3,14,0.76,0.67,0.22,24.578,19.87,90.1,40.8,19823.0,7159,7297,7641,7228,54.3,56.7,58.0,61.2,2.763,2.874,2.896,2.757,2.04,256.0,33.1,66.9,1008.46,-28.49,0.51,1.89,25.9,38.9,33.2,0,no_anomaly,0.0,0,0,0,0,28.6138238,77.2089757,17.3,0.0
2024-02-02T11:51:11.600Z,MISSION_0041,116,1,orbit_base,SITE_DEL_002,28.6138245,77.2089734,17.6,345.89,1.626,0.057,8.91,0.357,-2.5036,345.8885,-0.99219,-0.00041,0.02206,0.12274,-0.0197,0.0686,-9.7236,0.7299,0.3039,-0.1362,0.1696,3,14,0.66,1.14,0.26,24.554,15.02,90.0,41.4,19807.0,7376,7287,7604,7441,56.6,58.2,57.3,56.2,2.827,2.472,2.961,2.691,2.01,257.5,33.2,66.6,1008.2,-33.36,-1.12,1.73,27.0,41.7,35.1,0,no_anomaly,0.0,0,0,0,0,28.6138245,77.2089734,17.6,0.0
2024-02-02T11:51:11.700Z,MISSION_0041,117,1,orbit_base,SITE_DEL_002,28.6138254,77.2089712,17.9,345.43,1.935,0.055,8.91,4.8871,-2.4952,345.4302,-0.99091,-0.03952,0.02698,0.12574,-0.0047,0.0138,-9.8345,-0.0642,-0.4753,-0.4971,0.1109,3,11,0.68,0.8,0.32,24.419,18.72,90.0,40.9,19792.0,7495,7339,7335,7417,58.4,58.6,57.0,60.1,2.877,2.736,2.882,2.632,2.54,252.4,33.0,66.8,1008.05,-30.11,0.73,2.1,26.6,44.7,37.3,0,no_anomaly,0.0,0,0,0,0,28.6138254,77.2089712,17.9,0.0
2024-02-02T11:51:11.800Z,MISSION_0041,118,1,orbit_base,SITE_DEL_002,28.6138263,77.208969,18.2,343.76,1.985,0.09,8.91,1.0049,-2.7028,343.7592,-0.98969,-0.00535,0.02459,0.141,-0.0361,0.0131,-9.6897,-0.349,0.3086,0.1763,0.2068,3,19,0.68,0.97,0.23,24.518,21.63,89.9,41.6,19776.0,7415,7304,7544,7434,57.7,59.6,61.0,59.3,2.722,2.738,2.744,2.609,1.82,254.2,33.1,67.9,1008.5,-32.48,1.72,1.42,26.3,43.1,34.6,0,no_anomaly,0.0,0,0,0,0,28.6138263,77.208969,18.2,0.0
2024-02-02T11:51:11.900Z,MISSION_0041,119,1,orbit_base,SITE_DEL_002,28.6138272,77.2089668,18.5,345.54,2.37,-0.062,8.91,1.0519,-2.3714,345.5404,-0.99182,-0.0065,0.02168,0.12563,0.0094,0.0431,-9.8186,-0.1133,-0.3002,-0.3399,0.0897,3,10,0.54,1.05,0.2,24.422,21.96,89.8,42.4,19760.0,7323,7482,7265,7652,56.9,59.3,56.0,59.6,2.93,2.963,2.318,2.669,0.99,257.3,33.2,66.7,1007.99,-30.61,0.25,1.39,31.4,44.7,37.3,0,no_anomaly,0.0,0,0,0,0,28.6138272,77.2089668,18.5,0.0
2024-02-02T11:51:12.000Z,MISSION_0041,120,1,orbit_base,SITE_DEL_002,28.6138283,77.2089646,18.8,347.27,1.823,0.021,8.91,-1.8572,-3.0577,347.2725,-0.99331,0.01906,0.02472,0.11122,-0.0454,0.0088,-9.8882,-0.1739,-1.1767,-0.293,0.1069,3,19,0.78,1.09,0.27,24.546,15.64,89.7,41.0,19744.0,7449,7355,7579,7522,60.5,58.7,56.5,60.2,2.649,2.714,2.576,2.914,0.97,268.3,32.9,66.5,1008.42,-27.67,-0.37,1.0,31.6,45.0,36.8,0,no_anomaly,0.0,0,0,0,0,28.6138283,77.2089646,18.8,0.0
2024-02-02T11:51:12.100Z,MISSION_0041,121,1,orbit_base,SITE_DEL_002,28.6138294,77.2089625,19.1,346.97,1.719,0.176,8.91,-1.8244,-0.2184,346.9722,-0.99341,0.01603,9e-05,0.11346,0.0203,-0.0001,-9.8521,0.089,-0.0499,-0.0748,0.1178,3,12,0.74,0.79,0.33,24.568,15.55,89.7,41.8,19729.0,7147,7529,7452,7322,57.9,59.6,59.2,60.2,2.908,3.265,2.746,2.954,1.86,249.5,33.0,66.5,1008.65,-30.61,0.84,1.76,28.8,46.1,35.6,0,no_anomaly,0.0,0,0,0,0,28.6138294,77.2089625,19.1,0.0
2024-02-02T11:51:12.200Z,MISSION_0041,122,1,orbit_base,SITE_DEL_002,28.6138305,77.2089604,19.4,348.38,1.535,0.079,8.91,0.8358,-1.6738,348.3786,-0.99474,-0.00578,0.01527,0.10112,-0.0797,-0.0405,-9.8374,0.1156,-0.5273,-0.7478,0.0936,3,13,0.59,0.78,0.29,24.554,24.35,89.6,41.1,19713.0,7676,7477,7548,7365,59.6,56.9,57.4,56.2,2.74,2.685,2.781,2.62,1.02,261.0,33.0,66.4,1008.35,-26.52,0.8,1.9,31.3,44.2,37.4,0,no_anomaly,0.0,0,0,0,0,28.6138305,77.2089604,19.4,0.0
2024-02-02T11:51:12.300Z,MISSION_0041,123,1,orbit_base,SITE_DEL_002,28.6138317,77.2089583,19.7,348.16,1.486,0.05,8.91,1.2247,-3.1112,348.1553,-0.99427,-0.00783,0.0281,0.10285,-0.0228,-0.0983,-9.8544,-1.0303,0.1089,-0.1436,0.1628,3,16,0.79,0.76,0.24,24.596,19.8,89.5,41.5,19697.0,7621,7622,7436,7507,59.4,61.0,56.7,61.3,2.789,2.811,2.903,2.871,0.87,260.1,33.3,67.0,1008.27,-31.13,2.34,1.27,29.3,47.7,34.1,0,no_anomaly,0.0,0,0,0,0,28.6138317,77.2089583,19.7,0.0
2024-02-02T11:51:12.400Z,MISSION_0041,124,1,orbit_base,SITE_DEL_002,28.613833,77.2089563,20.0,346.56,1.368,0.076,8.91,-0.8194,-1.2501,346.5611,-0.99304,0.00838,0.01,0.11708,0.0958,-0.0316,-9.778,-0.0249,0.9123,-0.1422,0.1696,3,18,0.56,0.91,0.2,24.544,21.37,89.5,41.8,19681.0,7261,7659,7226,7624,59.9,57.7,57.3,58.0,3.16,2.768,2.704,2.648,1.92,266.2,32.8,67.6,1008.35,-33.92,1.09,1.29,26.2,38.1,32.3,0,no_anomaly,0.0,0,0,0,0,28.613833,77.2089563,20.0,0.0
2024-02-02T11:51:12.500Z,MISSION_0041,125,1,orbit_base,SITE_DEL_002,28.6138344,77.2089543,20.3,348.33,1.036,0.138,8.91,1.8987,-2.2847,348.3348,-0.99452,-0.01445,0.02151,0.10126,0.1655,0.0558,-9.8087,-0.3563,-0.5741,-0.0224,0.039,3,11,0.68,0.93,0.2,24.523,21.1,89.4,41.4,19665.0,7253,7795,7434,7400,55.8,57.3,58.9,60.6,2.657,2.832,3.289,2.845,1.05,255.3,32.8,66.5,1008.46,-32.77,-0.48,1.5,28.7,43.1,33.0,0,no_anomaly,0.0,0,0,0,0,28.6138344,77.2089543,20.3,0.0
2024-02-02T11:51:12.600Z,MISSION_0041,126,1,orbit_base,SITE_DEL_002,28.6138358,77.2089523,20.6,349.72,1.287,0.042,8.91,-0.7536,-2.6484,349.7227,-0.99568,0.00862,0.02243,0.08969,0.035,0.1153,-9.7464,0.3567,-0.2728,0.1923,0.1049,3,11,0.75,0.85,0.39,24.43,15.71,89.3,41.5,19650.0,7500,7437,7348,7511,56.5,55.6,61.3,57.8,2.817,2.948,2.673,2.714,1.1,256.7,33.0,67.3,1008.35,-28.72,1.68,1.95,29.7,39.2,33.7,0,no_anomaly,0.0,0,0,0,0,28.6138358,77.2089523,20.6,0.0
2024-02-02T11:51:12.700Z,MISSION_0041,127,1,orbit_base,SITE_DEL_002,28.6138372,77.2089504,20.9,350.25,0.992,0.099,8.91,-1.1491,-1.4926,350.2495,-0.99624,0.0111,0.01212,0.08511,-0.0903,0.0898,-9.7545,-0.7662,0.9024,-0.1378,0.1679,3,19,0.73,0.63,0.41,24.485,15.91,89.2,41.5,19634.0,7471,7307,7491,7496,59.3,58.9,58.0,58.4,2.823,2.865,2.664,2.722,1.59,260.1,33.1,67.3,1008.47,-27.86,-0.14,1.84,27.6,40.4,35.1,0,no_anomaly,0.0,0,0,0,0,28.6138372,77.2089504,20.9,0.0
2024-02-02T11:51:12.800Z,MISSION_0041,128,1,orbit_base,SITE_DEL_002,28.6138387,77.2089486,21.2,350.98,0.971,0.124,8.91,-1.0425,-2.9029,350.9767,-0.99652,0.01106,0.02453,0.07886,-0.0948,0.1087,-9.8704,0.1173,0.4416,0.1255,0.1299,3,19,0.69,0.94,0.28,24.542,21.16,89.2,42.5,19618.0,7400,7299,7437,7712,57.3,55.8,56.7,55.9,2.647,2.674,2.833,3.104,1.37,256.7,32.9,67.5,1007.95,-22.99,-1.53,1.85,28.9,38.8,35.6,0,no_anomaly,0.0,0,0,0,0,28.6138387,77.2089486,21.2,0.0
2024-02-02T11:51:12.900Z,MISSION_0041,129,1,orbit_base,SITE_DEL_002,28.6138403,77.2089467,21.5,354.0,0.872,0.141,8.91,1.0192,-1.8144,353.9992,-0.99847,-0.00805,0.01628,0.05219,-0.0296,-0.0656,-9.8473,0.301,-0.9106,-0.2848,0.0,3,12,0.64,1.08,0.31,24.593,16.24,89.1,41.7,19602.0,7190,7139,7619,7453,57.6,58.0,59.6,62.1,2.673,2.994,2.515,2.691,1.28,260.7,33.1,67.3,1008.28,-32.73,-0.83,1.27,25.9,41.9,36.6,0,no_anomaly,0.0,0,0,0,0,28.6138403,77.2089467,21.5,0.0
