timestamp_utc,mission_id,frame_id,waypoint_id,inspection_phase,site_id,latitude_deg,longitude_deg,altitude_m,heading_deg,ground_speed_ms,vertical_speed_ms,distance_to_tower_m,roll_deg,pitch_deg,yaw_deg,quat_w,quat_x,quat_y,quat_z,accel_x_ms2,accel_y_ms2,accel_z_ms2,gyro_x_rads,gyro_y_rads,gyro_z_rads,vibration_level,gps_fix_type,gps_satellite_count,gps_hdop,gps_vdop,position_error_m,battery_voltage_v,battery_current_a,battery_remaining_pct,battery_temp_c,battery_capacity_mah,motor_fl_rpm,motor_fr_rpm,motor_rl_rpm,motor_rr_rpm,motor_fl_temp_c,motor_fr_temp_c,motor_rl_temp_c,motor_rr_temp_c,motor_fl_thrust_n,motor_fr_thrust_n,motor_rl_thrust_n,motor_rr_thrust_n,wind_speed_ms,wind_dir_deg,air_temp_c,humidity_pct,pressure_hpa,gimbal_pitch_deg,gimbal_roll_deg,zoom_factor,ir_temp_min_c,ir_temp_max_c,ir_temp_avg_c,anomaly_detected,anomaly_class,anomaly_confidence,anomaly_bbox_x,anomaly_bbox_y,anomaly_bbox_w,anomaly_bbox_h,anomaly_gps_lat,anomaly_gps_lon,anomaly_gps_alt_m,ir_temp_delta_c
2024-07-25T09:56:00.000Z,MISSION_0057,0,0,takeoff,SITE_AMD_008,23.0224917,72.5713977,1.5,232.54,0.362,0.111,0.96,2.457,-0.8734,232.5442,-0.44267,-0.00266,0.0226,0.8964,0.1158,-0.0257,-9.8299,0.4028,-0.3799,-0.0016,0.1277,3,11,0.81,1.17,0.42,24.643,21.19,95.2,44.6,20938.0,7196,7047,7073,7223,57.9,59.6,58.9,57.6,2.848,2.91,2.869,2.93,5.57,15.1,35.8,49.3,1008.91,-31.02,1.0,1.2,34.1,43.8,39.4,0,no_anomaly,0.0,0,0,0,0,23.0224917,72.5713977,1.5,0.0
2024-07-25T09:56:00.100Z,MISSION_0057,1,0,takeoff,SITE_AMD_008,23.0224893,72.5714007,3.0,231.37,0.185,0.055,1.19,2.4234,-6.7533,231.3682,-0.43368,0.04392,0.04455,0.89889,0.1091,0.0722,-9.8293,1.2447,-0.2708,-0.0203,0.2002,3,15,0.67,0.87,0.35,24.685,11.14,95.1,43.2,20924.0,6717,7145,7136,7127,58.6,60.5,61.4,58.7,2.775,2.921,2.752,2.81,5.23,7.1,35.4,50.7,1008.84,-32.86,0.91,1.5,31.5,41.4,39.4,0,no_anomaly,0.0,0,0,0,0,23.0224893,72.5714007,3.0,0.0
2024-07-25T09:56:00.200Z,MISSION_0057,2,0,takeoff,SITE_AMD_008,23.0224906,72.5713957,4.5,228.04,0.026,0.087,1.15,6.4705,-2.7015,228.0403,-0.40751,-0.00147,0.06111,0.91115,0.1982,0.0649,-9.8293,0.054,0.1131,-0.1699,0.2824,3,16,0.8,1.35,0.39,24.744,19.64,95.0,43.2,20909.0,7120,7026,7154,7063,59.2,61.2,57.0,61.5,2.585,2.915,2.484,2.503,5.47,14.5,35.4,51.0,1008.96,-27.43,-2.12,1.32,31.6,48.5,38.8,0,no_anomaly,0.0,0,0,0,0,23.0224906,72.5713957,4.5,0.0
2024-07-25T09:56:00.300Z,MISSION_0057,3,0,takeoff,SITE_AMD_008,23.0224912,72.5713985,5.0,228.98,0.0,0.052,0.99,2.6726,-3.015,228.9777,-0.41482,0.01427,0.03212,0.90923,0.2913,-0.0209,-9.8367,1.0446,-0.6029,0.0348,0.2419,3,12,0.8,0.84,0.32,24.666,21.65,95.0,43.9,20895.0,7141,7240,7068,6968,59.4,62.1,60.6,60.3,2.664,2.774,2.736,2.684,5.88,11.6,35.8,50.3,1009.17,-30.61,1.17,1.38,33.4,46.9,40.9,0,no_anomaly,0.0,0,0,0,0,23.0224912,72.5713985,5.0,0.0
2024-07-25T09:56:00.400Z,MISSION_0057,4,0,takeoff,SITE_AMD_008,23.0224925,72.5713945,5.0,231.11,0.112,0.1,1.04,0.9496,-2.2137,231.1058,-0.43139,0.01385,0.01581,0.90192,0.0935,-0.0079,-9.7291,0.2655,0.4631,-0.2506,0.2106,3,15,0.7,1.1,0.23,24.637,17.94,94.9,43.6,20880.0,7280,7257,7022,7258,58.8,60.3,60.6,60.8,2.701,2.917,3.048,2.985,5.25,14.8,35.4,49.6,1009.0,-35.81,0.64,1.0,29.7,42.8,40.9,0,no_anomaly,0.0,0,0,0,0,23.0224925,72.5713945,5.0,0.0
2024-07-25T09:56:00.500Z,MISSION_0057,5,0,takeoff,SITE_AMD_008,23.0224966,72.5713904,5.0,231.02,0.433,0.129,1.14,2.6612,-1.1643,231.0225,-0.43076,-0.00083,0.02533,0.90211,0.1853,0.0624,-9.9352,0.1163,0.2272,0.0415,0.2432,3,14,0.8,0.79,0.21,24.617,16.42,94.8,43.7,20866.0,7116,6893,7122,7092,63.5,61.6,61.1,61.9,2.736,2.576,2.691,2.91,5.41,6.5,35.5,50.7,1009.19,-31.89,-0.92,1.76,30.1,48.9,38.5,0,no_anomaly,0.0,0,0,0,0,23.0224966,72.5713904,5.0,0.0
2024-07-25T09:56:00.600Z,MISSION_0057,6,0,takeoff,SITE_AMD_008,23.0225,72.5713907,5.0,227.99,0.422,0.118,1.03,5.1435,-1.9006,227.9943,-0.40691,-0.00311,0.04772,0.91222,-0.294,0.0786,-9.8002,-0.305,-0.137,-0.4044,0.2055,3,13,0.6,0.76,0.32,24.695,18.47,94.8,44.0,20851.0,7054,7001,7244,7053,58.6,59.1,60.8,60.8,2.993,2.734,2.538,2.759,6.1,9.4,35.7,50.3,1008.9,-34.34,0.24,1.8,28.7,42.9,39.8,0,no_anomaly,0.0,0,0,0,0,23.0225,72.5713907,5.0,0.0
2024-07-25T09:56:00.700Z,MISSION_0057,7,0,takeoff,SITE_AMD_008,23.0225053,72.5713953,5.0,228.64,0.135,0.134,0.78,0.468,-1.3707,228.6368,-0.41182,0.00922,0.00865,0.91118,-0.0121,0.0305,-9.8995,0.1623,0.6656,0.0158,0.2261,3,12,0.52,0.98,0.24,24.626,10.78,94.7,44.1,20837.0,6883,7293,7208,7254,64.2,59.6,57.9,60.2,3.154,2.852,2.632,2.809,5.26,10.5,35.8,50.2,1008.62,-23.62,-0.29,1.15,30.0,43.3,39.1,0,no_anomaly,0.0,0,0,0,0,23.0225053,72.5713953,5.0,0.0
2024-07-25T09:56:00.800Z,MISSION_0057,8,0,takeoff,SITE_AMD_008,23.0224998,72.5713956,5.0,227.4,0.0,0.137,0.49,3.1661,-0.3096,227.4045,-0.4019,-0.00863,0.02638,0.91526,0.2548,-0.0167,-9.819,-0.4227,-0.6086,-0.0571,0.2363,3,16,0.79,0.73,0.37,24.682,20.68,94.6,43.4,20822.0,7167,7104,7277,7203,56.1,60.6,59.9,58.0,2.714,2.649,2.864,2.691,5.12,5.4,35.5,50.2,1009.13,-30.73,-1.09,1.27,33.6,47.4,36.3,0,no_anomaly,0.0,0,0,0,0,23.0224998,72.5713956,5.0,0.0
2024-07-25T09:56:00.900Z,MISSION_0057,9,0,takeoff,SITE_AMD_008,23.0224973,72.5713959,5.0,228.69,0.0,0.022,0.55,-6.05,-3.5098,228.6853,-0.40995,0.0496,-0.03545,0.91007,-0.0971,-0.0387,-9.8514,0.2983,1.3874,0.1181,0.2537,3,10,0.58,0.8,0.26,24.605,15.35,94.6,44.9,20807.0,7156,7089,7026,7069,59.8,59.6,59.8,59.4,2.784,2.86,2.775,2.756,5.72,23.4,35.8,50.1,1008.72,-34.58,-0.99,1.0,32.2,48.8,36.5,0,no_anomaly,0.0,0,0,0,0,23.0224973,72.5713959,5.0,0.0
2024-07-25T09:56:01.000Z,MISSION_0057,10,0,takeoff,SITE_AMD_008,23.022497,72.5713998,5.0,229.17,0.0,0.157,0.34,-4.3115,-0.295,229.169,-0.41565,0.01799,-0.03314,0.90874,-0.0858,-0.0812,-9.8079,1.2013,-0.7288,-0.0093,0.1662,3,16,0.65,1.0,0.34,24.754,12.14,94.5,43.8,20793.0,7124,7340,7075,7113,59.0,59.6,57.9,58.6,2.622,3.028,2.49,3.02,5.6,10.8,35.8,50.5,1008.84,-31.63,1.33,1.13,33.6,44.8,38.9,0,no_anomaly,0.0,0,0,0,0,23.022497,72.5713998,5.0,0.0
2024-07-25T09:56:01.100Z,MISSION_0057,11,0,takeoff,SITE_AMD_008,23.0224962,72.5713986,5.0,227.89,0.0,0.074,0.45,-0.5231,-5.6372,227.8905,-0.40516,0.04679,0.01579,0.91291,0.0741,0.0337,-9.7934,0.3468,-0.1388,0.5281,0.1242,3,16,0.91,1.03,0.4,24.682,17.12,94.4,43.2,20778.0,7253,7126,7240,7376,61.8,61.1,62.1,62.0,2.629,2.83,2.481,2.781,5.21,15.7,35.6,50.2,1009.23,-26.88,0.46,1.83,30.5,42.0,35.6,0,no_anomaly,0.0,0,0,0,0,23.0224962,72.5713986,5.0,0.0
2024-07-25T09:56:01.200Z,MISSION_0057,12,0,takeoff,SITE_AMD_008,23.0225013,72.5713981,5.0,229.0,0.0,0.078,0.26,3.555,-1.5744,229.0026,-0.41486,-0.00037,0.03392,0.90925,-0.0307,0.0071,-9.7431,-0.8398,0.8253,-0.2551,0.323,3,19,0.66,0.73,0.26,24.697,20.63,94.4,43.6,20764.0,7013,7158,7163,6964,60.3,58.8,59.8,63.8,3.046,2.855,2.945,2.883,5.62,8.3,35.8,50.8,1008.55,-30.57,0.85,1.04,32.9,40.7,35.2,0,no_anomaly,0.0,0,0,0,0,23.0225013,72.5713981,5.0,0.0
2024-07-25T09:56:01.300Z,MISSION_0057,13,0,takeoff,SITE_AMD_008,23.0225015,72.571398,5.0,229.84,0.0,0.073,0.28,-0.5456,-2.0093,229.839,-0.4212,0.01791,0.00307,0.90679,0.1922,0.0289,-9.7737,0.325,0.2839,0.2355,0.1188,3,18,0.78,0.63,0.35,24.675,16.21,94.3,43.3,20749.0,7059,7302,6863,6961,61.3,62.1,59.5,61.5,2.801,2.794,2.861,2.752,5.76,9.6,35.7,50.8,1008.89,-29.32,0.34,1.68,33.8,49.9,40.2,0,no_anomaly,0.0,0,0,0,0,23.0225015,72.571398,5.0,0.0
2024-07-25T09:56:01.400Z,MISSION_0057,14,0,takeoff,SITE_AMD_008,23.0225045,72.5714031,5.0,228.98,0.0,0.025,0.61,1.582,-2.3833,228.9791,-0.41466,0.0132,0.02118,0.90963,-0.1393,-0.044,-9.7618,0.2702,0.2881,-0.0473,0.2355,3,12,0.86,0.61,0.47,24.644,19.16,94.2,43.4,20735.0,6959,7114,7072,7134,61.5,60.1,59.9,62.8,2.843,2.55,2.894,2.69,5.58,3.6,35.8,50.1,1009.3,-23.75,-0.71,1.38,32.3,44.2,36.4,0,no_anomaly,0.0,0,0,0,0,23.0225045,72.5714031,5.0,0.0
2024-07-25T09:56:01.500Z,MISSION_0057,15,0,takeoff,SITE_AMD_008,23.0225104,72.571402,5.0,227.9,0.57,0.157,1.18,0.1816,-1.0699,227.8991,-0.40593,0.00789,0.00524,0.91386,0.1778,-0.0307,-9.7649,0.0511,-0.4333,-0.1869,0.1028,3,13,0.59,0.87,0.21,24.623,19.87,94.2,43.9,20720.0,7097,7110,7052,7316,62.5,61.1,60.7,58.1,2.518,2.771,2.884,2.438,5.43,4.1,35.6,50.5,1009.05,-30.05,-0.44,1.91,31.3,43.4,37.8,0,no_anomaly,0.0,0,0,0,0,23.0225104,72.571402,5.0,0.0
2024-07-25T09:56:01.600Z,MISSION_0057,16,0,takeoff,SITE_AMD_008,23.0225146,72.5713994,5.0,227.47,0.55,0.06,1.62,0.4357,-2.2963,227.4674,-0.40247,0.01681,0.01154,0.9152,-0.0259,0.0717,-9.8976,0.034,-0.0546,-0.1654,0.2346,3,13,0.69,0.85,0.25,24.596,19.21,94.1,43.2,20706.0,7149,7257,7025,7008,60.9,62.4,60.7,61.5,3.013,2.989,2.724,2.729,5.69,11.4,35.5,50.8,1008.64,-29.42,-1.6,1.37,32.2,43.2,38.1,0,no_anomaly,0.0,0,0,0,0,23.0225146,72.5713994,5.0,0.0
2024-07-25T09:56:01.700Z,MISSION_0057,17,0,takeoff,SITE_AMD_008,23.0225162,72.5713958,5.0,228.94,1.025,0.078,1.86,2.4611,-4.0325,228.9353,-0.41452,0.02313,0.0341,0.90911,0.0247,-0.0022,-9.7657,-0.1561,-0.1626,0.1947,0.2038,3,20,0.67,1.0,0.34,24.645,19.41,94.1,43.3,20691.0,7223,7063,7229,6981,61.2,60.3,61.2,62.6,2.526,2.55,2.808,2.95,5.71,14.2,35.8,50.4,1009.39,-32.63,-0.68,1.44,32.2,42.5,37.3,0,no_anomaly,0.0,0,0,0,0,23.0225162,72.5713958,5.0,0.0
2024-07-25T09:56:01.800Z,MISSION_0057,18,0,takeoff,SITE_AMD_008,23.0225154,72.5713966,5.0,230.76,0.719,0.087,1.75,4.3152,-0.1031,230.7557,-0.42831,-0.01532,0.0344,0.90285,-0.2066,-0.0171,-9.8308,0.7707,0.3085,0.1849,0.2116,3,12,0.64,0.95,0.3,24.62,18.69,94.0,44.1,20677.0,7247,7255,7293,6889,62.2,63.2,62.1,62.7,2.783,2.465,2.78,2.834,5.8,6.7,35.3,51.0,1009.29,-35.18,-1.08,1.64,31.3,49.2,38.9,0,no_anomaly,0.0,0,0,0,0,23.0225154,72.5713966,5.0,0.0
2024-07-25T09:56:01.900Z,MISSION_0057,19,0,takeoff,SITE_AMD_008,23.0225176,72.5713946,5.0,232.55,1.187,0.026,2.05,2.0097,-2.4744,232.5532,-0.44287,0.0116,0.02528,0.89615,-0.056,-0.0043,-9.7757,0.0153,0.0831,-0.0462,0.2202,3,11,0.74,0.69,0.28,24.654,17.85,93.9,43.6,20662.0,6900,7362,6929,7139,57.9,62.0,57.6,59.4,2.647,2.864,3.03,2.732,5.4,13.8,35.5,51.1,1008.76,-31.53,1.11,1.0,29.9,46.9,38.5,0,no_anomaly,0.0,0,0,0,0,23.0225176,72.5713946,5.0,0.0
2024-07-25T09:56:02.000Z,MISSION_0057,20,0,takeoff,SITE_AMD_008,23.0225198,72.5713919,5.0,233.96,1.158,0.122,2.38,-2.409,-0.6713,233.9644,-0.4535,0.01476,-0.01608,0.89099,0.098,0.0459,-9.8667,0.0537,-1.0056,-0.3875,0.2257,3,15,0.72,0.78,0.23,24.602,18.36,93.9,42.5,20648.0,6859,7335,6944,6946,62.2,65.9,58.9,60.6,2.829,2.972,2.758,2.706,5.41,10.5,35.6,49.7,1008.81,-32.14,-0.42,1.78,27.2,43.2,38.6,0,no_anomaly,0.0,0,0,0,0,23.0225198,72.5713919,5.0,0.0
2024-07-25T09:56:02.100Z,MISSION_0057,21,0,takeoff,SITE_AMD_008,23.0225201,72.5713917,5.0,233.85,0.882,0.131,2.42,-0.3086,-1.6993,233.8481,-0.45272,0.01444,0.00431,0.89152,0.0339,-0.0045,-9.8062,-0.6237,0.6331,-0.1629,0.2146,3,19,0.67,1.05,0.2,24.65,14.24,93.8,44.7,20633.0,7243,7103,7522,7099,60.3,57.7,60.5,61.4,2.758,2.8,2.907,2.857,5.32,9.4,35.6,50.1,1008.92,-27.99,0.39,1.38,31.8,48.9,38.5,0,no_anomaly,0.0,0,0,0,0,23.0225201,72.5713917,5.0,0.0
2024-07-25T09:56:02.200Z,MISSION_0057,22,0,takeoff,SITE_AMD_008,23.0225181,72.5713947,5.0,233.26,1.07,0.125,2.1,1.3403,-4.2452,233.26,-0.44828,0.02787,0.02705,0.89305,-0.1125,0.042,-9.8403,-0.267,-0.9984,0.3364,0.2567,3,14,0.74,1.05,0.27,24.632,17.31,93.7,43.7,20619.0,7163,7178,7318,7268,59.1,61.4,59.1,60.0,2.62,3.001,2.879,2.846,4.96,16.0,35.8,48.8,1008.83,-28.38,-1.09,1.4,28.0,44.2,36.2,0,no_anomaly,0.0,0,0,0,0,23.0225181,72.5713947,5.0,0.0
2024-07-25T09:56:02.300Z,MISSION_0057,23,0,takeoff,SITE_AMD_008,23.0225206,72.5713954,5.0,234.55,0.812,0.023,2.35,3.7452,-2.4005,234.5501,-0.45853,0.00364,0.03863,0.88783,-0.1796,0.0499,-9.834,0.4334,-0.2878,-0.1316,0.2227,3,17,0.62,1.02,0.28,24.737,20.49,93.7,44.1,20604.0,7219,7063,7202,7013,61.1,60.3,59.7,58.4,2.688,2.707,2.802,2.928,4.02,15.5,35.9,51.2,1008.86,-34.88,-1.51,1.34,29.1,43.2,35.4,0,no_anomaly,0.0,0,0,0,0,23.0225206,72.5713954,5.0,0.0
2024-07-25T09:56:02.400Z,MISSION_0057,24,0,takeoff,SITE_AMD_008,23.0225194,72.5713945,5.0,235.05,0.596,0.018,2.25,-2.8192,-3.677,235.0474,-0.46104,0.0398,-0.00698,0.88646,-0.2925,-0.0006,-9.8398,-0.8788,-0.6045,-0.2661,0.3505,3,14,0.71,1.0,0.33,24.529,16.23,93.6,43.7,20590.0,7186,7029,7148,7329,61.8,60.7,56.7,60.2,2.785,3.191,2.865,2.746,4.52,8.7,35.8,49.0,1009.05,-33.19,-0.78,1.45,29.9,45.3,37.9,0,no_anomaly,0.0,0,0,0,0,23.0225194,72.5713945,5.0,0.0
2024-07-25T09:56:02.500Z,MISSION_0057,25,0,takeoff,SITE_AMD_008,23.022517,72.5713917,5.0,233.82,0.44,0.109,2.11,3.3646,-3.0137,233.8172,-0.45291,0.01016,0.03807,0.89069,0.299,0.0948,-9.7538,0.4586,-0.6442,-0.381,0.2775,3,17,0.79,0.76,0.28,24.69,17.06,93.5,44.0,20575.0,7100,7003,7229,7133,65.5,61.9,61.2,58.9,2.497,2.678,2.766,2.942,4.95,18.9,35.8,50.5,1008.95,-32.16,-1.11,1.87,34.6,51.0,38.5,0,no_anomaly,0.0,0,0,0,0,23.022517,72.5713917,5.0,0.0
2024-07-25T09:56:02.600Z,MISSION_0057,26,0,takeoff,SITE_AMD_008,23.0225166,72.5713889,5.0,232.67,0.049,0.153,2.22,-0.8346,0.3567,232.6713,-0.44364,0.00044,-0.00791,0.89617,-0.1506,0.0281,-9.8473,0.2342,-1.0827,0.4775,0.1958,3,20,0.68,0.69,0.29,24.667,12.8,93.5,43.9,20560.0,7216,7038,7030,7333,53.8,64.3,65.4,60.2,2.786,2.865,3.098,2.801,5.41,18.0,35.5,50.2,1008.56,-31.73,0.57,1.2,28.5,44.6,37.6,0,no_anomaly,0.0,0,0,0,0,23.0225166,72.5713889,5.0,0.0
2024-07-25T09:56:02.700Z,MISSION_0057,27,0,takeoff,SITE_AMD_008,23.0225165,72.571387,5.0,233.26,0.0,0.115,2.34,0.9849,-3.7579,233.2565,-0.44819,0.02546,0.02237,0.89329,0.1231,-0.0078,-9.7648,-0.6806,-0.0462,-0.3597,0.2171,3,11,0.77,0.75,0.3,24.645,23.8,93.4,44.6,20546.0,7199,7170,7352,7197,62.0,61.0,61.6,62.8,2.744,3.036,2.765,2.79,5.57,13.5,35.5,51.1,1009.12,-35.71,0.42,1.91,32.8,50.4,39.4,0,no_anomaly,0.0,0,0,0,0,23.0225165,72.571387,5.0,0.0
2024-07-25T09:56:02.800Z,MISSION_0057,28,0,takeoff,SITE_AMD_008,23.0225159,72.571387,5.0,231.75,0.373,0.096,2.29,2.3058,0.0367,231.7528,-0.43634,-0.00907,0.01796,0.89956,-0.3343,-0.0397,-9.7938,0.4422,-0.0716,-0.3511,0.2702,3,20,0.67,1.01,0.23,24.665,17.28,93.3,43.5,20531.0,7129,6988,7098,7187,56.9,61.0,59.5,60.4,2.702,2.759,2.903,2.723,5.02,12.3,35.4,50.2,1009.24,-25.02,-0.9,1.25,30.4,42.7,39.2,0,no_anomaly,0.0,0,0,0,0,23.0225159,72.571387,5.0,0.0
2024-07-25T09:56:02.900Z,MISSION_0057,29,0,takeoff,SITE_AMD_008,23.0225091,72.5713879,5.0,233.93,0.0,0.112,1.69,-0.7248,0.4022,233.9273,-0.45343,-0.00026,-0.00723,0.89126,0.1777,0.0178,-9.7335,0.3779,-0.9554,-0.1509,0.2594,3,13,0.67,0.9,0.24,24.691,16.4,93.3,44.4,20517.0,6929,7213,6913,7031,58.9,60.2,61.5,62.0,2.75,2.773,2.752,2.662,4.9,14.3,35.8,50.1,1008.98,-33.49,-0.17,1.78,27.5,46.0,34.7,0,no_anomaly,0.0,0,0,0,0,23.0225091,72.5713879,5.0,0.0
2024-07-25T09:56:03.000Z,MISSION_0057,30,0,takeoff,SITE_AMD_008,23.0225086,72.5713891,5.0,234.36,0.336,0.133,1.55,0.6043,-0.6661,234.3554,-0.45677,0.00276,0.00735,0.88955,0.1892,0.0246,-9.8067,0.4107,-0.0545,0.4041,0.2179,3,11,0.65,0.89,0.31,24.546,17.44,93.2,43.2,20502.0,7124,7075,6902,7004,57.0,58.9,63.0,63.1,2.964,2.581,2.743,2.591,5.21,15.2,35.7,50.2,1009.01,-28.15,0.38,1.16,30.8,45.6,37.2,0,no_anomaly,0.0,0,0,0,0,23.0225086,72.5713891,5.0,0.0
2024-07-25T09:56:03.100Z,MISSION_0057,31,0,takeoff,SITE_AMD_008,23.0225046,72.5713909,5.0,233.71,0.767,0.154,1.14,-0.0597,-3.5596,233.7087,-0.45149,0.02794,0.01357,0.89173,0.5287,-0.0051,-9.8569,0.3976,-0.1075,-0.1015,0.2257,3,19,0.71,0.69,0.27,24.582,21.22,93.1,44.4,20488.0,7220,7022,7293,7360,60.5,57.6,62.3,60.1,2.812,2.8,2.86,2.888,4.46,15.9,35.8,49.6,1009.08,-28.23,-0.03,1.8,31.0,46.0,39.1,0,no_anomaly,0.0,0,0,0,0,23.0225046,72.5713909,5.0,0.0
2024-07-25T09:56:03.200Z,MISSION_0057,32,0,takeoff,SITE_AMD_008,23.0225038,72.5713907,5.0,236.66,0.585,0.145,1.12,-4.6346,-2.8237,236.6573,-0.47312,0.04085,-0.0239,0.87973,-0.0017,-0.0048,-9.8281,1.2878,-0.7381,-0.329,0.2486,3,10,0.75,0.77,0.23,24.627,22.44,93.1,44.1,20473.0,7046,7189,7003,7258,60.8,60.5,61.2,59.5,2.874,2.795,2.778,2.697,4.76,20.3,35.9,49.0,1009.12,-26.13,-1.14,1.69,29.4,40.4,39.4,0,no_anomaly,0.0,0,0,0,0,23.0225038,72.5713907,5.0,0.0
2024-07-25T09:56:03.300Z,MISSION_0057,33,0,takeoff,SITE_AMD_008,23.0225064,72.5713897,5.0,238.25,0.797,0.04,1.35,0.3312,-0.8507,238.2501,-0.48672,0.00508,0.00614,0.87352,0.0621,-0.0286,-9.7284,-0.5821,-0.2642,0.3685,0.1384,3,10,0.77,0.89,0.43,24.569,18.37,93.0,44.7,20459.0,7086,7080,7220,6919,59.2,54.9,60.6,56.6,2.857,3.094,2.459,2.692,5.37,13.6,35.2,48.7,1009.03,-27.07,-0.65,1.52,31.9,44.6,35.8,0,no_anomaly,0.0,0,0,0,0,23.0225064,72.5713897,5.0,0.0
2024-07-25T09:56:03.400Z,MISSION_0057,34,0,takeoff,SITE_AMD_008,23.0225073,72.5713878,5.0,237.14,0.945,0.067,1.59,-1.4524,-4.4101,237.1395,-0.47741,0.03984,0.00728,0.87775,0.0693,0.0195,-9.7412,0.7416,0.567,-0.3637,0.2089,3,12,0.77,0.86,0.32,24.616,21.99,92.9,43.3,20444.0,7089,7051,7212,6995,59.1,58.8,61.2,60.4,2.868,3.064,2.84,2.818,4.65,10.1,35.9,49.7,1009.09,-32.69,-0.05,1.37,29.9,45.4,40.6,0,no_anomaly,0.0,0,0,0,0,23.0225073,72.5713878,5.0,0.0
2024-07-25T09:56:03.500Z,MISSION_0057,35,0,takeoff,SITE_AMD_008,23.0225066,72.5713859,5.0,236.67,0.585,0.148,1.73,2.5829,-0.314,236.6651,-0.47452,-0.00828,0.02114,0.87995,-0.2087,-0.023,-9.8523,0.1435,0.4739,0.2173,0.1849,3,14,0.9,0.72,0.36,24.604,15.01,92.9,43.7,20430.0,7297,7105,6776,6896,57.7,60.1,58.3,61.4,2.918,2.708,2.839,2.784,5.77,6.7,35.5,49.8,1008.97,-34.6,1.11,1.55,28.1,42.9,37.0,0,no_anomaly,0.0,0,0,0,0,23.0225066,72.5713859,5.0,0.0
2024-07-25T09:56:03.600Z,MISSION_0057,36,0,takeoff,SITE_AMD_008,23.022507,72.5713822,5.0,237.82,0.92,0.035,2.13,2.7621,-0.9885,237.8173,-0.48344,-0.0041,0.02527,0.875,0.0336,0.0269,-9.8259,-0.6182,0.7692,0.4399,0.2001,3,17,0.64,1.03,0.21,24.697,20.86,92.8,43.8,20415.0,7227,7036,7339,7384,59.8,59.3,61.6,57.7,2.942,3.135,2.812,2.882,5.99,9.3,36.0,50.3,1008.66,-24.81,0.24,1.1,31.4,42.7,37.0,0,no_anomaly,0.0,0,0,0,0,23.022507,72.5713822,5.0,0.0
2024-07-25T09:56:03.700Z,MISSION_0057,37,0,takeoff,SITE_AMD_008,23.0225024,72.5713799,5.0,237.56,1.196,0.143,2.25,1.6298,-5.1562,237.558,-0.48146,0.03258,0.03411,0.8752,0.2259,-0.0306,-9.7973,0.0675,-0.8793,-0.0576,0.1671,3,19,0.67,1.02,0.21,24.65,17.96,92.7,45.2,20401.0,6879,7100,7000,7137,60.4,60.0,61.3,61.1,3.027,3.057,2.789,2.713,5.17,10.2,35.6,50.5,1009.25,-27.04,-1.3,1.66,28.7,42.1,40.5,0,no_anomaly,0.0,0,0,0,0,23.0225024,72.5713799,5.0,0.0
2024-07-25T09:56:03.800Z,MISSION_0057,38,0,takeoff,SITE_AMD_008,23.0225032,72.5713716,5.0,237.43,1.091,0.07,3.18,0.6387,-2.6901,237.4309,-0.48043,0.01791,0.01616,0.8767,0.0608,0.0428,-9.7485,-1.0174,-0.7612,-0.2733,0.244,3,17,0.8,0.95,0.29,24.485,19.05,92.7,43.5,20386.0,6953,6887,7165,7219,60.1,60.2,63.1,61.0,2.703,3.021,3.032,2.594,5.62,14.1,35.3,49.4,1008.89,-29.48,0.38,1.96,29.7,46.9,41.2,0,no_anomaly,0.0,0,0,0,0,23.0225032,72.5713716,5.0,0.0
2024-07-25T09:56:03.900Z,MISSION_0057,39,0,takeoff,SITE_AMD_008,23.0225048,72.571371,5.0,238.15,1.512,0.011,3.28,1.6769,-0.7821,238.1477,-0.48596,-0.00115,0.01611,0.87383,-0.1528,-0.025,-9.7837,0.3064,-0.0798,0.3449,0.1805,3,11,0.58,0.82,0.25,24.636,17.06,92.6,44.2,20372.0,6946,7056,7207,7092,61.6,60.3,64.0,57.5,2.948,2.885,2.924,2.981,4.9,19.5,35.7,49.8,1008.74,-29.63,-1.12,1.44,29.2,49.6,37.5,0,no_anomaly,0.0,0,0,0,0,23.0225048,72.571371,5.0,0.0
2024-07-25T09:56:04.000Z,MISSION_0057,40,0,takeoff,SITE_AMD_008,23.02251,72.5713757,5.0,237.44,1.421,0.11,2.93,-1.2944,-1.4446,237.4447,-0.48037,0.01648,-0.00385,0.8769,-0.162,-0.022,-9.8331,0.4186,0.4939,0.248,0.1821,3,14,0.81,0.82,0.24,24.64,18.66,92.5,44.2,20357.0,7266,6956,6987,7012,63.0,60.8,59.5,59.2,2.648,2.578,2.769,2.991,5.29,6.4,35.8,49.6,1008.58,-36.99,-0.25,1.38,32.3,41.4,39.4,0,no_anomaly,0.0,0,0,0,0,23.02251,72.5713757,5.0,0.0
2024-07-25T09:56:04.100Z,MISSION_0057,41,0,transit,SITE_AMD_008,23.0225084,72.5713789,5.5,239.96,1.0,0.145,2.53,2.0634,-3.8734,239.9551,-0.49982,0.02028,0.03247,0.86528,0.1918,0.0497,-9.8148,-0.4199,0.0185,-0.2167,0.1192,3,16,0.62,0.66,0.2,24.736,17.09,92.5,43.5,20343.0,6942,7012,7054,7234,61.6,58.1,64.2,59.8,2.621,2.911,2.86,2.756,4.65,12.3,35.8,49.8,1009.21,-27.09,1.89,1.67,27.5,47.3,39.3,0,no_anomaly,0.0,0,0,0,0,23.0225084,72.5713789,5.5,0.0
2024-07-25T09:56:04.200Z,MISSION_0057,42,0,transit,SITE_AMD_008,23.0225125,72.5713823,6.0,239.83,1.038,0.161,2.42,6.6393,-0.5842,239.8281,-0.49811,-0.02447,0.05273,0.86516,-0.0263,0.021,-9.8795,0.5598,0.0562,0.5037,0.2169,3,10,0.64,0.81,0.29,24.552,16.91,92.4,42.7,20328.0,6956,7120,7122,7148,61.4,61.3,60.9,61.6,2.804,2.588,2.794,2.705,5.61,13.3,36.0,50.3,1009.03,-34.76,0.54,1.51,28.8,43.6,37.8,0,no_anomaly,0.0,0,0,0,0,23.0225125,72.5713823,6.0,0.0
2024-07-25T09:56:04.300Z,MISSION_0057,43,0,transit,SITE_AMD_008,23.0225135,72.5713801,6.5,241.03,1.227,0.171,2.68,3.8843,0.0684,241.0283,-0.50744,-0.01772,0.02889,0.86102,-0.0594,-0.093,-9.7802,0.698,0.5792,-0.4015,0.1852,3,14,0.68,0.87,0.33,24.601,17.21,92.3,43.7,20314.0,7195,7265,7232,7247,61.6,63.2,56.4,57.3,2.672,2.777,2.693,2.861,5.73,12.2,35.1,50.2,1008.88,-29.91,0.49,2.0,30.5,42.2,35.5,0,no_anomaly,0.0,0,0,0,0,23.0225135,72.5713801,6.5,0.0
2024-07-25T09:56:04.400Z,MISSION_0057,44,0,transit,SITE_AMD_008,23.022514,72.5713789,7.0,243.08,1.607,0.076,2.83,1.2408,-3.0543,243.0832,-0.52315,0.01705,0.02317,0.85176,-0.0143,-0.0275,-9.8225,-0.2021,0.4074,0.2618,0.2804,3,20,0.65,0.91,0.22,24.59,15.24,92.3,43.7,20299.0,7223,7301,6949,6843,62.8,61.8,61.5,61.7,2.904,2.453,3.12,2.671,5.65,17.1,35.5,51.1,1008.71,-33.95,-2.43,1.62,31.1,49.4,39.1,0,no_anomaly,0.0,0,0,0,0,23.022514,72.5713789,7.0,0.0
2024-07-25T09:56:04.500Z,MISSION_0057,45,0,transit,SITE_AMD_008,23.0225207,72.5713777,7.5,244.1,1.251,0.035,3.38,-0.9458,-5.0225,244.1006,-0.52983,0.04151,0.01626,0.84693,-0.4432,0.0311,-9.8006,-0.7349,-0.1383,-0.275,0.155,3,14,0.77,0.74,0.4,24.585,20.18,92.2,43.2,20284.0,7150,7234,7268,7156,60.8,62.1,61.4,57.8,2.722,2.815,2.96,3.107,5.06,11.4,35.8,50.7,1009.09,-31.26,0.84,1.58,33.7,48.8,38.3,0,no_anomaly,0.0,0,0,0,0,23.0225207,72.5713777,7.5,0.0
2024-07-25T09:56:04.600Z,MISSION_0057,46,0,transit,SITE_AMD_008,23.0225264,72.5713803,8.0,244.25,1.484,0.112,3.67,2.5631,-0.833,244.2456,-0.53173,-0.00574,0.02281,0.84659,-0.5218,-0.0693,-9.7349,-0.933,-0.08,0.0304,0.194,3,15,0.55,0.76,0.23,24.564,21.87,92.1,43.1,20270.0,7179,7358,7079,6992,59.9,63.1,59.6,61.3,2.749,2.637,2.942,2.885,4.66,12.2,35.4,49.6,1008.76,-29.88,0.21,1.72,28.3,46.6,39.7,0,no_anomaly,0.0,0,0,0,0,23.0225264,72.5713803,8.0,0.0
2024-07-25T09:56:04.700Z,MISSION_0057,47,0,transit,SITE_AMD_008,23.0225296,72.5713774,8.5,244.29,1.489,0.121,4.15,-0.1246,-1.9081,244.2851,-0.53194,0.01468,0.00794,0.84662,0.0091,-0.0735,-9.8383,-0.9409,-0.4793,-0.1721,0.2422,3,13,0.76,0.87,0.32,24.571,18.52,92.1,44.0,20255.0,7169,7123,7186,7315,62.1,63.6,64.2,59.2,2.813,2.792,2.764,3.079,5.4,9.8,35.6,50.2,1009.26,-28.85,0.53,1.56,28.1,42.5,35.8,0,no_anomaly,0.0,0,0,0,0,23.0225296,72.5713774,8.5,0.0
2024-07-25T09:56:04.800Z,MISSION_0057,48,0,transit,SITE_AMD_008,23.0225256,72.5713748,9.0,243.13,1.173,0.02,4.0,3.4976,-0.706,243.13,-0.52337,-0.01073,0.02922,0.85154,0.1812,-0.0215,-9.8471,-0.6337,0.5067,-0.5846,0.1226,3,13,0.67,1.01,0.23,24.608,14.81,92.0,43.7,20241.0,7083,7113,7119,7468,63.7,58.3,60.0,61.1,2.834,3.041,2.875,2.65,5.6,12.1,35.5,49.9,1008.85,-29.36,0.37,1.76,29.2,48.2,36.8,0,no_anomaly,0.0,0,0,0,0,23.0225256,72.5713748,9.0,0.0
2024-07-25T09:56:04.900Z,MISSION_0057,49,0,transit,SITE_AMD_008,23.0225216,72.5713732,9.5,242.85,0.751,0.055,3.83,1.7819,-0.2814,242.8529,-0.52137,-0.00601,0.01455,0.85318,-0.0367,0.0908,-9.7722,0.058,-0.007,0.3255,0.1074,3,14,0.72,0.79,0.26,24.599,22.13,91.9,44.4,20226.0,7311,7317,7233,7054,63.0,61.5,61.0,61.0,2.943,2.963,2.613,2.808,4.75,9.5,35.6,50.3,1009.02,-31.72,2.68,2.03,32.7,48.8,38.3,0,no_anomaly,0.0,0,0,0,0,23.0225216,72.5713732,9.5,0.0
2024-07-25T09:56:05.000Z,MISSION_0057,50,0,transit,SITE_AMD_008,23.0225129,72.5713748,10.0,245.14,0.579,0.04,3.16,-2.8688,-2.571,245.1351,-0.53752,0.03237,-0.00902,0.84258,0.0286,0.0184,-9.8499,0.2051,0.5426,0.5697,0.1664,3,17,0.72,0.86,0.4,24.607,13.94,91.9,43.9,20212.0,7155,6970,7226,6818,60.9,60.9,59.4,62.0,2.776,2.838,2.703,3.074,5.01,6.9,35.5,49.7,1009.16,-29.03,2.11,1.94,33.4,45.4,40.4,0,no_anomaly,0.0,0,0,0,0,23.0225129,72.5713748,10.0,0.0
2024-07-25T09:56:05.100Z,MISSION_0057,51,0,transit,SITE_AMD_008,23.022513,72.5713734,10.5,244.51,0.279,0.012,3.3,-3.4051,-1.5207,244.507,-0.53305,0.02707,-0.01805,0.84546,0.1134,0.043,-9.8935,-0.538,-0.5737,-0.2548,0.1924,3,20,0.7,0.64,0.42,24.587,24.84,91.8,43.5,20197.0,6880,7183,7265,7150,62.5,60.5,59.3,63.0,2.593,2.745,2.83,2.858,5.74,3.2,35.7,50.5,1009.05,-29.83,-0.62,1.57,31.3,47.5,38.8,0,no_anomaly,0.0,0,0,0,0,23.022513,72.5713734,10.5,0.0
2024-07-25T09:56:05.200Z,MISSION_0057,52,0,transit,SITE_AMD_008,23.022511,72.57137,11.0,244.78,0.119,0.116,3.55,0.5222,-2.7075,244.7787,-0.53561,0.01751,0.0165,0.84413,0.1896,-0.0257,-9.7446,0.0525,-0.7559,-0.0,0.2468,3,12,0.92,1.21,0.37,24.582,21.18,91.7,44.1,20183.0,7088,7033,7376,7029,54.9,59.0,62.6,61.2,2.859,2.794,2.959,2.684,4.92,21.1,35.2,50.0,1008.78,-25.94,-1.28,1.35,29.2,43.4,35.8,0,no_anomaly,0.0,0,0,0,0,23.022511,72.57137,11.0,0.0
2024-07-25T09:56:05.300Z,MISSION_0057,53,0,transit,SITE_AMD_008,23.0225069,72.5713711,11.5,244.25,0.0,0.224,3.3,4.0649,-2.713,244.2467,-0.53197,0.00118,0.04261,0.84569,-0.1255,0.0052,-9.7454,0.4756,0.1327,0.0727,0.1657,3,17,0.74,0.74,0.27,24.512,11.35,91.7,43.1,20168.0,6993,7184,7250,6953,62.9,59.3,57.1,61.7,2.833,2.663,2.795,2.943,5.06,7.3,35.9,49.8,1009.04,-29.4,0.08,1.99,29.8,44.3,38.1,0,no_anomaly,0.0,0,0,0,0,23.0225069,72.5713711,11.5,0.0
2024-07-25T09:56:05.400Z,MISSION_0057,54,0,transit,SITE_AMD_008,23.0225011,72.5713749,12.0,245.01,0.119,0.041,2.8,4.4247,-2.6992,245.0101,-0.53759,-0.00089,0.04519,0.84199,0.0858,0.0537,-9.9281,-0.039,0.8604,0.3823,0.2121,3,20,0.7,0.79,0.36,24.638,17.46,91.6,43.1,20154.0,7206,7379,6911,7401,66.9,59.1,59.5,60.7,2.862,2.673,2.48,2.876,5.23,8.5,35.6,49.4,1008.93,-34.33,-0.01,1.58,27.9,44.2,35.5,0,no_anomaly,0.0,0,0,0,0,23.0225011,72.5713749,12.0,0.0
2024-07-25T09:56:05.500Z,MISSION_0057,55,0,transit,SITE_AMD_008,23.0225013,72.5713723,12.5,245.67,0.265,0.022,3.09,2.138,-4.4969,245.6702,-0.54233,0.02285,0.03693,0.83904,0.0834,-0.0063,-9.7534,0.2406,-0.0013,0.5116,0.1455,3,13,0.57,0.82,0.2,24.618,17.87,91.5,43.0,20139.0,7330,7273,7129,7473,61.1,63.9,57.0,60.5,2.905,2.642,2.732,2.748,5.58,5.6,35.4,49.4,1009.23,-27.82,-0.31,1.67,33.4,46.1,40.7,0,no_anomaly,0.0,0,0,0,0,23.0225013,72.5713723,12.5,0.0
2024-07-25T09:56:05.600Z,MISSION_0057,56,0,transit,SITE_AMD_008,23.0224999,72.5713737,13.0,245.31,0.294,0.1,2.92,-3.3962,-1.6559,245.306,-0.5389,0.02815,-0.01715,0.84173,-0.1572,-0.0682,-9.8224,-0.9289,0.3311,-0.0575,0.1848,3,20,0.78,0.94,0.4,24.604,17.53,91.5,43.7,20125.0,7140,7157,7260,7161,57.4,56.8,60.6,60.0,2.808,3.01,2.805,3.188,5.26,14.1,35.7,50.4,1009.2,-25.57,-1.05,1.18,30.0,48.7,38.2,0,no_anomaly,0.0,0,0,0,0,23.0224999,72.5713737,13.0,0.0
2024-07-25T09:56:05.700Z,MISSION_0057,57,0,transit,SITE_AMD_008,23.0225005,72.5713802,13.5,244.78,0.0,0.193,2.2,-1.3584,-2.4194,244.781,-0.53532,0.02417,0.0013,0.8443,0.2723,-0.023,-9.8459,0.1038,-0.1671,0.1251,0.2196,3,10,0.77,1.1,0.36,24.558,21.47,91.4,43.8,20110.0,7101,7304,7073,6994,59.5,57.7,64.6,60.3,2.753,2.899,2.804,2.937,5.56,4.5,36.0,50.5,1009.33,-31.71,-1.02,1.14,27.0,43.9,37.6,0,no_anomaly,0.0,0,0,0,0,23.0225005,72.5713802,13.5,0.0
2024-07-25T09:56:05.800Z,MISSION_0057,58,0,transit,SITE_AMD_008,23.0225018,72.5713825,14.0,246.17,0.0,0.119,1.95,-3.8494,-0.9108,246.1677,-0.54532,0.02499,-0.0238,0.83752,0.0073,0.0592,-9.912,-0.7894,-0.5515,-0.1566,0.1524,3,15,0.86,0.73,0.27,24.499,14.33,91.3,43.9,20096.0,7540,7008,6762,7526,60.1,62.6,59.2,60.2,2.803,2.955,2.811,2.738,5.38,13.5,35.4,49.8,1008.67,-30.91,-0.49,1.33,31.5,46.9,40.2,0,no_anomaly,0.0,0,0,0,0,23.0225018,72.5713825,14.0,0.0
2024-07-25T09:56:05.900Z,MISSION_0057,59,0,transit,SITE_AMD_008,23.0224993,72.5713802,14.5,246.4,0.0,0.153,2.21,-0.2826,-3.2846,246.3972,-0.54726,0.02533,0.01363,0.83647,-0.3385,0.0291,-9.937,-0.203,-0.7631,0.5626,0.1455,3,15,0.73,0.81,0.28,24.616,27.11,91.3,43.9,20081.0,7191,7309,7200,6950,63.7,60.1,60.6,61.1,2.39,2.76,2.937,2.866,6.23,7.8,35.7,50.1,1009.18,-26.24,0.5,1.58,28.8,41.9,40.1,0,no_anomaly,0.0,0,0,0,0,23.0224993,72.5713802,14.5,0.0
2024-07-25T09:56:06.000Z,MISSION_0057,60,0,transit,SITE_AMD_008,23.0224997,72.5713789,15.0,249.83,0.049,0.089,2.34,2.8326,-3.6988,249.8342,-0.57257,0.01231,0.03872,0.81885,-0.2472,0.0316,-9.8614,-0.2915,0.2096,-0.1415,0.1634,3,18,0.77,0.81,0.27,24.578,21.31,91.2,43.4,20067.0,7185,7232,7244,7172,61.3,62.6,60.0,61.5,2.983,2.918,2.728,2.797,3.91,7.9,35.5,50.5,1009.11,-31.98,1.64,1.46,27.5,49.9,38.5,0,no_anomaly,0.0,0,0,0,0,23.0224997,72.5713789,15.0,0.0
2024-07-25T09:56:06.100Z,MISSION_0057,61,0,transit,SITE_AMD_008,23.0224996,72.5713816,15.5,250.53,0.303,0.134,2.05,-0.5548,-3.8527,250.5281,-0.57688,0.03024,0.01546,0.81612,0.0473,0.0116,-9.8182,0.2376,-0.2833,-0.143,0.2249,3,13,0.5,0.85,0.2,24.554,14.35,91.1,44.2,20052.0,7011,6790,7224,7260,58.6,61.0,61.4,62.9,2.772,2.648,2.815,2.557,4.36,16.9,35.6,49.9,1009.08,-32.36,-0.65,1.0,31.4,44.4,41.0,0,no_anomaly,0.0,0,0,0,0,23.0224996,72.5713816,15.5,0.0
2024-07-25T09:56:06.200Z,MISSION_0057,62,0,transit,SITE_AMD_008,23.0224984,72.5713746,16.0,252.27,0.0,0.073,2.83,4.1799,-1.7033,252.267,-0.58965,-0.00951,0.03821,0.8067,-0.1462,-0.0319,-9.7908,0.3029,0.5225,-0.2254,0.2988,3,19,0.91,0.91,0.32,24.476,15.09,91.1,44.2,20037.0,7289,7390,7396,6782,56.7,60.5,61.7,60.3,2.806,2.73,2.497,2.698,5.72,14.6,35.7,50.3,1008.74,-32.48,-0.09,1.61,29.6,44.4,36.1,0,no_anomaly,0.0,0,0,0,0,23.0224984,72.5713746,16.0,0.0
2024-07-25T09:56:06.300Z,MISSION_0057,63,0,transit,SITE_AMD_008,23.0225038,72.5713732,16.5,252.56,0.104,0.129,3.02,-1.1522,-2.2806,252.5586,-0.59141,0.02199,0.00367,0.80606,-0.0417,0.0131,-9.903,0.2739,0.6845,-0.229,0.2095,3,17,0.64,1.19,0.29,24.503,10.27,91.0,43.5,20023.0,7099,7084,6947,7237,62.0,63.1,58.6,62.8,2.867,2.758,2.688,2.523,4.52,15.1,35.5,49.7,1008.72,-33.01,-0.34,1.04,32.8,42.2,40.6,0,no_anomaly,0.0,0,0,0,0,23.0225038,72.5713732,16.5,0.0
2024-07-25T09:56:06.400Z,MISSION_0057,64,0,transit,SITE_AMD_008,23.022507,72.5713716,17.0,253.43,0.284,0.083,3.26,3.1838,-1.6443,253.4285,-0.59785,-0.00511,0.03084,0.801,-0.136,-0.0176,-9.7562,-0.2549,0.4953,-0.2741,0.2579,3,14,0.76,0.98,0.34,24.526,20.94,90.9,44.2,20008.0,7134,7215,7148,7438,55.7,61.3,59.0,63.2,3.04,2.765,3.016,2.674,6.56,9.0,35.6,50.3,1009.02,-28.51,-1.23,1.05,32.0,50.8,41.0,0,no_anomaly,0.0,0,0,0,0,23.022507,72.5713716,17.0,0.0
2024-07-25T09:56:06.500Z,MISSION_0057,65,0,transit,SITE_AMD_008,23.0225087,72.5713673,17.5,254.76,0.0,0.109,3.77,2.4952,-2.9494,254.7551,-0.60717,0.00723,0.03292,0.79386,-0.0802,-0.0483,-9.7532,0.003,0.113,0.2517,0.226,3,10,0.71,0.94,0.36,24.545,17.81,90.9,43.7,19994.0,7071,7227,6975,7175,60.9,59.9,62.4,62.3,2.876,3.076,3.043,2.852,5.76,21.7,35.5,49.7,1008.85,-33.42,-1.4,1.58,30.7,42.6,38.9,0,no_anomaly,0.0,0,0,0,0,23.0225087,72.5713673,17.5,0.0
2024-07-25T09:56:06.600Z,MISSION_0057,66,0,transit,SITE_AMD_008,23.0225101,72.5713734,18.0,250.78,0.597,0.094,3.17,-2.2772,0.9783,250.7804,-0.57914,0.00455,-0.02114,0.81494,0.0369,-0.0214,-9.7947,-0.6571,-0.2317,-0.1074,0.1619,3,17,0.74,1.05,0.38,24.492,20.18,90.8,42.8,19979.0,7338,7024,7086,7126,60.9,58.8,63.7,58.3,2.734,2.761,2.809,2.973,5.33,8.6,35.8,51.0,1008.99,-26.08,-0.01,1.46,29.7,47.2,40.2,0,no_anomaly,0.0,0,0,0,0,23.0225101,72.5713734,18.0,0.0
2024-07-25T09:56:06.700Z,MISSION_0057,67,0,transit,SITE_AMD_008,23.0225112,72.571376,18.0,247.74,0.634,0.089,2.95,5.1704,-2.0311,247.7414,-0.55733,-0.01043,0.04731,0.82888,-0.0568,0.0421,-9.7855,-0.1161,0.9157,0.1765,0.1925,3,13,0.7,1.02,0.39,24.597,16.03,90.7,43.9,19965.0,7104,7091,7240,7164,59.9,59.8,61.0,62.8,2.912,2.772,3.031,2.788,4.16,11.7,35.8,49.2,1008.54,-28.24,1.22,1.13,28.4,44.2,40.3,0,no_anomaly,0.0,0,0,0,0,23.0225112,72.571376,18.0,0.0
2024-07-25T09:56:06.800Z,MISSION_0057,68,0,transit,SITE_AMD_008,23.0225118,72.5713801,18.0,248.54,0.678,0.053,2.58,-0.6264,-1.4608,248.5415,-0.56299,0.01361,0.00266,0.82635,-0.0432,0.0176,-9.8585,-0.0001,0.1235,-0.1254,0.1897,3,20,0.63,0.93,0.25,24.622,15.91,90.7,43.8,19950.0,7014,7344,7255,6908,62.0,58.3,64.0,59.7,2.735,2.754,2.544,2.824,5.49,16.6,35.8,50.4,1009.15,-21.23,-0.75,1.64,32.2,45.8,38.3,0,no_anomaly,0.0,0,0,0,0,23.0225118,72.5713801,18.0,0.0
2024-07-25T09:56:06.900Z,MISSION_0057,69,0,transit,SITE_AMD_008,23.0225084,72.5713849,18.0,249.58,0.987,0.107,1.92,2.9371,-3.6065,249.5766,-0.57074,0.01122,0.03899,0.82013,-0.026,-0.1192,-9.8155,-0.9199,-0.6793,-0.0549,0.2343,3,19,0.64,0.81,0.28,24.496,25.87,90.6,43.6,19936.0,7180,7294,7205,6981,62.6,60.9,61.2,59.4,2.824,2.68,2.808,2.901,5.62,10.9,35.6,50.1,1009.17,-27.66,-0.04,1.83,31.4,44.7,36.9,0,no_anomaly,0.0,0,0,0,0,23.0225084,72.5713849,18.0,0.0
2024-07-25T09:56:07.000Z,MISSION_0057,70,0,transit,SITE_AMD_008,23.0225064,72.5713779,18.0,248.41,1.007,0.085,2.56,2.2533,-3.0408,248.4135,-0.56231,0.01089,0.03117,0.82627,-0.2228,0.0288,-9.9213,-0.2164,0.1823,0.2221,0.159,3,16,0.75,0.78,0.32,24.606,14.7,90.6,44.1,19921.0,7213,7176,7050,6922,61.1,58.8,56.8,62.9,2.716,3.062,2.893,2.843,6.39,10.9,35.4,50.5,1008.87,-34.23,0.62,1.08,28.7,49.7,39.7,0,no_anomaly,0.0,0,0,0,0,23.0225064,72.5713779,18.0,0.0
2024-07-25T09:56:07.100Z,MISSION_0057,71,0,transit,SITE_AMD_008,23.0225057,72.5713807,18.0,248.5,0.586,0.128,2.24,-0.3734,-0.5225,248.4982,-0.56277,0.0056,-0.00013,0.82659,-0.2459,-0.0199,-9.7646,1.2208,-0.2397,-0.3025,0.2137,3,16,0.6,1.06,0.2,24.621,20.36,90.5,42.4,19907.0,7030,7215,6994,7170,61.4,59.1,59.8,61.2,2.711,2.674,2.659,2.587,5.16,17.4,36.0,50.2,1008.98,-29.88,0.19,1.8,30.8,49.0,38.1,0,no_anomaly,0.0,0,0,0,0,23.0225057,72.5713807,18.0,0.0
2024-07-25T09:56:07.200Z,MISSION_0057,72,0,transit,SITE_AMD_008,23.0225088,72.5713762,18.0,245.82,0.237,0.18,2.83,5.5461,-1.8481,245.8192,-0.54326,-0.01276,0.04936,0.83801,0.1298,-0.0024,-9.8865,0.3514,0.2369,-0.2525,0.2391,3,17,0.72,0.81,0.29,24.669,19.78,90.4,44.2,19892.0,7417,7363,7312,7232,66.0,61.9,57.4,60.6,2.767,2.61,2.956,2.722,5.86,13.3,35.7,50.4,1008.95,-28.91,1.17,1.4,33.3,50.7,37.9,0,no_anomaly,0.0,0,0,0,0,23.0225088,72.5713762,18.0,0.0
2024-07-25T09:56:07.300Z,MISSION_0057,73,0,transit,SITE_AMD_008,23.0225095,72.5713755,18.0,246.32,0.157,0.172,2.92,2.1308,-4.0878,246.3237,-0.54712,0.01969,0.03506,0.83609,0.2135,0.0446,-9.73,0.6796,-0.0217,-0.349,0.2285,3,19,0.74,1.23,0.26,24.583,18.61,90.4,44.1,19878.0,6946,7123,7131,7220,61.8,58.3,59.0,60.8,2.88,2.752,2.621,2.961,5.72,4.1,35.4,49.9,1008.89,-30.44,-0.33,1.78,30.3,40.5,35.7,0,no_anomaly,0.0,0,0,0,0,23.0225095,72.5713755,18.0,0.0
2024-07-25T09:56:07.400Z,MISSION_0057,74,0,transit,SITE_AMD_008,23.0225067,72.5713789,18.0,244.92,0.705,0.188,2.47,1.5302,-3.2068,244.9184,-0.53676,0.01644,0.02628,0.84317,0.2736,0.0777,-9.8698,-0.7778,0.0752,0.2771,0.2009,3,17,0.59,0.86,0.2,24.57,23.96,90.3,43.0,19863.0,7326,7171,7039,7271,61.0,60.0,59.3,62.7,2.513,2.854,2.96,2.953,5.29,14.0,35.4,50.2,1009.01,-31.56,-1.51,2.12,31.0,44.4,37.0,0,no_anomaly,0.0,0,0,0,0,23.0225067,72.5713789,18.0,0.0
2024-07-25T09:56:07.500Z,MISSION_0057,75,0,transit,SITE_AMD_008,23.0225096,72.5713782,18.0,242.47,0.682,0.182,2.65,-0.9519,-3.368,242.4711,-0.51811,0.02943,0.00814,0.85477,0.2578,-0.0781,-9.802,-0.4295,0.1656,-0.0385,0.1934,3,10,0.88,1.0,0.34,24.432,22.14,90.2,44.4,19849.0,7141,7304,7407,7054,61.7,61.1,57.9,61.3,2.753,2.848,2.864,2.937,6.5,12.1,35.8,50.9,1008.91,-35.14,3.02,1.33,26.7,45.7,35.1,0,no_anomaly,0.0,0,0,0,0,23.0225096,72.5713782,18.0,0.0
2024-07-25T09:56:07.600Z,MISSION_0057,76,0,transit,SITE_AMD_008,23.0225052,72.5713786,18.0,241.92,0.844,-0.002,2.45,1.4964,-5.6624,241.9157,-0.51429,0.03564,0.03659,0.85609,0.2359,0.0398,-9.7832,-0.1589,0.0266,-0.2026,0.1699,3,11,0.84,0.9,0.38,24.412,22.07,90.2,43.8,19834.0,7326,7131,7119,7313,58.5,55.1,60.4,61.1,2.897,2.917,2.725,2.946,6.05,18.1,35.4,51.3,1008.85,-24.76,-0.7,1.39,28.5,48.4,39.7,0,no_anomaly,0.0,0,0,0,0,23.0225052,72.5713786,18.0,0.0
2024-07-25T09:56:07.700Z,MISSION_0057,77,0,transit,SITE_AMD_008,23.0225094,72.571378,18.0,244.35,0.556,0.179,2.67,-3.7923,0.2096,244.3542,-0.5323,0.01607,-0.02898,0.84591,0.2119,-0.0002,-9.9101,-0.3371,0.8647,0.0867,0.2294,3,20,0.69,0.93,0.23,24.537,18.32,90.1,44.4,19820.0,7317,7192,7371,6757,59.3,61.9,59.6,59.8,2.999,2.931,2.813,2.698,5.38,21.9,35.6,50.0,1008.95,-29.85,-0.14,1.79,27.8,41.2,37.8,0,no_anomaly,0.0,0,0,0,0,23.0225094,72.571378,18.0,0.0
2024-07-25T09:56:07.800Z,MISSION_0057,78,0,transit,SITE_AMD_008,23.0225037,72.5713762,18.0,245.27,0.158,0.074,2.69,1.2391,-3.3564,245.2652,-0.53925,0.01883,0.02489,0.84156,0.0976,-0.0112,-9.8247,0.3829,-0.2378,-0.4953,0.2548,3,10,0.67,0.75,0.3,24.518,22.63,90.0,43.5,19805.0,7492,7002,7329,7006,57.9,58.5,59.1,60.4,2.861,2.945,2.789,2.703,5.08,6.1,36.0,50.8,1008.57,-31.31,-0.1,1.23,33.3,48.3,36.3,0,no_anomaly,0.0,0,0,0,0,23.0225037,72.5713762,18.0,0.0
2024-07-25T09:56:07.900Z,MISSION_0057,79,0,transit,SITE_AMD_008,23.0225004,72.5713757,18.0,246.56,0.093,0.041,2.7,-2.4099,-0.7323,246.5554,-0.54845,0.01688,-0.01407,0.83589,-0.0004,-0.0337,-9.8103,0.3781,0.0925,0.3155,0.1563,3,18,0.59,0.6,0.2,24.512,24.78,90.0,44.9,19790.0,7081,7339,7366,7106,62.2,59.4,64.5,61.2,2.643,2.944,2.561,2.458,6.05,22.7,35.3,50.3,1009.03,-31.93,1.61,1.31,28.5,46.1,38.3,0,no_anomaly,0.0,0,0,0,0,23.0225004,72.5713757,18.0,0.0
2024-07-25T09:56:08.000Z,MISSION_0057,80,0,transit,SITE_AMD_008,23.0225021,72.5713705,18.0,246.21,0.14,0.176,3.29,-4.1151,1.8094,246.2102,-0.54623,0.00639,-0.03869,0.83672,-0.1324,-0.019,-9.6299,0.1017,-0.0291,-0.2367,0.174,3,15,0.87,0.77,0.36,24.47,20.92,89.9,44.6,19776.0,7286,6982,7249,7262,61.6,61.2,57.6,58.5,2.599,3.022,2.712,2.803,4.96,21.9,35.7,50.5,1009.14,-34.14,0.13,1.48,30.2,45.2,37.3,0,no_anomaly,0.0,0,0,0,0,23.0225021,72.5713705,18.0,0.0
2024-07-25T09:56:08.100Z,MISSION_0057,81,0,transit,SITE_AMD_008,23.0225046,72.5713715,18.0,243.65,0.303,0.196,3.22,-2.5587,-3.9231,243.6502,-0.52624,0.04084,-0.00091,0.84936,0.1095,0.0111,-9.8237,0.3792,0.2792,0.7857,0.1346,3,10,0.71,1.11,0.2,24.636,15.78,89.8,44.0,19761.0,7053,7211,7348,7065,62.4,61.4,56.5,61.4,2.905,2.728,2.843,2.704,5.09,16.6,35.8,49.9,1008.89,-28.11,0.22,1.66,30.4,43.6,39.7,0,no_anomaly,0.0,0,0,0,0,23.0225046,72.5713715,18.0,0.0
2024-07-25T09:56:08.200Z,MISSION_0057,82,1,transit,SITE_AMD_008,23.0225065,72.5713708,18.0,244.42,0.661,0.042,3.33,2.3181,-3.1106,244.4187,-0.53317,0.01218,0.03157,0.84533,-0.0069,0.0591,-9.8163,0.3753,0.0373,-0.1686,0.2642,3,10,0.8,0.93,0.39,24.575,20.08,89.8,43.3,19747.0,7145,6961,6989,7193,60.8,59.8,57.7,58.5,2.7,2.951,2.636,2.883,6.08,15.3,35.9,50.7,1008.71,-28.75,0.09,1.0,33.8,42.6,37.9,0,no_anomaly,0.0,0,0,0,0,23.0225065,72.5713708,18.0,0.0
2024-07-25T09:56:08.300Z,MISSION_0057,83,1,transit,SITE_AMD_008,23.0225128,72.5713673,18.0,245.95,1.233,0.022,3.91,-1.8767,-0.0145,245.9471,-0.54418,0.00902,-0.01367,0.83881,-0.1963,-0.0643,-9.8042,-0.5047,-0.1699,-0.0201,0.2604,3,15,0.84,0.89,0.45,24.518,20.39,89.7,43.8,19732.0,7429,7184,7018,7085,57.4,61.3,60.8,60.3,2.785,2.929,2.596,3.056,4.75,14.3,35.1,50.3,1009.12,-28.37,-0.2,1.42,28.4,46.9,39.1,0,no_anomaly,0.0,0,0,0,0,23.0225128,72.5713673,18.0,0.0
2024-07-25T09:56:08.400Z,MISSION_0057,84,1,transit,SITE_AMD_008,23.0225171,72.571362,18.0,245.69,1.382,0.117,4.64,1.3951,-0.5073,245.6908,-0.54237,-0.00288,0.01263,0.84004,0.1359,-0.0023,-9.8533,-0.1556,0.6184,0.2098,0.155,3,19,0.5,0.78,0.2,24.563,16.07,89.6,43.1,19718.0,6971,7064,7438,7154,63.3,60.1,57.8,67.1,2.792,2.551,2.761,2.908,5.99,11.8,35.4,50.3,1008.88,-35.65,-0.29,1.49,32.5,41.1,37.0,0,no_anomaly,0.0,0,0,0,0,23.0225171,72.571362,18.0,0.0
2024-07-25T09:56:08.500Z,MISSION_0057,85,1,transit,SITE_AMD_008,23.0225182,72.571364,18.0,243.73,1.727,0.106,4.49,-0.5575,-2.479,243.7291,-0.52769,0.02094,0.00729,0.84915,-0.0024,-0.1078,-9.7726,0.3706,-0.7975,0.0513,0.1903,3,11,0.7,1.02,0.2,24.604,17.52,89.6,44.3,19703.0,7302,7003,7148,7091,59.5,60.1,58.2,59.5,2.922,2.899,2.91,2.699,4.54,15.2,35.6,49.8,1009.11,-29.59,0.41,1.8,27.6,48.6,35.6,0,no_anomaly,0.0,0,0,0,0,23.0225182,72.571364,18.0,0.0
2024-07-25T09:56:08.600Z,MISSION_0057,86,1,transit,SITE_AMD_008,23.0225177,72.5713637,18.0,242.6,1.632,0.14,4.49,0.3076,-2.0481,242.6005,-0.51948,0.01388,0.01158,0.85429,-0.0644,-0.0332,-9.8474,0.3112,0.5227,0.2001,0.1964,3,19,0.73,0.91,0.2,24.491,15.05,89.5,44.2,19689.0,7431,7160,6933,7373,59.2,62.8,63.7,60.1,2.934,2.52,2.689,2.92,5.63,9.4,35.6,49.9,1009.1,-30.44,0.64,1.81,32.5,43.6,38.0,0,no_anomaly,0.0,0,0,0,0,23.0225177,72.5713637,18.0,0.0
2024-07-25T09:56:08.700Z,MISSION_0057,87,1,transit,SITE_AMD_008,23.0225166,72.5713627,18.0,241.95,1.826,0.107,4.55,-0.0404,-3.2466,241.9499,-0.51445,0.02447,0.01428,0.85705,-0.1782,-0.0784,-9.6932,0.2019,-0.3366,-0.4604,0.2546,3,18,0.56,0.6,0.21,24.527,15.84,89.4,44.1,19674.0,7212,6961,7186,7129,54.7,62.3,64.8,61.3,2.929,2.925,2.629,2.864,5.45,4.2,35.5,50.4,1009.03,-30.37,0.86,1.39,31.1,42.4,37.4,0,no_anomaly,0.0,0,0,0,0,23.0225166,72.5713627,18.0,0.0
2024-07-25T09:56:08.800Z,MISSION_0057,88,1,transit,SITE_AMD_008,23.0225174,72.5713619,18.0,242.21,1.893,0.177,4.67,-1.233,-2.0357,242.2096,-0.51633,0.02077,-3e-05,0.85614,0.0991,-0.0,-9.7398,0.246,0.045,0.0008,0.1909,3,15,0.6,0.75,0.24,24.501,17.95,89.4,43.5,19660.0,7153,7112,6927,7153,55.3,58.6,60.0,61.7,2.855,2.731,3.114,2.779,4.91,10.0,35.4,50.2,1008.92,-28.72,-1.14,1.47,33.0,49.2,39.9,0,no_anomaly,0.0,0,0,0,0,23.0225174,72.5713619,18.0,0.0
2024-07-25T09:56:08.900Z,MISSION_0057,89,1,transit,SITE_AMD_008,23.0225182,72.571365,18.0,243.08,1.597,0.165,4.39,-3.4795,-1.0417,243.0763,-0.52257,0.02362,-0.02112,0.85201,-0.1027,0.0304,-9.8,-0.001,0.257,-0.2368,0.1599,3,14,0.63,0.81,0.27,24.573,20.96,89.3,43.3,19645.0,7431,7472,7158,7123,60.4,57.8,60.4,61.5,2.67,2.767,2.801,2.604,4.18,6.0,35.2,50.8,1008.72,-34.28,-0.49,1.04,29.9,44.8,36.0,0,no_anomaly,0.0,0,0,0,0,23.0225182,72.571365,18.0,0.0
2024-07-25T09:56:09.000Z,MISSION_0057,90,1,transit,SITE_AMD_008,23.0225172,72.5713695,18.0,242.79,2.517,0.103,3.89,-0.7874,-1.8851,242.7913,-0.52077,0.01762,0.00271,0.85351,0.0357,-0.0346,-9.8376,-0.306,0.6378,0.206,0.2927,3,18,0.66,1.22,0.22,24.539,20.42,89.2,43.6,19631.0,7482,7298,7244,7003,61.8,59.9,61.2,59.8,2.502,2.539,2.786,3.046,4.56,10.6,35.6,50.7,1009.13,-27.0,-0.62,1.15,32.6,48.3,35.4,0,no_anomaly,0.0,0,0,0,0,23.0225172,72.5713695,18.0,0.0
2024-07-25T09:56:09.100Z,MISSION_0057,91,1,transit,SITE_AMD_008,23.0225188,72.571369,18.0,243.0,2.447,0.119,4.04,-2.8273,-3.4208,243.0021,-0.52149,0.03833,-0.00543,0.85238,0.131,0.032,-9.7216,-0.0886,-0.0397,-0.0618,0.1327,3,11,0.81,1.09,0.39,24.453,15.02,89.2,43.0,19616.0,7257,7172,7344,7086,61.8,59.1,61.2,61.0,2.791,2.858,2.55,3.033,5.41,5.9,35.6,49.4,1009.61,-31.48,-0.6,1.01,33.0,43.6,38.1,0,no_anomaly,0.0,0,0,0,0,23.0225188,72.571369,18.0,0.0
2024-07-25T09:56:09.200Z,MISSION_0057,92,1,transit,SITE_AMD_008,23.0225155,72.571367,18.0,242.84,2.778,0.051,4.06,-4.4435,-2.5743,242.8402,-0.52004,0.03936,-0.02137,0.85297,-0.1449,0.0004,-9.881,0.0111,0.3488,0.1999,0.1271,3,15,0.79,0.75,0.21,24.457,16.02,89.1,44.5,19602.0,7375,7346,7352,7024,61.8,59.3,60.6,61.3,2.794,2.884,2.799,2.488,4.89,4.3,35.9,50.3,1008.92,-30.8,-0.52,1.8,30.5,41.8,37.7,0,no_anomaly,0.0,0,0,0,0,23.0225155,72.571367,18.0,0.0
2024-07-25T09:56:09.300Z,MISSION_0057,93,1,transit,SITE_AMD_008,23.0225127,72.5713696,18.0,240.06,3.402,0.102,3.67,-4.6928,-1.3793,240.0616,-0.49958,0.0309,-0.02942,0.86521,0.0167,0.1169,-9.7931,0.5489,-1.0339,-0.1585,0.1835,3,18,0.69,1.04,0.2,24.493,21.92,89.0,44.3,19587.0,7244,7250,7316,7498,56.7,57.6,61.6,62.0,2.857,2.908,2.73,2.846,5.12,3.8,35.6,49.7,1008.76,-27.48,0.6,1.38,30.6,41.9,40.3,0,no_anomaly,0.0,0,0,0,0,23.0225127,72.5713696,18.0,0.0
2024-07-25T09:56:09.400Z,MISSION_0057,94,1,transit,SITE_AMD_008,23.0225093,72.5713687,18.0,245.25,3.951,0.057,3.63,1.4961,-0.0253,245.2454,-0.53906,-0.00685,0.01112,0.84217,-0.0501,-0.0069,-9.8287,0.1079,-0.2302,0.3649,0.138,3,12,0.76,0.75,0.34,24.461,21.04,89.0,43.3,19573.0,7351,7069,7436,7306,58.6,59.6,58.8,60.4,2.6,2.715,2.86,2.684,6.41,13.4,35.5,50.0,1008.65,-28.1,0.42,1.37,32.7,43.6,39.9,0,no_anomaly,0.0,0,0,0,0,23.0225093,72.5713687,18.0,0.0
2024-07-25T09:56:09.500Z,MISSION_0057,95,1,transit,SITE_AMD_008,23.0225095,72.5713685,18.0,246.2,3.826,-0.004,3.67,-3.7446,-2.9311,246.2015,-0.54494,0.03925,-0.0134,0.83745,-0.1962,-0.0644,-9.8038,-0.0383,-0.7051,-0.2855,0.2839,3,17,0.86,0.8,0.24,24.457,16.81,88.9,43.8,19558.0,7044,6967,7293,7009,61.9,60.9,61.9,62.1,2.85,2.876,2.97,2.515,5.12,11.9,35.8,49.2,1008.86,-29.2,-1.14,2.1,27.5,44.2,37.1,0,no_anomaly,0.0,0,0,0,0,23.0225095,72.5713685,18.0,0.0
2024-07-25T09:56:09.600Z,MISSION_0057,96,1,transit,SITE_AMD_008,23.0225073,72.571368,18.0,247.99,3.651,0.121,3.65,-0.2993,0.1917,247.9884,-0.55911,7e-05,-0.0031,0.82909,0.1214,0.0402,-9.8855,0.5742,-0.4135,-0.0927,0.2814,3,14,0.63,0.94,0.2,24.607,21.02,88.8,43.8,19544.0,7060,7104,7391,7288,59.3,60.3,60.9,62.8,2.781,2.813,2.956,2.942,5.01,15.2,35.3,50.0,1008.74,-34.31,-0.35,1.22,30.7,44.5,39.2,0,no_anomaly,0.0,0,0,0,0,23.0225073,72.571368,18.0,0.0
2024-07-25T09:56:09.700Z,MISSION_0057,97,1,transit,SITE_AMD_008,23.022509,72.5713632,18.0,248.58,3.205,0.167,4.22,0.1948,-2.8408,248.5797,-0.56324,0.01952,0.01537,0.82592,-0.0285,-0.0566,-9.8862,-0.8619,-0.2788,0.0668,0.2787,3,16,0.9,0.6,0.46,24.489,18.33,88.8,43.6,19529.0,7619,7134,7320,7207,62.7,58.2,60.7,60.7,2.722,2.524,3.305,2.828,6.09,12.7,35.6,50.3,1008.95,-27.69,-0.19,1.92,34.9,43.4,41.9,0,no_anomaly,0.0,0,0,0,0,23.022509,72.5713632,18.0,0.0
2024-07-25T09:56:09.800Z,MISSION_0057,98,1,orbit_base,SITE_AMD_008,23.0224216,72.571416,18.3,247.64,3.376,0.093,8.91,3.0552,1.1859,247.6379,-0.55611,-0.02343,0.01639,0.83061,-0.1839,-0.0207,-9.854,-0.5518,-1.2171,-0.178,0.1744,3,19,0.61,0.9,0.24,24.493,20.77,88.7,43.7,19514.0,7346,7106,7013,7096,58.9,61.0,61.2,59.4,2.783,2.525,2.512,2.895,4.68,10.2,35.6,51.1,1008.94,-32.29,-2.41,1.57,27.5,46.3,35.6,0,no_anomaly,0.0,0,0,0,0,23.0224216,72.571416,18.3,0.0
2024-07-25T09:56:09.900Z,MISSION_0057,99,1,orbit_base,SITE_AMD_008,23.0224212,72.5714137,18.6,249.43,3.421,0.061,8.91,-0.2915,-0.7645,249.43,-0.56947,0.00693,0.00171,0.82198,-0.0472,0.0316,-9.822,0.0082,-1.0398,0.0333,0.1592,3,14,0.64,0.79,0.2,24.529,20.6,88.6,44.9,19500.0,7182,7182,7039,7192,61.5,60.5,60.1,60.6,2.733,2.821,3.083,2.753,5.31,16.5,35.9,50.3,1008.82,-25.05,-0.65,2.23,32.7,42.4,38.2,0,no_anomaly,0.0,0,0,0,0,23.0224212,72.5714137,18.6,0.0
2024-07-25T09:56:10.000Z,MISSION_0057,100,1,orbit_base,SITE_AMD_008,23.0224208,72.5714113,18.9,248.85,3.153,0.124,8.91,1.9554,-4.2149,248.8524,-0.5654,0.02069,0.03485,0.82382,0.1451,-0.0517,-9.8437,0.1163,-0.1486,-0.6037,0.2145,3,13,0.69,0.85,0.36,24.46,27.23,88.6,44.8,19485.0,7323,7236,7341,7177,58.1,58.8,60.6,61.4,2.931,2.95,2.76,2.761,4.27,15.7,35.6,49.8,1008.72,-31.39,-0.69,1.0,33.5,47.0,37.1,0,no_anomaly,0.0,0,0,0,0,23.0224208,72.5714113,18.9,0.0
2024-07-25T09:56:10.100Z,MISSION_0057,101,1,orbit_base,SITE_AMD_008,23.0224205,72.5714089,19.2,249.13,3.137,0.041,8.91,-3.2029,-1.2749,249.1261,-0.5668,0.02501,-0.0167,0.82331,-0.1171,0.0339,-9.8291,-0.7971,-0.5451,-0.2163,0.2434,3,20,0.7,0.71,0.22,24.583,18.85,88.5,43.2,19471.0,7259,7167,7415,7166,61.0,60.6,60.3,57.0,2.702,2.82,2.569,2.695,5.78,2.0,35.8,49.2,1008.96,-27.96,-0.37,1.32,29.8,49.5,39.4,0,no_anomaly,0.0,0,0,0,0,23.0224205,72.5714089,19.2,0.0
2024-07-25T09:56:10.200Z,MISSION_0057,102,1,orbit_base,SITE_AMD_008,23.0224203,72.5714065,19.5,249.47,2.979,0.114,8.91,2.0674,-2.3837,249.4664,-0.56985,0.00681,0.02667,0.82129,0.2103,0.018,-9.7826,-0.3347,0.3366,0.4721,0.1508,3,16,0.54,0.74,0.24,24.481,17.86,88.4,43.7,19456.0,7146,6914,7207,7208,58.8,60.9,62.2,62.1,2.966,2.883,2.76,3.111,6.69,8.6,35.8,49.4,1008.79,-33.57,-0.94,1.45,33.5,46.7,38.9,0,no_anomaly,0.0,0,0,0,0,23.0224203,72.5714065,19.5,0.0
2024-07-25T09:56:10.300Z,MISSION_0057,103,1,orbit_base,SITE_AMD_008,23.0224201,72.5714041,19.8,250.47,3.25,0.156,8.91,-1.7573,-1.1925,250.47,-0.5767,0.01735,-0.00652,0.81674,0.0886,0.0025,-9.7914,0.3351,0.4486,-0.5312,0.1784,3,13,0.7,0.68,0.24,24.492,19.7,88.4,44.0,19442.0,7185,7385,7044,7237,62.5,60.1,59.7,58.3,2.654,2.673,2.823,3.035,4.48,9.6,35.6,49.7,1009.22,-26.54,-0.64,1.76,33.5,43.7,38.5,0,no_anomaly,0.0,0,0,0,0,23.0224201,72.5714041,19.8,0.0
2024-07-25T09:56:10.400Z,MISSION_0057,104,1,orbit_base,SITE_AMD_008,23.02242,72.5714017,20.1,250.29,3.714,0.094,8.91,-1.714,-1.4028,250.289,-0.57538,0.01862,-0.00518,0.81766,-0.0457,-0.0206,-9.7501,-0.2524,-0.475,0.5469,0.2155,3,17,0.69,0.73,0.2,24.498,17.51,88.3,43.6,19427.0,7205,7549,6950,7181,59.6,63.2,62.1,59.6,2.714,2.898,2.957,2.72,5.55,4.6,35.7,49.3,1009.2,-29.51,0.24,1.16,29.9,45.7,39.3,0,no_anomaly,0.0,0,0,0,0,23.02242,72.5714017,20.1,0.0
2024-07-25T09:56:10.500Z,MISSION_0057,105,1,orbit_base,SITE_AMD_008,23.02242,72.5713993,20.4,248.97,4.255,0.123,8.91,1.2112,-0.302,248.9709,-0.56619,-0.00381,0.0102,0.82421,-0.0112,0.0801,-9.8557,-0.0123,0.15,0.0302,0.1556,3,13,0.6,0.99,0.22,24.487,17.25,88.2,43.7,19413.0,7018,7228,7147,7337,60.5,60.3,55.4,62.8,2.96,2.782,2.897,2.763,5.46,17.7,35.8,49.7,1008.98,-24.7,-1.16,1.63,28.8,46.0,35.3,0,no_anomaly,0.0,0,0,0,0,23.02242,72.5713993,20.4,0.0
2024-07-25T09:56:10.600Z,MISSION_0057,106,1,orbit_base,SITE_AMD_008,23.0224201,72.5713969,20.7,249.59,4.421,0.085,8.91,-1.7931,-2.6682,249.5899,-0.57012,0.02804,0.00044,0.82108,-0.0123,0.0621,-9.885,-1.0174,-0.277,0.6607,0.2166,3,20,0.54,1.09,0.2,24.481,22.72,88.2,44.3,19398.0,7261,7255,6970,6983,60.4,58.8,61.3,58.1,3.024,2.634,2.826,2.547,5.54,16.9,35.7,50.0,1008.69,-28.57,-1.62,1.51,31.2,42.7,38.1,0,no_anomaly,0.0,0,0,0,0,23.0224201,72.5713969,20.7,0.0
2024-07-25T09:56:10.700Z,MISSION_0057,107,1,orbit_base,SITE_AMD_008,23.0224202,72.5713945,21.0,248.84,4.366,0.063,8.91,-2.7058,-1.6822,248.8439,-0.56478,0.02545,-0.01118,0.82477,0.1805,-0.0429,-9.7664,-0.6928,-0.5939,-0.2691,0.2018,3,20,0.68,0.69,0.29,24.483,18.92,88.1,43.8,19384.0,7106,7243,7278,7112,59.0,59.2,63.5,60.9,2.709,2.638,2.517,2.975,4.34,356.3,35.5,50.1,1008.83,-29.97,1.78,1.73,31.2,46.7,36.3,0,no_anomaly,0.0,0,0,0,0,23.0224202,72.5713945,21.0,0.0
2024-07-25T09:56:10.800Z,MISSION_0057,108,1,orbit_base,SITE_AMD_008,23.0224204,72.5713921,21.3,250.98,4.102,0.105,8.91,5.289,-1.7719,250.985,-0.58049,-0.01421,0.04653,0.81281,0.1164,-0.0354,-9.8721,-0.136,-0.1474,0.1204,0.2634,3,11,0.7,0.68,0.36,24.42,21.79,88.0,44.3,19369.0,7188,7121,6925,7114,63.1,62.2,63.7,60.1,2.945,2.704,2.984,2.982,4.55,2.7,35.6,49.5,1008.83,-29.12,1.1,1.5,31.2,43.9,40.0,0,no_anomaly,0.0,0,0,0,0,23.0224204,72.5713921,21.3,0.0
2024-07-25T09:56:10.900Z,MISSION_0057,109,1,orbit_base,SITE_AMD_008,23.0224207,72.5713898,21.6,252.93,4.53,0.104,8.91,1.2293,1.3647,252.9342,-0.59418,-0.01595,0.00155,0.80417,-0.1663,-0.0787,-9.7942,-0.7472,0.3617,0.334,0.2645,3,19,0.61,0.74,0.21,24.457,19.15,88.0,44.1,19355.0,7025,7091,6961,7151,60.6,57.8,60.9,62.5,2.627,3.051,2.77,2.719,5.61,10.4,35.7,50.5,1008.86,-19.33,-0.86,1.49,29.9,46.2,39.0,0,no_anomaly,0.0,0,0,0,0,23.0224207,72.5713898,21.6,0.0
2024-07-25T09:56:11.000Z,MISSION_0057,110,1,orbit_base,SITE_AMD_008,23.022421,72.5713874,21.9,251.64,4.924,0.149,8.91,-2.3657,-3.9186,251.6368,-0.58418,0.03979,0.00327,0.81064,-0.0144,0.0001,-9.7671,-0.4562,-0.3646,0.2544,0.3047,3,20,0.59,0.91,0.23,24.443,22.46,87.9,43.6,19340.0,7181,7096,7308,7235,60.0,62.3,56.9,64.4,2.682,2.885,2.575,2.918,4.64,12.9,35.5,49.8,1008.84,-30.04,-0.16,1.53,33.1,45.5,40.4,0,no_anomaly,0.0,0,0,0,0,23.022421,72.5713874,21.9,0.0
2024-07-25T09:56:11.100Z,MISSION_0057,111,1,orbit_base,SITE_AMD_008,23.0224214,72.571385,22.2,251.73,4.673,0.158,8.91,-2.5263,0.119,251.7254,-0.58572,0.01207,-0.01847,0.81021,-0.0275,-0.0527,-9.8294,-0.0875,-0.7283,0.4636,0.3426,3,20,0.85,0.99,0.24,24.489,19.33,87.8,43.9,19326.0,7238,7027,7238,7309,59.2,59.4,57.7,62.4,2.626,2.665,2.895,2.757,5.24,9.9,35.2,49.7,1009.36,-36.27,0.02,1.67,31.4,47.8,37.6,0,no_anomaly,0.0,0,0,0,0,23.0224214,72.571385,22.2,0.0
2024-07-25T09:56:11.200Z,MISSION_0057,112,1,orbit_base,SITE_AMD_008,23.0224219,72.5713827,22.5,249.13,5.101,0.103,8.91,-0.5209,-0.8315,249.1328,-0.56731,0.00855,0.00037,0.82346,0.0189,-0.0189,-9.7572,0.1577,0.1681,0.0712,0.1953,3,10,0.67,0.93,0.33,24.484,23.93,87.8,44.3,19311.0,7153,7598,7049,7234,59.5,63.9,60.1,59.2,2.616,2.85,2.832,2.759,5.25,22.4,35.6,50.0,1008.91,-29.58,0.59,1.56,33.9,49.1,40.7,0,no_anomaly,0.0,0,0,0,0,23.0224219,72.5713827,22.5,0.0
2024-07-25T09:56:11.300Z,MISSION_0057,113,1,orbit_base,SITE_AMD_008,23.0224225,72.5713803,22.8,252.62,5.057,0.077,8.91,1.6,-4.362,252.622,-0.59211,0.0224,0.03378,0.80484,0.0787,0.041,-9.781,-0.8026,0.0839,-0.6068,0.1943,3,15,0.73,0.91,0.36,24.479,17.05,87.7,43.9,19297.0,7036,7304,7343,7336,61.1,58.0,59.0,60.6,2.842,2.741,2.982,2.92,5.99,2.0,35.7,50.5,1009.38,-32.16,1.43,1.95,29.8,43.3,38.2,0,no_anomaly,0.0,0,0,0,0,23.0224225,72.5713803,22.8,0.0
2024-07-25T09:56:11.400Z,MISSION_0057,114,1,orbit_base,SITE_AMD_008,23.0224231,72.571378,23.1,250.67,5.501,0.043,8.91,3.0814,-0.7062,250.6743,-0.5783,-0.01053,0.0255,0.81536,-0.0417,0.0272,-9.7751,-0.2674,0.5723,0.3734,0.2476,3,13,0.51,1.08,0.2,24.487,19.19,87.6,44.0,19282.0,7403,7040,7514,7149,59.2,58.4,60.4,61.3,2.877,2.639,2.792,3.02,5.52,7.5,35.9,49.8,1009.04,-23.65,0.21,1.5,30.8,40.9,36.1,0,no_anomaly,0.0,0,0,0,0,23.0224231,72.571378,23.1,0.0
2024-07-25T09:56:11.500Z,MISSION_0057,115,1,orbit_base,SITE_AMD_008,23.0224238,72.5713757,23.4,249.58,5.458,0.089,8.91,-2.5676,-4.2902,249.5763,-0.56931,0.04351,0.00296,0.82096,-0.1897,0.025,-9.7745,-0.1942,0.0818,-0.1601,0.1769,3,11,0.65,0.77,0.35,24.443,18.74,87.6,42.8,19267.0,7447,7087,7375,6992,61.7,62.7,63.1,58.1,3.202,2.879,2.792,2.795,6.04,14.4,35.4,50.7,1008.96,-33.3,0.39,1.75,31.5,43.7,38.0,0,no_anomaly,0.0,0,0,0,0,23.0224238,72.5713757,23.4,0.0
2024-07-25T09:56:11.600Z,MISSION_0057,116,1,orbit_base,SITE_AMD_008,23.0224245,72.5713734,23.7,248.8,5.763,0.122,8.91,-3.7231,-1.4186,248.8009,-0.5643,0.02856,-0.01981,0.82484,0.0784,-0.0666,-9.8591,0.0032,-0.3371,-0.2653,0.1726,3,14,0.69,0.91,0.42,24.48,22.68,87.5,44.1,19253.0,7196,7538,6944,6898,61.3,59.4,59.5,60.8,3.283,2.89,2.777,2.794,4.91,9.8,35.5,50.0,1008.61,-30.56,-0.18,1.58,29.1,41.5,35.6,0,no_anomaly,0.0,0,0,0,0,23.0224245,72.5713734,23.7,0.0
2024-07-25T09:56:11.700Z,MISSION_0057,117,1,orbit_base,SITE_AMD_008,23.0224254,72.5713712,24.0,249.74,5.531,0.093,8.91,-2.7919,-3.8684,249.7429,-0.57057,0.0416,-0.00068,0.8202,0.0141,0.041,-9.7747,-0.0069,0.4226,0.5781,0.1634,3,16,0.78,1.09,0.31,24.475,12.82,87.4,44.0,19238.0,7196,7219,7501,7064,58.6,62.2,58.0,59.5,2.925,2.892,2.879,3.103,5.62,12.9,35.6,51.6,1009.07,-35.87,-0.25,1.41,33.2,49.1,40.6,0,no_anomaly,0.0,0,0,0,0,23.0224254,72.5713712,24.0,0.0
2024-07-25T09:56:11.800Z,MISSION_0057,118,1,orbit_base,SITE_AMD_008,23.0224263,72.571369,24.3,251.87,5.133,0.185,8.91,0.1004,-3.0261,251.8713,-0.58669,0.02087,0.01621,0.80938,-0.2844,-0.035,-9.8084,0.5559,0.0307,-0.1976,0.3353,3,10,0.6,1.15,0.26,24.478,18.53,87.4,44.5,19224.0,7180,7274,7181,7118,58.0,61.8,61.1,65.0,2.756,2.897,2.848,2.784,4.5,12.0,35.6,50.7,1009.08,-34.15,-0.15,1.63,29.6,49.0,38.6,0,no_anomaly,0.0,0,0,0,0,23.0224263,72.571369,24.3,0.0
2024-07-25T09:56:11.900Z,MISSION_0057,119,1,orbit_base,SITE_AMD_008,23.0224272,72.5713668,24.6,254.1,4.803,0.1,8.91,4.5522,-3.5169,254.0985,-0.60271,0.00056,0.05016,0.79638,0.17,0.0345,-9.7745,0.6338,-0.5602,0.3409,0.1246,3,19,0.73,0.94,0.24,24.496,22.59,87.3,44.7,19209.0,7370,7491,7126,7194,62.3,59.4,62.5,62.2,2.948,2.856,2.558,2.955,4.73,14.9,35.9,49.7,1008.75,-27.93,-0.45,1.43,30.8,46.0,38.4,0,no_anomaly,0.0,0,0,0,0,23.0224272,72.5713668,24.6,0.0
2024-07-25T09:56:12.000Z,MISSION_0057,120,1,orbit_base,SITE_AMD_008,23.0224283,72.5713646,24.9,254.5,4.63,0.027,8.91,-1.7826,-0.3851,254.5022,-0.60519,0.01209,-0.01035,0.79592,-0.0222,0.0278,-9.7983,-0.5046,-0.9707,0.0556,0.1707,3,10,0.86,1.03,0.39,24.482,24.82,87.2,43.2,19195.0,7215,7110,7007,7353,62.1,60.8,59.2,56.2,2.853,2.748,3.093,2.693,4.77,13.2,35.6,50.2,1008.99,-21.18,-1.24,1.51,30.1,41.3,38.3,0,no_anomaly,0.0,0,0,0,0,23.0224283,72.5713646,24.9,0.0
2024-07-25T09:56:12.100Z,MISSION_0057,121,1,orbit_base,SITE_AMD_008,23.0224294,72.5713625,25.2,252.77,4.694,0.12,8.91,-0.2958,-1.5903,252.7651,-0.59309,0.0127,0.00615,0.80502,0.0479,0.13,-9.8173,-0.2311,0.0913,-0.0422,0.2776,3,20,0.55,0.91,0.21,24.409,20.49,87.2,45.0,19180.0,7276,7188,7208,7227,60.1,62.5,65.0,61.2,2.998,2.744,2.745,2.56,5.11,3.1,35.8,50.3,1008.87,-30.73,1.35,2.2,33.2,44.4,36.6,0,no_anomaly,0.0,0,0,0,0,23.0224294,72.5713625,25.2,0.0
2024-07-25T09:56:12.200Z,MISSION_0057,122,1,orbit_base,SITE_AMD_008,23.0224305,72.5713604,25.5,252.52,4.081,0.056,8.91,2.4031,-0.7526,252.518,-0.5914,-0.00711,0.02079,0.80608,-0.0627,0.0408,-9.7689,-0.0298,-0.7977,-0.3944,0.2359,3,11,0.79,1.03,0.4,24.45,18.19,87.1,43.9,19166.0,7024,7117,7601,7233,63.3,58.9,62.2,60.1,2.895,2.738,2.693,2.573,5.64,12.3,35.5,49.7,1008.67,-26.26,0.3,1.53,29.6,48.4,38.3,0,no_anomaly,0.0,0,0,0,0,23.0224305,72.5713604,25.5,0.0
2024-07-25T09:56:12.300Z,MISSION_0057,123,1,orbit_base,SITE_AMD_008,23.0224317,72.5713583,25.8,253.55,3.856,0.071,8.91,-3.6924,-2.6648,253.5494,-0.5976,0.0379,-0.01188,0.80081,0.2313,0.0024,-9.8035,0.6972,0.2796,-0.4817,0.1519,3,15,0.81,0.82,0.32,24.481,20.51,87.1,44.1,19151.0,7017,6980,7195,7100,62.7,59.2,60.8,59.6,2.941,2.779,3.001,2.865,5.45,9.2,35.6,50.7,1008.89,-31.98,-2.77,1.42,32.7,46.1,39.2,0,no_anomaly,0.0,0,0,0,0,23.0224317,72.5713583,25.8,0.0
2024-07-25T09:56:12.400Z,MISSION_0057,124,1,orbit_base,SITE_AMD_008,23.022433,72.5713563,26.1,253.12,4.056,0.008,8.91,-2.9924,-3.3817,253.1163,-0.59456,0.03924,-0.0034,0.80309,-0.0978,-0.0427,-9.8322,-0.8659,-0.4398,0.1895,0.2588,3,12,0.71,0.78,0.22,24.481,16.36,87.0,44.4,19137.0,7209,7356,7142,7184,61.8,60.4,64.2,61.4,3.156,3.011,2.717,2.717,4.84,10.9,35.9,49.7,1009.13,-33.25,0.81,1.24,29.6,48.6,37.3,0,no_anomaly,0.0,0,0,0,0,23.022433,72.5713563,26.1,0.0
2024-07-25T09:56:12.500Z,MISSION_0057,125,1,orbit_base,SITE_AMD_008,23.0224344,72.5713543,26.4,250.78,4.377,0.099,8.91,1.7843,-0.8215,250.7755,-0.57911,-0.00317,0.01684,0.81507,0.0641,-0.0075,-9.8263,0.3896,0.6982,0.1791,0.2413,3,17,0.68,0.84,0.31,24.389,29.02,86.9,43.8,19122.0,7277,7399,7255,7117,58.7,60.2,60.0,59.4,3.001,2.823,2.713,2.791,4.92,15.6,35.8,49.9,1008.95,-32.39,1.29,1.62,32.5,48.4,38.3,0,no_anomaly,0.0,0,0,0,0,23.0224344,72.5713543,26.4,0.0
2024-07-25T09:56:12.600Z,MISSION_0057,126,1,orbit_base,SITE_AMD_008,23.0224358,72.5713523,26.7,249.57,4.39,0.071,8.91,0.6643,-0.7195,249.5661,-0.57048,0.00185,0.00834,0.82127,-0.0203,0.001,-9.8643,-0.0481,0.1525,0.1548,0.2446,3,14,0.78,0.91,0.35,24.418,22.29,86.9,44.1,19108.0,7468,7173,7376,7175,57.0,62.3,59.1,56.2,2.794,2.991,2.893,2.967,4.99,6.6,35.5,50.4,1009.08,-27.57,-1.45,1.83,31.6,42.5,38.7,0,no_anomaly,0.0,0,0,0,0,23.0224358,72.5713523,26.7,0.0
2024-07-25T09:56:12.700Z,MISSION_0057,127,1,orbit_base,SITE_AMD_008,23.0224372,72.5713504,27.0,250.11,5.091,0.121,8.91,2.0353,-0.1102,250.1104,-0.57429,-0.00941,0.01509,0.81846,-0.089,-0.0512,-9.7691,0.5597,-0.5776,-0.0924,0.238,3,14,0.55,1.14,0.2,24.505,16.73,86.8,44.6,19093.0,7159,7090,7361,6999,65.6,57.8,62.2,62.7,2.842,3.124,2.813,3.013,6.33,14.8,35.4,49.4,1009.13,-32.55,-1.46,1.0,33.1,41.8,37.7,0,no_anomaly,0.0,0,0,0,0,23.0224372,72.5713504,27.0,0.0
2024-07-25T09:56:12.800Z,MISSION_0057,128,1,orbit_base,SITE_AMD_008,23.0224387,72.5713486,27.3,250.03,5.222,0.132,8.91,-1.8997,-1.7007,250.029,-0.57344,0.02166,-0.00506,0.81895,-0.0954,-0.0324,-9.8906,0.1742,-0.2523,-0.0067,0.2621,3,14,0.79,1.08,0.33,24.403,21.56,86.7,45.1,19079.0,7225,7130,7162,7395,62.4,59.8,61.7,63.3,2.651,2.811,3.152,2.72,5.83,12.5,35.9,50.8,1008.74,-29.27,2.55,1.76,33.8,41.6,38.0,0,no_anomaly,0.0,0,0,0,0,23.0224387,72.5713486,27.3,0.0
2024-07-25T09:56:12.900Z,MISSION_0057,129,1,orbit_base,SITE_AMD_008,23.0224403,72.5713467,27.6,249.47,5.298,0.178,8.91,-3.0071,-1.5399,249.4698,-0.56924,0.02599,-0.01391,0.82164,0.0401,0.0234,-9.8234,-0.3579,-0.3965,-0.0093,0.1458,3,17,0.68,0.93,0.28,24.438,19.39,86.7,43.7,19064.0,7282,7344,7456,7281,63.2,61.6,58.7,63.1,2.771,3.118,2.702,2.685,5.3,22.8,35.5,50.4,1008.67,-27.24,2.16,1.0,30.8,42.7,37.4,0,no_anomaly,0.0,0,0,0,0,23.0224403,72.5713467,27.6,0.0
