timestamp_utc,mission_id,frame_id,waypoint_id,inspection_phase,site_id,latitude_deg,longitude_deg,altitude_m,heading_deg,ground_speed_ms,vertical_speed_ms,distance_to_tower_m,roll_deg,pitch_deg,yaw_deg,quat_w,quat_x,quat_y,quat_z,accel_x_ms2,accel_y_ms2,accel_z_ms2,gyro_x_rads,gyro_y_rads,gyro_z_rads,vibration_level,gps_fix_type,gps_satellite_count,gps_hdop,gps_vdop,position_error_m,battery_voltage_v,battery_current_a,battery_remaining_pct,battery_temp_c,battery_capacity_mah,motor_fl_rpm,motor_fr_rpm,motor_rl_rpm,motor_rr_rpm,motor_fl_temp_c,motor_fr_temp_c,motor_rl_temp_c,motor_rr_temp_c,motor_fl_thrust_n,motor_fr_thrust_n,motor_rl_thrust_n,motor_rr_thrust_n,wind_speed_ms,wind_dir_deg,air_temp_c,humidity_pct,pressure_hpa,gimbal_pitch_deg,gimbal_roll_deg,zoom_factor,ir_temp_min_c,ir_temp_max_c,ir_temp_avg_c,anomaly_detected,anomaly_class,anomaly_confidence,anomaly_bbox_x,anomaly_bbox_y,anomaly_bbox_w,anomaly_bbox_h,anomaly_gps_lat,anomaly_gps_lon,anomaly_gps_alt_m,ir_temp_delta_c
2024-12-16T07:16:00.000Z,MISSION_0010,0,0,takeoff,SITE_BOM_001,19.076004,72.8777019,1.5,226.91,0.651,0.09,0.49,1.1003,-0.5054,226.9055,-0.39801,0.00022,0.01056,0.91732,0.1054,-0.0091,-9.8105,-0.3948,-0.3345,0.2775,0.1441,3,17,0.75,1.09,0.27,24.686,15.7,96.0,31.5,21129.0,7205,7245,7430,7277,47.8,48.0,49.7,52.4,2.896,2.578,2.88,2.96,2.75,15.7,23.6,77.0,1019.66,-28.39,-0.52,1.7,19.9,31.2,24.1,0,no_anomaly,0.0,0,0,0,0,19.076004,72.8777019,1.5,0.0
2024-12-16T07:16:00.100Z,MISSION_0010,1,0,takeoff,SITE_BOM_001,19.0760062,72.8777006,3.0,224.39,0.661,0.157,0.69,0.6378,-1.8135,224.3939,-0.37782,0.01255,0.01113,0.92573,-0.0606,-0.0511,-9.7844,0.6801,-1.0215,0.3289,0.184,3,10,0.64,0.85,0.31,24.661,19.56,96.0,32.1,21114.0,7280,7097,7315,7464,48.4,51.3,49.1,49.2,2.716,2.81,2.902,2.83,2.28,24.4,24.0,76.5,1019.06,-28.38,0.64,1.78,19.8,34.8,25.1,0,no_anomaly,0.0,0,0,0,0,19.0760062,72.8777006,3.0,0.0
2024-12-16T07:16:00.200Z,MISSION_0010,2,0,takeoff,SITE_BOM_001,19.0760058,72.8777027,4.5,222.59,0.563,0.128,0.71,-0.4368,-3.4503,222.5873,-0.36287,0.02943,0.00738,0.93134,-0.086,-0.0254,-9.8604,-0.2371,-0.3083,0.2395,0.1619,3,12,0.62,0.72,0.36,24.69,13.61,95.9,31.1,21098.0,7677,7309,7267,7476,45.3,48.3,46.8,48.9,2.848,2.6,2.759,2.589,2.33,14.4,23.8,76.8,1019.59,-27.68,-0.2,1.79,22.3,30.8,28.0,0,no_anomaly,0.0,0,0,0,0,19.0760058,72.8777027,4.5,0.0
2024-12-16T07:16:00.300Z,MISSION_0010,3,0,takeoff,SITE_BOM_001,19.0760073,72.8777057,5.0,222.72,0.595,-0.059,1.03,-2.9114,-2.9567,222.7228,-0.3634,0.03327,-0.01426,0.93093,0.07,-0.0445,-9.7585,0.9957,-0.1503,-0.1825,0.2192,3,18,0.54,0.74,0.2,24.742,17.89,95.8,32.2,21083.0,7368,7381,7509,7482,50.7,47.9,48.7,46.6,2.85,2.871,2.793,2.773,1.85,14.6,24.0,77.3,1019.24,-28.57,-0.68,1.53,18.8,32.7,28.7,0,no_anomaly,0.0,0,0,0,0,19.0760073,72.8777057,5.0,0.0
2024-12-16T07:16:00.400Z,MISSION_0010,4,0,takeoff,SITE_BOM_001,19.0760072,72.8777024,5.0,221.14,1.072,0.089,0.84,2.4375,-1.6115,221.1432,-0.35154,0.00569,0.02485,0.93582,-0.1086,-0.0214,-9.7908,-0.2269,-0.5745,0.3947,0.1769,3,12,0.54,0.81,0.26,24.706,20.83,95.8,32.2,21068.0,7626,7415,7515,7318,49.0,49.2,50.4,49.3,3.02,3.037,2.841,2.962,1.75,23.6,24.0,77.5,1019.33,-32.29,1.25,1.23,20.5,29.5,26.9,0,no_anomaly,0.0,0,0,0,0,19.0760072,72.8777024,5.0,0.0
2024-12-16T07:16:00.500Z,MISSION_0010,5,0,takeoff,SITE_BOM_001,19.0760063,72.8776976,5.0,219.48,1.052,0.042,0.75,0.7666,-1.1631,219.4756,-0.33776,0.00729,0.00972,0.94116,-0.0671,0.0626,-9.8367,0.2418,0.5751,0.0349,0.1062,3,10,0.74,1.12,0.29,24.628,19.38,95.7,32.0,21053.0,7416,7568,7493,7397,47.0,51.2,49.1,49.3,2.972,3.177,3.121,2.771,1.84,7.8,23.8,77.1,1019.69,-26.61,1.09,1.86,18.2,33.9,27.6,0,no_anomaly,0.0,0,0,0,0,19.0760063,72.8776976,5.0,0.0
2024-12-16T07:16:00.600Z,MISSION_0010,6,0,takeoff,SITE_BOM_001,19.0760097,72.8776976,5.0,219.83,1.078,0.085,1.11,6.7681,-4.3289,219.8282,-0.34187,0.01536,0.0683,0.93714,0.1225,-0.0521,-9.8267,0.2424,0.7364,-0.2712,0.0632,3,15,0.75,0.9,0.3,24.67,16.28,95.6,32.3,21038.0,7684,7385,7344,7455,55.9,49.8,51.2,51.8,2.957,2.832,2.581,2.749,2.03,10.5,23.8,76.8,1019.36,-26.8,0.04,1.35,15.7,29.6,23.5,0,no_anomaly,0.0,0,0,0,0,19.0760097,72.8776976,5.0,0.0
2024-12-16T07:16:00.700Z,MISSION_0010,7,0,takeoff,SITE_BOM_001,19.0760096,72.8776971,5.0,222.43,1.01,0.128,1.12,-1.6116,-2.9405,222.4306,-0.36138,0.029,-0.00382,0.93196,0.0283,0.001,-9.8591,0.0307,-0.0851,0.5557,0.1211,3,10,0.84,0.74,0.34,24.678,18.4,95.6,32.1,21023.0,7504,7450,7226,7225,47.0,50.7,51.5,48.5,2.728,2.688,2.651,2.79,1.68,8.9,23.3,77.6,1019.68,-36.5,0.07,1.69,21.2,29.0,28.5,0,no_anomaly,0.0,0,0,0,0,19.0760096,72.8776971,5.0,0.0
2024-12-16T07:16:00.800Z,MISSION_0010,8,0,takeoff,SITE_BOM_001,19.0760118,72.8776982,5.0,223.54,0.905,0.065,1.33,1.7536,-1.8873,223.5391,-0.37101,0.00962,0.02032,0.92835,-0.0983,0.0083,-9.7801,-0.7539,-0.2898,0.024,0.1425,3,20,0.78,0.65,0.31,24.709,16.18,95.5,32.1,21008.0,7690,7332,7167,7400,50.1,47.8,50.1,52.3,2.699,2.996,3.072,2.908,1.99,8.2,23.6,76.6,1019.19,-27.06,1.91,1.99,18.7,31.8,24.8,0,no_anomaly,0.0,0,0,0,0,19.0760118,72.8776982,5.0,0.0
2024-12-16T07:16:00.900Z,MISSION_0010,9,0,takeoff,SITE_BOM_001,19.0760131,72.8776997,5.0,222.33,0.885,0.154,1.46,0.6664,-2.4083,222.3265,-0.36105,0.0175,0.01301,0.93229,0.1149,0.0004,-9.867,0.4058,-0.1453,-0.2962,0.1204,3,19,0.67,0.81,0.29,24.679,18.15,95.4,32.3,20993.0,7162,7433,7672,7295,49.2,49.4,49.0,50.3,2.799,2.554,2.724,2.746,2.39,13.5,23.8,77.9,1019.06,-31.34,-0.19,1.82,15.8,38.2,27.2,0,no_anomaly,0.0,0,0,0,0,19.0760131,72.8776997,5.0,0.0
2024-12-16T07:16:01.000Z,MISSION_0010,10,0,takeoff,SITE_BOM_001,19.0760111,72.8777051,5.0,223.92,1.184,0.214,1.35,1.4808,-2.7149,223.9157,-0.37407,0.01714,0.02084,0.92701,-0.0646,-0.0171,-9.7789,0.1377,0.7734,-0.2079,0.1817,3,14,0.54,0.63,0.28,24.661,21.14,95.4,31.7,20978.0,7319,7471,7309,7464,52.2,50.3,48.1,49.2,2.782,2.766,2.792,2.802,1.75,6.3,23.6,76.4,1019.59,-30.1,0.28,1.79,15.4,27.3,25.0,0,no_anomaly,0.0,0,0,0,0,19.0760111,72.8777051,5.0,0.0
2024-12-16T07:16:01.100Z,MISSION_0010,11,0,takeoff,SITE_BOM_001,19.0760101,72.8777028,5.0,221.37,1.248,0.046,1.17,-3.5568,-0.872,221.3674,-0.35281,0.01808,-0.02635,0.93515,0.1663,-0.0427,-9.8984,-0.177,0.1488,-0.5323,0.1572,3,20,0.59,0.73,0.25,24.715,25.27,95.3,32.0,20963.0,7301,7166,7509,7363,49.5,51.0,48.2,47.9,2.771,2.846,2.543,2.781,3.16,21.1,23.8,76.7,1019.56,-36.02,-1.81,1.0,19.7,31.4,28.3,0,no_anomaly,0.0,0,0,0,0,19.0760101,72.8777028,5.0,0.0
2024-12-16T07:16:01.200Z,MISSION_0010,12,0,takeoff,SITE_BOM_001,19.0760049,72.8777081,5.0,222.22,1.094,0.126,1.05,5.8403,0.0881,222.2174,-0.35963,-0.01906,0.04725,0.9317,0.0655,-0.0066,-9.8183,-0.3313,0.6157,0.0562,0.1283,3,19,0.84,0.88,0.33,24.742,17.22,95.2,31.7,20948.0,7355,7304,7413,7379,47.5,47.9,51.1,47.2,2.58,2.895,2.764,2.808,2.46,15.2,24.1,78.1,1019.83,-31.3,-0.25,1.25,17.1,33.9,26.7,0,no_anomaly,0.0,0,0,0,0,19.0760049,72.8777081,5.0,0.0
2024-12-16T07:16:01.300Z,MISSION_0010,13,0,takeoff,SITE_BOM_001,19.0760041,72.877709,5.0,222.7,1.213,0.094,1.1,-0.8151,-2.2309,222.7015,-0.36387,0.02072,0.00046,0.93122,-0.1071,0.0485,-9.8264,0.3598,-0.1498,-0.3641,0.2949,3,19,0.8,0.91,0.29,24.615,16.54,95.1,31.4,20933.0,7632,7552,7373,7441,52.2,51.3,49.5,52.6,2.753,2.749,2.771,3.093,1.62,20.4,24.4,77.1,1019.47,-32.35,0.71,1.54,20.1,35.0,26.9,0,no_anomaly,0.0,0,0,0,0,19.0760041,72.877709,5.0,0.0
2024-12-16T07:16:01.400Z,MISSION_0010,14,0,takeoff,SITE_BOM_001,19.0759994,72.8777137,5.0,223.88,0.911,0.086,1.53,0.3104,-2.1407,223.8788,-0.37361,0.01631,0.00949,0.9274,0.076,-0.0057,-9.7553,-0.3578,0.3557,0.4448,0.1616,3,12,0.61,0.92,0.22,24.725,17.77,95.1,32.1,20918.0,7469,7376,7240,7397,47.5,49.1,49.7,47.4,2.582,2.938,2.744,2.533,2.21,8.2,24.0,76.9,1019.36,-25.04,2.33,1.31,18.0,32.6,27.6,0,no_anomaly,0.0,0,0,0,0,19.0759994,72.8777137,5.0,0.0
2024-12-16T07:16:01.500Z,MISSION_0010,15,0,takeoff,SITE_BOM_001,19.0759985,72.8777091,5.0,222.91,0.748,0.135,1.03,-2.2258,-3.6812,222.913,-0.36496,0.03699,-0.00632,0.93027,0.0318,0.1036,-9.8899,0.7897,0.4585,0.0209,0.0813,3,11,0.96,0.71,0.49,24.747,20.17,95.0,32.9,20903.0,7371,7355,7308,7447,44.7,51.4,47.4,51.7,2.507,2.585,3.009,2.878,2.53,9.8,23.7,76.9,1019.21,-30.6,-0.26,1.41,20.0,34.9,28.5,0,no_anomaly,0.0,0,0,0,0,19.0759985,72.8777091,5.0,0.0
2024-12-16T07:16:01.600Z,MISSION_0010,16,0,takeoff,SITE_BOM_001,19.0759972,72.8777108,5.0,221.81,0.717,0.042,1.24,2.2481,-3.6198,221.8139,-0.35718,0.0225,0.02959,0.93329,0.1019,0.0373,-9.7339,0.6213,-0.2841,0.3488,0.2064,3,19,0.65,0.81,0.27,24.642,20.62,94.9,32.5,20888.0,7606,7428,7429,7232,49.7,50.1,50.8,49.0,2.812,3.12,2.61,2.76,2.46,7.0,24.2,76.2,1019.57,-35.13,-1.5,1.34,22.1,33.6,28.2,0,no_anomaly,0.0,0,0,0,0,19.0759972,72.8777108,5.0,0.0
2024-12-16T07:16:01.700Z,MISSION_0010,17,0,takeoff,SITE_BOM_001,19.0760052,72.8777067,5.0,224.86,0.634,0.198,0.94,-1.9223,-0.1775,224.8634,-0.3815,0.00783,-0.01491,0.92421,0.1218,-0.0122,-9.7936,-0.0753,-0.154,-0.1292,0.1121,3,14,0.6,0.85,0.23,24.769,15.84,94.9,31.5,20872.0,7224,7458,7189,7181,49.5,49.9,50.0,45.9,2.557,3.11,2.74,2.785,2.46,13.4,23.8,76.2,1019.58,-32.64,0.58,1.0,17.3,36.7,24.3,0,no_anomaly,0.0,0,0,0,0,19.0760052,72.8777067,5.0,0.0
2024-12-16T07:16:01.800Z,MISSION_0010,18,0,takeoff,SITE_BOM_001,19.0760055,72.877702,5.0,226.29,0.594,0.053,0.65,1.2894,-2.7336,226.2857,-0.39313,0.01751,0.01972,0.9191,-0.0416,-0.0134,-9.7807,-0.5536,-0.7336,0.2374,0.1524,3,16,0.88,1.19,0.48,24.685,15.22,94.8,31.9,20857.0,7375,7463,7437,7335,51.1,51.5,47.2,48.0,2.919,2.692,2.835,2.876,2.21,8.3,23.9,77.3,1019.33,-33.57,-3.03,2.17,19.1,29.4,23.9,0,no_anomaly,0.0,0,0,0,0,19.0760055,72.877702,5.0,0.0
2024-12-16T07:16:01.900Z,MISSION_0010,19,0,takeoff,SITE_BOM_001,19.0760049,72.8777051,5.0,228.17,0.517,0.126,0.79,-2.3745,-3.005,228.1656,-0.40733,0.03239,-0.00821,0.91267,-0.0188,0.0326,-9.8694,-0.2905,-0.1793,-0.0492,0.1352,3,16,0.7,0.96,0.43,24.672,21.65,94.7,32.4,20842.0,7243,7480,7312,7553,52.6,48.1,46.3,50.2,2.957,2.691,2.626,2.901,2.49,14.9,24.1,77.4,1019.63,-30.69,-0.41,1.84,17.9,37.2,27.9,0,no_anomaly,0.0,0,0,0,0,19.0760049,72.8777051,5.0,0.0
2024-12-16T07:16:02.000Z,MISSION_0010,20,0,takeoff,SITE_BOM_001,19.0760114,72.8777055,5.0,226.7,1.385,0.011,1.41,-1.2251,-1.0177,226.6953,-0.39618,0.01239,-0.0063,0.91807,0.0248,-0.0548,-9.8075,-0.8185,0.2877,0.2465,0.1863,3,14,0.7,1.14,0.36,24.621,16.01,94.7,31.9,20827.0,7564,7471,7363,7321,48.9,50.1,47.8,48.4,2.792,2.875,2.706,2.936,2.08,7.9,23.9,77.4,1019.32,-28.51,-0.69,1.63,18.0,37.1,23.5,0,no_anomaly,0.0,0,0,0,0,19.0760114,72.8777055,5.0,0.0
2024-12-16T07:16:02.100Z,MISSION_0010,21,0,takeoff,SITE_BOM_001,19.0760112,72.8777042,5.0,228.79,1.795,0.103,1.33,1.6363,1.9375,228.7857,-0.41267,-0.02129,0.00602,0.91061,-0.1381,0.0064,-9.8419,0.6872,-0.0164,-0.3334,0.1786,3,11,0.77,1.0,0.27,24.63,12.87,94.6,32.0,20812.0,7379,7420,7299,7430,51.3,45.0,46.4,50.8,3.024,3.234,2.741,2.767,2.36,15.2,23.8,77.2,1019.66,-32.07,-1.56,1.34,14.7,29.1,25.6,0,no_anomaly,0.0,0,0,0,0,19.0760112,72.8777042,5.0,0.0
2024-12-16T07:16:02.200Z,MISSION_0010,22,0,takeoff,SITE_BOM_001,19.0760088,72.8777053,5.0,228.09,1.78,0.071,1.14,-0.1614,-2.1926,228.0892,-0.40735,0.01805,0.00651,0.91307,0.0147,-0.08,-9.8448,0.2593,0.2449,0.2182,0.0662,3,12,0.82,0.79,0.26,24.729,16.81,94.5,32.8,20797.0,7412,7557,7627,7662,50.0,46.3,47.3,49.1,2.762,2.834,2.73,2.746,1.41,20.7,23.8,77.3,1019.5,-29.64,-1.18,1.46,15.9,31.8,26.2,0,no_anomaly,0.0,0,0,0,0,19.0760088,72.8777053,5.0,0.0
2024-12-16T07:16:02.300Z,MISSION_0010,23,0,takeoff,SITE_BOM_001,19.0760075,72.8777064,5.0,227.15,1.814,0.133,1.09,-0.0838,-3.0494,227.147,-0.39977,0.02468,0.00997,0.91623,0.1198,0.0606,-9.7881,0.2587,0.0023,-0.1653,0.1083,3,13,0.87,1.11,0.39,24.724,21.9,94.5,32.8,20782.0,7434,7585,7628,7423,50.2,49.9,47.9,47.8,2.789,2.814,2.676,2.762,2.96,16.6,23.8,77.4,1019.47,-25.83,0.14,1.57,21.6,32.9,26.0,0,no_anomaly,0.0,0,0,0,0,19.0760075,72.8777064,5.0,0.0
2024-12-16T07:16:02.400Z,MISSION_0010,24,0,takeoff,SITE_BOM_001,19.0760063,72.8777033,5.0,226.91,1.778,0.128,0.8,0.5938,-4.2507,226.9078,-0.39791,0.03196,0.01951,0.91666,-0.1348,0.0166,-9.713,-0.1269,0.1695,-0.3396,0.0641,3,19,0.81,0.87,0.31,24.656,13.02,94.4,32.6,20767.0,7310,7430,7321,7614,48.9,47.6,45.3,50.9,2.893,2.613,2.857,2.783,2.49,13.1,23.8,76.9,1019.83,-32.79,-0.23,1.7,16.7,33.5,24.1,0,no_anomaly,0.0,0,0,0,0,19.0760063,72.8777033,5.0,0.0
2024-12-16T07:16:02.500Z,MISSION_0010,25,0,takeoff,SITE_BOM_001,19.0760128,72.8777057,5.0,227.7,2.014,0.061,1.56,2.3692,-4.4451,227.6964,-0.40466,0.02711,0.03457,0.91341,-0.0082,-0.0643,-9.7629,0.2867,0.2435,0.0572,0.1043,3,18,0.61,1.06,0.32,24.622,17.88,94.3,31.9,20752.0,7463,7255,7328,7110,50.7,48.8,48.1,45.9,2.662,2.993,2.759,3.045,2.4,7.4,23.7,77.3,1019.53,-32.97,0.28,2.12,21.2,33.5,26.1,0,no_anomaly,0.0,0,0,0,0,19.0760128,72.8777057,5.0,0.0
2024-12-16T07:16:02.600Z,MISSION_0010,26,0,takeoff,SITE_BOM_001,19.0760144,72.8777105,5.0,225.5,1.112,0.092,1.98,0.7386,-3.6894,225.4955,-0.38666,0.02719,0.01839,0.92164,0.2753,0.0036,-9.8929,-0.1591,-0.375,-0.1198,0.1502,3,12,0.57,0.97,0.33,24.684,17.94,94.3,32.1,20737.0,7200,7476,7304,7608,52.5,50.7,53.2,49.9,2.628,3.014,2.987,2.949,1.93,16.4,24.3,76.9,1019.43,-27.72,0.79,1.31,19.3,28.3,25.8,0,no_anomaly,0.0,0,0,0,0,19.0760144,72.8777105,5.0,0.0
2024-12-16T07:16:02.700Z,MISSION_0010,27,0,takeoff,SITE_BOM_001,19.0760136,72.8777129,5.0,226.13,1.326,0.102,2.08,-2.8706,-1.303,226.1304,-0.39137,0.02027,-0.01859,0.91982,-0.0438,0.0062,-9.828,0.1277,0.3844,-0.2871,0.137,3,13,0.74,0.96,0.25,24.571,15.21,94.2,30.8,20722.0,7377,7520,7681,7510,49.3,50.5,54.5,51.1,2.857,2.942,2.88,2.966,1.06,10.6,23.9,77.2,1019.65,-30.83,-0.91,1.0,17.4,29.0,26.6,0,no_anomaly,0.0,0,0,0,0,19.0760136,72.8777129,5.0,0.0
2024-12-16T07:16:02.800Z,MISSION_0010,28,0,takeoff,SITE_BOM_001,19.0760131,72.8777094,5.0,223.49,1.245,0.047,1.8,1.1106,-2.8868,223.4877,-0.37055,0.01981,0.01833,0.92842,-0.0124,-0.0249,-9.8658,0.0021,0.3537,-0.4846,0.1409,3,13,0.66,0.89,0.2,24.591,19.19,94.1,31.7,20707.0,7570,7351,7738,7168,47.0,48.0,47.6,51.4,3.022,2.469,2.616,2.637,2.74,17.7,24.1,76.8,1019.04,-30.59,-1.78,1.45,22.1,37.9,30.2,0,no_anomaly,0.0,0,0,0,0,19.0760131,72.8777094,5.0,0.0
2024-12-16T07:16:02.900Z,MISSION_0010,29,0,takeoff,SITE_BOM_001,19.07601,72.8777072,5.0,223.34,1.045,0.125,1.37,-0.0154,-1.9779,223.3426,-0.36922,0.01609,0.00625,0.92918,0.0569,-0.0235,-9.8064,0.1347,-0.436,0.2999,0.0822,3,17,0.62,1.21,0.29,24.67,18.07,94.1,31.7,20692.0,7447,7311,7572,7631,47.8,49.3,52.6,50.9,2.957,2.789,3.039,2.807,1.97,9.9,24.1,76.9,1019.27,-28.79,1.2,1.31,19.3,30.3,25.7,0,no_anomaly,0.0,0,0,0,0,19.07601,72.8777072,5.0,0.0
2024-12-16T07:16:03.000Z,MISSION_0010,30,0,takeoff,SITE_BOM_001,19.0760088,72.877705,5.0,221.85,1.361,0.156,1.12,-1.9984,-1.3281,221.8489,-0.35687,0.01705,-0.01215,0.93392,-0.1563,0.0168,-9.7875,-0.2784,-0.1374,-0.1122,0.2344,3,13,0.71,0.6,0.3,24.61,21.43,94.0,32.7,20677.0,7364,7418,7146,7215,49.2,50.1,50.9,52.2,2.957,2.464,2.849,2.812,1.9,15.9,23.9,77.4,1019.54,-29.96,0.17,1.98,17.5,33.1,28.4,0,no_anomaly,0.0,0,0,0,0,19.0760088,72.877705,5.0,0.0
2024-12-16T07:16:03.100Z,MISSION_0010,31,0,takeoff,SITE_BOM_001,19.0760143,72.8777079,5.0,219.12,1.5,0.128,1.82,-0.974,-0.2637,219.1195,-0.33476,0.00501,-0.00724,0.94226,-0.0632,-0.042,-9.7626,-1.2298,-0.5608,-0.0641,0.1228,3,16,0.66,0.85,0.34,24.709,21.87,93.9,31.4,20661.0,7438,7413,7194,7422,50.5,48.2,49.6,46.5,2.752,2.777,2.617,2.732,2.16,11.3,23.8,76.8,1019.15,-23.04,0.78,1.17,18.4,29.4,26.5,0,no_anomaly,0.0,0,0,0,0,19.0760143,72.8777079,5.0,0.0
2024-12-16T07:16:03.200Z,MISSION_0010,32,0,takeoff,SITE_BOM_001,19.0760088,72.8777063,5.0,218.71,1.282,0.157,1.21,1.9068,-1.0156,218.7146,-0.33154,0.00285,0.01864,0.94325,-0.1034,0.0963,-9.8253,-0.3887,0.0334,0.2128,0.129,3,12,0.81,0.76,0.36,24.629,17.4,93.8,31.9,20646.0,7621,7334,7773,7290,49.1,48.9,49.6,49.5,2.799,2.638,2.673,2.892,1.65,11.0,24.2,77.1,1019.77,-28.71,0.16,1.81,17.4,37.6,26.6,0,no_anomaly,0.0,0,0,0,0,19.0760088,72.8777063,5.0,0.0
2024-12-16T07:16:03.300Z,MISSION_0010,33,0,takeoff,SITE_BOM_001,19.076006,72.8777043,5.0,218.73,1.585,0.155,0.82,-3.6668,-1.8659,218.7269,-0.33085,0.02596,-0.02478,0.943,0.0418,0.008,-9.8136,0.0884,0.317,-0.1938,0.1298,3,20,0.73,0.99,0.4,24.599,22.99,93.8,32.2,20631.0,7320,7328,7509,7682,50.8,49.6,51.0,49.4,2.883,2.705,2.648,2.743,1.47,10.7,23.6,76.9,1019.57,-29.09,1.46,1.33,20.8,35.1,28.0,0,no_anomaly,0.0,0,0,0,0,19.076006,72.8777043,5.0,0.0
2024-12-16T07:16:03.400Z,MISSION_0010,34,0,takeoff,SITE_BOM_001,19.0760066,72.8777033,5.0,218.58,1.471,0.066,0.83,-4.4711,-1.8256,218.5751,-0.32943,0.02791,-0.03156,0.94324,0.0117,0.0865,-9.7153,0.1114,0.3021,0.3132,0.0994,3,10,0.66,0.91,0.33,24.624,18.93,93.7,32.0,20616.0,7479,7689,7110,7487,47.7,49.3,47.5,49.0,2.987,2.931,2.783,2.848,1.15,12.7,24.1,76.6,1019.98,-33.08,1.61,1.09,16.7,34.6,28.3,0,no_anomaly,0.0,0,0,0,0,19.0760066,72.8777033,5.0,0.0
2024-12-16T07:16:03.500Z,MISSION_0010,35,0,takeoff,SITE_BOM_001,19.076006,72.8777041,5.0,218.68,1.706,0.173,0.81,-2.7493,-2.0966,218.6756,-0.33057,0.0252,-0.01658,0.9433,-0.0268,-0.0801,-9.7685,1.2269,0.2988,0.1646,0.1734,3,19,0.82,0.78,0.23,24.64,15.89,93.6,31.7,20601.0,7512,7175,7480,7417,48.8,47.7,51.7,48.9,2.744,2.729,2.967,2.548,3.15,13.8,23.7,76.7,1019.61,-29.61,0.49,1.34,20.0,30.7,25.0,0,no_anomaly,0.0,0,0,0,0,19.076006,72.8777041,5.0,0.0
2024-12-16T07:16:03.600Z,MISSION_0010,36,0,takeoff,SITE_BOM_001,19.0760044,72.8777058,5.0,217.76,2.093,0.048,0.81,0.7009,-3.8589,217.76,-0.32359,0.02988,0.01668,0.94558,-0.0102,-0.0138,-9.8795,-0.3028,0.4997,0.7624,0.0989,3,10,0.75,0.83,0.26,24.633,14.98,93.6,32.2,20586.0,7647,7304,7627,7195,49.0,50.5,48.8,52.3,2.517,3.011,2.929,2.844,2.44,23.0,23.9,77.6,1019.23,-26.39,0.94,1.75,18.7,29.1,25.2,0,no_anomaly,0.0,0,0,0,0,19.0760044,72.8777058,5.0,0.0
2024-12-16T07:16:03.700Z,MISSION_0010,37,0,takeoff,SITE_BOM_001,19.0760079,72.8777023,5.0,220.16,1.645,0.173,0.92,0.1785,-0.5638,220.1587,-0.34332,0.00409,0.00315,0.9392,-0.0013,0.039,-9.8258,0.3014,-0.4833,0.1566,0.1142,3,10,0.79,0.94,0.2,24.588,16.69,93.5,32.2,20571.0,7316,7489,7336,7214,51.9,46.0,50.4,50.7,2.677,2.463,2.942,2.937,1.85,2.0,23.9,76.5,1019.03,-32.85,-0.98,1.74,17.0,30.2,26.7,0,no_anomaly,0.0,0,0,0,0,19.0760079,72.8777023,5.0,0.0
2024-12-16T07:16:03.800Z,MISSION_0010,38,0,takeoff,SITE_BOM_001,19.076009,72.8777068,5.0,219.82,1.805,0.128,1.25,-0.5125,-4.1952,219.8169,-0.34013,0.03594,0.00826,0.93965,-0.05,-0.0719,-9.8455,-0.3797,-0.141,-0.321,0.1254,3,17,0.78,1.29,0.22,24.592,17.91,93.4,32.6,20556.0,7154,7538,7370,7479,50.9,49.7,48.5,46.2,2.723,3.005,2.717,2.662,2.87,8.2,24.0,77.3,1019.46,-28.0,-0.67,1.53,19.3,33.5,27.4,0,no_anomaly,0.0,0,0,0,0,19.076009,72.8777068,5.0,0.0
2024-12-16T07:16:03.900Z,MISSION_0010,39,0,takeoff,SITE_BOM_001,19.0760101,72.8777125,5.0,219.6,1.778,0.197,1.79,1.1906,-1.0882,219.6037,-0.33883,0.00541,0.01299,0.94074,-0.0144,0.0778,-9.7902,-0.1058,0.0031,0.6293,0.1971,3,10,0.59,0.76,0.26,24.603,26.06,93.4,31.8,20541.0,7366,7052,7380,7584,50.6,47.0,53.1,50.8,2.707,3.033,2.946,2.659,2.0,11.0,23.8,77.5,1019.48,-28.74,-0.02,1.61,18.9,34.8,30.0,0,no_anomaly,0.0,0,0,0,0,19.0760101,72.8777125,5.0,0.0
2024-12-16T07:16:04.000Z,MISSION_0010,40,0,takeoff,SITE_BOM_001,19.076011,72.8777136,5.0,218.52,1.782,0.099,1.95,-1.1698,-2.8864,218.5169,-0.32947,0.02714,-0.00133,0.94378,0.0823,-0.0514,-9.8427,-0.0866,0.0372,-0.5135,0.0911,3,13,0.69,0.77,0.2,24.681,13.39,93.3,31.2,20526.0,7344,7269,7469,7259,50.0,52.9,51.7,51.5,2.778,2.986,2.68,2.971,1.83,2.7,23.9,77.1,1019.15,-24.0,-0.15,2.26,21.7,35.9,28.3,0,no_anomaly,0.0,0,0,0,0,19.076011,72.8777136,5.0,0.0
2024-12-16T07:16:04.100Z,MISSION_0010,41,0,takeoff,SITE_BOM_001,19.0760117,72.8777135,5.0,216.85,1.559,0.17,1.99,1.5563,-4.9818,216.8544,-0.31633,0.03694,0.02661,0.94756,-0.018,-0.0839,-9.915,-0.61,0.3578,0.0587,0.1694,3,15,0.89,1.1,0.26,24.674,12.66,93.2,31.3,20511.0,7427,7431,7398,7389,48.0,51.6,50.0,48.4,2.899,2.861,2.458,2.582,1.79,13.7,24.0,76.5,1019.29,-31.85,2.25,1.45,21.7,32.9,26.0,0,no_anomaly,0.0,0,0,0,0,19.0760117,72.8777135,5.0,0.0
2024-12-16T07:16:04.200Z,MISSION_0010,42,0,takeoff,SITE_BOM_001,19.0760127,72.8777141,5.0,216.49,1.754,0.102,2.12,2.3517,-2.4649,216.4897,-0.31336,0.014,0.02622,0.94917,0.0945,-0.0518,-9.8383,-0.0753,0.3151,0.2105,0.0853,3,17,0.75,1.04,0.29,24.568,20.99,93.2,32.0,20496.0,7232,7507,7397,7370,49.0,47.3,47.5,48.5,2.903,3.002,2.839,2.953,2.62,20.1,23.8,77.3,1019.62,-22.03,-1.02,1.64,19.2,36.7,25.5,0,no_anomaly,0.0,0,0,0,0,19.0760127,72.8777141,5.0,0.0
2024-12-16T07:16:04.300Z,MISSION_0010,43,0,takeoff,SITE_BOM_001,19.0760147,72.877714,5.0,214.21,2.114,0.099,2.26,3.9802,-1.2546,214.2072,-0.29427,0.00025,0.03641,0.95503,0.1167,-0.0136,-9.8885,-0.3448,0.1364,0.2986,0.2423,3,10,0.67,0.72,0.2,24.729,14.14,93.1,32.3,20481.0,7387,7468,7713,7503,47.1,46.8,51.6,50.1,2.85,2.816,2.914,2.691,1.86,15.4,23.9,77.5,1019.43,-28.81,0.09,1.15,19.8,30.2,25.1,0,no_anomaly,0.0,0,0,0,0,19.0760147,72.877714,5.0,0.0
2024-12-16T07:16:04.400Z,MISSION_0010,44,0,takeoff,SITE_BOM_001,19.0760217,72.8777155,5.0,213.46,2.526,0.044,2.97,-0.0268,-3.9052,213.4582,-0.28767,0.0327,0.00958,0.95712,-0.005,0.1016,-9.7705,0.0051,0.2342,-0.14,0.0965,3,10,0.57,0.83,0.23,24.681,21.68,93.0,32.9,20466.0,7144,7408,7544,7597,47.3,49.3,46.3,46.3,2.928,2.89,2.648,2.627,2.68,13.6,24.0,77.9,1019.44,-31.78,-1.14,1.22,19.0,30.6,26.2,0,no_anomaly,0.0,0,0,0,0,19.0760217,72.8777155,5.0,0.0
2024-12-16T07:16:04.500Z,MISSION_0010,45,0,takeoff,SITE_BOM_001,19.0760221,72.8777163,5.0,212.11,2.616,0.094,3.06,-1.0037,-2.0278,212.1119,-0.27637,0.01943,-0.00352,0.96085,-0.0863,-0.0016,-9.8074,0.203,0.7328,0.4105,0.1686,3,16,0.66,0.98,0.2,24.645,18.84,93.0,31.7,20451.0,7423,7463,7228,7388,45.9,44.7,46.7,45.9,2.917,2.849,2.677,2.854,2.32,8.4,23.9,76.4,1019.22,-35.3,1.53,1.51,18.7,31.3,24.7,0,no_anomaly,0.0,0,0,0,0,19.0760221,72.8777163,5.0,0.0
2024-12-16T07:16:04.600Z,MISSION_0010,46,0,takeoff,SITE_BOM_001,19.0760208,72.8777174,5.0,212.28,2.237,0.107,3.02,-5.9667,-2.0634,212.2848,-0.2767,0.03174,-0.04499,0.95938,-0.0034,0.021,-9.7701,0.3402,0.7268,0.0178,0.1583,3,19,0.77,0.85,0.4,24.606,17.85,92.9,32.3,20435.0,7329,7256,7288,7366,47.6,48.2,47.1,47.7,3.092,2.757,2.979,2.805,2.36,9.3,23.6,76.6,1019.26,-27.84,-0.55,1.19,19.1,39.0,27.4,0,no_anomaly,0.0,0,0,0,0,19.0760208,72.8777174,5.0,0.0
2024-12-16T07:16:04.700Z,MISSION_0010,47,0,takeoff,SITE_BOM_001,19.0760248,72.8777153,5.0,212.64,1.75,0.046,3.24,1.3406,-0.0784,212.6416,-0.281,-0.00263,0.01142,0.95964,0.1904,-0.0181,-9.7955,0.0814,-0.575,-0.2736,0.0904,3,15,0.81,0.63,0.27,24.47,14.22,92.8,31.2,20420.0,7433,7515,7339,7694,48.8,48.8,50.8,49.7,2.627,3.055,2.559,2.347,2.13,16.6,23.8,77.4,1019.74,-27.42,1.16,1.0,18.0,39.6,26.9,0,no_anomaly,0.0,0,0,0,0,19.0760248,72.8777153,5.0,0.0
2024-12-16T07:16:04.800Z,MISSION_0010,48,0,takeoff,SITE_BOM_001,19.076025,72.8777128,5.0,211.47,1.746,0.009,3.12,0.0681,0.2316,211.4748,-0.27123,-0.00211,2e-05,0.96251,-0.0629,0.0156,-9.755,-0.2457,-0.3754,0.0828,0.1292,3,11,0.78,0.75,0.3,24.61,23.17,92.8,32.1,20405.0,7353,7659,7626,7250,50.2,48.7,47.6,48.0,2.966,2.852,2.911,2.875,2.31,3.4,24.3,77.3,1019.57,-31.73,-0.96,1.55,17.1,35.1,26.5,0,no_anomaly,0.0,0,0,0,0,19.076025,72.8777128,5.0,0.0
2024-12-16T07:16:04.900Z,MISSION_0010,49,0,takeoff,SITE_BOM_001,19.076025,72.8777123,5.0,208.7,1.543,0.121,3.11,0.8888,-1.1498,208.7043,-0.24794,0.0078,0.01,0.96869,-0.037,0.0035,-9.7565,0.0833,-0.4432,-0.1993,0.1095,3,12,0.5,0.64,0.21,24.674,22.16,92.7,31.4,20390.0,7543,7237,7079,7109,46.8,47.3,47.8,47.0,2.558,3.044,2.733,2.726,1.93,19.6,23.6,77.5,1019.36,-27.95,-0.18,1.08,20.0,32.8,25.6,0,no_anomaly,0.0,0,0,0,0,19.076025,72.8777123,5.0,0.0
2024-12-16T07:16:05.000Z,MISSION_0010,50,0,takeoff,SITE_BOM_001,19.0760248,72.8777121,5.0,208.99,1.335,0.13,3.07,-1.4945,-3.736,208.9936,-0.24976,0.03482,-0.00446,0.96767,0.2078,0.025,-9.8508,0.4886,0.1448,0.3463,0.1305,3,15,0.76,1.0,0.3,24.563,15.68,92.6,32.6,20375.0,7261,7569,7616,7286,46.2,50.5,49.6,48.1,2.952,2.752,2.666,3.068,2.83,11.5,23.8,76.9,1019.55,-33.57,-0.44,1.09,21.4,30.3,26.6,0,no_anomaly,0.0,0,0,0,0,19.0760248,72.8777121,5.0,0.0
2024-12-16T07:16:05.100Z,MISSION_0010,51,0,takeoff,SITE_BOM_001,19.0760246,72.8777134,5.0,209.71,1.203,0.192,3.12,-0.672,-2.7306,209.7132,-0.25619,0.02453,0.00044,0.96632,-0.0907,0.0172,-9.8071,-0.1549,0.0732,-0.0276,0.1816,3,19,0.74,0.76,0.23,24.656,15.96,92.5,31.8,20360.0,7355,7413,7370,7337,48.9,50.7,48.8,51.9,2.768,2.924,2.574,2.813,2.67,19.9,24.1,76.9,1019.72,-33.05,0.15,1.84,18.0,29.1,25.6,0,no_anomaly,0.0,0,0,0,0,19.0760246,72.8777134,5.0,0.0
2024-12-16T07:16:05.200Z,MISSION_0010,52,0,takeoff,SITE_BOM_001,19.0760249,72.8777123,5.0,208.93,0.937,0.076,3.09,-2.4706,-1.6469,208.9333,-0.24943,0.0193,-0.01728,0.96805,-0.0677,-0.0611,-9.7582,0.1307,0.5055,0.3172,0.1526,3,19,0.74,0.84,0.2,24.6,17.12,92.5,32.2,20345.0,7449,7244,7292,7534,49.4,48.6,48.6,48.3,2.927,2.979,2.915,2.836,2.25,3.6,24.1,77.4,1019.23,-28.23,0.03,1.94,18.5,32.5,21.7,0,no_anomaly,0.0,0,0,0,0,19.0760249,72.8777123,5.0,0.0
2024-12-16T07:16:05.300Z,MISSION_0010,53,0,takeoff,SITE_BOM_001,19.0760235,72.8777126,5.0,207.85,0.831,0.079,2.96,1.1075,-0.8366,207.8486,-0.24069,0.00476,0.01114,0.97053,0.0989,-0.0472,-9.793,0.4748,-0.3656,0.3317,0.1872,3,14,0.53,0.82,0.25,24.604,14.69,92.4,31.6,20330.0,7518,7405,7364,7635,50.1,50.4,51.3,49.8,2.861,2.759,3.026,2.523,2.35,18.9,23.7,76.9,1019.42,-24.82,0.89,1.52,19.5,35.6,27.3,0,no_anomaly,0.0,0,0,0,0,19.0760235,72.8777126,5.0,0.0
2024-12-16T07:16:05.400Z,MISSION_0010,54,0,takeoff,SITE_BOM_001,19.0760255,72.8777131,5.0,205.76,0.206,0.04,3.19,2.5992,-2.6692,205.7577,-0.22329,0.01765,0.02729,0.97421,-0.0188,0.009,-9.7795,-0.7143,-0.238,0.0678,0.1255,3,18,0.57,0.82,0.26,24.61,13.42,92.3,32.3,20315.0,7457,7496,7637,7333,48.1,49.7,46.8,50.9,2.809,2.813,2.555,2.518,2.18,10.0,24.0,77.2,1019.25,-24.88,-1.11,1.39,21.2,29.9,25.4,0,no_anomaly,0.0,0,0,0,0,19.0760255,72.8777131,5.0,0.0
2024-12-16T07:16:05.500Z,MISSION_0010,55,0,takeoff,SITE_BOM_001,19.0760272,72.8777136,5.0,203.73,0.301,0.179,3.38,-0.5065,-3.2236,203.7286,-0.20539,0.02843,0.00146,0.97827,0.0499,0.0229,-9.7919,0.4213,-0.2383,0.5683,0.145,3,11,0.65,0.92,0.27,24.602,20.18,92.3,32.6,20300.0,7269,7521,7656,7348,50.2,49.1,51.0,50.2,2.606,2.9,2.73,2.758,2.4,16.9,23.8,76.7,1019.55,-34.48,-0.03,1.69,19.0,31.5,27.9,0,no_anomaly,0.0,0,0,0,0,19.0760272,72.8777136,5.0,0.0
2024-12-16T07:16:05.600Z,MISSION_0010,56,0,takeoff,SITE_BOM_001,19.0760277,72.8777131,5.0,202.34,0.106,0.074,3.41,2.1765,-0.5037,202.3393,-0.19376,0.00063,0.01948,0.98086,-0.1348,0.1036,-9.7719,-0.273,-0.7863,0.4416,0.0574,3,11,0.79,0.78,0.32,24.508,18.61,92.2,32.3,20285.0,7391,7539,7332,7533,45.4,48.0,48.7,51.8,2.922,2.898,2.744,2.872,2.76,3.9,24.1,77.4,1019.54,-29.91,-0.7,1.39,17.2,37.7,27.2,0,no_anomaly,0.0,0,0,0,0,19.0760277,72.8777131,5.0,0.0
2024-12-16T07:16:05.700Z,MISSION_0010,57,0,takeoff,SITE_BOM_001,19.0760309,72.8777095,5.0,201.95,0.047,0.124,3.6,-0.9051,-6.1723,201.9509,-0.18969,0.05435,0.00251,0.98034,-0.0025,-0.0365,-9.7843,-0.6561,0.3361,-0.1261,0.1943,3,15,0.61,0.96,0.2,24.556,19.23,92.1,32.0,20270.0,7355,7598,7580,7303,48.9,54.2,50.3,48.1,2.828,3.089,2.915,3.019,1.65,17.8,23.6,77.5,1019.33,-29.2,-1.01,1.07,19.7,38.6,28.9,0,no_anomaly,0.0,0,0,0,0,19.0760309,72.8777095,5.0,0.0
2024-12-16T07:16:05.800Z,MISSION_0010,58,0,takeoff,SITE_BOM_001,19.0760289,72.8777104,5.0,200.68,0.169,0.082,3.42,-0.0347,-2.7349,200.6755,-0.17939,0.02353,0.00398,0.98349,0.0983,-0.0446,-9.8434,0.4816,-0.2764,-0.2476,0.1179,3,10,0.87,0.67,0.3,24.676,17.92,92.1,32.0,20255.0,7446,7511,7301,7440,47.0,48.5,49.3,50.8,2.762,2.876,2.719,2.978,2.03,11.1,23.7,78.4,1019.33,-28.23,-0.04,1.92,21.4,38.3,26.8,0,no_anomaly,0.0,0,0,0,0,19.0760289,72.8777104,5.0,0.0
2024-12-16T07:16:05.900Z,MISSION_0010,59,0,takeoff,SITE_BOM_001,19.0760334,72.8777152,5.0,199.27,0.0,0.019,4.08,0.2967,-0.1772,199.2711,-0.16738,0.00109,0.00281,0.98589,0.0705,-0.0817,-9.8537,-0.498,-0.8501,-0.2214,0.1525,3,13,0.72,0.91,0.34,24.525,20.46,92.0,32.1,20240.0,7601,7385,7548,7653,49.6,49.0,47.3,49.2,2.909,2.404,2.789,2.766,2.08,9.8,24.2,77.1,1019.42,-30.19,0.56,1.35,17.7,30.2,28.3,0,no_anomaly,0.0,0,0,0,0,19.0760334,72.8777152,5.0,0.0
2024-12-16T07:16:06.000Z,MISSION_0010,60,0,takeoff,SITE_BOM_001,19.0760391,72.8777132,5.0,199.06,0.022,0.059,4.6,3.1431,-2.352,199.0619,-0.16604,0.01569,0.03044,0.98552,0.0627,-0.0027,-9.7477,-0.1553,-0.1325,0.4239,0.1804,3,15,0.62,1.09,0.3,24.573,14.36,91.9,32.9,20225.0,7391,7441,7244,7482,46.5,51.4,47.5,51.3,2.794,2.519,3.003,2.7,2.51,10.3,24.0,77.9,1019.44,-33.56,-0.31,1.34,19.0,36.5,25.5,0,no_anomaly,0.0,0,0,0,0,19.0760391,72.8777132,5.0,0.0
2024-12-16T07:16:06.100Z,MISSION_0010,61,0,takeoff,SITE_BOM_001,19.0760412,72.8777153,5.0,198.18,0.163,0.055,4.89,-0.973,-4.814,198.1763,-0.15746,0.04281,-0.00174,0.9866,0.0363,0.0016,-9.7969,0.6376,0.2483,0.1106,0.1664,3,12,0.75,0.6,0.27,24.563,20.2,91.9,32.5,20209.0,7303,7085,7376,7451,48.6,49.1,47.7,52.7,2.741,2.709,3.017,2.887,2.65,10.3,23.8,77.3,1019.52,-31.27,0.03,1.59,20.1,31.4,28.6,0,no_anomaly,0.0,0,0,0,0,19.0760412,72.8777153,5.0,0.0
2024-12-16T07:16:06.200Z,MISSION_0010,62,0,takeoff,SITE_BOM_001,19.076043,72.8777154,5.0,196.64,0.0,0.042,5.08,-2.4773,-1.7925,196.6424,-0.14434,0.0186,-0.01912,0.98917,-0.0755,-0.0276,-9.858,0.3635,0.3378,0.3532,0.1166,3,18,0.66,0.62,0.27,24.609,19.88,91.8,32.3,20194.0,7370,7431,7291,7533,49.2,45.6,50.5,48.0,2.746,3.02,2.972,2.74,2.44,10.3,24.2,77.7,1019.21,-27.66,-0.06,1.43,18.4,36.8,27.5,0,no_anomaly,0.0,0,0,0,0,19.076043,72.8777154,5.0,0.0
2024-12-16T07:16:06.300Z,MISSION_0010,63,0,takeoff,SITE_BOM_001,19.076042,72.8777149,5.0,195.33,0.082,0.173,4.96,-0.6666,-2.0069,195.3288,-0.13325,0.01813,-0.00343,0.99091,0.1119,0.1146,-9.7738,0.3069,-0.2215,-0.3302,0.1975,3,10,0.69,0.9,0.27,24.537,18.9,91.7,32.1,20179.0,7644,7402,7281,7266,50.5,50.0,48.8,47.4,2.701,3.094,2.926,2.685,2.6,16.4,24.0,76.9,1019.27,-31.1,0.86,2.08,20.8,34.0,26.8,0,no_anomaly,0.0,0,0,0,0,19.076042,72.8777149,5.0,0.0
2024-12-16T07:16:06.400Z,MISSION_0010,64,0,takeoff,SITE_BOM_001,19.0760406,72.8777096,5.0,192.81,0.508,0.104,4.64,-5.8261,-1.9656,192.805,-0.11049,0.02269,-0.04859,0.99243,0.0509,0.0223,-9.8703,-0.4924,0.1709,-0.0073,0.112,3,17,0.74,0.68,0.35,24.602,16.19,91.7,32.0,20164.0,7520,7393,7362,7334,51.8,48.2,47.5,50.9,2.883,2.802,2.535,2.652,2.88,15.0,24.0,77.7,1019.26,-26.27,1.26,1.37,16.9,37.8,26.4,0,no_anomaly,0.0,0,0,0,0,19.0760406,72.8777096,5.0,0.0
2024-12-16T07:16:06.500Z,MISSION_0010,65,0,takeoff,SITE_BOM_001,19.076041,72.8777047,5.0,192.86,0.482,0.089,4.59,2.5632,-1.9205,192.8645,-0.11236,0.01414,0.0241,0.99327,0.0768,0.0061,-9.7931,-0.225,0.1336,0.2398,0.1134,3,15,0.88,1.1,0.44,24.654,16.48,91.6,32.2,20149.0,7300,7614,7269,7629,46.8,50.6,47.5,47.8,3.005,2.782,3.002,2.906,2.72,11.7,23.6,77.6,1019.39,-28.68,-2.59,1.53,18.1,38.0,26.9,0,no_anomaly,0.0,0,0,0,0,19.076041,72.8777047,5.0,0.0
2024-12-16T07:16:06.600Z,MISSION_0010,66,0,takeoff,SITE_BOM_001,19.0760376,72.877707,5.0,192.05,0.352,0.096,4.26,0.6449,-1.9628,192.0469,-0.10501,0.01644,0.00739,0.99431,-0.0146,-0.0554,-9.8409,-0.4776,0.2704,0.2961,0.1154,3,11,0.59,0.74,0.2,24.605,15.63,91.5,32.3,20134.0,7279,7607,7380,7613,47.9,46.2,52.9,45.4,3.01,2.771,2.575,2.715,1.68,13.4,24.1,76.5,1019.75,-30.77,0.39,1.29,16.2,31.1,26.9,0,no_anomaly,0.0,0,0,0,0,19.0760376,72.877707,5.0,0.0
2024-12-16T07:16:06.700Z,MISSION_0010,67,0,takeoff,SITE_BOM_001,19.0760391,72.8777013,5.0,190.62,0.308,0.168,4.35,-1.7183,-1.0138,190.6241,-0.09243,0.0102,-0.01411,0.99557,-0.0753,-0.0581,-9.8407,0.3466,0.3572,-0.2382,0.1203,3,17,0.76,0.8,0.2,24.627,19.56,91.5,31.8,20119.0,7346,7433,7235,7621,53.1,48.4,49.9,52.2,2.809,2.82,2.71,2.733,1.93,7.1,23.6,77.6,1019.6,-31.53,0.42,1.25,20.7,35.4,25.1,0,no_anomaly,0.0,0,0,0,0,19.0760391,72.8777013,5.0,0.0
2024-12-16T07:16:06.800Z,MISSION_0010,68,0,takeoff,SITE_BOM_001,19.0760352,72.8776956,5.0,189.31,0.914,0.125,3.95,-0.5473,-3.1285,189.3075,-0.08097,0.02759,-0.00254,0.99633,0.0867,0.0454,-9.8328,-0.8612,-0.2461,0.1393,0.2402,3,10,0.69,0.81,0.27,24.62,23.48,91.4,32.4,20104.0,7344,7247,7495,7260,49.9,48.6,47.8,48.2,2.992,2.833,2.771,2.753,1.96,14.7,23.8,76.1,1019.42,-36.29,-0.4,1.67,18.7,30.5,26.1,0,no_anomaly,0.0,0,0,0,0,19.0760352,72.8776956,5.0,0.0
2024-12-16T07:16:06.900Z,MISSION_0010,69,0,takeoff,SITE_BOM_001,19.0760358,72.8776932,5.0,189.3,0.596,0.107,4.05,-1.3609,-0.8895,189.302,-0.08099,0.0087,-0.01121,0.99661,0.0533,-0.1202,-9.8547,1.0056,0.4383,-0.1214,0.0792,3,10,0.74,0.95,0.27,24.515,16.89,91.3,32.0,20089.0,7235,7688,7400,7629,51.1,48.4,46.0,47.9,2.841,3.039,2.932,2.949,2.62,15.6,24.0,76.9,1019.58,-30.11,-0.63,1.55,16.3,35.0,23.9,0,no_anomaly,0.0,0,0,0,0,19.0760358,72.8776932,5.0,0.0
2024-12-16T07:16:07.000Z,MISSION_0010,70,0,takeoff,SITE_BOM_001,19.0760371,72.8776938,5.0,189.61,0.783,0.149,4.19,1.8528,1.5432,189.609,-0.08352,-0.01477,0.01498,0.99628,-0.181,0.0021,-9.75,0.436,-0.3437,0.3065,0.1065,3,18,0.69,0.82,0.28,24.517,16.39,91.2,32.7,20074.0,7345,7474,7807,7541,52.6,48.5,46.9,47.0,2.754,3.014,2.806,2.622,1.4,8.8,24.0,77.2,1019.25,-32.62,-0.72,1.39,20.5,28.1,23.1,0,no_anomaly,0.0,0,0,0,0,19.0760371,72.8776938,5.0,0.0
2024-12-16T07:16:07.100Z,MISSION_0010,71,0,takeoff,SITE_BOM_001,19.0760333,72.8777006,5.0,187.75,0.659,0.095,3.7,-3.6527,-0.9313,187.7537,-0.06732,0.01026,-0.03125,0.99719,-0.1302,0.0586,-9.8281,-0.0799,-0.2829,0.0894,0.148,3,20,0.81,1.11,0.29,24.456,16.51,91.2,32.1,20059.0,7501,7292,7204,7416,49.8,49.8,50.6,50.0,2.652,2.9,2.617,2.571,2.69,15.0,23.9,77.4,1019.76,-27.96,1.01,1.37,19.5,36.1,24.9,0,no_anomaly,0.0,0,0,0,0,19.0760333,72.8777006,5.0,0.0
2024-12-16T07:16:07.200Z,MISSION_0010,72,0,takeoff,SITE_BOM_001,19.0760278,72.8777006,5.0,187.43,0.625,0.074,3.1,2.7128,-4.3927,187.4284,-0.06562,0.0367,0.02609,0.99683,0.0615,-0.0065,-9.7696,-0.6508,1.0455,0.0818,0.1753,3,13,0.92,1.01,0.41,24.462,15.35,91.1,32.5,20044.0,7312,7225,7580,7494,49.8,49.6,52.5,49.2,2.659,3.167,2.818,2.646,1.7,14.2,23.7,77.6,1019.4,-26.45,-1.49,1.36,20.4,29.9,27.8,0,no_anomaly,0.0,0,0,0,0,19.0760278,72.8777006,5.0,0.0
2024-12-16T07:16:07.300Z,MISSION_0010,73,0,takeoff,SITE_BOM_001,19.0760229,72.8777033,5.0,185.9,0.606,0.073,2.58,-1.8653,-2.1549,185.9019,-0.05116,0.01961,-0.01529,0.99838,-0.0723,-0.0409,-9.8705,-0.5791,-0.8005,0.293,0.1198,3,10,0.54,0.96,0.3,24.655,18.27,91.0,31.5,20029.0,7336,7364,7470,7477,44.5,47.1,51.7,50.8,2.589,2.722,2.68,2.693,2.01,18.6,23.8,77.6,1019.57,-29.43,-0.33,1.15,18.4,35.1,26.9,0,no_anomaly,0.0,0,0,0,0,19.0760229,72.8777033,5.0,0.0
2024-12-16T07:16:07.400Z,MISSION_0010,74,0,takeoff,SITE_BOM_001,19.0760219,72.8776996,5.0,186.88,1.155,0.089,2.43,-1.1603,-1.1396,186.8753,-0.05986,0.01053,-0.00951,0.99811,0.1297,-0.017,-9.8737,0.3972,0.6466,-0.2951,0.1998,3,15,0.8,1.0,0.21,24.587,14.58,91.0,31.5,20014.0,7122,7475,7362,7596,47.9,50.3,48.6,49.6,2.921,2.822,2.811,2.75,2.78,15.6,23.8,76.4,1019.23,-27.59,-0.65,1.67,18.9,34.0,27.8,0,no_anomaly,0.0,0,0,0,0,19.0760219,72.8776996,5.0,0.0
2024-12-16T07:16:07.500Z,MISSION_0010,75,0,takeoff,SITE_BOM_001,19.0760225,72.8777003,5.0,184.0,0.813,0.083,2.51,-2.5485,-1.45,184.0041,-0.03464,0.01342,-0.02178,0.99907,-0.1886,0.0024,-9.8217,-0.2839,-0.7375,-0.1324,0.218,3,15,0.62,0.95,0.42,24.495,23.79,90.9,32.0,19999.0,7357,7150,7468,7354,52.1,49.1,47.0,48.4,2.638,2.709,2.805,2.686,2.94,12.3,23.8,76.6,1019.67,-28.91,0.52,1.64,22.5,34.2,25.6,0,no_anomaly,0.0,0,0,0,0,19.0760225,72.8777003,5.0,0.0
2024-12-16T07:16:07.600Z,MISSION_0010,76,0,takeoff,SITE_BOM_001,19.0760257,72.8776984,5.0,182.13,0.769,0.164,2.87,-1.2163,0.6674,182.1299,-0.01865,-0.00563,-0.01072,0.99975,0.1469,0.0211,-9.7403,-0.7401,0.2215,-0.2059,0.1,3,10,0.65,0.84,0.26,24.626,16.05,90.8,31.7,19983.0,7391,7426,7806,7547,50.7,51.0,51.3,44.8,2.701,2.843,2.764,2.603,2.25,7.7,24.0,78.0,1019.24,-24.42,-0.22,1.6,17.2,31.2,23.8,0,no_anomaly,0.0,0,0,0,0,19.0760257,72.8776984,5.0,0.0
2024-12-16T07:16:07.700Z,MISSION_0010,77,0,takeoff,SITE_BOM_001,19.0760234,72.8776971,5.0,179.08,0.489,0.049,2.62,-1.6811,-2.3337,179.0787,0.00834,0.02024,-0.01483,0.99965,0.026,0.036,-9.8079,-0.4055,-0.3044,0.391,0.0201,3,19,0.67,0.87,0.32,24.663,20.24,90.8,32.5,19968.0,7440,7731,7259,7687,51.1,46.6,49.6,49.6,3.098,2.896,2.507,2.677,2.98,13.8,23.9,76.8,1019.43,-33.65,-0.52,1.97,21.6,31.2,26.9,0,no_anomaly,0.0,0,0,0,0,19.0760234,72.8776971,5.0,0.0
2024-12-16T07:16:07.800Z,MISSION_0010,78,0,takeoff,SITE_BOM_001,19.0760227,72.8776937,5.0,179.61,0.873,0.126,2.63,0.1535,-0.3666,179.6121,0.00338,0.0032,0.00133,0.99999,0.2147,0.051,-9.836,0.5055,-0.2913,0.1921,0.1207,3,20,0.64,0.97,0.22,24.562,17.32,90.7,32.6,19953.0,7402,7376,7544,7395,50.4,49.0,49.9,47.9,2.926,2.534,2.579,2.806,2.35,9.9,24.0,77.9,1019.72,-33.88,-0.42,1.47,17.8,37.9,27.6,0,no_anomaly,0.0,0,0,0,0,19.0760227,72.8776937,5.0,0.0
2024-12-16T07:16:07.900Z,MISSION_0010,79,0,takeoff,SITE_BOM_001,19.0760228,72.8776932,5.0,180.78,1.06,0.095,2.64,-2.8722,-2.1307,180.781,-0.00635,0.01876,-0.02493,0.99949,0.0671,-0.0214,-9.8172,0.4755,0.052,-0.0171,0.1337,3,16,0.74,1.06,0.27,24.514,13.65,90.6,32.0,19938.0,7161,7177,7320,7339,52.6,53.6,49.2,51.3,2.902,2.59,2.861,2.93,2.1,18.0,24.4,77.5,1019.32,-20.46,0.81,1.95,15.4,29.5,26.6,0,no_anomaly,0.0,0,0,0,0,19.0760228,72.8776932,5.0,0.0
2024-12-16T07:16:08.000Z,MISSION_0010,80,0,takeoff,SITE_BOM_001,19.0760237,72.8776954,5.0,177.73,1.329,0.083,2.68,3.7027,1.9692,177.729,0.02036,-0.01653,0.03264,0.99912,-0.0521,0.0432,-9.7837,0.6356,-0.6316,0.1629,0.1659,3,17,0.56,0.99,0.25,24.602,16.96,90.6,31.5,19923.0,7381,7484,7481,7381,50.0,50.6,51.7,52.9,2.992,2.703,2.761,2.716,1.78,1.1,24.0,77.1,1019.41,-28.22,-0.9,1.23,19.5,39.5,26.3,0,no_anomaly,0.0,0,0,0,0,19.0760237,72.8776954,5.0,0.0
2024-12-16T07:16:08.100Z,MISSION_0010,81,0,takeoff,SITE_BOM_001,19.0760245,72.8776928,5.0,178.59,1.495,0.148,2.84,2.2215,-2.1433,178.5929,0.01191,0.01894,0.01915,0.99957,-0.0885,0.0059,-9.7637,-0.7739,0.0127,-0.1425,0.2029,3,11,0.75,0.75,0.37,24.621,16.64,90.5,31.3,19908.0,7403,7228,7477,7274,50.8,51.8,53.2,50.8,2.437,2.731,2.873,2.724,1.62,17.0,24.1,76.8,1019.4,-28.84,-0.18,1.67,21.7,31.5,27.0,0,no_anomaly,0.0,0,0,0,0,19.0760245,72.8776928,5.0,0.0
2024-12-16T07:16:08.200Z,MISSION_0010,82,0,takeoff,SITE_BOM_001,19.0760248,72.8776955,5.0,178.42,1.365,0.063,2.8,1.8285,-2.7164,178.4195,0.01341,0.02392,0.01562,0.9995,-0.0849,0.0006,-9.7227,0.8048,-0.1147,0.1238,0.1097,3,10,0.67,0.92,0.2,24.539,19.22,90.4,32.3,19893.0,7509,7563,7465,7219,52.5,47.2,48.4,51.7,2.625,2.611,2.694,3.071,2.3,23.4,24.0,76.8,1019.52,-31.58,-1.71,1.33,21.7,33.5,28.4,0,no_anomaly,0.0,0,0,0,0,19.0760248,72.8776955,5.0,0.0
2024-12-16T07:16:08.300Z,MISSION_0010,83,0,takeoff,SITE_BOM_001,19.0760247,72.8776964,5.0,177.93,1.81,0.063,2.78,1.9419,-4.5398,177.9301,0.01737,0.0399,0.01621,0.99892,0.0442,0.0802,-9.7632,0.0462,0.6385,0.1061,0.1379,3,12,0.83,0.98,0.5,24.568,20.06,90.4,33.7,19878.0,7181,7523,7760,7292,46.6,48.7,47.0,49.8,2.76,3.031,2.816,2.719,1.73,11.1,24.0,77.1,1019.25,-35.07,-1.03,1.49,18.2,31.4,27.3,0,no_anomaly,0.0,0,0,0,0,19.0760247,72.8776964,5.0,0.0
2024-12-16T07:16:08.400Z,MISSION_0010,84,0,takeoff,SITE_BOM_001,19.0760171,72.8776997,5.0,178.3,2.416,0.168,1.9,3.2145,-6.1213,178.2995,0.01331,0.05378,0.02721,0.99809,0.1267,0.0223,-9.8326,-0.5274,0.4018,-0.0969,0.2109,3,15,0.76,0.77,0.27,24.537,14.86,90.3,32.0,19863.0,7380,7379,7491,7455,48.9,48.2,50.5,45.4,2.843,2.766,2.675,2.881,1.72,18.8,23.8,77.1,1019.63,-30.69,0.18,1.66,17.6,34.7,28.4,0,no_anomaly,0.0,0,0,0,0,19.0760171,72.8776997,5.0,0.0
2024-12-16T07:16:08.500Z,MISSION_0010,85,0,transit,SITE_BOM_001,19.0760239,72.877694,5.5,175.19,2.096,0.098,2.74,-0.281,0.0833,175.191,0.04195,-0.00083,-0.00242,0.99912,0.0193,0.0224,-9.8044,-0.6992,0.2915,-0.4197,0.1813,3,18,0.76,1.1,0.31,24.609,16.9,90.2,32.1,19848.0,7483,7186,7553,7601,49.2,49.4,48.6,49.5,2.689,2.736,3.09,2.891,1.52,10.7,24.2,78.0,1019.62,-29.44,-0.7,1.95,17.4,31.7,25.4,0,no_anomaly,0.0,0,0,0,0,19.0760239,72.877694,5.5,0.0
2024-12-16T07:16:08.600Z,MISSION_0010,86,0,transit,SITE_BOM_001,19.0760237,72.8777006,6.0,176.65,2.219,0.078,2.64,-2.5404,0.9876,176.6465,0.02906,-0.00926,-0.02191,0.99929,0.023,0.0086,-9.8498,-0.2898,0.6643,-0.1216,0.1866,3,16,0.7,0.87,0.32,24.416,15.89,90.1,31.9,19833.0,7313,7422,7675,7603,51.9,45.4,47.5,49.8,2.893,3.026,2.661,2.714,1.8,25.3,24.0,77.0,1019.26,-31.98,0.58,1.64,15.1,36.3,25.7,0,no_anomaly,0.0,0,0,0,0,19.0760237,72.8777006,6.0,0.0
2024-12-16T07:16:08.700Z,MISSION_0010,87,0,transit,SITE_BOM_001,19.076022,72.8776956,6.5,177.2,2.553,0.07,2.5,2.9896,-1.5604,177.2042,0.02403,0.01424,0.02574,0.99928,0.1339,0.015,-9.8088,0.5092,-0.2987,0.4798,0.1571,3,13,0.93,1.07,0.47,24.546,15.19,90.1,33.0,19818.0,7452,7468,7571,7375,48.9,48.0,48.5,45.9,2.598,2.624,2.538,2.734,2.24,9.2,23.8,77.2,1019.17,-34.16,0.11,1.0,17.0,35.8,26.4,0,no_anomaly,0.0,0,0,0,0,19.076022,72.8776956,6.5,0.0
2024-12-16T07:16:08.800Z,MISSION_0010,88,0,transit,SITE_BOM_001,19.0760208,72.8776936,7.0,174.9,2.513,0.136,2.42,-2.1655,-1.1977,174.9037,0.04465,0.0096,-0.01934,0.99877,-0.1326,-0.0165,-9.773,0.3209,0.3758,-0.2372,0.0966,3,14,0.77,0.98,0.35,24.473,19.7,90.0,32.9,19803.0,7284,7378,7525,7615,48.4,50.2,47.0,49.6,2.731,2.669,2.999,2.651,1.85,14.2,24.0,76.7,1019.42,-31.99,0.13,1.68,21.0,38.9,29.9,0,no_anomaly,0.0,0,0,0,0,19.0760208,72.8776936,7.0,0.0
2024-12-16T07:16:08.900Z,MISSION_0010,89,0,transit,SITE_BOM_001,19.0760193,72.8776983,7.5,174.52,2.655,0.135,2.15,0.6967,-3.5737,174.5207,0.04758,0.03144,0.00458,0.99836,0.0042,0.0329,-9.8251,0.3773,-0.5436,0.2167,0.0883,3,18,0.64,0.6,0.29,24.645,26.11,89.9,32.1,19788.0,7345,7395,7300,7234,49.1,49.2,50.6,51.5,2.504,2.61,2.602,2.642,2.58,10.7,23.9,77.3,1019.5,-28.41,0.26,1.58,23.3,32.9,27.0,0,no_anomaly,0.0,0,0,0,0,19.0760193,72.8776983,7.5,0.0
2024-12-16T07:16:09.000Z,MISSION_0010,90,0,transit,SITE_BOM_001,19.0760235,72.877693,8.0,173.32,2.457,0.139,2.73,-3.0817,-2.4613,173.3196,0.05881,0.01987,-0.02809,0.99768,-0.2298,0.0021,-9.8461,-0.6107,0.2218,-0.2465,0.1383,3,17,0.73,1.1,0.35,24.526,19.64,89.9,31.6,19772.0,7503,7385,7451,7402,49.1,49.7,49.2,49.0,2.797,2.655,2.789,3.023,1.43,14.0,23.6,77.7,1020.19,-29.74,-0.95,1.6,17.5,34.8,23.4,0,no_anomaly,0.0,0,0,0,0,19.0760235,72.877693,8.0,0.0
2024-12-16T07:16:09.100Z,MISSION_0010,91,0,transit,SITE_BOM_001,19.0760217,72.877695,8.5,173.98,2.619,0.098,2.47,0.9851,-2.0509,173.9847,0.05231,0.01832,0.00764,0.99843,0.008,0.0314,-9.8308,0.6222,-0.124,0.073,0.1163,3,14,0.6,0.78,0.2,24.494,16.39,89.8,32.4,19757.0,7546,7195,7392,7399,52.1,47.7,48.3,50.8,2.451,2.807,2.807,2.549,2.43,8.4,23.8,76.7,1019.45,-32.64,-0.04,1.55,19.0,34.5,23.5,0,no_anomaly,0.0,0,0,0,0,19.0760217,72.877695,8.5,0.0
2024-12-16T07:16:09.200Z,MISSION_0010,92,0,transit,SITE_BOM_001,19.0760267,72.8776982,9.0,174.14,2.425,0.12,2.98,-1.0287,-0.7517,174.1419,0.05115,0.00609,-0.0093,0.99863,-0.0185,0.0025,-9.7994,-0.2453,0.8201,0.2906,0.1812,3,20,0.7,0.68,0.26,24.586,19.86,89.7,32.7,19742.0,7616,7728,7502,7539,50.4,50.9,50.5,49.8,2.878,2.779,2.737,3.066,1.32,8.6,24.0,77.6,1019.36,-30.75,0.74,1.77,16.5,37.1,25.0,0,no_anomaly,0.0,0,0,0,0,19.0760267,72.8776982,9.0,0.0
2024-12-16T07:16:09.300Z,MISSION_0010,93,0,transit,SITE_BOM_001,19.0760265,72.8776982,9.5,174.58,2.653,0.15,2.96,-0.688,-3.5086,174.5784,0.04745,0.0303,-0.00744,0.99839,0.0653,0.074,-9.7621,0.3401,0.4873,0.0361,0.0838,3,20,0.9,0.93,0.39,24.523,18.28,89.7,32.1,19727.0,7361,7490,7278,7211,48.2,48.8,48.9,49.8,2.859,2.852,2.792,2.931,1.91,9.6,24.1,76.8,1019.61,-33.56,2.28,1.46,18.2,35.3,28.3,0,no_anomaly,0.0,0,0,0,0,19.0760265,72.8776982,9.5,0.0
2024-12-16T07:16:09.400Z,MISSION_0010,94,0,transit,SITE_BOM_001,19.0760357,72.8776977,10.0,173.65,2.718,0.092,3.98,3.6874,-3.7353,173.6514,0.05427,0.0343,0.0303,0.99748,0.0651,0.0325,-9.7578,-0.338,0.0926,0.2627,0.2215,3,18,0.64,1.28,0.21,24.46,21.45,89.6,33.2,19712.0,7596,7556,7380,7549,50.2,48.8,49.5,51.1,2.691,2.86,2.872,2.691,1.14,8.4,23.9,77.7,1019.56,-29.68,0.12,1.82,19.9,32.3,27.8,0,no_anomaly,0.0,0,0,0,0,19.0760357,72.8776977,10.0,0.0
2024-12-16T07:16:09.500Z,MISSION_0010,95,0,transit,SITE_BOM_001,19.0760295,72.8776962,10.5,174.99,2.544,0.092,3.32,1.9496,-2.5907,174.9893,0.04331,0.02332,0.016,0.99866,-0.0692,-0.066,-9.8441,0.304,0.0468,0.0248,0.2662,3,17,0.8,0.76,0.35,24.458,19.06,89.5,32.4,19697.0,7564,7229,7598,7385,52.1,48.6,49.7,47.9,2.868,2.88,2.794,3.061,2.21,6.4,24.0,77.2,1019.35,-31.1,-0.25,1.26,19.0,34.1,28.4,0,no_anomaly,0.0,0,0,0,0,19.0760295,72.8776962,10.5,0.0
2024-12-16T07:16:09.600Z,MISSION_0010,96,0,transit,SITE_BOM_001,19.0760276,72.8777001,11.0,176.43,3.112,0.098,3.07,-3.1524,-3.6482,176.4279,0.03202,0.03095,-0.02847,0.9986,0.0305,-0.0331,-9.8377,-0.1616,0.1304,0.4715,0.1434,3,11,0.84,0.78,0.2,24.542,21.45,89.5,32.4,19682.0,7399,7192,7535,7680,50.0,50.4,43.3,50.9,2.852,2.852,3.006,2.361,3.3,21.1,23.6,77.0,1019.53,-31.36,0.46,1.89,17.9,30.3,24.4,0,no_anomaly,0.0,0,0,0,0,19.0760276,72.8777001,11.0,0.0
2024-12-16T07:16:09.700Z,MISSION_0010,97,0,transit,SITE_BOM_001,19.0760326,72.8777033,11.5,178.3,2.909,0.029,3.64,-1.9123,-3.2169,178.3006,0.01529,0.02781,-0.01709,0.99935,-0.0925,0.0217,-9.8135,-0.0152,0.2103,0.2707,0.1137,3,19,0.95,1.11,0.5,24.507,18.65,89.4,31.8,19667.0,7362,7220,7310,7406,52.2,47.8,46.5,50.8,2.769,2.799,2.853,2.858,2.13,7.6,23.7,76.4,1019.43,-26.19,-0.91,1.27,21.5,30.2,28.3,0,no_anomaly,0.0,0,0,0,0,19.0760326,72.8777033,11.5,0.0
2024-12-16T07:16:09.800Z,MISSION_0010,98,0,transit,SITE_BOM_001,19.0760253,72.877701,12.0,178.54,2.884,0.124,2.82,-1.3444,-2.4253,178.5414,0.01297,0.02101,-0.012,0.99962,-0.1579,0.0547,-9.7831,0.0869,0.4394,0.5084,0.0759,3,12,0.87,1.17,0.25,24.584,21.97,89.3,31.9,19652.0,7401,7565,7489,7497,49.2,46.5,49.5,44.1,2.798,2.844,3.204,3.037,2.33,17.5,24.2,76.7,1019.3,-32.97,1.16,1.16,18.6,34.8,28.4,0,no_anomaly,0.0,0,0,0,0,19.0760253,72.877701,12.0,0.0
2024-12-16T07:16:09.900Z,MISSION_0010,99,0,transit,SITE_BOM_001,19.0760179,72.8777017,12.5,177.58,3.281,0.143,2.0,5.2264,-3.6972,177.5806,0.01961,0.03318,0.04488,0.99825,0.1357,0.0807,-9.8295,0.4356,-0.0531,0.017,0.1074,3,12,0.6,0.96,0.25,24.457,20.75,89.3,31.7,19637.0,7410,7508,7378,7391,46.5,48.6,46.9,48.0,2.759,2.496,2.817,2.689,1.85,5.4,24.1,77.8,1019.71,-33.16,-0.18,1.62,17.3,32.3,28.0,0,no_anomaly,0.0,0,0,0,0,19.0760179,72.8777017,12.5,0.0
2024-12-16T07:16:10.000Z,MISSION_0010,100,0,transit,SITE_BOM_001,19.0760227,72.8777016,13.0,177.15,3.384,0.068,2.54,0.0523,-3.5841,177.1491,0.02485,0.03127,-0.00032,0.9992,0.1849,0.0245,-9.7612,0.4392,-0.1189,0.362,0.1513,3,20,0.57,0.76,0.2,24.583,20.07,89.2,32.6,19622.0,7730,7054,7249,7097,49.3,52.9,49.5,49.7,2.902,2.9,2.801,2.968,2.46,4.8,24.2,76.0,1019.43,-28.05,0.98,1.97,21.1,29.2,28.4,0,no_anomaly,0.0,0,0,0,0,19.0760227,72.8777016,13.0,0.0
2024-12-16T07:16:10.100Z,MISSION_0010,101,0,transit,SITE_BOM_001,19.076023,72.8777099,13.5,176.69,3.238,0.167,2.78,-3.991,-2.1023,176.6943,0.02946,0.01732,-0.03533,0.99879,0.1398,0.0468,-9.7722,0.1479,-0.1183,0.419,0.154,3,12,0.72,0.79,0.2,24.561,17.65,89.1,32.4,19607.0,7343,7453,7421,7588,49.5,49.8,52.5,51.2,2.753,2.991,2.821,2.792,2.14,5.6,24.0,77.1,1019.46,-23.26,0.39,1.77,19.1,34.9,24.2,0,no_anomaly,0.0,0,0,0,0,19.076023,72.8777099,13.5,0.0
2024-12-16T07:16:10.200Z,MISSION_0010,102,0,transit,SITE_BOM_001,19.0760203,72.8777083,14.0,177.89,2.925,0.043,2.44,-0.4087,-2.7409,177.892,0.01847,0.02385,-0.004,0.99954,-0.1447,0.0824,-9.7908,-0.0217,-0.3266,-0.0185,0.0633,3,10,0.7,0.8,0.2,24.507,23.99,89.1,32.6,19592.0,7597,7405,7577,7129,51.9,48.8,48.4,49.5,2.912,2.687,2.846,2.863,2.54,7.9,24.0,77.4,1019.7,-32.49,0.44,1.08,18.4,39.6,27.4,0,no_anomaly,0.0,0,0,0,0,19.0760203,72.8777083,14.0,0.0
2024-12-16T07:16:10.300Z,MISSION_0010,103,0,transit,SITE_BOM_001,19.0760253,72.8777099,14.5,177.5,3.037,0.023,3.02,2.7668,-4.3136,177.4971,0.02091,0.03814,0.0233,0.99878,-0.0619,0.0698,-9.7765,-0.1941,0.1618,0.0745,0.1122,3,11,0.51,1.14,0.26,24.445,18.24,89.0,33.0,19577.0,7509,7619,7641,7369,49.3,50.7,50.9,49.4,2.803,3.062,2.849,2.633,1.81,11.3,23.9,76.9,1019.45,-33.05,1.07,1.24,21.8,38.4,26.0,0,no_anomaly,0.0,0,0,0,0,19.0760253,72.8777099,14.5,0.0
2024-12-16T07:16:10.400Z,MISSION_0010,104,0,transit,SITE_BOM_001,19.0760286,72.8777105,15.0,178.66,2.89,0.144,3.4,2.9389,-2.2836,178.6649,0.01113,0.02022,0.02541,0.99941,0.0861,-0.0824,-9.8565,-0.4007,-0.0921,0.0967,0.0962,3,15,0.71,0.61,0.2,24.527,27.55,88.9,31.4,19562.0,7703,7349,7505,7232,48.0,48.7,50.6,50.4,3.076,2.793,2.832,2.802,2.36,14.7,23.8,77.8,1019.51,-28.76,-0.86,2.17,17.5,33.7,25.0,0,no_anomaly,0.0,0,0,0,0,19.0760286,72.8777105,15.0,0.0
2024-12-16T07:16:10.500Z,MISSION_0010,105,0,transit,SITE_BOM_001,19.0760276,72.8777139,15.5,181.2,3.006,0.164,3.44,-0.2721,-4.4119,181.1991,-0.01037,0.03851,-0.00197,0.9992,-0.0441,-0.0292,-9.8325,0.384,-0.4328,0.1596,0.1964,3,12,0.5,0.6,0.2,24.492,21.39,88.8,32.1,19546.0,7486,7468,7480,7162,46.9,47.7,48.1,50.1,2.838,2.951,2.921,2.718,1.6,16.6,23.8,76.6,1019.29,-32.74,-0.45,1.28,17.0,29.5,25.0,0,no_anomaly,0.0,0,0,0,0,19.0760276,72.8777139,15.5,0.0
2024-12-16T07:16:10.600Z,MISSION_0010,106,0,transit,SITE_BOM_001,19.0760329,72.8777165,16.0,179.03,2.766,0.065,4.1,4.9295,-1.4833,179.0323,0.00788,0.01329,0.04289,0.99896,0.1437,-0.0239,-9.8722,-0.1538,0.538,0.0098,0.148,3,16,0.69,1.1,0.36,24.552,18.32,88.8,32.2,19531.0,7444,7370,7575,7335,48.8,47.5,49.7,47.5,2.546,2.604,2.818,2.821,2.4,5.6,24.0,77.2,1019.39,-24.8,-0.01,1.42,19.0,29.4,26.0,0,no_anomaly,0.0,0,0,0,0,19.0760329,72.8777165,16.0,0.0
2024-12-16T07:16:10.700Z,MISSION_0010,107,0,transit,SITE_BOM_001,19.0760303,72.8777151,16.5,177.15,2.919,0.095,3.77,-1.594,-2.3248,177.1538,0.02511,0.01993,-0.01441,0.99938,0.0728,0.0168,-9.8134,-0.4777,-0.1823,0.1009,0.127,3,18,0.85,0.87,0.6,24.473,17.84,88.7,32.4,19516.0,7563,7644,7398,7395,50.7,50.1,46.8,50.4,2.663,2.694,2.55,2.543,1.78,19.1,23.9,76.9,1019.37,-33.05,-1.78,2.22,17.5,31.9,27.6,0,no_anomaly,0.0,0,0,0,0,19.0760303,72.8777151,16.5,0.0
2024-12-16T07:16:10.800Z,MISSION_0010,108,0,transit,SITE_BOM_001,19.0760276,72.877712,16.8,176.45,3.226,0.159,3.35,-1.3929,-3.5074,176.45,0.03133,0.03021,-0.01309,0.99897,0.0312,-0.0675,-9.7093,-0.065,0.2436,0.2198,0.1874,3,10,0.81,1.14,0.24,24.554,18.28,88.6,32.7,19501.0,7362,7619,7288,7309,46.8,49.9,53.4,45.1,2.939,2.697,2.741,2.805,2.59,15.0,24.3,76.7,1019.33,-29.23,0.66,1.55,17.9,31.7,25.1,0,no_anomaly,0.0,0,0,0,0,19.0760276,72.877712,16.8,0.0
2024-12-16T07:16:10.900Z,MISSION_0010,109,0,transit,SITE_BOM_001,19.0760256,72.8777088,16.8,174.5,3.242,0.064,3.01,0.3655,-2.0387,174.4985,0.04793,0.01792,0.00233,0.99869,-0.1119,-0.0318,-9.7681,0.5044,-0.6037,-0.241,0.1171,3,15,0.74,0.86,0.24,24.613,24.46,88.6,31.9,19486.0,7158,7536,7426,7335,49.6,49.3,50.4,47.9,3.041,2.957,3.028,2.583,2.04,14.5,23.9,76.7,1019.57,-36.61,-0.9,1.79,21.2,30.6,26.2,0,no_anomaly,0.0,0,0,0,0,19.0760256,72.8777088,16.8,0.0
2024-12-16T07:16:11.000Z,MISSION_0010,110,0,transit,SITE_BOM_001,19.0760323,72.8777085,16.8,175.96,3.026,-0.02,3.71,-1.7602,-0.8251,175.959,0.03536,0.00665,-0.0156,0.99923,0.086,0.0723,-9.8505,0.4159,0.2362,0.4214,0.1683,3,16,0.57,1.13,0.22,24.559,19.1,88.5,31.8,19471.0,7508,7457,7721,7823,48.2,49.6,49.0,46.9,2.986,2.815,2.696,2.861,2.68,11.1,23.9,77.4,1019.41,-24.47,1.0,1.41,20.4,37.4,24.5,0,no_anomaly,0.0,0,0,0,0,19.0760323,72.8777085,16.8,0.0
2024-12-16T07:16:11.100Z,MISSION_0010,111,0,transit,SITE_BOM_001,19.0760291,72.8777096,16.8,174.47,2.829,0.112,3.41,-1.2944,-0.603,174.4715,0.04828,0.00471,-0.01154,0.99876,-0.0705,0.034,-9.7899,0.1649,0.5152,0.0094,0.1399,3,14,0.59,0.83,0.31,24.487,17.44,88.4,31.4,19456.0,7448,7752,7569,7396,48.9,44.1,52.5,51.5,2.52,2.865,2.704,2.609,2.39,11.4,23.8,77.5,1019.43,-35.72,-0.64,1.43,19.5,38.2,25.7,0,no_anomaly,0.0,0,0,0,0,19.0760291,72.8777096,16.8,0.0
2024-12-16T07:16:11.200Z,MISSION_0010,112,0,transit,SITE_BOM_001,19.0760254,72.8777073,16.8,173.57,3.324,0.119,2.94,-0.8,-1.4142,173.5669,0.05619,0.01193,-0.00766,0.99832,-0.0921,-0.0057,-9.7983,-0.7195,0.2826,-0.1939,0.0463,3,10,0.71,0.78,0.24,24.592,25.07,88.4,32.9,19441.0,7388,7280,7341,7572,47.2,48.1,49.5,54.5,2.729,2.73,2.766,2.733,2.18,7.7,24.1,77.5,1019.26,-31.44,-1.99,1.45,18.1,38.3,24.7,0,no_anomaly,0.0,0,0,0,0,19.0760254,72.8777073,16.8,0.0
2024-12-16T07:16:11.300Z,MISSION_0010,113,0,transit,SITE_BOM_001,19.0760228,72.8777026,16.8,176.27,3.661,0.127,2.56,-4.8785,-4.1427,176.2743,0.03399,0.03471,-0.04368,0.99786,0.1573,-0.1196,-9.8317,-0.1416,0.6612,-0.2984,0.2079,3,18,0.5,0.81,0.2,24.463,19.0,88.3,31.3,19426.0,7138,7631,7452,7376,49.8,50.8,48.0,47.5,3.045,2.843,2.754,3.021,1.97,4.4,24.0,77.2,1019.55,-23.61,-1.29,1.61,20.4,30.2,27.8,0,no_anomaly,0.0,0,0,0,0,19.0760228,72.8777026,16.8,0.0
2024-12-16T07:16:11.400Z,MISSION_0010,114,0,transit,SITE_BOM_001,19.0760225,72.8777035,16.8,176.93,3.35,0.085,2.53,3.073,-2.4235,176.9277,0.02623,0.02185,0.02623,0.99907,0.0179,0.0372,-9.8372,-0.1724,-0.049,0.2672,0.1792,3,16,0.74,0.8,0.47,24.51,17.06,88.2,32.8,19411.0,7704,7478,7437,7392,49.6,46.7,46.4,50.9,2.94,2.816,2.743,2.652,2.95,16.4,24.0,75.9,1019.4,-29.33,-0.98,1.36,19.1,40.7,26.7,0,no_anomaly,0.0,0,0,0,0,19.0760225,72.8777035,16.8,0.0
2024-12-16T07:16:11.500Z,MISSION_0010,115,0,transit,SITE_BOM_001,19.0760253,72.8777012,16.8,177.58,3.394,0.086,2.82,0.1175,0.7999,177.5827,0.0211,-0.00696,0.00117,0.99975,-0.0501,-0.0143,-9.7242,0.4869,0.0034,0.2802,0.1105,3,18,0.6,0.75,0.22,24.482,18.84,88.2,32.6,19396.0,7471,7283,7531,7443,49.8,51.0,50.6,49.1,3.111,2.7,2.592,2.753,2.6,21.7,23.8,76.8,1019.47,-28.83,0.86,1.26,18.3,31.8,24.9,0,no_anomaly,0.0,0,0,0,0,19.0760253,72.8777012,16.8,0.0
2024-12-16T07:16:11.600Z,MISSION_0010,116,0,transit,SITE_BOM_001,19.076024,72.8777007,16.8,175.85,3.731,-0.027,2.68,-0.1416,-4.0982,175.852,0.03621,0.03569,-0.00253,0.9987,0.0527,0.0136,-9.7462,-0.4027,-0.059,-0.3384,0.1159,3,20,0.76,0.99,0.33,24.531,21.5,88.1,32.1,19381.0,7477,7416,7432,7579,47.5,50.0,44.3,47.8,2.908,3.054,2.629,2.953,1.93,13.0,23.8,77.3,1019.36,-28.57,-0.49,1.61,16.0,28.8,23.7,0,no_anomaly,0.0,0,0,0,0,19.076024,72.8777007,16.8,0.0
2024-12-16T07:16:11.700Z,MISSION_0010,117,0,transit,SITE_BOM_001,19.0760283,72.877699,16.8,179.55,2.655,0.069,3.16,0.664,1.4559,179.545,0.00404,-0.01268,0.00584,0.99989,-0.1732,0.0355,-9.8706,-0.0867,-0.0965,-0.0831,0.151,3,19,0.64,0.6,0.31,24.477,19.63,88.0,31.7,19366.0,7352,7286,7348,7555,47.3,52.5,51.5,51.9,2.457,2.85,2.669,2.845,1.83,12.5,23.7,76.9,1019.33,-32.81,0.24,1.42,18.2,31.0,25.2,0,no_anomaly,0.0,0,0,0,0,19.0760283,72.877699,16.8,0.0
2024-12-16T07:16:11.800Z,MISSION_0010,118,0,transit,SITE_BOM_001,19.0760272,72.8777014,16.8,179.39,2.949,0.174,3.03,-0.6822,-3.5393,179.3879,0.00552,0.03085,-0.00612,0.99949,0.0693,-0.0153,-9.7516,0.3762,-0.3526,0.1339,0.2104,3,14,0.79,0.86,0.26,24.513,26.75,88.0,32.2,19351.0,7526,7419,7494,7299,44.8,49.5,48.6,49.4,2.681,2.787,2.702,2.755,2.83,12.0,24.1,77.1,1019.44,-29.41,-0.86,1.64,16.8,35.0,25.6,0,no_anomaly,0.0,0,0,0,0,19.0760272,72.8777014,16.8,0.0
2024-12-16T07:16:11.900Z,MISSION_0010,119,0,transit,SITE_BOM_001,19.0760292,72.877701,16.8,178.88,2.486,0.06,3.25,2.8548,-4.4267,178.8806,0.0088,0.03885,0.02451,0.99891,0.039,0.0251,-9.7995,-0.303,-0.2641,-0.1167,0.1431,3,10,0.66,0.75,0.23,24.47,18.15,87.9,32.0,19336.0,7473,7222,7587,7458,49.8,50.0,49.1,51.2,2.785,2.888,2.89,3.034,2.75,15.9,23.8,77.3,1019.58,-30.35,0.77,1.47,20.9,29.0,27.0,0,no_anomaly,0.0,0,0,0,0,19.0760292,72.877701,16.8,0.0
2024-12-16T07:16:12.000Z,MISSION_0010,120,0,transit,SITE_BOM_001,19.0760292,72.8776983,16.8,178.81,2.544,0.06,3.26,0.5398,-1.1505,178.8098,0.01034,0.01009,0.00461,0.99989,-0.0437,0.0574,-9.7913,-0.423,-0.1499,-0.4533,0.1049,3,20,0.73,0.74,0.27,24.484,19.05,87.8,31.9,19320.0,7340,7456,7352,7583,52.4,50.0,51.9,53.0,2.739,2.829,2.883,2.617,3.2,6.3,24.1,77.1,1019.29,-24.48,0.9,1.36,17.6,38.5,25.6,0,no_anomaly,0.0,0,0,0,0,19.0760292,72.8776983,16.8,0.0
2024-12-16T07:16:12.100Z,MISSION_0010,121,0,transit,SITE_BOM_001,19.0760299,72.8776985,16.8,180.76,2.575,0.17,3.33,-0.1916,-1.9153,180.7559,-0.00657,0.01672,-0.00156,0.99984,-0.056,-0.0008,-9.8531,0.3383,-0.5099,0.1394,0.1199,3,14,0.56,0.81,0.2,24.443,20.61,87.8,32.2,19305.0,7625,7507,7750,7294,49.0,51.0,50.1,49.8,2.583,2.847,2.837,2.772,1.99,8.4,24.1,77.4,1019.43,-26.73,-0.74,1.7,15.7,28.2,25.5,0,no_anomaly,0.0,0,0,0,0,19.0760299,72.8776985,16.8,0.0
2024-12-16T07:16:12.200Z,MISSION_0010,122,0,transit,SITE_BOM_001,19.0760311,72.8776968,16.8,183.7,2.562,0.082,3.48,-2.5502,-1.0359,183.6984,-0.03206,0.00975,-0.02195,0.9992,-0.1258,0.0045,-9.8783,-0.0431,0.1437,-0.2503,0.1289,3,12,0.72,0.87,0.34,24.535,22.96,87.7,32.0,19290.0,7277,7302,7411,7130,50.7,52.5,48.5,51.2,2.84,2.9,2.716,2.795,3.08,10.9,24.1,77.6,1019.59,-32.63,-0.93,1.17,18.3,35.4,25.2,0,no_anomaly,0.0,0,0,0,0,19.0760311,72.8776968,16.8,0.0
2024-12-16T07:16:12.300Z,MISSION_0010,123,0,transit,SITE_BOM_001,19.0760304,72.8776939,16.8,185.67,2.645,0.077,3.46,-2.059,-3.6506,185.6662,-0.04882,0.0327,-0.01636,0.99814,0.0382,-0.0095,-9.7902,1.0137,-0.8474,-0.3104,0.2341,3,14,0.72,0.6,0.2,24.494,22.02,87.6,32.4,19275.0,7361,7485,7347,7727,48.3,46.6,48.3,44.6,2.335,2.771,2.874,2.739,2.68,19.4,24.2,76.8,1019.79,-29.74,-0.09,1.0,17.7,34.3,25.2,0,no_anomaly,0.0,0,0,0,0,19.0760304,72.8776939,16.8,0.0
2024-12-16T07:16:12.400Z,MISSION_0010,124,0,transit,SITE_BOM_001,19.0760302,72.8776969,16.8,184.54,2.964,0.108,3.38,1.5881,-2.8321,184.5391,-0.03993,0.02414,0.01482,0.9988,-0.034,-0.0306,-9.9136,-0.3918,0.3191,-0.1451,0.1294,3,17,0.74,0.81,0.25,24.37,18.86,87.5,32.3,19260.0,7484,7495,7632,7417,45.9,47.5,49.3,50.7,2.931,2.774,2.741,2.667,1.72,12.5,23.5,77.3,1019.72,-29.88,0.26,1.11,16.8,28.2,25.4,0,no_anomaly,0.0,0,0,0,0,19.0760302,72.8776969,16.8,0.0
2024-12-16T07:16:12.500Z,MISSION_0010,125,0,transit,SITE_BOM_001,19.076034,72.8776964,16.8,184.25,3.095,0.131,3.8,2.2248,-2.1143,184.2497,-0.03742,0.01771,0.02008,0.99894,0.1033,0.0297,-9.8105,-0.105,-1.0889,-0.4556,0.1753,3,14,0.67,1.08,0.3,24.443,18.34,87.5,31.8,19245.0,7397,7477,7212,7439,45.9,51.7,50.7,46.7,2.838,2.926,2.997,2.922,2.17,12.4,24.1,76.0,1019.26,-32.4,0.24,1.23,21.1,32.4,26.2,0,no_anomaly,0.0,0,0,0,0,19.076034,72.8776964,16.8,0.0
2024-12-16T07:16:12.600Z,MISSION_0010,126,0,transit,SITE_BOM_001,19.0760354,72.8776951,16.8,184.15,3.066,0.16,3.98,1.0658,-1.4945,184.1546,-0.03636,0.0127,0.00977,0.99921,0.0849,0.0001,-9.7588,0.1386,0.7242,0.0043,0.1732,3,14,0.85,1.12,0.2,24.521,14.83,87.4,31.5,19230.0,7602,7477,7243,7373,50.2,46.5,52.2,52.5,2.828,2.781,2.666,2.854,1.93,9.8,24.0,76.7,1019.23,-28.92,-1.85,1.61,20.2,37.0,23.8,0,no_anomaly,0.0,0,0,0,0,19.0760354,72.8776951,16.8,0.0
2024-12-16T07:16:12.700Z,MISSION_0010,127,0,transit,SITE_BOM_001,19.0760287,72.8777006,16.8,184.27,3.009,0.035,3.19,2.6516,-2.9967,184.2668,-0.03781,0.02526,0.02409,0.99868,0.0252,-0.0322,-9.8055,0.0492,-0.0394,0.0436,0.1302,3,13,0.79,0.76,0.33,24.475,20.37,87.3,31.9,19215.0,7592,7436,7380,7209,48.1,47.9,50.2,47.3,2.876,3.086,2.61,2.491,1.92,5.7,24.4,76.8,1019.67,-25.72,1.08,1.23,17.7,36.5,23.6,0,no_anomaly,0.0,0,0,0,0,19.0760287,72.8777006,16.8,0.0
2024-12-16T07:16:12.800Z,MISSION_0010,128,0,transit,SITE_BOM_001,19.0760297,72.877699,16.8,185.85,2.578,0.046,3.31,-0.9497,-4.1166,185.8479,-0.05068,0.03629,-0.00644,0.99803,0.0131,-0.0455,-9.7344,-0.1117,-0.1582,-0.137,0.1752,3,10,0.72,1.22,0.38,24.404,18.52,87.3,31.5,19200.0,7395,7293,7508,7565,47.8,50.5,50.5,51.9,2.612,2.726,2.697,2.991,2.71,20.3,23.6,77.3,1019.38,-32.55,-0.41,1.49,20.0,33.9,26.9,0,no_anomaly,0.0,0,0,0,0,19.0760297,72.877699,16.8,0.0
2024-12-16T07:16:12.900Z,MISSION_0010,129,0,transit,SITE_BOM_001,19.0760341,72.8776995,16.8,187.83,2.855,0.05,3.79,0.6208,-3.2166,187.8253,-0.06836,0.02763,0.00732,0.99725,0.0016,-0.1108,-9.8637,0.1969,-1.2631,0.0218,0.079,3,15,0.71,0.95,0.25,24.553,20.46,87.2,32.7,19185.0,7599,7470,7569,7286,52.6,46.6,48.6,51.2,2.841,2.762,2.422,2.784,2.49,8.2,23.6,77.4,1019.24,-29.94,0.96,1.85,20.8,30.2,26.5,0,no_anomaly,0.0,0,0,0,0,19.0760341,72.8776995,16.8,0.0
