timestamp_utc,mission_id,frame_id,waypoint_id,inspection_phase,site_id,latitude_deg,longitude_deg,altitude_m,heading_deg,ground_speed_ms,vertical_speed_ms,distance_to_tower_m,roll_deg,pitch_deg,yaw_deg,quat_w,quat_x,quat_y,quat_z,accel_x_ms2,accel_y_ms2,accel_z_ms2,gyro_x_rads,gyro_y_rads,gyro_z_rads,vibration_level,gps_fix_type,gps_satellite_count,gps_hdop,gps_vdop,position_error_m,battery_voltage_v,battery_current_a,battery_remaining_pct,battery_temp_c,battery_capacity_mah,motor_fl_rpm,motor_fr_rpm,motor_rl_rpm,motor_rr_rpm,motor_fl_temp_c,motor_fr_temp_c,motor_rl_temp_c,motor_rr_temp_c,motor_fl_thrust_n,motor_fr_thrust_n,motor_rl_thrust_n,motor_rr_thrust_n,wind_speed_ms,wind_dir_deg,air_temp_c,humidity_pct,pressure_hpa,gimbal_pitch_deg,gimbal_roll_deg,zoom_factor,ir_temp_min_c,ir_temp_max_c,ir_temp_avg_c,anomaly_detected,anomaly_class,anomaly_confidence,anomaly_bbox_x,anomaly_bbox_y,anomaly_bbox_w,anomaly_bbox_h,anomaly_gps_lat,anomaly_gps_lon,anomaly_gps_alt_m,ir_temp_delta_c
2024-02-20T17:13:00.000Z,MISSION_0029,0,0,takeoff,SITE_LKN_010,26.8467029,80.9461955,1.5,35.37,0.491,0.1,0.6,-1.1002,-5.3417,35.3747,0.95179,0.00502,-0.04731,0.30305,0.0813,-0.0041,-9.8947,-0.1007,-0.4005,-0.3419,0.1434,3,16,0.65,1.07,0.29,24.728,17.77,96.5,45.1,21233.0,8675,8594,8762,8687,62.0,64.6,63.6,60.3,2.818,2.792,2.906,2.812,0.68,11.2,36.9,74.9,1016.78,-32.31,2.01,1.97,27.4,44.7,38.9,0,no_anomaly,0.0,0,0,0,0,26.8467029,80.9461955,1.5,0.0
2024-02-20T17:13:00.100Z,MISSION_0029,1,0,takeoff,SITE_LKN_010,26.8467021,80.9461958,3.0,35.41,0.524,0.07,0.52,-0.3121,-1.0306,35.4091,0.9526,0.00014,-0.0094,0.30407,-0.0081,0.0099,-9.736,0.5593,0.9412,-0.3922,0.063,3,10,0.7,1.09,0.23,24.739,19.74,96.4,45.4,21211.0,8658,8602,9149,8756,63.5,61.1,60.0,63.6,2.358,2.785,2.899,2.637,0.52,5.5,36.8,74.3,1016.39,-34.17,-1.58,1.83,31.0,44.3,38.7,0,no_anomaly,0.0,0,0,0,0,26.8467021,80.9461958,3.0,0.0
2024-02-20T17:13:00.200Z,MISSION_0029,2,0,takeoff,SITE_LKN_010,26.846708,80.9461942,4.5,35.72,0.359,0.121,1.09,-1.0053,-2.043,35.7159,0.95168,-0.00288,-0.01966,0.30645,-0.0192,0.0168,-9.7138,0.5846,0.6667,-0.0851,0.1762,3,16,0.73,1.18,0.41,24.79,13.73,96.3,45.0,21190.0,8986,8746,9076,8860,59.6,61.6,64.5,63.3,2.695,2.414,2.637,2.867,0.32,359.9,36.1,74.8,1016.51,-26.71,0.44,1.57,30.1,46.6,40.6,0,no_anomaly,0.0,0,0,0,0,26.846708,80.9461942,4.5,0.0
2024-02-20T17:13:00.300Z,MISSION_0029,3,0,takeoff,SITE_LKN_010,26.8467074,80.9461949,5.0,30.12,0.813,0.096,1.01,0.6305,-2.6733,30.1231,0.96534,0.01137,-0.0211,0.25991,-0.1095,0.043,-9.7193,0.8771,-0.3713,0.0303,0.0846,3,15,0.58,1.13,0.24,24.736,19.82,96.2,45.9,21168.0,8568,8569,8772,8653,63.8,64.7,61.5,59.9,2.711,2.77,2.859,2.706,1.45,7.3,36.7,74.4,1016.88,-33.2,-1.03,1.7,31.4,47.5,40.9,0,no_anomaly,0.0,0,0,0,0,26.8467074,80.9461949,5.0,0.0
2024-02-20T17:13:00.400Z,MISSION_0029,4,0,takeoff,SITE_LKN_010,26.8467106,80.9461884,5.0,33.12,0.963,0.117,1.75,3.5816,-1.7652,33.1166,0.95781,0.03434,-0.00585,0.28528,0.0165,0.0477,-9.855,0.1656,-0.6707,-0.4315,0.0469,3,11,0.69,0.66,0.29,24.778,22.53,96.1,44.6,21147.0,8582,8354,8650,8709,62.0,60.0,59.3,60.2,2.785,2.771,2.848,2.678,0.19,10.1,36.7,73.4,1016.68,-30.57,-0.47,1.61,31.6,47.0,39.4,0,no_anomaly,0.0,0,0,0,0,26.8467106,80.9461884,5.0,0.0
2024-02-20T17:13:00.500Z,MISSION_0029,5,0,takeoff,SITE_LKN_010,26.8467079,80.9461819,5.0,29.66,0.871,0.117,2.2,2.1273,-2.9982,29.6601,0.96607,0.02463,-0.02054,0.25629,-0.053,0.0582,-9.8683,0.8606,0.2864,-0.1413,0.1615,3,20,0.66,0.76,0.3,24.725,17.16,96.0,44.6,21125.0,8667,8818,8765,8480,67.4,61.2,61.0,64.2,2.787,2.905,2.822,2.896,0.95,359.2,37.1,74.1,1017.07,-26.64,-1.32,1.26,33.7,51.1,39.5,0,no_anomaly,0.0,0,0,0,0,26.8467079,80.9461819,5.0,0.0
2024-02-20T17:13:00.600Z,MISSION_0029,6,0,takeoff,SITE_LKN_010,26.8467056,80.94618,5.0,29.69,0.795,0.14,2.32,-0.269,-3.8913,29.6938,0.96607,0.00643,-0.03342,0.25601,0.0322,0.0501,-9.8553,0.0473,0.685,-0.3378,0.1397,3,10,0.59,0.92,0.2,24.632,15.51,95.9,45.4,21103.0,8581,8659,8681,8788,62.9,63.6,63.2,62.3,2.616,2.664,2.825,2.833,0.18,2.0,36.7,74.3,1016.76,-31.99,0.86,1.57,29.3,50.7,39.0,0,no_anomaly,0.0,0,0,0,0,26.8467056,80.94618,5.0,0.0
2024-02-20T17:13:00.700Z,MISSION_0029,7,0,takeoff,SITE_LKN_010,26.8467085,80.9461788,5.0,29.65,1.463,0.083,2.54,-2.0417,-3.0623,29.652,0.96633,-0.01038,-0.03038,0.25529,-0.0085,-0.0441,-9.8072,-0.8095,0.2943,0.0837,0.2038,3,20,0.81,0.91,0.33,24.72,18.93,95.8,45.1,21082.0,8675,8696,8691,8715,63.6,63.4,61.3,63.2,2.865,2.948,2.863,2.891,1.02,10.1,36.6,73.6,1016.87,-32.35,-0.72,1.56,32.4,48.7,36.0,0,no_anomaly,0.0,0,0,0,0,26.8467085,80.9461788,5.0,0.0
2024-02-20T17:13:00.800Z,MISSION_0029,8,0,takeoff,SITE_LKN_010,26.8467066,80.9461783,5.0,30.32,1.067,0.083,2.53,-1.827,-1.3588,30.3181,0.96506,-0.01229,-0.01561,0.26127,-0.0572,-0.001,-9.763,-0.6928,-0.1385,-0.0339,0.0805,3,20,0.71,0.83,0.21,24.589,14.42,95.7,45.2,21060.0,8515,8526,8638,8728,65.1,60.8,63.3,63.2,2.774,2.883,2.772,2.769,0.69,8.9,36.9,74.6,1016.64,-25.83,0.7,1.59,33.9,47.1,40.0,0,no_anomaly,0.0,0,0,0,0,26.8467066,80.9461783,5.0,0.0
2024-02-20T17:13:00.900Z,MISSION_0029,9,0,takeoff,SITE_LKN_010,26.8467105,80.946178,5.0,31.75,1.542,0.105,2.72,-1.3534,0.0009,31.7522,0.96179,-0.01136,-0.00322,0.27354,-0.0307,0.0081,-9.8867,-0.4709,0.3067,-0.0634,0.0953,3,18,0.6,0.6,0.36,24.703,15.03,95.6,44.1,21038.0,8857,8473,8911,8596,62.6,60.7,60.1,64.2,2.719,2.879,2.724,2.667,2.05,10.0,36.6,73.0,1016.65,-28.39,0.68,1.58,33.6,46.8,40.8,0,no_anomaly,0.0,0,0,0,0,26.8467105,80.946178,5.0,0.0
2024-02-20T17:13:01.000Z,MISSION_0029,10,0,takeoff,SITE_LKN_010,26.8467071,80.9461806,5.0,31.87,1.726,0.137,2.31,0.7679,-1.4163,31.8711,0.96145,0.00984,-0.01004,0.27461,-0.0097,-0.0023,-9.8598,-0.5259,-0.3196,0.1307,0.1531,3,10,0.74,1.01,0.44,24.68,22.69,95.5,44.7,21017.0,8672,8660,8909,8447,60.6,57.9,68.3,62.8,2.6,2.78,2.792,2.745,0.87,4.7,36.7,74.1,1016.77,-29.15,1.3,1.67,34.5,42.9,37.8,0,no_anomaly,0.0,0,0,0,0,26.8467071,80.9461806,5.0,0.0
2024-02-20T17:13:01.100Z,MISSION_0029,11,0,takeoff,SITE_LKN_010,26.8467009,80.9461787,5.0,31.18,2.151,0.193,2.38,3.7729,0.3005,31.184,0.9627,0.031,0.01137,0.26856,0.0029,-0.0217,-9.8591,-0.5156,0.0298,0.1265,0.1704,3,11,0.5,0.84,0.23,24.717,22.63,95.4,45.1,20995.0,8844,8814,8888,8704,61.3,57.2,64.8,61.8,2.758,2.574,2.887,2.811,0.0,6.8,36.6,74.3,1016.88,-34.26,0.09,1.66,32.6,43.7,40.3,0,no_anomaly,0.0,0,0,0,0,26.8467009,80.9461787,5.0,0.0
2024-02-20T17:13:01.200Z,MISSION_0029,12,0,takeoff,SITE_LKN_010,26.8467009,80.9461763,5.0,31.84,1.65,0.175,2.64,-2.3282,-2.7772,31.8375,0.96131,-0.01289,-0.02887,0.27366,0.0445,0.0671,-9.8641,-0.6609,0.497,0.0153,0.066,3,15,0.8,0.77,0.32,24.71,18.48,95.3,45.0,20974.0,8892,8507,8692,8869,59.8,67.1,62.8,62.8,2.774,2.888,3.074,3.061,0.55,4.5,36.8,75.5,1016.98,-36.23,-0.23,1.51,30.8,45.2,42.5,0,no_anomaly,0.0,0,0,0,0,26.8467009,80.9461763,5.0,0.0
2024-02-20T17:13:01.300Z,MISSION_0029,13,0,takeoff,SITE_LKN_010,26.8467077,80.9461775,5.0,30.48,2.291,0.095,2.64,-0.373,-3.0473,30.4768,0.96452,0.00385,-0.02651,0.26266,-0.0442,0.0698,-9.8011,-0.4997,0.1832,0.2218,0.1238,3,18,0.65,0.82,0.2,24.657,18.23,95.2,44.8,20952.0,8737,8787,8539,8644,61.3,62.1,62.7,63.5,2.666,2.895,2.474,2.645,0.0,1.9,36.7,73.9,1017.0,-29.65,-1.0,1.62,32.0,53.6,43.6,0,no_anomaly,0.0,0,0,0,0,26.8467077,80.9461775,5.0,0.0
2024-02-20T17:13:01.400Z,MISSION_0029,14,0,takeoff,SITE_LKN_010,26.8467061,80.9461802,5.0,30.22,2.211,0.148,2.3,1.0727,-4.2905,30.2241,0.96461,0.01879,-0.0337,0.26085,-0.0608,0.0102,-9.7592,0.0165,-0.7982,-0.5997,0.0406,3,10,0.77,0.86,0.29,24.601,23.24,95.1,44.4,20930.0,8790,8759,8847,8901,61.1,63.9,64.4,62.1,3.123,2.839,2.711,2.786,0.38,7.0,36.9,73.4,1017.09,-31.53,-0.63,1.0,31.7,44.3,39.5,0,no_anomaly,0.0,0,0,0,0,26.8467061,80.9461802,5.0,0.0
2024-02-20T17:13:01.500Z,MISSION_0029,15,0,takeoff,SITE_LKN_010,26.8466944,80.9461814,5.0,31.04,2.192,0.119,2.17,-1.8879,-3.1635,31.0427,0.96315,-0.00848,-0.031,0.26702,-0.0386,0.0317,-9.8816,0.3344,0.4763,0.503,0.2238,3,20,0.68,0.88,0.27,24.694,17.95,95.0,44.6,20909.0,8494,8416,8611,8648,60.6,60.7,64.6,58.9,3.003,2.561,2.718,2.891,0.0,2.5,36.8,73.1,1016.86,-23.3,0.35,1.64,32.1,47.8,40.3,0,no_anomaly,0.0,0,0,0,0,26.8466944,80.9461814,5.0,0.0
2024-02-20T17:13:01.600Z,MISSION_0029,16,0,takeoff,SITE_LKN_010,26.8466907,80.9461804,5.0,32.41,2.233,0.083,2.41,0.8425,-2.3352,32.4117,0.96,0.01274,-0.01752,0.27917,0.0473,0.0004,-9.8575,-0.4068,0.2748,-0.3079,0.1143,3,17,0.6,0.83,0.29,24.731,20.24,94.9,44.7,20887.0,8555,8567,8642,8832,59.0,63.8,65.1,61.3,2.604,2.789,2.77,2.929,0.79,16.0,36.5,74.4,1016.78,-30.84,-0.7,1.71,28.0,44.6,36.1,0,no_anomaly,0.0,0,0,0,0,26.8466907,80.9461804,5.0,0.0
2024-02-20T17:13:01.700Z,MISSION_0029,17,0,takeoff,SITE_LKN_010,26.8466888,80.9461754,5.0,31.3,2.601,0.135,3.01,3.0763,-2.2823,31.3011,0.96224,0.03121,-0.01193,0.27013,0.0489,-0.0923,-9.7825,0.1823,0.2606,0.2493,0.149,3,18,0.8,1.01,0.32,24.597,21.88,94.8,44.6,20866.0,8590,8682,8872,8763,62.4,60.9,60.9,60.7,2.686,2.717,2.786,2.753,0.29,8.4,36.8,74.2,1016.64,-29.39,-0.11,1.87,32.6,42.5,40.5,0,no_anomaly,0.0,0,0,0,0,26.8466888,80.9461754,5.0,0.0
2024-02-20T17:13:01.800Z,MISSION_0029,18,0,takeoff,SITE_LKN_010,26.8466913,80.9461757,5.0,31.96,2.458,0.105,2.87,3.1515,-1.4285,31.9595,0.96083,0.02986,-0.00441,0.2755,-0.0235,0.037,-9.8266,-0.3019,0.2809,0.0861,0.152,3,19,0.64,1.03,0.48,24.636,20.99,94.7,44.3,20844.0,8773,8962,8741,9039,62.0,62.5,65.0,62.3,2.995,3.128,2.542,2.751,0.59,10.7,36.6,74.3,1017.1,-29.08,0.23,1.32,34.5,45.9,40.2,0,no_anomaly,0.0,0,0,0,0,26.8466913,80.9461757,5.0,0.0
2024-02-20T17:13:01.900Z,MISSION_0029,19,0,takeoff,SITE_LKN_010,26.8466893,80.9461751,5.0,32.45,2.382,0.036,3.01,1.0332,-3.5691,32.449,0.95959,0.01735,-0.02738,0.27952,0.055,-0.0777,-9.8467,0.6894,-0.5349,0.2718,0.091,3,20,0.69,1.03,0.33,24.583,17.06,94.6,44.5,20822.0,8618,8747,8714,8895,61.1,59.5,62.6,63.7,2.803,2.818,2.787,2.867,0.43,357.9,36.9,74.0,1016.61,-28.83,-1.42,1.6,31.6,44.9,42.3,0,no_anomaly,0.0,0,0,0,0,26.8466893,80.9461751,5.0,0.0
2024-02-20T17:13:02.000Z,MISSION_0029,20,0,takeoff,SITE_LKN_010,26.8466895,80.9461702,5.0,29.77,2.463,0.12,3.52,-3.2896,-2.0259,29.766,0.96603,-0.0232,-0.02445,0.25621,0.1017,-0.005,-9.7646,-0.0555,-0.0208,-0.2518,0.1349,3,19,0.7,1.07,0.29,24.682,17.63,94.5,44.4,20801.0,9095,8503,8679,8601,60.7,58.3,62.0,62.8,2.871,2.643,2.741,2.98,0.48,13.3,36.8,74.1,1016.98,-30.85,0.24,2.0,33.2,51.1,37.8,0,no_anomaly,0.0,0,0,0,0,26.8466895,80.9461702,5.0,0.0
2024-02-20T17:13:02.100Z,MISSION_0029,21,0,takeoff,SITE_LKN_010,26.8466911,80.9461671,5.0,32.1,2.405,0.089,3.79,1.2038,-3.3884,32.0968,0.96047,0.01826,-0.02551,0.27661,0.0684,0.0261,-9.7774,0.5446,-0.04,0.228,0.2026,3,20,0.78,0.93,0.44,24.654,17.27,94.5,43.9,20779.0,8967,8424,8712,8621,62.1,61.6,64.7,61.9,2.572,2.949,2.655,2.869,0.59,13.0,36.8,73.7,1016.82,-28.96,-0.98,1.49,33.1,47.7,43.0,0,no_anomaly,0.0,0,0,0,0,26.8466911,80.9461671,5.0,0.0
2024-02-20T17:13:02.200Z,MISSION_0029,22,0,takeoff,SITE_LKN_010,26.8466895,80.9461643,5.0,34.96,2.702,0.076,4.14,-2.2632,-1.8004,34.9614,0.95361,-0.01412,-0.02091,0.29999,0.0668,-0.0064,-9.8136,0.9107,-0.2479,0.6825,0.0527,3,17,0.77,1.12,0.38,24.651,20.72,94.4,44.9,20757.0,8924,8475,8700,8614,62.6,60.6,62.5,63.4,2.766,2.894,2.632,2.809,0.54,22.5,36.5,74.6,1016.76,-32.13,-0.29,1.45,28.4,44.2,38.9,0,no_anomaly,0.0,0,0,0,0,26.8466895,80.9461643,5.0,0.0
2024-02-20T17:13:02.300Z,MISSION_0029,23,0,takeoff,SITE_LKN_010,26.8466902,80.9461618,5.0,33.25,2.708,0.129,4.4,0.2035,1.2955,33.2453,0.95815,-0.00153,0.01134,0.28603,0.0885,0.0299,-9.8123,-0.6688,0.5549,-0.1156,0.0443,3,15,0.61,1.06,0.2,24.687,15.62,94.3,44.6,20736.0,8859,8446,8722,8629,65.1,61.4,65.5,63.0,2.993,2.655,2.809,2.906,0.32,9.5,36.6,74.3,1016.75,-25.75,1.9,1.6,29.0,41.7,37.3,0,no_anomaly,0.0,0,0,0,0,26.8466902,80.9461618,5.0,0.0
2024-02-20T17:13:02.400Z,MISSION_0029,24,0,takeoff,SITE_LKN_010,26.8466869,80.9461587,5.0,31.4,2.924,0.057,4.82,3.1287,-0.2794,31.4032,0.9623,0.02694,0.00504,0.27059,-0.0079,0.1093,-9.852,0.1386,0.355,-0.0175,0.1221,3,16,0.55,0.76,0.21,24.636,11.1,94.2,45.2,20714.0,8285,8754,8629,8821,62.9,65.8,60.7,61.0,2.537,2.633,2.81,2.678,0.58,13.5,37.0,73.0,1016.99,-24.32,0.91,1.64,33.7,50.8,38.1,0,no_anomaly,0.0,0,0,0,0,26.8466869,80.9461587,5.0,0.0
2024-02-20T17:13:02.500Z,MISSION_0029,25,0,takeoff,SITE_LKN_010,26.8466856,80.9461566,5.0,29.73,2.535,0.126,5.09,0.125,-1.2045,29.7322,0.96647,0.00375,-0.00988,0.25656,0.0669,0.0153,-9.9044,-0.2878,0.1897,0.1675,0.063,3,11,0.7,0.78,0.26,24.669,18.62,94.1,44.8,20693.0,8629,8700,8761,8774,63.5,60.6,60.7,61.9,2.747,2.82,2.806,2.822,0.9,2.0,37.0,74.0,1016.75,-30.71,-0.27,1.24,34.0,44.8,42.9,0,no_anomaly,0.0,0,0,0,0,26.8466856,80.9461566,5.0,0.0
2024-02-20T17:13:02.600Z,MISSION_0029,26,0,takeoff,SITE_LKN_010,26.8466817,80.946155,5.0,28.28,2.674,0.092,5.41,-2.8231,-2.5869,28.2849,0.96929,-0.01837,-0.0279,0.24366,0.0919,-0.0751,-9.726,-0.2536,0.1243,-0.3063,0.1622,3,12,0.65,0.97,0.25,24.724,18.34,94.0,44.4,20671.0,8816,8612,8680,8509,61.9,60.6,62.0,62.8,2.788,2.874,2.842,2.83,0.65,1.7,36.7,73.8,1016.56,-32.61,-1.81,1.4,34.8,47.1,41.9,0,no_anomaly,0.0,0,0,0,0,26.8466817,80.946155,5.0,0.0
2024-02-20T17:13:02.700Z,MISSION_0029,27,0,takeoff,SITE_LKN_010,26.8466826,80.9461542,5.0,27.38,2.804,0.172,5.45,2.6305,0.3214,27.3814,0.97134,0.02164,0.00816,0.23655,0.1105,0.0451,-9.841,-0.5722,0.8692,-0.1342,0.0828,3,20,0.79,0.86,0.2,24.662,23.44,93.9,44.5,20649.0,8448,8770,8703,8781,61.8,61.2,58.1,65.7,2.722,2.854,3.207,2.902,0.56,8.8,36.6,74.7,1016.81,-26.65,-0.17,1.46,29.7,42.6,39.8,0,no_anomaly,0.0,0,0,0,0,26.8466826,80.9461542,5.0,0.0
2024-02-20T17:13:02.800Z,MISSION_0029,28,0,takeoff,SITE_LKN_010,26.8466836,80.9461596,5.0,28.99,2.942,-0.031,4.85,-1.1033,-1.3468,28.9901,0.96809,-0.00638,-0.01379,0.25016,0.062,-0.0147,-9.8183,-0.0094,-0.2372,0.0128,0.1989,3,10,0.67,0.97,0.2,24.627,22.78,93.8,44.8,20628.0,8676,8592,8861,8787,65.7,61.5,59.9,62.6,2.99,2.918,2.642,2.815,0.74,2.5,36.8,73.9,1016.66,-30.95,-0.62,1.62,33.1,42.8,35.9,0,no_anomaly,0.0,0,0,0,0,26.8466836,80.9461596,5.0,0.0
2024-02-20T17:13:02.900Z,MISSION_0029,29,0,takeoff,SITE_LKN_010,26.8466807,80.946161,5.0,30.75,3.175,0.141,4.84,1.4553,-3.5764,30.7492,0.96356,0.02051,-0.02672,0.26536,-0.0161,-0.0252,-9.8619,0.1241,-0.2281,0.5411,0.097,3,15,0.73,0.95,0.24,24.642,21.72,93.7,44.9,20606.0,8839,8690,8742,8521,63.7,63.9,63.7,60.2,2.743,2.773,2.762,2.488,0.79,6.9,37.0,74.8,1016.74,-29.36,0.44,1.7,29.5,46.4,40.6,0,no_anomaly,0.0,0,0,0,0,26.8466807,80.946161,5.0,0.0
2024-02-20T17:13:03.000Z,MISSION_0029,30,0,takeoff,SITE_LKN_010,26.8466794,80.946162,5.0,29.59,3.14,0.079,4.81,1.8636,-0.8052,29.5927,0.96666,0.01752,-0.00264,0.25545,-0.0229,0.0038,-9.8008,0.5927,-0.9441,-0.2145,0.0822,3,11,0.53,0.69,0.26,24.666,24.7,93.6,45.7,20584.0,8476,8719,8642,8464,59.9,60.3,63.3,60.1,2.699,2.781,2.657,2.457,0.15,6.1,36.9,74.1,1016.71,-30.78,0.59,1.0,30.5,46.6,39.0,0,no_anomaly,0.0,0,0,0,0,26.8466794,80.946162,5.0,0.0
2024-02-20T17:13:03.100Z,MISSION_0029,31,0,takeoff,SITE_LKN_010,26.8466831,80.9461622,5.0,32.16,3.218,0.081,4.61,1.1693,-0.547,32.1603,0.9608,0.01113,-0.00176,0.27701,-0.1021,-0.0643,-9.8376,0.6263,0.2487,0.1108,0.096,3,18,0.53,0.97,0.2,24.656,14.86,93.5,45.0,20563.0,8424,8864,8786,8674,63.7,61.9,64.1,59.7,2.778,2.676,2.676,2.858,0.0,10.4,36.6,74.6,1016.8,-24.68,1.66,1.11,32.8,46.9,38.4,0,no_anomaly,0.0,0,0,0,0,26.8466831,80.9461622,5.0,0.0
2024-02-20T17:13:03.200Z,MISSION_0029,32,0,takeoff,SITE_LKN_010,26.8466826,80.9461632,5.0,30.4,2.89,0.042,4.53,0.157,-4.3563,30.3954,0.96432,0.01128,-0.03632,0.26201,-0.0151,0.0612,-9.8947,0.0041,0.0457,-0.125,0.0814,3,18,0.52,1.09,0.22,24.591,17.62,93.4,45.2,20541.0,8563,8402,8764,8591,58.5,63.7,63.0,62.5,2.772,2.678,3.036,2.881,0.13,16.5,36.9,73.7,1016.65,-32.25,1.97,1.55,33.8,44.7,41.2,0,no_anomaly,0.0,0,0,0,0,26.8466826,80.9461632,5.0,0.0
2024-02-20T17:13:03.300Z,MISSION_0029,33,0,takeoff,SITE_LKN_010,26.8466844,80.9461628,5.0,28.92,2.763,0.102,4.49,2.82,-1.5209,28.9224,0.96786,0.02714,-0.0067,0.24994,0.0641,0.0049,-9.8432,0.1638,-0.6196,0.0845,0.1255,3,11,0.74,0.92,0.27,24.628,16.78,93.3,45.0,20520.0,8610,8840,8841,8725,59.6,66.1,62.2,61.6,2.694,2.681,2.966,2.831,0.09,0.2,37.1,73.4,1016.72,-34.14,1.23,1.48,30.5,49.9,41.8,0,no_anomaly,0.0,0,0,0,0,26.8466844,80.9461628,5.0,0.0
2024-02-20T17:13:03.400Z,MISSION_0029,34,0,takeoff,SITE_LKN_010,26.8466826,80.9461657,5.0,29.58,2.735,0.092,4.28,-0.9473,-4.8009,29.5755,0.96608,0.0027,-0.0426,0.25467,0.0405,-0.065,-9.8526,-0.3486,-0.0384,-0.022,0.0725,3,15,0.78,0.97,0.33,24.636,20.36,93.2,45.1,20498.0,8506,8734,8816,8665,63.0,60.6,63.4,61.7,3.15,2.987,2.595,3.114,0.0,358.6,36.5,74.3,1016.83,-31.5,-0.37,1.7,35.4,47.2,39.2,0,no_anomaly,0.0,0,0,0,0,26.8466826,80.9461657,5.0,0.0
2024-02-20T17:13:03.500Z,MISSION_0029,35,0,takeoff,SITE_LKN_010,26.8466863,80.946166,5.0,30.43,2.8,0.113,4.08,-2.4662,-3.2863,30.4346,0.96448,-0.01323,-0.03331,0.26172,0.0234,0.0046,-9.8227,0.4907,0.3295,0.3672,0.1248,3,11,0.63,1.02,0.33,24.508,17.06,93.1,45.0,20476.0,8654,8771,8647,8400,62.5,61.5,61.0,62.1,3.002,2.542,2.781,2.582,0.59,13.0,37.0,74.3,1016.47,-29.9,0.75,1.54,35.0,50.7,41.8,0,no_anomaly,0.0,0,0,0,0,26.8466863,80.946166,5.0,0.0
2024-02-20T17:13:03.600Z,MISSION_0029,36,0,takeoff,SITE_LKN_010,26.8466887,80.9461652,5.0,31.21,2.968,0.076,4.07,-0.7631,1.1382,31.2073,0.96306,-0.00908,0.00777,0.26903,0.0838,-0.04,-9.8752,0.0111,-0.3585,-0.267,0.0971,3,16,0.6,0.88,0.23,24.614,26.87,93.0,44.6,20455.0,8527,8807,8770,8678,62.1,58.3,61.1,60.5,2.929,2.893,2.937,2.895,0.23,358.4,37.1,73.9,1016.54,-27.86,-0.48,1.5,31.2,44.3,38.9,0,no_anomaly,0.0,0,0,0,0,26.8466887,80.9461652,5.0,0.0
2024-02-20T17:13:03.700Z,MISSION_0029,37,0,takeoff,SITE_LKN_010,26.8466883,80.9461636,5.0,32.3,2.974,0.033,4.26,1.8182,-2.3465,32.3025,0.96012,0.02093,-0.01525,0.27839,-0.0411,-0.0482,-9.7888,0.1949,0.0395,-0.2929,0.1672,3,17,0.66,0.81,0.2,24.732,21.08,92.9,45.0,20433.0,8641,8481,8695,8687,60.8,61.5,64.2,60.8,2.733,2.814,2.896,2.578,0.0,10.3,37.0,74.6,1016.95,-26.55,1.08,1.65,29.5,48.3,41.0,0,no_anomaly,0.0,0,0,0,0,26.8466883,80.9461636,5.0,0.0
2024-02-20T17:13:03.800Z,MISSION_0029,38,0,takeoff,SITE_LKN_010,26.8466883,80.9461619,5.0,29.53,3.067,0.092,4.44,-1.9469,-1.7776,29.5345,0.96678,-0.01247,-0.01933,0.25457,-0.0273,0.0763,-9.7678,-0.3783,-0.9197,0.0307,0.1594,3,15,0.64,0.9,0.32,24.622,18.5,92.8,44.7,20411.0,8877,8736,8944,8620,61.7,64.9,63.5,59.5,2.871,2.895,2.963,2.673,0.47,10.3,36.6,73.6,1016.85,-32.82,-0.19,1.92,31.4,50.7,41.0,0,no_anomaly,0.0,0,0,0,0,26.8466883,80.9461619,5.0,0.0
2024-02-20T17:13:03.900Z,MISSION_0029,39,0,takeoff,SITE_LKN_010,26.8466849,80.9461615,5.0,29.53,3.347,0.168,4.6,-0.4404,-1.2404,29.5266,0.96693,-0.00096,-0.01145,0.25477,-0.0025,-0.0162,-9.7046,0.0869,-0.335,0.0443,0.1253,3,13,0.79,0.83,0.36,24.622,15.89,92.7,45.4,20390.0,8941,8776,8658,8599,61.8,60.1,60.9,61.8,2.822,2.757,2.792,2.797,0.0,2.5,36.5,74.1,1016.65,-24.68,0.44,1.25,27.2,50.1,37.9,0,no_anomaly,0.0,0,0,0,0,26.8466849,80.9461615,5.0,0.0
2024-02-20T17:13:04.000Z,MISSION_0029,40,0,takeoff,SITE_LKN_010,26.8466811,80.9461558,5.0,31.69,3.753,0.18,5.35,-1.2008,-0.0342,31.6871,0.96196,-0.01,-0.00315,0.27299,0.0732,0.0201,-9.7802,0.1189,0.092,-0.2054,0.044,3,12,0.68,1.08,0.41,24.684,21.3,92.6,45.4,20368.0,8710,8773,8520,8584,59.8,62.5,62.2,61.4,2.746,2.679,2.977,2.962,0.8,9.2,36.7,73.7,1016.69,-31.4,-1.55,1.66,29.1,48.1,39.7,0,no_anomaly,0.0,0,0,0,0,26.8466811,80.9461558,5.0,0.0
2024-02-20T17:13:04.100Z,MISSION_0029,41,0,takeoff,SITE_LKN_010,26.8466817,80.946156,5.0,32.5,3.297,0.133,5.31,1.1994,-3.0274,32.4987,0.95959,0.01744,-0.02243,0.27997,-0.0529,-0.0033,-9.8803,-0.51,0.6817,0.0801,0.0381,3,12,0.66,0.79,0.32,24.601,18.32,92.5,45.1,20347.0,8792,8595,8688,8925,59.6,65.0,61.3,62.3,2.851,2.931,2.666,2.834,0.0,6.7,36.5,73.7,1016.88,-30.74,-1.29,1.51,30.2,44.3,37.9,0,no_anomaly,0.0,0,0,0,0,26.8466817,80.946156,5.0,0.0
2024-02-20T17:13:04.200Z,MISSION_0029,42,0,takeoff,SITE_LKN_010,26.8466826,80.9461532,5.0,32.26,3.116,0.16,5.56,3.7622,-1.4614,32.2556,0.95993,0.03507,-0.00313,0.27801,-0.0057,-0.0533,-9.7961,0.2885,-0.7845,0.264,0.0886,3,14,0.67,1.02,0.22,24.678,18.11,92.4,45.1,20325.0,9118,8825,8759,8837,60.3,63.4,63.0,61.9,2.729,2.751,2.956,2.594,1.46,10.2,36.8,73.7,1016.98,-31.74,-0.67,1.65,34.6,42.9,41.7,0,no_anomaly,0.0,0,0,0,0,26.8466826,80.9461532,5.0,0.0
2024-02-20T17:13:04.300Z,MISSION_0029,43,0,takeoff,SITE_LKN_010,26.8466878,80.9461529,5.0,32.84,2.987,0.169,5.41,2.6074,-2.1573,32.8358,0.95869,0.02714,-0.01162,0.28293,-0.0507,0.0487,-9.836,0.4066,-0.4239,-0.0748,0.1003,3,16,0.69,0.77,0.37,24.529,23.33,92.3,45.2,20303.0,8705,8164,8714,8693,65.8,63.1,61.6,63.0,2.758,3.063,2.884,2.929,0.0,8.1,36.9,74.1,1016.54,-25.76,-0.12,1.29,35.1,49.1,38.1,0,no_anomaly,0.0,0,0,0,0,26.8466878,80.9461529,5.0,0.0
2024-02-20T17:13:04.400Z,MISSION_0029,44,0,transit,SITE_LKN_010,26.8466879,80.9461585,5.5,34.59,2.716,0.087,4.81,-3.7963,-4.7007,34.5916,0.95386,-0.01941,-0.04897,0.29559,0.1049,0.0028,-9.7878,0.3774,0.2863,0.4207,0.1168,3,10,0.68,1.18,0.2,24.587,19.01,92.2,44.5,20282.0,8652,8778,8720,8790,62.5,61.6,61.7,58.9,2.803,2.784,2.943,2.7,0.03,5.5,36.6,74.3,1016.59,-28.57,-0.09,1.86,33.5,52.1,38.6,0,no_anomaly,0.0,0,0,0,0,26.8466879,80.9461585,5.5,0.0
2024-02-20T17:13:04.500Z,MISSION_0029,45,0,transit,SITE_LKN_010,26.8466898,80.946157,6.0,35.09,2.633,0.12,4.92,0.3374,-0.5855,35.0926,0.95345,0.00435,-0.00398,0.30149,0.0036,0.0642,-9.8377,-1.0498,0.0828,0.431,0.113,3,11,0.84,0.73,0.26,24.554,19.41,92.1,45.6,20260.0,8503,8487,8794,8690,57.4,63.6,60.7,60.3,2.856,3.051,2.866,2.667,0.63,4.8,36.6,72.8,1016.97,-27.97,1.43,1.52,31.0,49.9,38.8,0,no_anomaly,0.0,0,0,0,0,26.8466898,80.946157,6.0,0.0
2024-02-20T17:13:04.600Z,MISSION_0029,46,0,transit,SITE_LKN_010,26.8466919,80.9461617,6.5,31.13,2.613,0.11,4.35,0.1715,-0.7151,31.1344,0.96329,0.00312,-0.00561,0.26837,-0.0193,-0.032,-9.7412,0.3131,0.1514,-0.1825,0.148,3,16,0.65,0.79,0.28,24.461,17.36,92.0,45.0,20238.0,8790,8849,8658,8520,60.8,63.7,63.3,61.8,3.09,2.879,2.854,2.782,0.79,5.8,36.8,74.3,1016.76,-32.69,0.9,1.16,30.6,44.7,38.4,0,no_anomaly,0.0,0,0,0,0,26.8466919,80.9461617,6.5,0.0
2024-02-20T17:13:04.700Z,MISSION_0029,47,0,transit,SITE_LKN_010,26.8466926,80.946161,7.0,27.63,2.234,0.166,4.42,2.0209,-2.0597,27.6273,0.97069,0.02141,-0.01324,0.239,0.0467,-0.1049,-9.7858,0.0119,0.2208,-0.1899,0.0378,3,18,0.78,0.89,0.2,24.553,15.29,91.9,44.3,20217.0,8710,8909,8837,8446,60.9,62.9,62.8,62.8,2.847,3.072,2.98,2.867,0.35,16.5,36.5,74.3,1016.68,-32.43,-0.31,1.5,30.4,45.9,39.6,0,no_anomaly,0.0,0,0,0,0,26.8466926,80.946161,7.0,0.0
2024-02-20T17:13:04.800Z,MISSION_0029,48,0,transit,SITE_LKN_010,26.8466906,80.9461624,7.5,29.62,2.678,-0.0,4.31,0.2362,-3.9736,29.6186,0.96618,0.01085,-0.03299,0.25552,0.0127,0.0585,-9.817,0.2685,-0.0255,0.1579,0.1498,3,11,0.73,0.81,0.26,24.589,18.16,91.8,44.1,20195.0,8820,8451,8574,8743,64.9,59.5,63.5,60.2,2.943,2.782,3.102,2.726,0.75,5.5,37.2,74.7,1016.64,-24.65,-0.21,2.18,28.8,44.4,39.5,0,no_anomaly,0.0,0,0,0,0,26.8466906,80.9461624,7.5,0.0
2024-02-20T17:13:04.900Z,MISSION_0029,49,0,transit,SITE_LKN_010,26.846687,80.9461647,8.0,31.32,2.478,0.124,4.19,0.9785,0.2983,31.3239,0.96284,0.00752,0.00481,0.26993,0.0199,-0.0039,-9.755,-0.4133,-0.3499,-0.2947,0.1549,3,13,0.52,0.86,0.24,24.521,18.14,91.7,44.8,20174.0,8527,8704,8910,8726,63.6,62.1,60.1,61.4,3.0,2.875,2.567,2.679,1.16,0.8,36.7,73.5,1016.72,-28.01,-1.72,1.62,32.8,49.0,37.0,0,no_anomaly,0.0,0,0,0,0,26.846687,80.9461647,8.0,0.0
2024-02-20T17:13:05.000Z,MISSION_0029,50,0,transit,SITE_LKN_010,26.8466893,80.9461677,8.5,31.73,2.806,0.104,3.79,0.0795,-2.4287,31.7296,0.96169,0.00646,-0.0202,0.27332,0.1246,-0.0173,-9.76,-0.6271,-0.3247,0.4725,0.0893,3,19,0.76,0.7,0.37,24.581,16.7,91.6,44.1,20152.0,8702,8639,8763,8874,64.4,63.1,63.1,61.1,2.524,3.093,2.724,2.563,0.0,2.1,37.1,74.2,1016.52,-30.58,0.68,1.88,32.0,48.0,42.3,0,no_anomaly,0.0,0,0,0,0,26.8466893,80.9461677,8.5,0.0
2024-02-20T17:13:05.100Z,MISSION_0029,51,0,transit,SITE_LKN_010,26.8466901,80.9461622,9.0,35.39,2.563,0.098,4.35,0.9504,-1.6225,35.3869,0.95253,0.0122,-0.01097,0.304,0.0202,-0.0404,-9.8241,-0.5919,0.0925,0.2365,0.1064,3,20,0.8,0.83,0.25,24.611,20.44,91.5,44.7,20130.0,8817,8912,8871,8715,64.9,59.2,57.7,57.9,2.532,2.746,2.985,3.151,0.24,15.8,36.5,74.4,1016.9,-25.91,-0.63,1.35,33.0,44.0,40.7,0,no_anomaly,0.0,0,0,0,0,26.8466901,80.9461622,9.0,0.0
2024-02-20T17:13:05.200Z,MISSION_0029,52,0,transit,SITE_LKN_010,26.8466907,80.9461629,9.5,34.46,2.618,0.173,4.26,-1.0991,-1.8509,34.4604,0.955,-0.00438,-0.01827,0.29601,-0.0195,0.0484,-9.8237,-0.8213,-1.0584,-0.2356,0.168,3,14,0.71,1.03,0.35,24.56,18.4,91.4,45.0,20109.0,8679,9016,8850,8844,59.1,59.7,62.1,62.0,2.837,2.569,2.784,2.665,1.44,7.4,36.8,73.1,1016.81,-29.11,1.32,1.28,33.5,41.5,38.5,0,no_anomaly,0.0,0,0,0,0,26.8466907,80.9461629,9.5,0.0
2024-02-20T17:13:05.300Z,MISSION_0029,53,0,transit,SITE_LKN_010,26.8466893,80.9461642,10.0,36.84,2.368,0.077,4.15,-1.3016,-3.5219,36.8402,0.94837,-0.00106,-0.03274,0.31548,0.01,-0.0051,-9.8413,0.6073,0.1642,-0.1894,0.089,3,18,0.84,0.99,0.43,24.595,21.79,91.3,45.5,20087.0,8578,8560,8876,8862,61.2,60.1,61.4,62.5,2.99,2.667,2.967,2.903,0.0,1.9,36.7,73.4,1016.82,-27.25,0.22,1.59,30.4,45.2,39.5,0,no_anomaly,0.0,0,0,0,0,26.8466893,80.9461642,10.0,0.0
2024-02-20T17:13:05.400Z,MISSION_0029,54,0,transit,SITE_LKN_010,26.8466929,80.9461673,10.5,40.01,2.038,0.148,3.73,0.112,-0.3628,40.0122,0.93965,0.002,-0.00264,0.34212,0.0264,-0.0197,-9.8258,-0.216,0.4945,0.0285,0.1087,3,18,0.64,1.05,0.26,24.549,22.96,91.2,45.0,20065.0,8722,8679,8814,8451,61.9,63.6,58.4,60.3,2.836,2.998,2.646,2.852,0.21,17.5,36.6,73.7,1016.6,-24.13,0.17,1.45,31.9,44.5,38.6,0,no_anomaly,0.0,0,0,0,0,26.8466929,80.9461673,10.5,0.0
2024-02-20T17:13:05.500Z,MISSION_0029,55,0,transit,SITE_LKN_010,26.8466906,80.9461595,11.0,39.51,1.982,0.036,4.63,2.7924,-1.3001,39.5133,0.9407,0.02676,-0.00244,0.33816,0.0169,0.0245,-9.7928,1.0758,0.2886,-0.3539,0.1273,3,17,0.63,0.74,0.37,24.548,19.85,91.1,45.1,20044.0,8606,8590,8730,8535,64.3,63.2,61.7,65.6,2.963,2.816,2.69,2.789,0.0,12.1,37.0,73.8,1016.61,-29.0,-0.29,1.29,29.8,49.6,41.0,0,no_anomaly,0.0,0,0,0,0,26.8466906,80.9461595,11.0,0.0
2024-02-20T17:13:05.600Z,MISSION_0029,56,0,transit,SITE_LKN_010,26.8466925,80.9461574,11.5,36.4,2.426,0.108,4.81,-2.5027,-4.1407,36.3963,0.94938,-0.00945,-0.04113,0.31128,0.0363,-0.0093,-9.8615,0.3261,0.3815,-0.0403,0.1926,3,12,0.64,0.82,0.24,24.645,21.16,91.0,44.8,20022.0,8602,8715,8949,8965,60.4,58.4,61.1,62.9,3.02,2.758,2.663,2.913,0.91,17.1,36.8,74.7,1016.9,-34.59,-0.77,1.25,31.9,47.6,41.0,0,no_anomaly,0.0,0,0,0,0,26.8466925,80.9461574,11.5,0.0
2024-02-20T17:13:05.700Z,MISSION_0029,57,0,transit,SITE_LKN_010,26.8466981,80.9461576,12.0,37.18,2.064,0.162,4.72,-1.3442,-3.2873,37.1799,0.94748,-0.00197,-0.03092,0.31832,0.0425,0.0039,-9.8216,0.8304,-0.0978,0.1237,0.1101,3,16,0.55,0.78,0.25,24.537,20.0,90.9,45.0,20001.0,9092,8749,8942,8651,63.6,62.6,59.1,60.3,2.875,2.68,2.875,2.889,0.0,8.3,36.7,74.0,1016.25,-28.23,0.13,1.17,33.2,51.0,40.7,0,no_anomaly,0.0,0,0,0,0,26.8466981,80.9461576,12.0,0.0
2024-02-20T17:13:05.800Z,MISSION_0029,58,0,transit,SITE_LKN_010,26.8466972,80.9461581,12.5,37.56,1.978,0.097,4.67,1.8567,-1.9949,37.5592,0.94641,0.02094,-0.01126,0.3221,-0.0421,-0.0688,-9.816,0.3557,0.6071,-0.2202,0.2231,3,13,0.85,1.07,0.29,24.621,19.34,90.8,45.1,19979.0,8873,8596,8884,8866,65.1,60.2,61.7,61.7,2.584,2.81,2.813,2.468,1.09,4.8,36.8,74.7,1016.82,-33.47,0.41,1.34,33.3,48.1,37.3,0,no_anomaly,0.0,0,0,0,0,26.8466972,80.9461581,12.5,0.0
2024-02-20T17:13:05.900Z,MISSION_0029,59,0,transit,SITE_LKN_010,26.8466955,80.946161,13.0,36.85,1.841,0.109,4.37,-0.0766,-0.9063,36.848,0.94872,0.00187,-0.00771,0.31603,0.0762,-0.0542,-9.8238,-0.5676,0.2661,-0.4953,0.1733,3,19,0.85,0.86,0.33,24.433,13.39,90.7,44.7,19957.0,8627,8763,8827,8534,59.9,64.7,62.8,60.3,2.477,2.881,3.002,2.976,0.72,6.4,36.5,74.0,1016.79,-28.11,-1.19,1.0,34.0,42.0,37.1,0,no_anomaly,0.0,0,0,0,0,26.8466955,80.946161,13.0,0.0
2024-02-20T17:13:06.000Z,MISSION_0029,60,0,transit,SITE_LKN_010,26.8466918,80.9461603,13.5,37.82,1.69,0.121,4.51,-1.8682,0.6148,37.8231,0.94585,-0.01716,-0.00021,0.32414,0.0876,0.0068,-9.7479,0.3087,0.1895,-0.0539,0.1877,3,18,0.85,1.08,0.31,24.605,20.32,90.6,44.9,19936.0,8586,8902,8577,8851,63.2,59.6,60.5,62.2,2.923,2.775,2.866,2.658,0.12,7.3,36.8,74.1,1016.52,-31.63,0.32,1.51,33.4,43.8,38.7,0,no_anomaly,0.0,0,0,0,0,26.8466918,80.9461603,13.5,0.0
2024-02-20T17:13:06.100Z,MISSION_0029,61,0,transit,SITE_LKN_010,26.8466928,80.9461601,14.0,38.15,1.321,0.195,4.52,0.912,-1.9519,38.1453,0.94489,0.01309,-0.0135,0.32684,0.0508,0.0642,-9.7257,-0.1703,-0.7482,0.1221,0.0507,3,14,0.8,0.95,0.33,24.536,20.79,90.5,44.3,19914.0,8669,8944,8733,9069,63.7,62.8,64.8,63.2,2.791,3.085,2.906,2.971,0.9,8.0,36.7,75.0,1016.57,-34.81,-0.09,2.13,31.8,44.9,36.2,0,no_anomaly,0.0,0,0,0,0,26.8466928,80.9461601,14.0,0.0
2024-02-20T17:13:06.200Z,MISSION_0029,62,0,transit,SITE_LKN_010,26.8466941,80.9461627,14.5,37.57,1.368,0.021,4.21,4.3144,-2.5258,37.569,0.94557,0.04272,-0.00873,0.32249,-0.0573,-0.0038,-9.8632,-0.1655,-0.332,-0.5492,0.1178,3,18,0.54,0.78,0.2,24.546,12.35,90.4,46.1,19892.0,8511,8846,8601,8806,61.6,62.5,61.2,57.5,2.484,2.791,2.907,2.885,0.62,5.0,37.1,73.9,1016.5,-35.28,2.2,1.09,30.6,52.2,42.2,0,no_anomaly,0.0,0,0,0,0,26.8466941,80.9461627,14.5,0.0
2024-02-20T17:13:06.300Z,MISSION_0029,63,0,transit,SITE_LKN_010,26.8466949,80.9461627,15.0,37.91,0.962,0.099,4.19,-0.914,-1.3617,37.9063,0.94572,-0.00368,-0.01383,0.32467,0.0585,-0.0033,-9.7855,0.4098,0.7078,0.008,0.1864,3,16,0.51,1.06,0.26,24.622,25.37,90.3,45.4,19871.0,8781,8892,8965,8761,61.4,59.7,58.8,63.7,2.774,2.673,2.773,2.536,1.71,8.7,36.8,74.4,1016.96,-29.65,-1.22,1.55,30.7,43.5,35.5,0,no_anomaly,0.0,0,0,0,0,26.8466949,80.9461627,15.0,0.0
2024-02-20T17:13:06.400Z,MISSION_0029,64,0,transit,SITE_LKN_010,26.8466893,80.946163,15.5,39.3,0.982,0.155,4.29,0.2113,-1.4091,39.3031,0.94167,0.00587,-0.01096,0.33629,0.0373,0.0433,-9.8162,0.5179,0.151,-0.3071,0.0552,3,15,0.73,0.96,0.34,24.486,20.42,90.2,44.5,19849.0,8826,8806,8755,8789,62.8,64.5,62.7,61.6,2.668,2.786,2.539,3.114,0.34,2.8,36.6,75.0,1016.95,-29.17,0.25,1.77,31.9,45.8,37.7,0,no_anomaly,0.0,0,0,0,0,26.8466893,80.946163,15.5,0.0
2024-02-20T17:13:06.500Z,MISSION_0029,65,0,transit,SITE_LKN_010,26.8466924,80.9461604,16.0,41.45,1.305,-0.015,4.49,-0.4094,-2.6086,41.4543,0.93506,0.00472,-0.02255,0.35375,0.0668,-0.0099,-9.796,0.4367,0.1782,0.1402,0.0,3,12,0.53,0.94,0.34,24.567,18.95,90.1,44.3,19828.0,8887,8710,8660,8892,63.9,62.3,61.1,62.2,2.912,2.706,2.678,2.725,0.61,11.6,37.3,74.7,1016.65,-29.86,0.71,1.49,29.3,43.4,37.9,0,no_anomaly,0.0,0,0,0,0,26.8466924,80.9461604,16.0,0.0
2024-02-20T17:13:06.600Z,MISSION_0029,66,0,transit,SITE_LKN_010,26.8466898,80.9461578,16.5,41.34,1.187,0.045,4.84,0.1369,-4.948,41.3399,0.93474,0.01635,-0.03997,0.3527,-0.0481,0.0189,-9.8739,-0.1911,-0.3908,0.2745,0.0551,3,19,0.68,0.78,0.29,24.472,19.69,90.0,44.9,19806.0,8802,8737,8911,8518,61.5,62.2,60.9,64.2,3.01,3.138,2.834,2.48,0.88,5.0,36.6,74.6,1016.49,-34.49,-0.07,1.91,30.4,42.3,38.8,0,no_anomaly,0.0,0,0,0,0,26.8466898,80.9461578,16.5,0.0
2024-02-20T17:13:06.700Z,MISSION_0029,67,0,transit,SITE_LKN_010,26.8466885,80.9461574,17.0,39.9,0.94,0.067,4.91,0.3173,-2.7538,39.9007,0.93969,0.0108,-0.02164,0.34117,0.0476,-0.0186,-9.8683,0.698,0.2014,0.1911,0.0611,3,10,0.7,1.07,0.28,24.568,21.23,89.9,45.9,19784.0,8772,8783,8473,8505,60.8,60.4,59.2,64.2,2.521,2.514,2.657,2.712,0.12,15.9,36.5,74.8,1016.43,-35.2,0.76,1.87,30.9,48.3,37.6,0,no_anomaly,0.0,0,0,0,0,26.8466885,80.9461574,17.0,0.0
2024-02-20T17:13:06.800Z,MISSION_0029,68,0,transit,SITE_LKN_010,26.8466899,80.9461551,17.5,39.47,0.649,0.203,5.12,0.1401,-0.3877,39.4685,0.94126,0.00229,-0.00277,0.33766,-0.0007,-0.0684,-9.7912,0.126,0.7871,0.5665,0.1755,3,17,0.6,0.83,0.2,24.516,18.84,89.8,44.4,19763.0,9049,8735,8675,8757,60.6,64.0,63.4,58.7,2.845,2.829,2.901,2.59,0.76,8.7,36.7,74.2,1016.4,-34.0,0.4,1.63,34.0,46.7,40.3,0,no_anomaly,0.0,0,0,0,0,26.8466899,80.9461551,17.5,0.0
2024-02-20T17:13:06.900Z,MISSION_0029,69,0,transit,SITE_LKN_010,26.8466867,80.9461523,18.0,40.71,0.471,0.191,5.52,1.8255,-3.1812,40.7115,0.93692,0.02458,-0.02048,0.34808,-0.0026,0.0432,-9.7566,0.3782,-0.1459,0.0479,0.1503,3,10,0.86,0.73,0.25,24.459,24.99,89.7,45.2,19741.0,8602,8747,8637,8690,62.2,55.5,59.5,63.4,2.501,2.891,2.877,2.676,0.88,13.7,36.6,73.8,1016.76,-32.86,-0.79,1.0,31.9,49.8,37.2,0,no_anomaly,0.0,0,0,0,0,26.8466867,80.9461523,18.0,0.0
2024-02-20T17:13:07.000Z,MISSION_0029,70,0,transit,SITE_LKN_010,26.8466844,80.9461521,18.5,42.65,0.259,0.113,5.6,-1.3625,-3.0773,42.6463,0.93126,-0.00131,-0.02933,0.36317,-0.0245,0.0197,-9.8255,-0.4689,0.3485,0.6201,0.0468,3,12,0.59,1.23,0.26,24.475,19.34,89.6,45.6,19720.0,8835,8959,8850,8773,61.2,59.6,62.1,62.3,2.728,2.696,2.644,2.748,0.53,3.6,36.6,75.2,1016.66,-26.6,-0.04,1.96,31.9,45.5,37.6,0,no_anomaly,0.0,0,0,0,0,26.8466844,80.9461521,18.5,0.0
2024-02-20T17:13:07.100Z,MISSION_0029,71,0,transit,SITE_LKN_010,26.8466837,80.9461556,19.0,43.47,0.322,0.208,5.27,0.3288,-0.8319,43.4749,0.92885,0.00535,-0.00568,0.37036,0.0039,0.0599,-9.7202,0.1491,0.8172,-0.3011,0.067,3,18,0.69,0.95,0.36,24.524,19.46,89.5,45.2,19698.0,8755,8839,8731,8680,62.8,62.9,64.0,63.2,3.052,2.917,2.954,3.082,0.89,3.0,36.8,73.7,1016.71,-34.77,0.31,1.0,31.3,44.5,38.5,0,no_anomaly,0.0,0,0,0,0,26.8466837,80.9461556,19.0,0.0
2024-02-20T17:13:07.200Z,MISSION_0029,72,0,transit,SITE_LKN_010,26.8466864,80.9461548,19.5,47.15,0.537,0.119,5.25,-1.5296,-3.4873,47.1545,0.91618,-6e-05,-0.03322,0.39939,-0.1077,0.0652,-9.835,1.0349,-0.2167,0.002,0.0376,3,14,0.69,1.02,0.34,24.517,19.34,89.4,45.1,19676.0,8604,8898,8732,9034,62.3,59.1,61.8,61.1,2.628,2.831,2.69,2.706,0.06,22.4,36.8,73.3,1016.75,-27.76,-0.7,1.58,30.2,43.4,40.9,0,no_anomaly,0.0,0,0,0,0,26.8466864,80.9461548,19.5,0.0
2024-02-20T17:13:07.300Z,MISSION_0029,73,0,transit,SITE_LKN_010,26.8466872,80.9461523,20.0,47.9,1.185,0.156,5.5,2.4445,-1.2051,47.8969,0.91356,0.02376,-0.00095,0.406,-0.0523,-0.0916,-9.7812,-0.6995,-0.2326,0.0607,0.2087,3,17,0.56,0.85,0.31,24.576,18.94,89.3,44.4,19655.0,8718,8785,8669,8870,60.8,63.2,62.9,60.7,2.937,3.035,2.838,2.998,0.69,3.2,36.7,74.3,1016.95,-29.62,-1.65,1.95,31.6,46.8,38.0,0,no_anomaly,0.0,0,0,0,0,26.8466872,80.9461523,20.0,0.0
2024-02-20T17:13:07.400Z,MISSION_0029,74,0,transit,SITE_LKN_010,26.8466873,80.9461468,20.5,46.61,1.802,0.135,6.09,0.8179,-1.5729,46.6081,0.91827,0.01198,-0.00978,0.39565,0.0468,0.0049,-9.8136,-0.7535,-0.7461,0.1345,0.183,3,20,0.73,0.91,0.39,24.455,23.99,89.2,45.2,19633.0,8816,8581,9100,8699,61.8,60.7,59.6,59.8,2.825,2.689,2.681,2.562,0.41,4.8,36.7,74.0,1016.79,-31.82,-0.05,1.29,31.6,49.0,36.8,0,no_anomaly,0.0,0,0,0,0,26.8466873,80.9461468,20.5,0.0
2024-02-20T17:13:07.500Z,MISSION_0029,75,0,transit,SITE_LKN_010,26.8466832,80.9461487,20.8,44.65,1.863,0.099,6.01,-1.2067,-4.9259,44.6535,0.9243,0.00659,-0.04375,0.3791,0.0513,0.0802,-9.7809,-0.3999,-0.1239,-0.0749,0.0683,3,11,0.58,0.91,0.32,24.556,18.18,89.1,45.8,19611.0,8974,9003,8968,8892,61.2,60.2,65.1,60.2,2.776,2.791,2.867,2.634,0.07,14.2,36.8,75.1,1016.82,-30.56,1.03,1.72,33.5,42.7,37.6,0,no_anomaly,0.0,0,0,0,0,26.8466832,80.9461487,20.8,0.0
2024-02-20T17:13:07.600Z,MISSION_0029,76,0,transit,SITE_LKN_010,26.8466848,80.9461405,20.8,43.23,1.998,0.103,6.84,-0.9681,-1.6772,43.2294,0.92959,-0.00246,-0.01672,0.3682,-0.0723,-0.0611,-9.8229,-0.4925,-0.799,-0.1863,0.0995,3,16,0.63,0.76,0.39,24.579,17.17,89.0,45.1,19590.0,8691,8575,8694,8830,61.4,60.2,64.3,57.4,2.96,2.763,2.746,2.708,1.09,16.5,36.8,74.2,1016.79,-32.21,-0.89,1.29,34.9,48.5,39.6,0,no_anomaly,0.0,0,0,0,0,26.8466848,80.9461405,20.8,0.0
2024-02-20T17:13:07.700Z,MISSION_0029,77,0,transit,SITE_LKN_010,26.8466855,80.9461371,20.8,44.91,2.043,0.164,7.19,0.7679,-0.5059,44.9059,0.92415,0.00788,-0.00152,0.38194,0.0189,-0.0221,-9.8431,1.0938,0.2542,0.126,0.1182,3,11,0.72,0.91,0.27,24.551,19.56,88.9,45.2,19568.0,8750,8684,8826,8903,63.4,62.1,60.2,60.9,2.706,3.036,2.964,2.717,0.0,7.7,36.7,74.4,1016.24,-26.52,-0.22,1.55,31.0,46.5,38.5,0,no_anomaly,0.0,0,0,0,0,26.8466855,80.9461371,20.8,0.0
2024-02-20T17:13:07.800Z,MISSION_0029,78,0,transit,SITE_LKN_010,26.8466861,80.9461373,20.8,41.95,1.726,0.134,7.15,5.1515,-2.0776,41.9481,0.93235,0.04844,-0.00083,0.35829,0.0297,0.0627,-9.8609,0.6766,0.0112,-0.0477,0.1858,3,17,0.71,0.76,0.37,24.465,18.61,88.8,45.2,19547.0,8552,8852,8870,8560,59.9,62.7,62.5,63.6,2.853,2.775,2.783,2.535,0.67,10.9,36.4,74.3,1016.88,-26.5,-1.88,1.2,32.5,44.4,38.6,0,no_anomaly,0.0,0,0,0,0,26.8466861,80.9461373,20.8,0.0
2024-02-20T17:13:07.900Z,MISSION_0029,79,0,transit,SITE_LKN_010,26.8466841,80.9461341,20.8,40.99,1.848,0.061,7.55,-0.2611,-4.2454,40.9888,0.93609,0.01084,-0.03549,0.3498,-0.0124,-0.0716,-9.7303,-0.708,0.0109,0.541,0.0439,3,19,0.57,1.03,0.32,24.571,18.47,88.7,44.4,19525.0,8645,8680,8774,8755,62.2,59.9,61.7,65.4,2.787,2.99,2.712,2.669,0.45,14.4,36.6,74.4,1016.4,-29.91,0.1,1.55,27.4,44.5,37.2,0,no_anomaly,0.0,0,0,0,0,26.8466841,80.9461341,20.8,0.0
2024-02-20T17:13:08.000Z,MISSION_0029,80,0,transit,SITE_LKN_010,26.8466836,80.9461341,20.8,42.66,1.628,0.035,7.56,2.1123,-0.7339,42.6586,0.93129,0.0195,0.00074,0.36377,-0.096,0.0304,-9.8129,0.5266,0.2217,0.0929,0.0603,3,14,0.81,1.05,0.32,24.591,20.75,88.7,45.4,19503.0,8638,8748,8785,8936,62.1,63.4,60.9,65.4,2.778,2.838,3.022,2.762,0.01,11.7,36.4,73.4,1016.64,-29.43,-0.96,1.99,34.1,44.5,38.7,0,no_anomaly,0.0,0,0,0,0,26.8466836,80.9461341,20.8,0.0
2024-02-20T17:13:08.100Z,MISSION_0029,81,0,transit,SITE_LKN_010,26.8466792,80.9461367,20.8,43.19,1.507,0.066,7.42,1.5494,-1.6471,43.1906,0.92955,0.01786,-0.00839,0.36816,-0.0645,-0.0813,-9.8541,-0.0898,-1.1216,0.1472,0.0846,3,14,0.75,0.6,0.2,24.593,19.74,88.6,44.3,19482.0,8947,8767,8697,8683,57.9,61.8,61.0,65.2,2.786,2.494,2.875,2.914,0.0,15.2,36.8,74.4,1016.94,-25.23,-0.74,1.67,31.7,45.7,37.9,0,no_anomaly,0.0,0,0,0,0,26.8466792,80.9461367,20.8,0.0
2024-02-20T17:13:08.200Z,MISSION_0029,82,0,transit,SITE_LKN_010,26.8466818,80.9461387,20.8,45.09,1.178,0.134,7.11,-0.2938,-1.843,45.0875,0.92348,0.0038,-0.01584,0.3833,-0.0613,0.0688,-9.8076,-0.7354,-0.6122,-0.0421,0.1723,3,17,0.77,0.75,0.37,24.421,22.01,88.5,44.9,19460.0,8920,8901,8869,8632,61.6,60.4,62.5,61.4,2.662,2.758,2.533,2.832,1.04,4.9,36.7,73.6,1016.58,-26.75,-1.18,1.44,28.5,44.8,36.7,0,no_anomaly,0.0,0,0,0,0,26.8466818,80.9461387,20.8,0.0
2024-02-20T17:13:08.300Z,MISSION_0029,83,0,transit,SITE_LKN_010,26.846681,80.9461387,20.8,47.14,1.16,0.135,7.15,-0.4922,-3.2269,47.1423,0.91624,0.00732,-0.02752,0.39961,0.0026,-0.0457,-9.7911,0.2507,-0.352,-0.06,0.1351,3,20,0.72,0.95,0.22,24.578,20.35,88.4,45.7,19438.0,8728,8954,8975,8623,62.1,56.2,60.9,63.4,2.641,2.907,2.842,2.656,0.18,7.7,36.9,74.2,1016.72,-37.33,-0.23,1.7,33.5,48.4,39.1,0,no_anomaly,0.0,0,0,0,0,26.846681,80.9461387,20.8,0.0
2024-02-20T17:13:08.400Z,MISSION_0029,84,0,transit,SITE_LKN_010,26.8466841,80.9461397,20.8,49.81,0.933,0.121,6.94,-0.2211,-1.6027,49.8102,0.90693,0.00414,-0.0135,0.42105,0.0931,-0.07,-9.7936,-0.2304,-0.033,-0.4338,0.0182,3,16,0.76,0.99,0.24,24.472,15.55,88.3,44.8,19417.0,8837,8798,9092,8925,64.9,59.1,62.0,60.0,2.806,3.05,2.785,2.978,0.87,4.0,37.0,74.3,1016.95,-24.51,1.14,1.31,31.6,48.2,40.3,0,no_anomaly,0.0,0,0,0,0,26.8466841,80.9461397,20.8,0.0
2024-02-20T17:13:08.500Z,MISSION_0029,85,0,transit,SITE_LKN_010,26.8466816,80.9461409,20.8,49.2,1.066,0.101,6.89,-0.2017,-3.1221,49.2029,0.90891,0.00974,-0.0255,0.41611,-0.0059,-0.0245,-9.8131,1.4367,0.8659,-0.453,0.1477,3,18,0.5,0.96,0.2,24.496,17.03,88.2,44.5,19395.0,8768,8550,9007,8997,62.0,62.1,60.7,63.6,2.772,2.96,2.984,2.955,0.6,8.2,36.3,73.8,1016.64,-33.23,-0.02,1.64,30.3,43.7,35.9,0,no_anomaly,0.0,0,0,0,0,26.8466816,80.9461409,20.8,0.0
2024-02-20T17:13:08.600Z,MISSION_0029,86,0,transit,SITE_LKN_010,26.8466838,80.946143,20.8,49.45,1.324,0.119,6.6,-1.7399,-0.5252,49.4518,0.90823,-0.01187,-0.01051,0.41816,0.0243,0.0293,-9.8719,-0.4174,-0.6937,0.1609,0.1564,3,10,0.6,0.92,0.23,24.481,17.29,88.1,45.2,19374.0,8898,8858,8603,8823,60.6,61.0,61.2,63.8,2.97,2.924,2.9,2.677,0.99,4.3,36.7,73.6,1016.58,-24.51,0.06,1.6,31.5,42.1,37.8,0,no_anomaly,0.0,0,0,0,0,26.8466838,80.946143,20.8,0.0
2024-02-20T17:13:08.700Z,MISSION_0029,87,0,transit,SITE_LKN_010,26.8466827,80.9461472,20.8,49.19,1.307,0.138,6.18,2.4824,-2.6126,49.188,0.90862,0.02918,-0.01171,0.41643,0.0532,-0.0046,-9.7741,-0.5938,-0.1668,0.6732,0.0495,3,11,0.94,0.92,0.31,24.415,16.52,88.0,44.6,19352.0,8509,8725,8771,8823,60.8,58.8,63.4,64.8,2.974,2.931,2.758,2.897,1.44,8.3,36.4,74.2,1017.0,-24.75,-0.27,1.57,30.0,45.8,37.9,0,no_anomaly,0.0,0,0,0,0,26.8466827,80.9461472,20.8,0.0
2024-02-20T17:13:08.800Z,MISSION_0029,88,1,transit,SITE_LKN_010,26.8466745,80.9461481,20.8,47.1,1.91,-0.02,6.44,-1.6124,-3.7084,47.1003,0.91632,3e-05,-0.03528,0.39889,0.0068,0.0527,-9.943,-0.4311,0.2898,0.0813,0.0502,3,12,0.67,1.17,0.31,24.49,18.18,87.9,45.0,19330.0,8772,8812,8918,8667,64.2,65.2,61.7,61.3,2.953,2.69,2.755,2.927,0.72,14.0,37.1,72.9,1016.15,-28.93,0.37,1.42,34.4,50.1,37.9,0,no_anomaly,0.0,0,0,0,0,26.8466745,80.9461481,20.8,0.0
2024-02-20T17:13:08.900Z,MISSION_0029,89,1,transit,SITE_LKN_010,26.8466724,80.9461482,20.8,49.77,1.886,0.075,6.53,-1.5316,-3.4774,49.7676,0.90684,0.00065,-0.03314,0.42018,-0.0782,-0.0167,-9.7878,-0.0092,-0.7849,-0.3064,0.095,3,12,0.68,0.73,0.24,24.523,23.73,87.8,45.6,19309.0,8603,8878,8507,8871,61.5,61.7,61.6,61.1,2.641,2.906,2.772,2.349,0.19,14.7,36.8,73.7,1016.71,-29.83,-0.99,1.34,28.3,43.8,36.7,0,no_anomaly,0.0,0,0,0,0,26.8466724,80.9461482,20.8,0.0
2024-02-20T17:13:09.000Z,MISSION_0029,90,1,transit,SITE_LKN_010,26.84667,80.9461448,20.8,50.01,1.802,-0.001,7.0,-2.3046,-2.9501,50.0064,0.90602,-0.00734,-0.03182,0.42197,-0.0069,0.0623,-9.864,0.2643,-0.5572,0.2382,0.0,3,11,0.72,0.91,0.3,24.482,17.62,87.7,44.0,19287.0,9050,9112,8657,8636,63.0,60.6,64.3,60.1,3.008,2.796,2.643,2.811,0.67,6.6,37.0,73.7,1016.85,-30.88,0.89,1.37,31.7,46.1,37.0,0,no_anomaly,0.0,0,0,0,0,26.84667,80.9461448,20.8,0.0
2024-02-20T17:13:09.100Z,MISSION_0029,91,1,transit,SITE_LKN_010,26.8466733,80.9461487,20.8,53.8,1.831,0.065,6.44,0.3089,-3.8487,53.8014,0.89124,0.0176,-0.02873,0.45227,-0.028,-0.1206,-9.7867,0.4161,-0.098,0.5667,0.2067,3,17,0.8,0.86,0.31,24.482,25.7,87.6,45.2,19265.0,8613,8540,8756,8922,63.5,64.3,61.1,61.4,2.592,2.871,2.567,2.835,0.07,2.6,36.7,74.8,1016.66,-30.51,0.75,1.82,28.9,45.4,36.6,0,no_anomaly,0.0,0,0,0,0,26.8466733,80.9461487,20.8,0.0
2024-02-20T17:13:09.200Z,MISSION_0029,92,1,transit,SITE_LKN_010,26.8466728,80.946152,20.8,54.34,1.832,0.16,6.14,-1.2507,-3.2594,54.3419,0.88938,0.00328,-0.03028,0.45616,0.1046,0.0369,-9.8999,-0.338,-0.0003,0.1205,0.1518,3,13,0.8,1.29,0.48,24.476,23.71,87.5,44.3,19244.0,8649,8661,8872,8802,61.5,64.0,63.4,61.9,2.895,2.972,2.563,2.889,0.0,11.1,37.0,73.9,1016.76,-27.17,0.54,1.59,29.8,46.5,38.7,0,no_anomaly,0.0,0,0,0,0,26.8466728,80.946152,20.8,0.0
2024-02-20T17:13:09.300Z,MISSION_0029,93,1,transit,SITE_LKN_010,26.8466714,80.9461537,20.8,52.95,2.025,0.068,6.05,2.0986,-4.0903,52.9546,0.8941,0.03229,-0.02378,0.44607,-0.043,0.0035,-9.8093,-0.2063,0.4332,-0.5417,0.1542,3,19,0.73,1.04,0.2,24.496,23.78,87.4,45.7,19222.0,8884,8409,8507,8731,61.6,62.0,61.1,59.4,2.879,2.888,2.575,2.914,1.13,10.3,37.0,74.0,1016.67,-27.51,0.81,1.75,29.4,47.5,38.5,0,no_anomaly,0.0,0,0,0,0,26.8466714,80.9461537,20.8,0.0
2024-02-20T17:13:09.400Z,MISSION_0029,94,1,transit,SITE_LKN_010,26.8466714,80.946154,20.8,54.45,1.994,0.167,6.03,0.36,-1.9826,54.4468,0.88907,0.01071,-0.01395,0.45744,0.1659,-0.0586,-9.8856,-0.2503,-0.781,-0.3967,0.1726,3,13,0.59,0.84,0.23,24.451,16.69,87.3,45.0,19201.0,8777,8704,8834,8834,60.6,60.2,63.0,59.7,3.077,2.694,3.042,3.077,1.08,9.6,36.8,73.8,1016.57,-26.09,-0.73,1.0,29.7,48.9,40.5,0,no_anomaly,0.0,0,0,0,0,26.8466714,80.946154,20.8,0.0
2024-02-20T17:13:09.500Z,MISSION_0029,95,1,transit,SITE_LKN_010,26.8466717,80.946155,20.8,55.01,1.937,0.036,5.92,-1.5303,-4.0234,55.0143,0.88654,0.00437,-0.0373,0.46112,0.0672,-0.0796,-9.6944,0.625,-0.0678,0.3365,0.1104,3,17,0.68,0.92,0.23,24.467,19.96,87.2,44.3,19179.0,8843,8776,8851,8878,61.4,62.2,58.9,59.1,2.704,2.774,2.766,2.781,0.67,7.4,36.7,74.1,1016.64,-29.18,-0.4,1.86,29.7,43.9,38.5,0,no_anomaly,0.0,0,0,0,0,26.8466717,80.946155,20.8,0.0
2024-02-20T17:13:09.600Z,MISSION_0029,96,1,transit,SITE_LKN_010,26.8466685,80.946158,20.8,55.32,2.014,0.169,5.85,0.5688,-3.3363,55.3212,0.88526,0.01791,-0.02348,0.46416,0.0147,0.0693,-9.773,-0.364,-0.1737,-0.0797,0.1223,3,14,0.53,0.98,0.2,24.555,18.41,87.1,45.0,19157.0,8913,8775,8796,8761,64.1,63.1,66.8,65.1,3.063,2.976,2.79,2.844,0.94,6.2,36.7,74.3,1016.79,-32.49,-0.8,1.6,33.6,43.9,38.5,0,no_anomaly,0.0,0,0,0,0,26.8466685,80.946158,20.8,0.0
2024-02-20T17:13:09.700Z,MISSION_0029,97,1,transit,SITE_LKN_010,26.8466692,80.9461605,20.8,56.57,1.941,0.08,5.57,-1.5871,-1.5514,56.5683,0.88053,-0.00578,-0.01848,0.47359,-0.0488,0.0239,-9.8345,-0.165,0.2316,0.0779,0.1326,3,13,0.8,1.21,0.28,24.446,18.31,87.0,44.5,19136.0,8674,8525,8748,8472,60.8,60.1,63.4,62.9,2.798,2.706,2.55,2.588,0.49,0.9,37.1,74.8,1016.68,-31.67,-2.05,1.54,30.3,44.7,39.4,0,no_anomaly,0.0,0,0,0,0,26.8466692,80.9461605,20.8,0.0
2024-02-20T17:13:09.800Z,MISSION_0029,98,1,transit,SITE_LKN_010,26.8466761,80.9461567,20.8,57.79,2.188,0.011,5.51,0.9884,-5.2995,57.7905,0.87434,0.02988,-0.03631,0.48302,-0.0332,-0.0077,-9.7626,-0.8284,-0.4065,0.1147,0.0878,3,18,0.82,0.68,0.45,24.44,22.06,86.9,45.2,19114.0,8903,8748,9035,8909,60.3,62.2,59.1,57.3,2.787,2.807,2.914,2.695,0.0,4.8,36.3,73.9,1016.76,-28.95,-2.21,1.49,33.0,44.8,41.5,0,no_anomaly,0.0,0,0,0,0,26.8466761,80.9461567,20.8,0.0
2024-02-20T17:13:09.900Z,MISSION_0029,99,1,transit,SITE_LKN_010,26.8466823,80.9461552,20.8,57.17,2.154,0.093,5.36,0.0925,-4.4602,57.1715,0.87742,0.01933,-0.03378,0.47814,-0.0362,-0.0229,-9.8728,-0.6136,0.3084,0.2069,0.1184,3,17,0.78,0.76,0.37,24.476,19.23,86.8,44.7,19092.0,8566,8514,8653,8919,56.6,61.1,60.1,62.3,2.799,3.035,3.034,2.618,0.33,15.0,36.6,73.7,1016.38,-30.35,0.07,2.1,29.4,46.8,38.1,0,no_anomaly,0.0,0,0,0,0,26.8466823,80.9461552,20.8,0.0
2024-02-20T17:13:10.000Z,MISSION_0029,100,1,transit,SITE_LKN_010,26.8466844,80.9461539,20.8,58.94,2.114,0.072,5.42,0.8016,-4.3677,58.9391,0.86983,0.02483,-0.02974,0.49182,-0.0555,-0.0809,-9.7869,0.0958,-0.6709,-0.2874,0.0363,3,10,0.54,0.74,0.2,24.499,24.22,86.7,44.8,19071.0,8770,9031,8949,8784,58.8,64.8,59.8,61.6,2.791,2.979,2.928,2.978,0.66,3.6,36.8,73.4,1016.79,-32.24,-0.6,1.41,30.4,45.0,39.6,0,no_anomaly,0.0,0,0,0,0,26.8466844,80.9461539,20.8,0.0
2024-02-20T17:13:10.100Z,MISSION_0029,101,1,transit,SITE_LKN_010,26.8466816,80.9461493,20.8,61.32,2.341,0.107,6.01,1.1963,-2.214,61.3237,0.85988,0.01883,-0.01129,0.51002,-0.0187,-0.0208,-9.8771,0.7628,0.4851,-0.3826,0.1257,3,15,0.66,0.83,0.2,24.434,20.47,86.6,45.7,19049.0,8841,8649,8752,8672,63.9,62.6,65.0,59.9,2.588,2.69,2.661,2.843,0.12,10.6,36.9,74.4,1016.82,-29.95,-2.46,1.56,33.0,43.9,38.3,0,no_anomaly,0.0,0,0,0,0,26.8466816,80.9461493,20.8,0.0
2024-02-20T17:13:10.200Z,MISSION_0029,102,1,transit,SITE_LKN_010,26.8466811,80.9461421,20.8,60.21,1.858,0.066,6.79,-1.3988,-0.4358,60.2093,0.86506,-0.00865,-0.00941,0.5015,-0.0666,-0.0677,-9.7649,1.2543,0.8422,-0.0976,0.1569,3,20,0.8,0.99,0.33,24.418,14.57,86.5,44.4,19028.0,8952,8753,8636,8539,60.8,62.1,60.4,60.6,2.97,2.804,2.741,2.802,0.43,4.5,36.6,74.1,1016.33,-29.7,-0.28,1.75,32.2,45.1,41.6,0,no_anomaly,0.0,0,0,0,0,26.8466811,80.9461421,20.8,0.0
2024-02-20T17:13:10.300Z,MISSION_0029,103,1,transit,SITE_LKN_010,26.8466771,80.9461444,20.8,62.43,2.039,0.063,6.69,-0.827,-1.4743,62.4256,0.8552,0.0005,-0.01474,0.51808,0.0035,0.0361,-9.7529,0.6365,-1.026,0.0673,0.0848,3,16,0.54,1.01,0.2,24.473,21.45,86.4,44.8,19006.0,8738,8743,8661,8872,61.2,64.1,65.0,65.4,2.409,2.81,3.014,2.705,0.71,359.3,37.1,74.0,1016.91,-34.06,-0.24,1.15,34.9,52.9,39.6,0,no_anomaly,0.0,0,0,0,0,26.8466771,80.9461444,20.8,0.0
2024-02-20T17:13:10.400Z,MISSION_0029,104,1,transit,SITE_LKN_010,26.8466719,80.9461434,20.8,64.09,1.605,0.057,7.04,-0.3837,-3.7197,64.0885,0.84725,0.01438,-0.02929,0.5302,0.0049,0.0543,-9.773,-0.1004,0.2519,0.145,0.0412,3,17,0.84,0.87,0.28,24.354,17.77,86.3,45.0,18984.0,8742,8879,8785,8722,58.6,62.1,59.5,63.5,2.608,2.674,2.696,2.755,0.0,9.6,36.2,74.5,1016.12,-27.39,-0.02,1.38,32.6,51.2,41.8,0,no_anomaly,0.0,0,0,0,0,26.8466719,80.9461434,20.8,0.0
2024-02-20T17:13:10.500Z,MISSION_0029,105,1,transit,SITE_LKN_010,26.8466727,80.9461387,20.8,62.74,1.711,0.107,7.47,-2.1576,-3.3115,62.7444,0.85358,-0.00103,-0.03446,0.51982,0.0291,0.0097,-9.8177,0.1161,0.6663,-0.0847,0.1319,3,12,0.8,0.81,0.34,24.493,22.84,86.2,44.6,18963.0,9055,8631,8978,8666,60.8,58.7,60.9,64.0,2.843,2.621,3.037,2.878,0.3,7.8,37.0,74.2,1016.72,-33.69,0.42,1.0,31.6,44.2,38.9,0,no_anomaly,0.0,0,0,0,0,26.8466727,80.9461387,20.8,0.0
2024-02-20T17:13:10.600Z,MISSION_0029,106,1,orbit_base,SITE_LKN_010,26.8466201,80.9461969,21.1,60.77,1.309,0.007,8.91,-0.3997,-0.6673,60.7687,0.86264,-6e-05,-0.00679,0.50577,0.0733,-0.0076,-9.7914,-0.3283,0.1536,-0.1889,0.1728,3,15,0.63,0.96,0.32,24.336,20.1,86.1,44.0,18941.0,8814,8569,8658,8975,62.3,62.0,62.4,60.5,2.899,2.722,2.829,2.782,0.67,13.4,36.8,74.5,1016.58,-32.49,-0.2,1.82,29.6,47.3,38.2,0,no_anomaly,0.0,0,0,0,0,26.8466201,80.9461969,21.1,0.0
2024-02-20T17:13:10.700Z,MISSION_0029,107,1,orbit_base,SITE_LKN_010,26.8466202,80.9461945,21.4,62.99,1.311,0.085,8.91,-0.1973,-2.0272,62.9922,0.85256,0.00777,-0.01598,0.52233,0.1117,-0.0134,-9.738,-0.3647,-1.3669,-0.1411,0.081,3,19,0.52,0.82,0.2,24.489,18.41,86.0,45.4,18919.0,8739,8819,8642,8796,62.2,63.4,63.3,61.9,2.815,2.735,2.747,2.746,0.92,18.7,36.7,73.8,1016.89,-29.64,0.5,1.52,32.0,49.6,40.6,0,no_anomaly,0.0,0,0,0,0,26.8466202,80.9461945,21.4,0.0
2024-02-20T17:13:10.800Z,MISSION_0029,108,1,orbit_base,SITE_LKN_010,26.8466204,80.9461921,21.7,63.53,1.061,0.039,8.91,-2.1271,-2.7318,63.5274,0.85007,-0.00323,-0.03003,0.5258,0.0047,-0.0397,-9.7546,0.1115,0.7322,-0.5451,0.1052,3,14,0.78,1.32,0.35,24.414,18.98,85.9,45.1,18898.0,8699,8556,8973,8692,60.9,60.9,60.6,61.7,2.954,2.909,2.74,2.889,1.03,19.0,36.6,73.5,1016.46,-27.31,-1.15,1.22,29.4,42.7,39.4,0,no_anomaly,0.0,0,0,0,0,26.8466204,80.9461921,21.7,0.0
2024-02-20T17:13:10.900Z,MISSION_0029,109,1,orbit_base,SITE_LKN_010,26.8466207,80.9461898,22.0,62.93,1.238,0.109,8.91,-0.652,-2.8892,62.9256,0.85277,0.00831,-0.02447,0.52165,0.0115,0.0765,-9.7682,-0.2618,-0.0796,-0.0102,0.1313,3,13,0.51,1.06,0.2,24.398,18.18,85.8,45.5,18876.0,9233,8499,8736,8948,63.0,59.4,62.4,61.7,2.887,2.916,2.826,2.893,0.44,6.7,37.3,74.0,1016.39,-29.81,-0.19,1.87,34.6,49.2,42.3,0,no_anomaly,0.0,0,0,0,0,26.8466207,80.9461898,22.0,0.0
2024-02-20T17:13:11.000Z,MISSION_0029,110,1,orbit_base,SITE_LKN_010,26.846621,80.9461874,22.3,64.63,1.361,0.101,8.91,-1.7803,-2.0292,64.6275,0.84505,-0.00366,-0.02327,0.53417,0.0053,0.0037,-9.8766,0.1442,0.8324,-0.8662,0.1703,3,15,0.6,0.9,0.2,24.57,14.51,85.7,45.1,18855.0,8851,8590,9020,8880,61.5,62.4,59.1,62.3,2.773,3.023,2.657,2.769,0.3,13.6,36.7,74.0,1016.86,-30.5,-1.86,1.31,29.6,47.2,40.9,0,no_anomaly,0.0,0,0,0,0,26.846621,80.9461874,22.3,0.0
2024-02-20T17:13:11.100Z,MISSION_0029,111,1,orbit_base,SITE_LKN_010,26.8466214,80.946185,22.6,64.71,0.896,0.058,8.91,1.2703,-2.1269,64.7078,0.84445,0.01929,-0.00975,0.5352,-0.0872,0.0129,-9.8396,0.4529,-0.0409,-0.2997,0.2106,3,11,0.93,0.89,0.51,24.426,19.96,85.6,45.4,18833.0,8850,8772,8916,8778,62.4,60.3,60.8,62.7,2.694,2.684,2.847,2.956,0.0,11.3,37.1,74.8,1016.87,-31.85,0.25,1.15,33.1,48.1,38.1,0,no_anomaly,0.0,0,0,0,0,26.8466214,80.946185,22.6,0.0
2024-02-20T17:13:11.200Z,MISSION_0029,112,1,orbit_base,SITE_LKN_010,26.8466219,80.9461827,22.9,65.49,0.885,0.109,8.91,1.9803,0.2059,65.4891,0.84098,0.01356,0.01086,0.54079,-0.0494,0.1059,-9.7267,0.569,0.2535,0.3531,0.0705,3,20,0.69,0.88,0.26,24.368,22.68,85.5,44.8,18811.0,9001,8869,8791,9170,59.8,62.0,65.5,64.2,2.935,2.659,2.894,2.543,0.04,14.8,36.6,73.4,1016.71,-33.59,-0.26,1.58,34.9,46.3,38.7,0,no_anomaly,0.0,0,0,0,0,26.8466219,80.9461827,22.9,0.0
2024-02-20T17:13:11.300Z,MISSION_0029,113,1,orbit_base,SITE_LKN_010,26.8466225,80.9461803,23.2,63.74,1.201,0.143,8.91,0.6495,-3.3502,63.7383,0.84879,0.02025,-0.02183,0.52789,0.0561,-0.0234,-9.8455,-0.3725,-0.0269,0.1313,0.0455,3,15,0.8,0.94,0.56,24.452,24.54,85.4,45.8,18790.0,8829,8927,8892,8853,60.1,62.7,65.3,62.7,2.899,2.826,2.944,2.7,0.0,17.9,36.5,73.9,1016.78,-23.12,-0.24,1.07,29.6,42.8,40.3,0,no_anomaly,0.0,0,0,0,0,26.8466225,80.9461803,23.2,0.0
2024-02-20T17:13:11.400Z,MISSION_0029,114,1,orbit_base,SITE_LKN_010,26.8466231,80.946178,23.5,62.39,1.532,0.162,8.91,1.0707,-3.4122,62.3943,0.85483,0.02341,-0.02063,0.51797,0.0862,-0.1221,-9.837,0.1828,-0.1951,-0.5483,0.1011,3,13,0.7,0.65,0.21,24.422,22.09,85.3,44.7,18768.0,8742,8433,8611,8823,65.4,64.0,62.7,65.8,2.965,2.94,2.666,2.941,0.72,356.3,36.6,73.6,1016.76,-30.69,0.53,1.13,28.4,45.3,39.6,0,no_anomaly,0.0,0,0,0,0,26.8466231,80.946178,23.5,0.0
2024-02-20T17:13:11.500Z,MISSION_0029,115,1,orbit_base,SITE_LKN_010,26.8466238,80.9461757,23.8,61.12,1.338,0.2,8.91,-1.6317,0.0909,61.1228,0.86099,-0.01266,-0.00656,0.50842,0.0946,0.0249,-9.6966,0.2611,-0.4355,-0.2583,0.121,3,10,0.64,0.78,0.2,24.389,18.55,85.2,44.3,18746.0,8977,8755,8705,8738,61.1,62.7,61.7,65.3,2.895,2.979,2.767,3.054,1.04,14.4,36.4,73.2,1016.82,-29.1,-0.19,1.42,30.9,47.7,36.8,0,no_anomaly,0.0,0,0,0,0,26.8466238,80.9461757,23.8,0.0
2024-02-20T17:13:11.600Z,MISSION_0029,116,1,orbit_base,SITE_LKN_010,26.8466245,80.9461734,24.1,62.89,1.548,0.139,8.91,-2.7907,-1.0442,62.8906,0.85297,-0.01602,-0.02047,0.52132,0.0165,-0.0184,-9.7964,-0.066,-0.4656,-0.1081,0.1132,3,13,0.65,0.89,0.3,24.364,18.31,85.1,45.0,18725.0,8500,8733,8674,8878,60.2,60.3,61.9,63.3,2.641,2.846,2.728,2.744,0.27,11.9,36.9,73.9,1016.51,-33.94,-0.09,1.62,32.2,51.6,42.2,0,no_anomaly,0.0,0,0,0,0,26.8466245,80.9461734,24.1,0.0
2024-02-20T17:13:11.700Z,MISSION_0029,117,1,orbit_base,SITE_LKN_010,26.8466254,80.9461712,24.4,63.03,1.371,0.1,8.91,0.3814,-4.7893,63.0267,0.8517,0.02467,-0.03388,0.52236,0.0298,-0.0425,-9.8481,0.0286,0.2285,-0.4411,0.0918,3,16,0.66,1.14,0.39,24.321,19.84,85.0,45.5,18703.0,8810,8737,8767,8692,61.8,63.4,59.6,63.5,2.454,2.763,2.78,2.917,0.0,6.4,36.7,74.6,1016.71,-28.58,-0.36,1.07,31.8,46.2,37.7,0,no_anomaly,0.0,0,0,0,0,26.8466254,80.9461712,24.4,0.0
2024-02-20T17:13:11.800Z,MISSION_0029,118,1,orbit_base,SITE_LKN_010,26.8466263,80.946169,24.7,63.07,1.211,0.076,8.91,4.9808,-4.7275,63.069,0.84986,0.05855,-0.01241,0.5236,-0.0812,0.0506,-9.8326,0.0901,-0.0125,-0.0926,0.0518,3,14,0.52,0.98,0.2,24.381,16.25,84.9,45.5,18682.0,8907,8740,8790,8825,61.8,61.8,66.0,59.5,2.91,3.073,2.733,2.739,0.0,12.8,36.9,73.4,1016.63,-27.77,-0.62,1.19,31.7,50.5,41.0,0,no_anomaly,0.0,0,0,0,0,26.8466263,80.946169,24.7,0.0
2024-02-20T17:13:11.900Z,MISSION_0029,119,1,orbit_base,SITE_LKN_010,26.8466272,80.9461668,25.0,65.66,1.145,0.091,8.91,2.1488,-4.6209,65.6571,0.83906,0.03759,-0.02371,0.54223,-0.0626,0.0554,-9.7966,-0.1928,-0.4629,0.0462,0.1474,3,18,0.82,0.85,0.36,24.37,22.13,84.8,45.3,18660.0,8988,8861,8840,9155,58.7,61.6,62.7,63.6,2.644,2.713,2.78,2.841,0.0,359.6,37.0,74.3,1016.61,-35.61,-0.21,2.03,28.8,46.7,39.1,0,no_anomaly,0.0,0,0,0,0,26.8466272,80.9461668,25.0,0.0
2024-02-20T17:13:12.000Z,MISSION_0029,120,1,orbit_base,SITE_LKN_010,26.8466283,80.9461646,25.3,63.53,1.431,0.063,8.91,-3.0385,-3.0428,63.5323,0.84998,-0.00856,-0.03652,0.52548,-0.0078,-0.0101,-9.7676,-0.2505,0.3453,-0.2296,0.1368,3,16,0.62,0.88,0.28,24.338,16.32,84.7,45.4,18638.0,8917,8340,8824,8937,63.8,60.6,65.2,60.8,2.922,2.798,2.741,2.846,0.6,11.5,36.7,73.5,1016.82,-27.74,0.47,1.44,28.9,41.8,36.7,0,no_anomaly,0.0,0,0,0,0,26.8466283,80.9461646,25.3,0.0
2024-02-20T17:13:12.100Z,MISSION_0029,121,1,orbit_base,SITE_LKN_010,26.8466294,80.9461625,25.6,64.28,2.092,0.03,8.91,1.8602,-4.8136,64.2751,0.84555,0.03607,-0.02693,0.53199,-0.0569,0.0252,-9.6899,-0.2558,0.2738,0.1913,0.1214,3,19,0.68,0.6,0.29,24.423,16.94,84.6,46.3,18617.0,8856,8808,8865,9095,60.2,59.4,64.2,58.8,2.793,2.839,2.741,2.984,0.19,9.8,36.6,74.3,1016.78,-28.57,0.1,1.49,33.5,51.1,39.4,0,no_anomaly,0.0,0,0,0,0,26.8466294,80.9461625,25.6,0.0
2024-02-20T17:13:12.200Z,MISSION_0029,122,1,orbit_base,SITE_LKN_010,26.8466305,80.9461604,25.9,65.01,2.528,0.123,8.91,-0.7463,-3.1047,65.012,0.8431,0.00907,-0.02634,0.53703,-0.0546,-0.0365,-9.8726,-0.3796,0.7281,0.0784,0.0482,3,15,0.59,0.8,0.3,24.424,23.46,84.5,44.9,18595.0,9011,8823,8632,8860,60.9,61.6,63.4,62.5,2.874,2.598,2.965,2.774,0.51,14.1,36.8,74.5,1016.85,-24.54,-0.28,1.12,32.2,46.6,37.6,0,no_anomaly,0.0,0,0,0,0,26.8466305,80.9461604,25.9,0.0
2024-02-20T17:13:12.300Z,MISSION_0029,123,1,orbit_base,SITE_LKN_010,26.8466317,80.9461583,26.2,61.81,2.577,0.062,8.91,-1.7508,-0.9701,61.8148,0.85793,-0.00876,-0.01511,0.51346,-0.0675,-0.077,-9.9134,0.3716,-0.5266,-0.0204,0.1122,3,14,0.76,1.1,0.36,24.328,15.85,84.4,45.8,18574.0,8956,8956,9049,8818,61.7,64.9,62.5,62.9,2.635,2.786,2.675,2.798,0.08,8.4,37.3,73.6,1017.02,-28.26,1.17,1.96,30.2,44.9,39.6,0,no_anomaly,0.0,0,0,0,0,26.8466317,80.9461583,26.2,0.0
2024-02-20T17:13:12.400Z,MISSION_0029,124,1,orbit_base,SITE_LKN_010,26.846633,80.9461563,26.5,62.3,2.689,0.097,8.91,-1.9311,-3.3212,62.2983,0.8556,0.00057,-0.03351,0.51656,-0.0139,0.0144,-9.7654,0.7456,0.1473,-0.3484,0.1561,3,13,0.68,1.03,0.41,24.333,24.01,84.3,45.0,18552.0,8767,8985,8458,8598,63.6,59.2,63.4,61.1,2.927,2.755,2.64,3.017,0.42,5.3,36.9,74.7,1016.66,-34.39,-0.81,1.46,33.8,47.7,40.1,0,no_anomaly,0.0,0,0,0,0,26.846633,80.9461563,26.5,0.0
2024-02-20T17:13:12.500Z,MISSION_0029,125,1,orbit_base,SITE_LKN_010,26.8466344,80.9461543,26.8,62.05,2.485,0.118,8.91,1.7636,-2.5089,62.0543,0.85644,0.02447,-0.01083,0.51555,-0.0326,0.0139,-9.8118,-0.1459,0.8594,-0.2667,0.2177,3,11,0.68,0.72,0.22,24.448,17.99,84.2,44.9,18530.0,9053,8814,9105,8937,62.9,63.6,65.1,61.7,2.999,3.009,2.738,2.893,0.0,5.9,36.9,73.8,1016.62,-27.4,0.51,1.97,31.3,47.9,38.2,0,no_anomaly,0.0,0,0,0,0,26.8466344,80.9461543,26.8,0.0
2024-02-20T17:13:12.600Z,MISSION_0029,126,1,orbit_base,SITE_LKN_010,26.8466358,80.9461523,27.1,60.4,1.859,0.134,8.91,0.8829,0.5302,60.399,0.86426,0.00433,0.00787,0.50296,-0.0855,0.0341,-9.8289,-0.9631,0.2502,-0.0299,0.2089,3,17,0.71,0.98,0.26,24.381,23.07,84.1,45.4,18509.0,8855,8919,8676,8584,63.6,59.0,64.4,61.7,2.813,2.748,2.894,2.538,0.93,7.6,36.9,74.1,1016.84,-26.46,-0.22,1.3,32.9,49.3,39.6,0,no_anomaly,0.0,0,0,0,0,26.8466358,80.9461523,27.1,0.0
2024-02-20T17:13:12.700Z,MISSION_0029,127,1,orbit_base,SITE_LKN_010,26.8466372,80.9461504,27.4,58.41,1.552,0.191,8.91,2.0102,-3.3208,58.4117,0.87212,0.02944,-0.01673,0.48811,-0.0707,0.0135,-9.8587,-0.051,-0.1351,0.1171,0.1415,3,15,0.81,0.8,0.39,24.315,16.52,84.0,45.2,18487.0,8749,9057,8857,8647,60.9,63.6,62.7,60.1,2.718,3.024,2.831,3.009,0.66,7.1,36.5,74.3,1017.0,-38.41,0.94,2.08,35.0,45.4,41.9,0,no_anomaly,0.0,0,0,0,0,26.8466372,80.9461504,27.4,0.0
2024-02-20T17:13:12.800Z,MISSION_0029,128,1,orbit_base,SITE_LKN_010,26.8466387,80.9461486,27.7,60.68,0.938,0.08,8.91,0.5145,-1.8292,60.6825,0.86288,0.01194,-0.01151,0.50514,0.004,-0.0026,-9.8543,-0.7217,-0.2745,-0.0157,0.077,3,11,0.89,0.9,0.39,24.358,20.92,83.9,46.2,18465.0,8709,9012,9064,9129,59.5,60.7,62.1,58.9,2.738,3.072,2.672,2.711,1.1,8.7,37.0,74.8,1017.01,-28.41,-1.2,1.58,28.2,44.8,35.5,0,no_anomaly,0.0,0,0,0,0,26.8466387,80.9461486,27.7,0.0
2024-02-20T17:13:12.900Z,MISSION_0029,129,1,orbit_base,SITE_LKN_010,26.8466403,80.9461467,28.0,60.25,0.54,0.038,8.91,1.4486,-1.8989,60.2474,0.86465,0.01925,-0.00799,0.50194,-0.0419,0.0605,-9.8038,0.7699,0.1334,-0.2838,0.0842,3,11,0.65,0.78,0.28,24.376,10.82,83.8,45.7,18444.0,8769,9223,8674,8949,64.0,60.8,61.3,59.4,3.291,2.796,2.806,2.814,0.0,4.1,36.8,75.2,1016.54,-29.29,-2.17,1.42,34.3,45.2,40.2,0,no_anomaly,0.0,0,0,0,0,26.8466403,80.9461467,28.0,0.0
2024-02-20T17:13:13.000Z,MISSION_0029,130,1,orbit_base,SITE_LKN_010,26.8466419,80.946145,28.3,59.34,0.303,0.112,8.91,0.1304,-3.1151,59.3425,0.86854,0.01444,-0.02305,0.49487,0.0199,-0.0083,-9.7529,0.0763,0.405,-0.1831,0.1067,3,15,0.5,0.83,0.22,24.413,17.74,83.7,45.0,18422.0,9104,8741,8675,8885,61.0,62.2,58.4,63.1,2.695,2.688,2.883,2.702,0.71,16.5,36.7,73.7,1016.62,-37.41,-1.03,1.99,29.1,43.1,37.2,0,no_anomaly,0.0,0,0,0,0,26.8466419,80.946145,28.3,0.0
