timestamp_utc,mission_id,frame_id,waypoint_id,inspection_phase,site_id,latitude_deg,longitude_deg,altitude_m,heading_deg,ground_speed_ms,vertical_speed_ms,distance_to_tower_m,roll_deg,pitch_deg,yaw_deg,quat_w,quat_x,quat_y,quat_z,accel_x_ms2,accel_y_ms2,accel_z_ms2,gyro_x_rads,gyro_y_rads,gyro_z_rads,vibration_level,gps_fix_type,gps_satellite_count,gps_hdop,gps_vdop,position_error_m,battery_voltage_v,battery_current_a,battery_remaining_pct,battery_temp_c,battery_capacity_mah,motor_fl_rpm,motor_fr_rpm,motor_rl_rpm,motor_rr_rpm,motor_fl_temp_c,motor_fr_temp_c,motor_rl_temp_c,motor_rr_temp_c,motor_fl_thrust_n,motor_fr_thrust_n,motor_rl_thrust_n,motor_rr_thrust_n,wind_speed_ms,wind_dir_deg,air_temp_c,humidity_pct,pressure_hpa,gimbal_pitch_deg,gimbal_roll_deg,zoom_factor,ir_temp_min_c,ir_temp_max_c,ir_temp_avg_c,anomaly_detected,anomaly_class,anomaly_confidence,anomaly_bbox_x,anomaly_bbox_y,anomaly_bbox_w,anomaly_bbox_h,anomaly_gps_lat,anomaly_gps_lon,anomaly_gps_alt_m,ir_temp_delta_c
2024-07-23T13:29:00.000Z,MISSION_0045,0,0,takeoff,SITE_KOL_006,22.5726022,88.3639019,1.5,108.13,0.038,0.081,0.32,-0.0743,-2.343,108.1268,0.58678,0.01617,-0.01252,0.80949,-0.1211,0.0015,-9.759,-0.1462,-0.2534,-0.0157,0.2055,3,14,0.66,1.2,0.24,24.651,16.29,95.4,41.9,20978.0,8053,8221,8014,8353,59.7,58.3,58.7,58.9,2.774,2.649,2.851,2.653,1.1,163.8,34.2,78.8,1010.96,-30.78,0.92,1.46,26.6,44.5,37.0,0,no_anomaly,0.0,0,0,0,0,22.5726022,88.3639019,1.5,0.0
2024-07-23T13:29:00.100Z,MISSION_0045,1,0,takeoff,SITE_KOL_006,22.572604,88.3639014,3.0,107.1,0.261,0.042,0.47,-0.5671,-2.1628,107.1028,0.59406,0.01224,-0.01519,0.80418,-0.0579,0.0314,-9.8826,-0.8847,-0.0229,0.0988,0.0052,3,13,0.69,1.09,0.28,24.656,18.34,95.3,42.5,20967.0,8221,8147,8410,8311,57.3,58.8,59.7,61.7,2.644,2.834,2.541,2.572,1.36,157.3,34.4,79.2,1011.38,-30.37,0.84,1.77,32.9,42.0,36.9,0,no_anomaly,0.0,0,0,0,0,22.572604,88.3639014,3.0,0.0
2024-07-23T13:29:00.200Z,MISSION_0045,2,0,takeoff,SITE_KOL_006,22.5726032,88.3639059,4.5,106.57,0.219,0.066,0.75,-2.8118,2.0416,106.5661,0.59724,-0.02894,-0.00902,0.80149,-0.0475,0.1194,-9.9587,0.1716,0.15,0.0142,0.0519,3,19,0.75,0.75,0.4,24.663,22.33,95.2,43.2,20955.0,8018,8130,8206,8397,59.4,57.4,59.9,63.6,2.813,3.03,2.804,2.954,1.26,166.2,34.5,78.9,1010.39,-26.08,-0.19,1.55,27.6,41.8,37.7,0,no_anomaly,0.0,0,0,0,0,22.5726032,88.3639059,4.5,0.0
2024-07-23T13:29:00.300Z,MISSION_0045,3,0,takeoff,SITE_KOL_006,22.5726004,88.3639004,5.0,104.95,0.357,0.108,0.06,-1.1936,0.573,104.9539,0.609,-0.01031,-0.00522,0.79309,-0.0215,-0.0112,-9.7198,0.5483,0.557,0.1421,0.1614,3,18,0.81,0.87,0.46,24.742,9.73,95.2,41.4,20943.0,8336,8441,8158,8060,58.5,61.0,60.1,56.5,3.197,2.604,3.007,2.744,0.93,160.3,34.1,78.4,1011.16,-26.48,0.13,1.7,28.3,39.1,34.3,0,no_anomaly,0.0,0,0,0,0,22.5726004,88.3639004,5.0,0.0
2024-07-23T13:29:00.400Z,MISSION_0045,4,0,takeoff,SITE_KOL_006,22.5726055,88.3639013,5.0,104.29,0.636,0.148,0.63,1.5353,-1.2688,104.2877,0.61347,0.01696,0.00378,0.78953,-0.0686,-0.0306,-9.783,-0.485,0.2343,-0.0079,0.1855,3,11,0.65,0.85,0.2,24.742,20.38,95.1,41.8,20931.0,8178,8475,8457,8576,60.3,64.2,60.3,60.0,3.054,2.62,3.014,2.948,1.38,161.5,34.0,79.2,1011.27,-27.09,-0.6,1.07,31.4,40.6,36.0,0,no_anomaly,0.0,0,0,0,0,22.5726055,88.3639013,5.0,0.0
2024-07-23T13:29:00.500Z,MISSION_0045,5,0,takeoff,SITE_KOL_006,22.5726094,88.363899,5.0,103.42,0.485,0.101,1.05,-1.5777,-3.1755,103.4244,0.61961,0.01322,-0.02797,0.7843,-0.0137,-0.0223,-9.8846,0.3802,-0.877,0.1545,0.1779,3,20,0.63,1.1,0.28,24.652,19.49,95.1,41.8,20920.0,8115,8053,8133,8256,60.4,60.0,52.9,57.7,2.851,2.699,2.768,2.793,0.53,159.2,34.5,77.6,1011.28,-28.59,-0.13,1.44,28.8,45.6,36.1,0,no_anomaly,0.0,0,0,0,0,22.5726094,88.363899,5.0,0.0
2024-07-23T13:29:00.600Z,MISSION_0045,6,0,takeoff,SITE_KOL_006,22.5726078,88.3638937,5.0,102.92,0.992,0.128,1.12,0.9868,-2.0418,102.9209,0.62281,0.0193,-0.00437,0.78212,0.0201,-0.0447,-9.7879,0.5253,-1.0966,0.2155,0.1006,3,13,0.82,1.0,0.36,24.671,19.1,95.0,42.4,20908.0,8344,8111,8426,8084,59.8,56.3,59.2,59.2,2.801,2.575,2.658,2.986,1.79,162.3,34.5,78.7,1011.37,-29.19,-0.93,1.27,29.7,45.8,33.7,0,no_anomaly,0.0,0,0,0,0,22.5726078,88.3638937,5.0,0.0
2024-07-23T13:29:00.700Z,MISSION_0045,7,0,takeoff,SITE_KOL_006,22.5726082,88.3638912,5.0,102.15,0.927,0.104,1.34,-0.8292,-0.5011,102.1487,0.62831,-0.00114,-0.00838,0.77791,0.0316,-0.0371,-9.8535,-1.2962,-0.0126,0.1661,0.1029,3,20,0.67,1.01,0.23,24.647,17.08,95.0,41.8,20896.0,8162,8168,8463,8357,57.0,61.3,57.2,60.3,2.703,2.738,2.977,2.597,1.44,163.4,34.2,79.4,1010.93,-29.61,-0.26,1.6,28.1,37.1,32.1,0,no_anomaly,0.0,0,0,0,0,22.5726082,88.3638912,5.0,0.0
2024-07-23T13:29:00.800Z,MISSION_0045,8,0,takeoff,SITE_KOL_006,22.572614,88.363892,5.0,102.36,1.026,0.168,1.8,-2.4677,-2.6434,102.363,0.62693,0.00447,-0.03123,0.77844,0.0026,-0.0099,-9.8156,0.2238,-0.5079,-0.111,0.1612,3,19,0.88,1.04,0.43,24.689,20.1,94.9,42.0,20884.0,8456,8264,7934,8328,61.9,60.7,58.6,58.7,2.744,2.792,2.748,2.854,1.05,157.4,34.5,79.6,1010.93,-29.11,-0.06,1.16,29.8,43.2,38.4,0,no_anomaly,0.0,0,0,0,0,22.572614,88.363892,5.0,0.0
2024-07-23T13:29:00.900Z,MISSION_0045,9,0,takeoff,SITE_KOL_006,22.5726127,88.3638879,5.0,102.59,1.285,0.081,1.95,0.6729,-2.0783,102.5882,0.62513,0.01782,-0.00676,0.78029,0.0951,-0.0224,-9.8365,-0.6209,-0.495,0.0139,0.1418,3,19,0.68,0.89,0.28,24.74,13.23,94.9,42.4,20873.0,8255,8218,8327,8221,59.5,58.4,57.2,58.4,2.56,2.795,3.075,2.812,0.28,161.2,34.1,78.6,1011.01,-35.81,0.64,1.5,27.5,47.4,37.3,0,no_anomaly,0.0,0,0,0,0,22.5726127,88.3638879,5.0,0.0
2024-07-23T13:29:01.000Z,MISSION_0045,10,0,takeoff,SITE_KOL_006,22.5726121,88.3638951,5.0,104.82,1.278,0.065,1.45,-3.5401,1.3063,104.8189,0.6094,-0.02787,-0.01752,0.79218,0.0603,-0.0451,-9.8156,0.8308,-0.3969,-0.0851,0.1813,3,14,0.67,0.86,0.33,24.625,22.72,94.8,42.8,20861.0,8324,8568,8117,7842,62.4,59.9,61.1,61.4,3.013,2.912,2.785,3.048,0.9,163.0,34.3,79.8,1011.06,-26.9,1.14,1.37,29.1,46.6,39.4,0,no_anomaly,0.0,0,0,0,0,22.5726121,88.3638951,5.0,0.0
2024-07-23T13:29:01.100Z,MISSION_0045,11,0,takeoff,SITE_KOL_006,22.5726143,88.3638984,5.0,105.25,0.74,0.196,1.6,0.5381,-2.9089,105.2522,0.60672,0.02302,-0.01168,0.7945,0.101,0.0366,-9.6854,-0.5142,-0.0152,-0.2714,0.1716,3,17,0.61,0.9,0.2,24.633,17.01,94.8,42.6,20849.0,8238,8017,8460,8309,56.0,59.4,58.7,56.0,2.978,2.888,2.554,2.678,0.54,167.0,34.2,79.6,1010.6,-25.49,1.35,1.64,31.0,47.3,37.0,0,no_anomaly,0.0,0,0,0,0,22.5726143,88.3638984,5.0,0.0
2024-07-23T13:29:01.200Z,MISSION_0045,12,0,takeoff,SITE_KOL_006,22.5726154,88.3639005,5.0,102.03,0.971,0.14,1.72,-2.358,-3.7,102.0251,0.62921,0.01215,-0.03629,0.7763,0.022,-0.0438,-9.9115,0.7214,0.6702,-0.0302,0.1344,3,18,0.82,1.13,0.2,24.697,24.51,94.7,42.7,20837.0,8453,8348,8159,8225,58.5,57.3,61.6,58.5,2.838,2.898,2.616,2.962,1.29,152.8,34.6,78.3,1011.37,-32.83,0.61,1.63,27.5,42.8,38.9,0,no_anomaly,0.0,0,0,0,0,22.5726154,88.3639005,5.0,0.0
2024-07-23T13:29:01.300Z,MISSION_0045,13,0,takeoff,SITE_KOL_006,22.5726179,88.3639022,5.0,101.34,1.285,0.049,2.01,2.9774,-0.5479,101.3392,0.63347,0.02016,0.01707,0.77331,-0.0751,0.0333,-9.8784,0.1004,0.2067,-0.1663,0.2054,3,10,0.59,0.9,0.22,24.695,13.52,94.7,42.2,20825.0,8444,8204,8085,8208,55.2,61.1,60.4,58.1,2.709,2.985,2.84,2.743,1.1,156.1,34.0,78.4,1010.84,-32.42,-1.69,1.55,29.0,47.1,36.9,0,no_anomaly,0.0,0,0,0,0,22.5726179,88.3639022,5.0,0.0
2024-07-23T13:29:01.400Z,MISSION_0045,14,0,takeoff,SITE_KOL_006,22.5726169,88.3639015,5.0,99.68,1.324,0.129,1.89,-2.9751,-4.1336,99.6795,0.64501,0.01082,-0.04308,0.76289,-0.0317,0.0607,-9.7972,0.4996,-0.7443,-0.086,0.1105,3,13,0.94,0.6,0.36,24.753,15.58,94.6,41.6,20814.0,8134,8154,8172,8331,61.6,58.7,56.4,62.4,2.85,2.624,2.692,2.893,1.57,161.3,34.2,78.5,1010.99,-37.35,0.3,1.65,28.6,42.7,39.8,0,no_anomaly,0.0,0,0,0,0,22.5726169,88.3639015,5.0,0.0
2024-07-23T13:29:01.500Z,MISSION_0045,15,0,takeoff,SITE_KOL_006,22.5726155,88.3638994,5.0,98.86,0.879,0.152,1.72,1.7048,-2.5543,98.8627,0.64987,0.0266,-0.0032,0.75957,-0.0304,-0.0166,-9.8188,0.0489,-0.2559,0.2927,0.1211,3,12,0.6,0.77,0.26,24.628,22.29,94.6,42.2,20802.0,8076,8317,8275,8110,58.7,56.7,60.6,58.2,2.781,2.762,2.73,2.823,2.15,161.5,34.0,79.0,1011.49,-29.71,-1.21,1.79,27.0,40.5,34.8,0,no_anomaly,0.0,0,0,0,0,22.5726155,88.3638994,5.0,0.0
2024-07-23T13:29:01.600Z,MISSION_0045,16,0,takeoff,SITE_KOL_006,22.5726206,88.3639014,5.0,97.92,0.504,0.098,2.3,-0.476,-2.5912,97.9162,0.65651,0.01433,-0.01798,0.75397,0.0464,0.0435,-9.8261,0.3597,0.1687,0.1844,0.2286,3,18,0.66,0.81,0.29,24.712,15.53,94.5,41.5,20790.0,8451,8220,8096,8315,58.0,59.7,60.0,59.5,2.715,2.705,2.831,2.831,0.91,159.8,34.1,78.5,1010.98,-28.2,-0.1,1.4,31.7,47.5,34.2,0,no_anomaly,0.0,0,0,0,0,22.5726206,88.3639014,5.0,0.0
2024-07-23T13:29:01.700Z,MISSION_0045,17,0,takeoff,SITE_KOL_006,22.5726165,88.3639029,5.0,97.75,0.234,0.081,1.86,-0.8175,-0.3227,97.7522,0.65769,-0.00257,-0.00723,0.75325,-0.0721,-0.0231,-9.7844,0.7357,0.1667,-0.0921,0.1385,3,15,0.59,0.88,0.23,24.644,17.64,94.4,43.1,20778.0,8324,8223,8427,8126,59.1,62.6,63.4,62.9,2.811,2.857,2.865,2.652,0.93,156.5,34.0,78.5,1011.11,-25.05,0.66,1.72,32.1,41.0,35.1,0,no_anomaly,0.0,0,0,0,0,22.5726165,88.3639029,5.0,0.0
2024-07-23T13:29:01.800Z,MISSION_0045,18,0,takeoff,SITE_KOL_006,22.5726148,88.3639043,5.0,97.03,0.303,0.142,1.71,-3.6356,-2.0777,97.0337,0.66239,-0.00743,-0.03576,0.74827,0.1506,-0.0273,-9.7678,-0.7051,0.145,0.028,0.0705,3,11,0.63,0.86,0.22,24.648,16.9,94.4,42.1,20767.0,8280,8143,7965,8268,58.6,56.7,57.6,58.6,2.887,2.921,2.852,2.673,0.79,160.3,34.4,78.9,1011.38,-32.86,-0.84,1.82,27.8,38.6,38.2,0,no_anomaly,0.0,0,0,0,0,22.5726148,88.3639043,5.0,0.0
2024-07-23T13:29:01.900Z,MISSION_0045,19,0,takeoff,SITE_KOL_006,22.572617,88.3639053,5.0,96.56,0.341,0.007,1.98,3.8796,-3.0185,96.5579,0.66423,0.04217,0.00774,0.7463,-0.0878,0.0276,-9.8006,0.0735,0.2258,-0.1427,0.1558,3,19,0.74,0.77,0.28,24.646,13.3,94.3,42.5,20755.0,8573,8396,8097,8156,57.8,59.0,55.4,56.9,2.992,2.724,2.745,2.821,1.33,156.6,34.2,78.6,1011.19,-30.85,-0.71,1.6,32.4,43.5,36.9,0,no_anomaly,0.0,0,0,0,0,22.572617,88.3639053,5.0,0.0
2024-07-23T13:29:02.000Z,MISSION_0045,20,0,takeoff,SITE_KOL_006,22.572616,88.3639002,5.0,94.97,0.623,0.145,1.79,2.2784,-2.5657,94.9744,0.67512,0.02993,-0.00047,0.7371,0.2013,0.0843,-9.7631,0.622,0.7718,-0.2983,0.0872,3,15,0.79,1.12,0.33,24.659,15.32,94.3,42.9,20743.0,8330,8374,8198,8336,59.3,58.1,60.5,60.9,2.624,2.776,2.708,2.963,0.18,163.3,34.1,78.8,1010.98,-31.42,0.95,1.56,30.2,41.6,36.2,0,no_anomaly,0.0,0,0,0,0,22.572616,88.3639002,5.0,0.0
2024-07-23T13:29:02.100Z,MISSION_0045,21,0,takeoff,SITE_KOL_006,22.5726139,88.3639038,5.0,94.42,0.725,0.159,1.61,1.5387,0.121,94.4176,0.67928,0.00835,0.01057,0.73376,-0.0005,0.0265,-9.7841,-0.375,-0.6493,-0.1426,0.0597,3,15,0.74,1.01,0.41,24.626,16.95,94.2,41.9,20731.0,8209,8234,8152,8251,57.5,58.2,56.7,60.2,2.355,2.859,2.7,2.567,1.39,160.9,34.2,78.6,1010.83,-31.37,-0.05,1.11,30.0,40.0,33.9,0,no_anomaly,0.0,0,0,0,0,22.5726139,88.3639038,5.0,0.0
2024-07-23T13:29:02.200Z,MISSION_0045,22,0,takeoff,SITE_KOL_006,22.5726187,88.3639037,5.0,93.34,1.006,0.133,2.12,5.2209,-2.1815,93.3436,0.68471,0.04508,0.02008,0.72714,-0.0566,0.0805,-9.839,0.1819,-0.3355,-0.1043,0.0554,3,14,0.79,0.71,0.32,24.675,18.81,94.2,41.7,20720.0,8470,7938,7950,7669,58.4,57.4,58.6,58.1,2.765,2.725,2.941,2.844,1.35,158.9,34.4,78.3,1011.17,-27.19,1.69,1.02,28.0,44.2,35.5,0,no_anomaly,0.0,0,0,0,0,22.5726187,88.3639037,5.0,0.0
2024-07-23T13:29:02.300Z,MISSION_0045,23,0,takeoff,SITE_KOL_006,22.5726165,88.3639039,5.0,92.52,1.127,0.084,1.89,-0.832,-1.2363,92.5152,0.69142,0.00277,-0.0127,0.72234,-0.0482,0.016,-9.8225,0.8042,0.8601,0.6388,0.193,3,18,0.65,0.98,0.2,24.661,15.8,94.1,40.7,20708.0,8281,8220,8355,8422,57.5,59.9,61.9,62.0,2.915,2.944,2.706,2.703,2.0,158.6,34.6,79.1,1011.46,-31.92,2.02,1.25,30.9,49.3,36.7,0,no_anomaly,0.0,0,0,0,0,22.5726165,88.3639039,5.0,0.0
2024-07-23T13:29:02.400Z,MISSION_0045,24,0,takeoff,SITE_KOL_006,22.572612,88.3639033,5.0,91.24,0.554,0.086,1.38,-3.4252,-1.1253,91.2353,0.69931,-0.01389,-0.02822,0.71413,0.0045,-0.0032,-9.8343,-0.5921,0.6859,-0.0019,0.0797,3,13,0.54,0.89,0.24,24.677,16.31,94.1,42.7,20696.0,8413,8000,8200,8226,55.8,61.6,57.6,56.3,2.64,2.659,3.026,2.932,0.21,167.1,34.3,79.0,1011.01,-30.84,-0.46,1.48,27.8,41.0,39.4,0,no_anomaly,0.0,0,0,0,0,22.572612,88.3639033,5.0,0.0
2024-07-23T13:29:02.500Z,MISSION_0045,25,0,takeoff,SITE_KOL_006,22.5726107,88.3639011,5.0,92.95,0.634,0.046,1.19,-1.0396,-3.9315,92.9475,0.68848,0.01863,-0.0302,0.72439,0.0496,-0.0715,-9.7449,0.0395,-1.0445,0.2085,0.1788,3,19,0.73,0.94,0.22,24.749,14.34,94.0,42.2,20684.0,8183,8146,8057,8284,58.8,56.5,59.9,59.0,2.743,2.697,2.913,2.965,1.17,161.6,34.1,78.6,1011.45,-29.48,-0.68,1.96,29.6,45.0,35.0,0,no_anomaly,0.0,0,0,0,0,22.5726107,88.3639011,5.0,0.0
2024-07-23T13:29:02.600Z,MISSION_0045,26,0,takeoff,SITE_KOL_006,22.5726097,88.3638997,5.0,91.69,0.528,0.092,1.08,1.3507,-2.2605,91.6857,0.69628,0.02236,-0.00529,0.7174,0.1561,0.0033,-9.6695,0.4164,-0.5527,0.1211,0.2435,3,18,0.52,0.69,0.25,24.585,18.05,94.0,41.9,20673.0,8318,8237,8405,8147,57.5,60.3,54.4,56.6,2.808,2.45,2.811,2.687,0.46,157.4,34.4,79.0,1010.98,-37.04,0.05,1.74,29.0,45.4,35.1,0,no_anomaly,0.0,0,0,0,0,22.5726097,88.3638997,5.0,0.0
2024-07-23T13:29:02.700Z,MISSION_0045,27,0,takeoff,SITE_KOL_006,22.5726093,88.3638957,5.0,93.0,0.162,0.048,1.14,0.6293,-2.9722,92.9959,0.68804,0.02259,-0.01387,0.72519,-0.1022,-0.0258,-9.8471,0.0339,0.0401,-0.3295,0.1982,3,12,0.58,0.75,0.28,24.672,20.36,93.9,42.8,20661.0,8537,8416,8261,8240,60.0,59.8,61.3,57.1,2.788,2.647,2.606,2.742,0.63,156.2,34.2,78.6,1011.31,-32.12,-0.72,1.95,29.8,43.9,34.8,0,no_anomaly,0.0,0,0,0,0,22.5726093,88.3638957,5.0,0.0
2024-07-23T13:29:02.800Z,MISSION_0045,28,0,takeoff,SITE_KOL_006,22.5726119,88.3639002,5.0,91.46,0.608,0.119,1.33,-1.2662,-3.3275,91.4646,0.6979,0.01308,-0.02817,0.71552,-0.0127,0.0449,-9.8068,0.6718,-0.6212,-0.5955,0.0935,3,14,0.58,0.89,0.32,24.667,15.9,93.9,42.3,20649.0,8243,8369,8197,7992,56.4,62.4,60.2,60.3,2.985,2.725,2.882,2.936,0.83,162.1,34.5,79.7,1011.06,-26.23,0.69,1.45,31.2,46.4,37.6,0,no_anomaly,0.0,0,0,0,0,22.5726119,88.3639002,5.0,0.0
2024-07-23T13:29:02.900Z,MISSION_0045,29,0,takeoff,SITE_KOL_006,22.572609,88.3639012,5.0,90.88,0.385,0.1,1.01,1.3441,-2.8011,90.8822,0.70118,0.02564,-0.00879,0.71247,0.0569,0.0512,-9.7719,0.1808,-0.2785,0.5454,0.136,3,18,0.68,0.76,0.31,24.616,19.81,93.8,42.8,20637.0,8653,8288,8059,8415,57.7,58.0,61.1,59.5,2.907,2.704,2.922,2.547,1.61,170.9,34.2,79.2,1010.97,-29.49,-0.55,1.0,33.0,43.8,36.6,0,no_anomaly,0.0,0,0,0,0,22.572609,88.3639012,5.0,0.0
2024-07-23T13:29:03.000Z,MISSION_0045,30,0,takeoff,SITE_KOL_006,22.5726104,88.363904,5.0,89.95,0.607,0.158,1.24,-2.5709,-3.6342,89.9463,0.70741,0.00654,-0.03827,0.70574,-0.0094,0.0088,-9.7799,0.0871,-0.4414,0.272,0.1653,3,15,0.54,0.98,0.2,24.596,17.55,93.8,42.6,20626.0,8249,8031,7996,8271,59.2,58.4,62.2,57.3,3.017,3.03,2.778,2.85,0.64,157.0,34.6,78.7,1011.02,-36.11,1.65,1.52,27.6,44.1,36.0,0,no_anomaly,0.0,0,0,0,0,22.5726104,88.363904,5.0,0.0
2024-07-23T13:29:03.100Z,MISSION_0045,31,0,takeoff,SITE_KOL_006,22.5726147,88.3639083,5.0,89.15,0.743,0.135,1.88,1.9476,-1.6028,89.1456,0.71202,0.02192,0.00196,0.70181,0.0218,0.0691,-9.8005,0.4838,-0.0504,0.458,0.138,3,18,0.95,1.19,0.37,24.607,18.0,93.7,42.8,20614.0,8289,8194,8480,8476,58.2,59.5,57.6,61.2,2.889,2.534,2.648,3.036,1.21,158.8,34.0,79.0,1011.12,-35.09,1.17,1.35,31.2,40.9,38.7,0,no_anomaly,0.0,0,0,0,0,22.5726147,88.3639083,5.0,0.0
2024-07-23T13:29:03.200Z,MISSION_0045,32,0,takeoff,SITE_KOL_006,22.572614,88.363906,5.0,88.18,1.357,0.158,1.69,3.0356,-0.9383,88.1794,0.71782,0.02472,0.01255,0.69567,0.1475,-0.1197,-9.7852,0.4343,-0.53,0.259,0.0389,3,11,0.5,0.83,0.25,24.636,16.85,93.6,41.8,20602.0,8477,8050,8271,8387,57.8,58.2,55.6,62.6,2.794,2.617,2.829,2.68,0.15,151.5,34.5,78.5,1011.25,-28.46,-0.89,1.91,28.9,44.7,35.1,0,no_anomaly,0.0,0,0,0,0,22.572614,88.363906,5.0,0.0
2024-07-23T13:29:03.300Z,MISSION_0045,33,0,takeoff,SITE_KOL_006,22.5726142,88.3639121,5.0,84.48,1.178,0.176,2.08,-0.6534,-2.8829,84.4818,0.74017,0.01269,-0.02245,0.67192,-0.0938,0.0331,-9.8195,-0.405,0.2818,0.6755,0.0857,3,16,0.56,0.92,0.29,24.654,13.26,93.6,42.6,20590.0,8106,8295,8276,8185,58.6,58.4,60.9,61.3,2.908,2.663,2.729,2.733,0.83,169.3,34.8,78.8,1011.25,-28.96,0.37,1.44,30.8,47.7,37.6,0,no_anomaly,0.0,0,0,0,0,22.5726142,88.3639121,5.0,0.0
2024-07-23T13:29:03.400Z,MISSION_0045,34,0,takeoff,SITE_KOL_006,22.5726139,88.3639111,5.0,84.05,0.782,0.097,1.98,-2.0188,-2.3018,84.0471,0.74284,0.00036,-0.02671,0.66893,-0.0419,-0.0568,-9.7464,0.324,-0.6738,-0.355,0.1784,3,17,0.5,1.0,0.2,24.682,18.04,93.5,41.9,20578.0,8240,8441,8122,8245,59.8,60.7,58.8,61.0,2.825,2.827,3.059,2.712,1.12,155.4,34.3,79.0,1010.99,-35.6,0.17,1.43,30.9,49.6,40.0,0,no_anomaly,0.0,0,0,0,0,22.5726139,88.3639111,5.0,0.0
2024-07-23T13:29:03.500Z,MISSION_0045,35,0,takeoff,SITE_KOL_006,22.5726171,88.3639127,5.0,84.4,0.332,0.092,2.37,2.4429,-1.1885,84.4002,0.74045,0.02276,0.00664,0.6717,0.0683,-0.0463,-9.835,-0.1951,0.5573,-0.0154,0.1703,3,19,0.78,0.75,0.32,24.572,18.43,93.5,43.3,20567.0,8258,8018,8186,8297,56.6,58.2,59.2,60.2,2.568,2.819,2.791,2.875,1.29,156.5,34.2,78.6,1010.81,-26.6,-0.88,1.29,32.0,45.7,39.2,0,no_anomaly,0.0,0,0,0,0,22.5726171,88.3639127,5.0,0.0
2024-07-23T13:29:03.600Z,MISSION_0045,36,0,takeoff,SITE_KOL_006,22.5726156,88.3639139,5.0,83.23,0.433,0.148,2.32,2.0156,-0.51,83.2349,0.74742,0.0161,0.00835,0.6641,-0.0112,-0.0176,-9.833,-0.111,0.3006,0.285,0.0891,3,19,0.66,0.82,0.32,24.679,18.5,93.4,43.0,20555.0,8382,8116,8509,8331,57.6,62.3,59.9,62.4,2.903,2.704,2.713,2.785,1.61,161.6,34.4,78.8,1010.83,-30.71,0.57,1.93,28.1,43.8,37.3,0,no_anomaly,0.0,0,0,0,0,22.5726156,88.3639139,5.0,0.0
2024-07-23T13:29:03.700Z,MISSION_0045,37,0,takeoff,SITE_KOL_006,22.5726107,88.3639118,5.0,83.6,0.308,0.163,1.77,-0.7059,-3.026,83.5964,0.74533,0.01301,-0.02379,0.66614,-0.0808,0.0421,-9.8201,-0.9992,-0.118,0.1769,0.0908,3,12,0.65,1.04,0.3,24.576,19.12,93.4,42.4,20543.0,8282,8220,8323,8335,58.8,56.1,56.2,59.5,2.894,2.811,2.788,2.806,0.0,160.8,34.1,78.5,1011.06,-36.42,-0.82,1.94,27.3,46.1,38.4,0,no_anomaly,0.0,0,0,0,0,22.5726107,88.3639118,5.0,0.0
2024-07-23T13:29:03.800Z,MISSION_0045,38,0,takeoff,SITE_KOL_006,22.5726117,88.3639106,5.0,85.16,0.0,0.032,1.75,-0.5901,0.2118,85.1597,0.73632,-0.00504,-0.00212,0.67661,0.142,0.1129,-9.8905,0.2217,0.1944,0.0695,0.1653,3,10,0.69,0.95,0.36,24.644,15.74,93.3,41.9,20531.0,8344,8316,8478,8517,60.3,56.6,56.6,57.3,2.894,2.835,2.848,2.863,1.12,161.5,34.4,78.4,1010.97,-29.57,0.77,1.62,27.3,46.1,35.9,0,no_anomaly,0.0,0,0,0,0,22.5726117,88.3639106,5.0,0.0
2024-07-23T13:29:03.900Z,MISSION_0045,39,0,takeoff,SITE_KOL_006,22.5726127,88.3639117,5.0,87.12,0.0,0.043,1.93,0.3833,-0.7297,87.1233,0.7246,0.00681,-0.00231,0.68913,0.0958,-0.0241,-9.8303,0.043,0.3509,-0.5017,0.1076,3,13,0.58,0.82,0.33,24.618,9.58,93.3,42.7,20520.0,8092,8162,8445,8207,55.3,61.4,59.1,59.8,2.691,2.595,2.837,2.675,1.29,150.3,34.1,78.4,1011.1,-32.45,-0.96,1.62,30.7,40.9,34.6,0,no_anomaly,0.0,0,0,0,0,22.5726127,88.3639117,5.0,0.0
2024-07-23T13:29:04.000Z,MISSION_0045,40,0,takeoff,SITE_KOL_006,22.5726151,88.3639086,5.0,86.69,0.232,0.109,1.94,-0.9935,-4.5329,86.6948,0.72684,0.02084,-0.0347,0.68561,-0.0261,0.0202,-9.8231,-0.774,0.1738,-0.0582,0.1566,3,17,0.89,0.88,0.37,24.535,20.17,93.2,42.4,20508.0,8229,8192,8432,8178,59.1,57.4,62.1,62.0,2.762,2.629,3.08,2.493,0.98,159.7,34.2,78.8,1010.81,-31.71,-0.59,1.64,27.4,44.1,35.5,0,no_anomaly,0.0,0,0,0,0,22.5726151,88.3639086,5.0,0.0
2024-07-23T13:29:04.100Z,MISSION_0045,41,0,takeoff,SITE_KOL_006,22.5726117,88.3639125,5.0,87.35,0.606,0.102,1.9,1.3313,-2.5109,87.3481,0.72288,0.02353,-0.00783,0.69053,0.0205,-0.0182,-9.8388,-0.4225,0.4473,0.1037,0.116,3,17,0.86,0.94,0.44,24.545,19.24,93.2,42.6,20496.0,8475,8568,8236,8337,58.3,62.0,58.6,59.3,2.874,2.83,2.731,2.919,0.6,157.4,34.3,79.5,1011.18,-29.18,-0.43,1.62,27.8,41.2,39.4,0,no_anomaly,0.0,0,0,0,0,22.5726117,88.3639125,5.0,0.0
2024-07-23T13:29:04.200Z,MISSION_0045,42,0,takeoff,SITE_KOL_006,22.5726084,88.3639198,5.0,88.23,0.801,0.142,2.4,-1.9284,-0.8823,88.2271,0.71793,-0.00672,-0.01724,0.69587,-0.0835,-0.0171,-9.6852,-0.5609,0.0017,-0.2414,0.0689,3,13,0.76,0.77,0.33,24.528,21.75,93.1,42.5,20484.0,8240,8227,8607,8224,57.7,58.1,56.7,61.0,2.853,3.087,2.592,2.877,0.95,165.7,34.3,79.1,1011.08,-28.86,-1.44,1.75,26.7,47.9,34.0,0,no_anomaly,0.0,0,0,0,0,22.5726084,88.3639198,5.0,0.0
2024-07-23T13:29:04.300Z,MISSION_0045,43,0,takeoff,SITE_KOL_006,22.5726094,88.3639241,5.0,88.32,1.333,0.101,2.88,-0.6828,-0.3433,88.3235,0.71737,-0.00219,-0.0063,0.69666,-0.1627,-0.0119,-9.7194,0.96,0.0631,-0.1641,0.1186,3,18,0.66,0.94,0.24,24.554,19.16,93.1,42.4,20473.0,8206,8221,8528,8077,59.9,58.7,60.7,57.9,2.923,2.857,2.881,2.758,0.0,161.1,33.9,78.0,1011.36,-29.64,0.63,1.56,29.2,46.6,35.1,0,no_anomaly,0.0,0,0,0,0,22.5726094,88.3639241,5.0,0.0
2024-07-23T13:29:04.400Z,MISSION_0045,44,0,takeoff,SITE_KOL_006,22.5726111,88.3639248,5.0,86.28,1.316,0.05,3.02,0.3436,-3.653,86.2757,0.72927,0.02398,-0.02121,0.68348,-0.0484,0.0209,-9.8059,-0.7357,-0.2438,-0.0196,0.0866,3,16,0.78,1.06,0.35,24.574,16.31,93.0,42.3,20461.0,8081,8410,8487,8050,61.3,63.7,57.3,57.9,2.691,2.924,2.962,2.839,1.37,162.4,34.4,79.0,1011.19,-25.71,0.68,1.79,29.1,50.6,37.6,0,no_anomaly,0.0,0,0,0,0,22.5726111,88.3639248,5.0,0.0
2024-07-23T13:29:04.500Z,MISSION_0045,45,0,takeoff,SITE_KOL_006,22.5726113,88.3639194,5.0,86.2,1.694,0.053,2.5,-3.3314,-2.1209,86.1977,0.73011,-0.00858,-0.03337,0.68246,-0.0265,0.0244,-9.8043,-0.196,-0.1213,-0.0768,0.1971,3,12,0.55,0.81,0.21,24.605,14.87,93.0,42.5,20449.0,8100,8279,8288,8347,57.0,54.6,58.8,58.9,2.989,2.804,2.974,2.893,1.25,162.3,33.9,78.6,1011.37,-30.8,-0.46,1.22,29.2,46.3,38.9,0,no_anomaly,0.0,0,0,0,0,22.5726113,88.3639194,5.0,0.0
2024-07-23T13:29:04.600Z,MISSION_0045,46,0,takeoff,SITE_KOL_006,22.5726097,88.3639213,5.0,85.19,1.797,0.075,2.61,0.4012,-3.0344,85.1938,0.73581,0.0205,-0.01712,0.67666,0.0288,0.0692,-9.814,-0.2111,-0.2669,-0.0844,0.105,3,15,0.72,0.7,0.31,24.692,21.3,92.9,42.0,20437.0,8175,8353,8309,8116,60.4,59.9,60.4,60.3,2.641,2.964,3.035,3.021,0.9,163.7,34.2,78.6,1011.31,-25.47,2.54,1.35,30.7,45.9,38.7,0,no_anomaly,0.0,0,0,0,0,22.5726097,88.3639213,5.0,0.0
2024-07-23T13:29:04.700Z,MISSION_0045,47,0,takeoff,SITE_KOL_006,22.5726062,88.3639219,5.0,85.82,1.612,0.082,2.54,0.1342,-0.571,85.8167,0.73243,0.00425,-0.00285,0.68082,-0.0132,0.0911,-9.8243,-0.8202,-0.479,-0.0698,0.097,3,20,0.5,0.94,0.2,24.651,21.37,92.8,42.0,20426.0,8442,7934,8096,8334,59.2,54.1,57.9,58.0,2.937,2.686,2.796,2.932,0.57,168.9,34.1,78.4,1010.99,-30.32,0.68,1.21,28.7,41.0,34.2,0,no_anomaly,0.0,0,0,0,0,22.5726062,88.3639219,5.0,0.0
2024-07-23T13:29:04.800Z,MISSION_0045,48,0,takeoff,SITE_KOL_006,22.5726085,88.3639262,5.0,86.2,1.344,0.041,3.07,-1.238,-3.4214,86.202,0.73,0.01251,-0.02917,0.68271,0.0,-0.0337,-9.7934,-0.4325,-0.1478,0.0822,0.1543,3,11,0.67,0.76,0.3,24.609,17.71,92.8,42.2,20414.0,8181,8445,8286,8144,58.4,59.6,58.8,60.1,2.9,2.66,2.564,2.764,0.7,158.9,34.3,79.1,1011.0,-32.76,-0.78,1.4,28.5,43.8,36.3,0,no_anomaly,0.0,0,0,0,0,22.5726085,88.3639262,5.0,0.0
2024-07-23T13:29:04.900Z,MISSION_0045,49,0,takeoff,SITE_KOL_006,22.5726048,88.3639315,5.0,85.2,1.501,0.098,3.55,3.3044,-3.9035,85.2048,0.73467,0.04426,-0.00555,0.67696,0.022,-0.0896,-9.8046,-0.8691,-0.8104,0.3008,0.1456,3,14,0.58,0.88,0.21,24.607,21.12,92.7,40.8,20402.0,8075,8470,8314,8155,59.5,61.7,56.8,60.6,2.623,2.731,2.817,2.661,0.45,152.3,34.2,79.3,1011.07,-26.57,1.07,1.68,32.5,44.3,38.9,0,no_anomaly,0.0,0,0,0,0,22.5726048,88.3639315,5.0,0.0
2024-07-23T13:29:05.000Z,MISSION_0045,50,0,takeoff,SITE_KOL_006,22.572603,88.3639313,5.0,85.73,1.776,0.165,3.5,1.158,-1.0616,85.7317,0.73282,0.01371,8e-05,0.68029,-0.1124,0.0133,-9.867,0.4899,0.0215,0.4593,0.1092,3,18,0.79,0.75,0.3,24.729,15.03,92.7,42.5,20390.0,8186,8131,8154,8239,56.9,57.3,61.0,56.1,2.985,2.699,2.884,2.765,0.55,159.4,34.4,79.1,1011.19,-27.0,0.69,1.0,28.6,42.7,35.3,0,no_anomaly,0.0,0,0,0,0,22.572603,88.3639313,5.0,0.0
2024-07-23T13:29:05.100Z,MISSION_0045,51,0,takeoff,SITE_KOL_006,22.5725997,88.3639302,5.0,87.47,1.359,0.138,3.36,0.9415,-1.8849,87.4665,0.72235,0.01731,-0.00621,0.69128,-0.0186,-0.0701,-9.8365,0.5558,-0.3573,0.0307,0.1231,3,17,0.72,0.94,0.4,24.505,13.43,92.6,41.7,20379.0,8242,8282,8235,8200,59.0,59.8,56.9,62.9,2.973,2.793,2.649,3.048,1.32,164.6,34.1,79.4,1011.18,-29.88,-1.94,2.61,30.2,48.5,39.8,0,no_anomaly,0.0,0,0,0,0,22.5725997,88.3639302,5.0,0.0
2024-07-23T13:29:05.200Z,MISSION_0045,52,0,transit,SITE_KOL_006,22.5725987,88.3639284,5.5,85.87,1.377,0.088,3.16,-1.6494,-2.7275,85.8666,0.7321,0.00567,-0.02722,0.68063,-0.0702,-0.0043,-9.8645,0.4719,0.7919,-0.1005,0.1078,3,12,0.7,0.91,0.21,24.591,15.37,92.6,42.9,20367.0,8248,8105,8153,8251,58.2,56.8,58.9,59.6,2.881,2.736,2.874,3.063,1.16,159.6,34.1,79.4,1011.26,-28.15,1.19,1.12,33.1,49.9,36.0,0,no_anomaly,0.0,0,0,0,0,22.5725987,88.3639284,5.5,0.0
2024-07-23T13:29:05.300Z,MISSION_0045,53,0,transit,SITE_KOL_006,22.572603,88.3639327,6.0,84.85,0.706,0.217,3.66,-2.3816,-4.6415,84.8494,0.73797,0.01198,-0.04389,0.6733,0.1365,-0.0483,-9.7941,-0.2868,-0.1434,0.2834,0.0281,3,13,0.57,0.96,0.21,24.701,14.52,92.5,42.4,20355.0,8199,8329,8263,8277,55.5,62.1,61.1,63.5,2.727,2.692,2.772,2.853,1.34,160.2,34.7,79.1,1010.74,-29.78,0.32,1.47,30.4,48.6,35.6,0,no_anomaly,0.0,0,0,0,0,22.572603,88.3639327,6.0,0.0
2024-07-23T13:29:05.400Z,MISSION_0045,54,0,transit,SITE_KOL_006,22.572602,88.3639316,6.5,82.94,0.479,0.117,3.53,1.9822,0.0169,82.9428,0.74918,0.01286,0.01157,0.66214,0.0284,-0.0554,-9.8333,-0.2837,-0.4305,0.19,0.1337,3,16,0.6,0.98,0.34,24.599,16.72,92.5,42.4,20343.0,8043,8551,8369,8253,60.0,55.7,59.6,59.2,2.867,2.885,2.819,2.797,1.82,152.2,34.0,78.2,1010.76,-31.71,0.88,1.27,26.3,40.7,35.9,0,no_anomaly,0.0,0,0,0,0,22.572602,88.3639316,6.5,0.0
2024-07-23T13:29:05.500Z,MISSION_0045,55,0,transit,SITE_KOL_006,22.5725993,88.3639354,7.0,82.87,0.883,0.043,3.95,-3.7621,-2.5161,82.8743,0.74957,-0.01008,-0.03817,0.66074,0.0625,0.0173,-9.9082,-0.1923,-0.3006,-0.1332,0.1635,3,16,0.71,1.05,0.38,24.535,22.89,92.4,42.5,20332.0,8448,8321,8204,8117,57.4,61.0,57.8,56.1,2.516,2.74,2.653,2.754,0.25,155.4,33.9,78.6,1011.15,-32.37,0.07,1.6,28.0,40.8,36.0,0,no_anomaly,0.0,0,0,0,0,22.5725993,88.3639354,7.0,0.0
2024-07-23T13:29:05.600Z,MISSION_0045,56,0,transit,SITE_KOL_006,22.5725989,88.3639352,7.5,82.55,0.731,0.105,3.92,-0.3768,-4.2175,82.5531,0.7511,0.0218,-0.02982,0.65915,0.0238,0.0487,-9.7925,-0.4549,-0.5341,0.1038,0.0508,3,15,0.61,0.93,0.29,24.528,19.9,92.4,42.2,20320.0,8432,8427,8210,7916,61.4,60.9,57.9,58.7,2.77,2.965,2.737,2.933,2.13,165.8,33.9,78.4,1010.95,-33.1,0.18,1.3,28.1,40.6,36.1,0,no_anomaly,0.0,0,0,0,0,22.5725989,88.3639352,7.5,0.0
2024-07-23T13:29:05.700Z,MISSION_0045,57,0,transit,SITE_KOL_006,22.572602,88.3639317,8.0,80.07,0.294,0.076,3.54,0.8833,-1.3463,80.074,0.7655,0.01346,-0.00404,0.64329,-0.1202,-0.0169,-9.7307,0.6646,0.3623,0.4186,0.1223,3,12,0.79,1.1,0.27,24.609,16.37,92.3,42.6,20308.0,8356,8243,8274,8017,59.3,58.3,57.1,61.3,3.052,2.659,2.898,2.658,1.04,159.7,34.3,79.1,1010.83,-31.4,-0.12,1.03,28.4,42.6,35.8,0,no_anomaly,0.0,0,0,0,0,22.572602,88.3639317,8.0,0.0
2024-07-23T13:29:05.800Z,MISSION_0045,58,0,transit,SITE_KOL_006,22.5726035,88.3639327,8.5,82.0,0.576,0.181,3.67,0.162,0.1774,82.0046,0.75468,5e-05,0.0021,0.65609,-0.0713,-0.0137,-9.7735,0.1211,-0.3625,-0.0107,0.1488,3,20,0.62,0.74,0.23,24.681,19.44,92.3,42.5,20296.0,8422,8106,8237,7977,60.2,59.0,59.1,57.1,2.784,2.92,2.784,3.048,1.82,161.3,34.2,78.9,1010.87,-33.4,-2.37,1.71,31.5,46.2,35.9,0,no_anomaly,0.0,0,0,0,0,22.5726035,88.3639327,8.5,0.0
2024-07-23T13:29:05.900Z,MISSION_0045,59,0,transit,SITE_KOL_006,22.5726054,88.3639323,9.0,84.28,0.264,0.079,3.65,3.0583,-0.7905,84.2822,0.74109,0.02441,0.01279,0.67084,-0.0306,-0.0735,-9.8352,0.7551,-0.6642,0.3805,0.22,3,11,0.68,0.88,0.2,24.643,15.15,92.2,41.9,20284.0,8431,8412,8264,8188,59.6,57.6,55.2,56.9,2.917,2.692,2.983,3.095,2.23,156.1,34.2,79.3,1011.08,-29.26,-0.91,1.36,28.2,39.6,35.1,0,no_anomaly,0.0,0,0,0,0,22.5726054,88.3639323,9.0,0.0
2024-07-23T13:29:06.000Z,MISSION_0045,60,0,transit,SITE_KOL_006,22.5726037,88.3639296,9.5,84.43,0.275,0.078,3.32,-1.5572,-1.8586,84.4298,0.74061,0.00083,-0.02114,0.6716,0.0459,-0.041,-9.8625,0.0509,0.2178,0.1231,0.0408,3,17,0.59,0.82,0.25,24.596,19.07,92.1,43.0,20273.0,8165,8300,8287,8102,59.7,57.6,57.0,57.7,2.586,2.68,2.788,2.951,1.55,167.7,34.0,78.3,1011.09,-32.87,-0.66,1.59,25.9,42.1,36.3,0,no_anomaly,0.0,0,0,0,0,22.5726037,88.3639296,9.5,0.0
2024-07-23T13:29:06.100Z,MISSION_0045,61,0,transit,SITE_KOL_006,22.5726043,88.3639294,10.0,82.73,0.116,0.09,3.3,0.3987,-3.9458,82.7307,0.74998,0.02536,-0.02354,0.66055,-0.0058,-0.1465,-9.816,0.6111,-0.0522,-0.4743,0.1183,3,14,0.5,0.62,0.2,24.561,23.24,92.1,42.8,20261.0,8038,8334,8339,8338,59.6,59.7,62.1,57.1,2.816,2.898,2.501,2.835,1.4,164.8,34.6,78.9,1010.8,-27.8,-0.37,1.28,31.7,43.0,37.1,0,no_anomaly,0.0,0,0,0,0,22.5726043,88.3639294,10.0,0.0
2024-07-23T13:29:06.200Z,MISSION_0045,62,0,transit,SITE_KOL_006,22.5726084,88.3639266,10.5,83.89,0.176,0.057,3.11,-3.5518,-1.3317,83.8861,0.74364,-0.01529,-0.02935,0.66776,-0.056,0.0175,-9.7602,0.4216,0.2553,0.1342,0.0417,3,12,0.6,1.0,0.25,24.543,20.16,92.0,43.1,20249.0,8321,8171,8245,8236,56.0,58.0,58.5,60.7,2.865,2.718,2.663,2.828,0.77,158.9,33.9,78.2,1010.96,-27.24,-0.87,1.75,33.3,45.6,36.9,0,no_anomaly,0.0,0,0,0,0,22.5726084,88.3639266,10.5,0.0
2024-07-23T13:29:06.300Z,MISSION_0045,63,0,transit,SITE_KOL_006,22.5725995,88.363925,11.0,83.22,0.26,0.148,2.78,-2.0734,-2.2949,83.2163,0.74767,-0.00023,-0.02698,0.66352,-0.0648,-0.038,-9.8587,0.1708,0.4903,-0.296,0.1224,3,16,0.66,0.73,0.2,24.533,16.54,92.0,42.7,20237.0,8430,8424,8398,8145,58.0,53.6,57.8,61.3,2.682,2.67,3.019,2.559,0.36,161.7,34.1,79.0,1010.82,-30.59,-1.08,1.82,28.6,46.5,34.6,0,no_anomaly,0.0,0,0,0,0,22.5725995,88.363925,11.0,0.0
2024-07-23T13:29:06.400Z,MISSION_0045,64,0,transit,SITE_KOL_006,22.572599,88.3639209,11.5,83.53,0.0,0.167,2.33,3.854,-5.282,83.5345,0.74361,0.05573,-0.01197,0.66618,0.0143,0.0335,-9.7484,0.4176,-0.3725,0.3473,0.1079,3,17,0.79,0.87,0.25,24.626,19.32,91.9,41.6,20226.0,8155,8369,8166,8588,60.8,56.2,58.7,59.8,2.816,2.556,2.809,2.851,0.97,160.7,34.0,79.6,1011.03,-26.85,1.49,1.47,30.9,48.6,35.4,0,no_anomaly,0.0,0,0,0,0,22.572599,88.3639209,11.5,0.0
2024-07-23T13:29:06.500Z,MISSION_0045,65,0,transit,SITE_KOL_006,22.5725984,88.3639191,12.0,81.54,0.029,0.028,2.13,-0.9112,-3.4192,81.5426,0.75712,0.01346,-0.02778,0.65255,0.0499,-0.0218,-9.8552,1.1087,0.0317,0.0826,0.1001,3,12,0.72,0.7,0.24,24.563,18.47,91.9,43.3,20214.0,8189,8488,8370,8109,61.1,61.5,59.1,57.0,3.028,2.954,3.026,2.633,1.66,161.3,34.4,78.6,1010.89,-31.75,2.35,1.63,27.6,47.0,37.6,0,no_anomaly,0.0,0,0,0,0,22.5725984,88.3639191,12.0,0.0
2024-07-23T13:29:06.600Z,MISSION_0045,66,0,transit,SITE_KOL_006,22.5725984,88.3639167,12.5,80.49,0.0,0.143,1.87,0.1845,-2.8191,80.4865,0.76305,0.01712,-0.01774,0.64587,0.0164,-0.0237,-9.8202,0.5828,0.6035,-0.1982,0.1924,3,12,0.7,0.84,0.2,24.599,19.46,91.8,41.9,20202.0,8090,8242,8329,8489,56.3,58.1,60.4,62.8,2.887,2.638,3.159,2.514,1.31,160.8,34.2,79.7,1011.08,-32.8,-0.0,1.0,26.3,43.8,36.0,0,no_anomaly,0.0,0,0,0,0,22.5725984,88.3639167,12.5,0.0
2024-07-23T13:29:06.700Z,MISSION_0045,67,0,transit,SITE_KOL_006,22.5725968,88.363921,13.0,81.09,0.0,0.097,2.37,-1.5873,-3.2687,81.0928,0.75975,0.00802,-0.03067,0.64944,0.0822,0.0075,-9.838,-0.3937,0.768,-0.4013,0.1347,3,12,0.67,0.99,0.36,24.538,20.75,91.8,42.4,20190.0,8138,8272,8378,8236,60.8,62.6,58.1,58.2,3.116,2.873,2.769,2.587,0.5,162.5,34.3,78.7,1011.11,-30.29,0.75,1.56,28.0,49.3,38.1,0,no_anomaly,0.0,0,0,0,0,22.5725968,88.363921,13.0,0.0
2024-07-23T13:29:06.800Z,MISSION_0045,68,0,transit,SITE_KOL_006,22.572596,88.3639228,13.5,82.37,0.535,0.171,2.57,-0.3181,0.415,82.3652,0.7526,-0.00447,0.0009,0.65846,0.0287,0.0181,-9.8102,-0.4859,0.5097,-0.2447,0.1257,3,14,0.8,0.86,0.4,24.553,18.1,91.7,42.2,20179.0,8178,8172,8216,8361,58.3,58.0,59.4,55.2,2.549,2.616,2.732,3.004,2.05,159.3,34.3,80.0,1011.49,-30.93,-0.01,1.73,30.7,42.9,37.6,0,no_anomaly,0.0,0,0,0,0,22.572596,88.3639228,13.5,0.0
2024-07-23T13:29:06.900Z,MISSION_0045,69,0,transit,SITE_KOL_006,22.5725953,88.3639284,14.0,82.41,0.083,0.067,3.21,-2.0489,-0.404,82.4127,0.75226,-0.01113,-0.01443,0.65862,-0.0455,0.0031,-9.73,-0.4715,-0.1258,-0.235,0.231,3,18,0.73,1.17,0.33,24.607,17.57,91.7,42.3,20167.0,8373,8326,8466,8276,59.0,59.2,60.9,61.7,2.897,3.036,2.692,2.624,1.56,159.3,34.5,78.2,1011.15,-31.09,0.03,1.89,29.2,45.6,38.4,0,no_anomaly,0.0,0,0,0,0,22.5725953,88.3639284,14.0,0.0
2024-07-23T13:29:07.000Z,MISSION_0045,70,0,transit,SITE_KOL_006,22.572594,88.3639308,14.5,81.75,0.104,0.165,3.49,-1.3101,-2.3447,81.7494,0.75609,0.00475,-0.02295,0.65405,0.1655,0.047,-9.8402,0.0339,-0.232,-0.1789,0.1089,3,15,0.61,1.14,0.24,24.606,18.38,91.6,41.8,20155.0,8194,8071,8098,8230,57.5,61.1,62.8,56.8,2.997,2.83,2.646,2.891,0.86,160.3,34.2,78.7,1011.11,-34.42,0.37,1.26,28.3,48.5,38.4,0,no_anomaly,0.0,0,0,0,0,22.572594,88.3639308,14.5,0.0
2024-07-23T13:29:07.100Z,MISSION_0045,71,0,transit,SITE_KOL_006,22.5725984,88.363934,15.0,82.85,0.0,0.126,3.79,1.3682,-2.268,82.8543,0.74944,0.02204,-0.00694,0.66167,0.0198,-0.0613,-9.8824,-0.3282,1.0092,0.1422,0.1037,3,18,0.61,1.01,0.21,24.651,15.8,91.6,41.7,20143.0,8543,8095,8237,8196,58.1,59.1,60.2,54.8,2.768,2.948,2.861,2.883,0.14,164.8,34.1,78.8,1010.88,-34.25,1.17,2.17,32.4,46.2,38.9,0,no_anomaly,0.0,0,0,0,0,22.5725984,88.363934,15.0,0.0
2024-07-23T13:29:07.200Z,MISSION_0045,72,0,transit,SITE_KOL_006,22.5725949,88.3639325,15.5,82.3,0.0,0.002,3.66,-2.2582,-2.0041,82.2996,0.75296,-0.00333,-0.02613,0.65754,-0.1199,0.0264,-9.7962,0.2328,-0.5013,-0.5181,0.0487,3,19,0.71,0.82,0.29,24.602,11.8,91.5,43.3,20132.0,8306,8414,8256,8366,59.9,59.3,53.9,59.6,2.728,2.83,2.68,2.903,0.15,157.3,34.3,78.7,1010.81,-28.56,1.03,2.07,29.4,42.6,36.2,0,no_anomaly,0.0,0,0,0,0,22.5725949,88.3639325,15.5,0.0
2024-07-23T13:29:07.300Z,MISSION_0045,73,0,transit,SITE_KOL_006,22.5725909,88.3639337,16.0,82.55,0.272,0.096,3.88,-0.5377,-3.9594,82.5468,0.75122,0.01926,-0.02906,0.65913,0.0477,-0.0818,-9.8651,0.038,-0.1018,0.1163,0.1042,3,15,0.89,1.04,0.52,24.616,17.96,91.5,41.8,20120.0,8418,8394,8422,8254,59.1,59.1,59.8,57.1,2.876,2.801,2.901,2.863,0.22,160.4,34.3,78.7,1011.18,-32.35,1.58,1.0,30.6,47.1,36.5,0,no_anomaly,0.0,0,0,0,0,22.5725909,88.3639337,16.0,0.0
2024-07-23T13:29:07.400Z,MISSION_0045,74,0,transit,SITE_KOL_006,22.5725917,88.3639338,16.5,82.02,0.722,0.069,3.88,1.1106,-1.8708,82.0228,0.75434,0.01802,-0.00596,0.65621,0.0644,-0.1199,-9.8835,0.3132,-0.369,0.6116,0.0674,3,15,0.88,1.17,0.51,24.64,16.07,91.4,42.9,20108.0,8272,8095,8254,8336,59.6,56.7,61.3,59.4,2.875,2.865,2.675,2.852,0.7,154.8,34.2,78.4,1011.24,-38.87,-0.41,1.3,31.1,40.7,35.2,0,no_anomaly,0.0,0,0,0,0,22.5725917,88.3639338,16.5,0.0
2024-07-23T13:29:07.500Z,MISSION_0045,75,0,transit,SITE_KOL_006,22.5725926,88.3639341,17.0,82.63,0.627,0.001,3.89,-2.9701,-0.7299,82.6333,0.75091,-0.01526,-0.02189,0.65986,0.0923,0.0277,-9.7515,-0.5556,0.0669,-0.3026,0.0441,3,14,0.71,0.97,0.2,24.644,18.32,91.3,42.9,20096.0,8545,8197,8306,8240,63.2,58.3,61.6,59.4,2.701,2.599,2.902,2.883,0.98,159.2,34.3,78.4,1010.9,-28.25,0.25,1.75,30.3,43.2,35.1,0,no_anomaly,0.0,0,0,0,0,22.5725926,88.3639341,17.0,0.0
2024-07-23T13:29:07.600Z,MISSION_0045,76,0,transit,SITE_KOL_006,22.5725921,88.3639368,17.5,81.2,0.604,0.102,4.19,2.3418,-1.6106,81.201,0.75885,0.02466,0.00263,0.6508,0.0691,0.0292,-9.907,0.0007,-0.5264,0.3679,0.0486,3,14,0.76,0.93,0.44,24.606,16.26,91.3,42.2,20085.0,8294,8592,8241,8272,60.5,54.9,60.3,59.9,2.835,2.805,2.734,2.847,1.59,160.0,34.1,78.7,1010.96,-29.28,0.49,1.64,27.5,44.7,34.1,0,no_anomaly,0.0,0,0,0,0,22.5725921,88.3639368,17.5,0.0
2024-07-23T13:29:07.700Z,MISSION_0045,77,0,transit,SITE_KOL_006,22.5725882,88.3639394,18.0,80.19,0.195,0.068,4.58,0.2789,1.9498,80.1934,0.76487,-0.0091,0.01458,0.64395,0.026,-0.0314,-9.7488,-0.5623,0.0309,0.4127,0.0624,3,13,0.76,0.85,0.44,24.627,17.05,91.2,42.8,20073.0,8346,8321,8366,8281,61.3,59.1,60.6,57.5,2.741,2.979,2.689,2.869,1.17,154.8,34.2,78.4,1011.06,-25.56,-0.22,1.86,29.7,42.8,35.8,0,no_anomaly,0.0,0,0,0,0,22.5725882,88.3639394,18.0,0.0
2024-07-23T13:29:07.800Z,MISSION_0045,78,0,transit,SITE_KOL_006,22.5725902,88.3639357,18.5,79.69,0.0,0.183,4.12,-0.5281,-1.7317,79.6894,0.76773,0.00614,-0.01455,0.64058,0.074,0.0178,-9.8737,-0.4756,-0.6196,-0.5821,0.0881,3,10,0.54,1.07,0.2,24.459,18.19,91.2,42.4,20061.0,8447,8450,8036,8462,58.8,59.6,57.4,59.1,2.912,2.914,2.844,2.569,1.27,167.6,34.3,78.5,1011.2,-28.92,-1.18,1.47,30.1,45.8,36.0,0,no_anomaly,0.0,0,0,0,0,22.5725902,88.3639357,18.5,0.0
2024-07-23T13:29:07.900Z,MISSION_0045,79,0,transit,SITE_KOL_006,22.5725904,88.3639372,19.0,80.22,0.0,0.126,4.28,0.4071,-1.4278,80.2172,0.76473,0.01074,-0.00724,0.64422,-0.0414,-0.0358,-9.8814,0.1018,0.3112,-0.2514,0.0923,3,15,0.78,0.89,0.36,24.524,14.66,91.1,42.3,20049.0,8338,8352,8733,8361,57.6,57.7,56.4,61.6,2.865,2.824,2.587,2.858,2.12,160.5,34.2,79.2,1010.61,-29.86,0.53,1.72,30.2,43.9,33.6,0,no_anomaly,0.0,0,0,0,0,22.5725904,88.3639372,19.0,0.0
2024-07-23T13:29:08.000Z,MISSION_0045,80,0,transit,SITE_KOL_006,22.5725879,88.3639388,19.2,81.27,0.0,0.148,4.53,0.0402,1.6568,81.2725,0.75878,-0.00915,0.0112,0.65118,0.073,0.029,-9.757,0.507,-1.087,-0.1828,0.0578,3,16,0.67,0.99,0.24,24.551,17.68,91.1,42.9,20038.0,8267,8435,8247,8104,57.1,58.8,58.8,59.7,2.659,2.85,2.767,2.848,1.39,151.2,34.0,77.9,1010.84,-29.2,1.38,1.58,27.9,41.7,37.6,0,no_anomaly,0.0,0,0,0,0,22.5725879,88.3639388,19.2,0.0
2024-07-23T13:29:08.100Z,MISSION_0045,81,0,transit,SITE_KOL_006,22.5725862,88.3639422,19.2,80.55,0.0,0.037,4.94,2.4767,-2.3063,80.5462,0.76236,0.02949,-0.00138,0.64648,0.0052,-0.0813,-9.7764,-0.6087,-0.3862,-0.1265,0.0739,3,10,0.71,0.65,0.2,24.494,20.93,91.0,42.1,20026.0,8417,8131,8537,8391,60.5,59.3,57.5,61.7,3.105,2.803,2.569,2.633,0.55,166.0,34.0,79.2,1011.04,-36.08,0.47,1.08,31.1,45.2,35.3,0,no_anomaly,0.0,0,0,0,0,22.5725862,88.3639422,19.2,0.0
2024-07-23T13:29:08.200Z,MISSION_0045,82,0,transit,SITE_KOL_006,22.5725858,88.3639458,19.2,80.81,0.0,0.176,5.34,-2.2386,-5.5358,80.8112,0.76105,0.01644,-0.04941,0.6466,0.0331,0.0128,-9.7832,-0.2111,0.2556,-0.2456,0.1406,3,16,0.67,0.87,0.28,24.56,18.9,91.0,42.7,20014.0,8374,8458,8095,8297,61.1,62.5,61.3,59.5,2.758,2.694,2.951,2.866,0.55,160.3,34.0,79.7,1011.2,-31.63,-0.82,1.45,29.1,47.5,39.3,0,no_anomaly,0.0,0,0,0,0,22.5725858,88.3639458,19.2,0.0
2024-07-23T13:29:08.300Z,MISSION_0045,83,0,transit,SITE_KOL_006,22.5725838,88.3639481,19.2,80.21,0.0,0.172,5.65,-0.9441,-1.1251,80.2145,0.76483,2e-05,-0.01282,0.64411,-0.0344,0.0249,-9.8342,0.4528,0.3413,-0.0272,0.128,3,12,0.5,0.95,0.2,24.558,18.79,90.9,41.9,20002.0,8341,8217,8191,8397,56.5,60.2,62.7,55.3,2.727,2.584,2.661,3.214,0.42,158.0,34.1,79.6,1010.89,-34.09,1.09,1.56,32.7,44.8,36.3,0,no_anomaly,0.0,0,0,0,0,22.5725838,88.3639481,19.2,0.0
2024-07-23T13:29:08.400Z,MISSION_0045,84,0,transit,SITE_KOL_006,22.5725854,88.3639469,19.2,79.53,0.0,0.143,5.47,1.3342,-1.4899,79.5316,0.76845,0.01726,-0.00255,0.63967,0.0393,0.0074,-9.7737,0.4611,0.452,-0.6287,0.1856,3,18,0.5,1.24,0.21,24.454,20.63,90.9,42.4,19990.0,8698,8307,8653,8249,57.8,60.2,59.6,59.5,2.708,2.494,2.762,2.613,0.71,156.8,34.0,78.2,1010.97,-28.21,0.27,1.58,28.2,46.9,37.7,0,no_anomaly,0.0,0,0,0,0,22.5725854,88.3639469,19.2,0.0
2024-07-23T13:29:08.500Z,MISSION_0045,85,0,transit,SITE_KOL_006,22.5725797,88.3639489,19.2,78.94,0.0,0.081,5.9,0.8832,-2.3178,78.9433,0.77166,0.01881,-0.01071,0.63567,-0.0145,0.1003,-9.8338,0.0116,0.9033,0.1393,0.1028,3,11,0.66,1.03,0.22,24.599,22.5,90.8,42.6,19979.0,8218,8342,8273,8356,57.3,58.8,62.1,58.8,2.718,2.63,3.154,2.912,0.94,165.5,34.2,78.8,1010.83,-25.98,0.5,1.55,25.9,44.3,34.1,0,no_anomaly,0.0,0,0,0,0,22.5725797,88.3639489,19.2,0.0
2024-07-23T13:29:08.600Z,MISSION_0045,86,0,transit,SITE_KOL_006,22.5725768,88.3639515,19.2,78.61,0.0,0.195,6.29,-0.3046,-2.3813,78.6082,0.77366,0.01111,-0.01776,0.63325,0.0004,0.1596,-9.85,0.7924,0.0364,-0.0766,0.1101,3,14,0.69,1.15,0.27,24.589,17.72,90.8,42.7,19967.0,8438,8362,8346,8168,59.6,62.0,58.0,55.7,2.93,2.611,2.697,2.888,1.74,160.7,34.2,78.4,1010.68,-32.03,-1.06,1.37,24.4,43.7,34.3,0,no_anomaly,0.0,0,0,0,0,22.5725768,88.3639515,19.2,0.0
2024-07-23T13:29:08.700Z,MISSION_0045,87,0,transit,SITE_KOL_006,22.5725766,88.3639501,19.2,78.65,0.0,0.0,6.16,2.8364,-2.2264,78.6519,0.77287,0.03145,0.00066,0.63379,0.0543,0.0307,-9.8034,-0.8195,0.5171,0.008,0.1183,3,19,0.58,0.89,0.2,24.596,20.63,90.7,42.5,19955.0,8260,8160,8321,8208,59.8,57.1,58.3,58.5,2.787,2.952,2.622,2.967,0.93,161.6,34.2,78.9,1011.13,-30.25,1.15,1.45,31.7,45.5,35.7,0,no_anomaly,0.0,0,0,0,0,22.5725766,88.3639501,19.2,0.0
2024-07-23T13:29:08.800Z,MISSION_0045,88,0,transit,SITE_KOL_006,22.5725768,88.3639483,19.2,77.19,0.0,0.024,5.97,-1.6598,-2.0993,77.1887,0.78153,0.00011,-0.02335,0.62343,0.0327,-0.0701,-9.784,0.0921,-0.5098,0.4295,0.1966,3,12,0.66,1.09,0.21,24.505,16.15,90.7,42.1,19943.0,8179,8270,8266,8089,59.2,59.4,60.8,62.0,2.621,2.664,2.551,2.765,1.51,166.0,34.2,78.5,1010.91,-28.33,1.44,1.25,28.9,40.0,34.1,0,no_anomaly,0.0,0,0,0,0,22.5725768,88.3639483,19.2,0.0
2024-07-23T13:29:08.900Z,MISSION_0045,89,0,transit,SITE_KOL_006,22.5725766,88.363949,19.2,80.99,0.147,0.083,6.04,-0.0408,-3.2776,80.985,0.76019,0.0183,-0.02198,0.64908,-0.1036,0.0211,-9.9601,-0.2587,-0.0875,0.3047,0.211,3,19,0.9,0.76,0.24,24.664,12.01,90.6,42.1,19932.0,8295,8431,7984,8456,57.2,56.6,61.4,60.8,3.011,2.53,2.938,2.805,1.46,155.8,34.0,78.2,1011.2,-22.74,0.39,2.01,30.3,43.8,35.6,0,no_anomaly,0.0,0,0,0,0,22.5725766,88.363949,19.2,0.0
2024-07-23T13:29:09.000Z,MISSION_0045,90,0,transit,SITE_KOL_006,22.5725746,88.3639485,19.2,83.26,0.369,0.084,6.1,0.5445,-1.3913,83.2601,0.74735,0.01162,-0.00592,0.6643,0.0012,-0.0228,-9.8718,-0.0251,0.6595,0.0707,0.2119,3,14,0.62,1.05,0.2,24.543,16.29,90.5,43.1,19920.0,8276,8436,8134,8559,57.3,58.6,57.3,56.2,2.819,2.693,2.853,2.55,1.11,153.1,33.8,79.1,1011.08,-28.25,-0.22,1.39,29.2,45.0,34.7,0,no_anomaly,0.0,0,0,0,0,22.5725746,88.3639485,19.2,0.0
2024-07-23T13:29:09.100Z,MISSION_0045,91,0,transit,SITE_KOL_006,22.5725736,88.3639423,19.2,81.8,0.748,-0.0,5.55,-0.8017,-0.5674,81.8033,0.75583,-0.00205,-0.00832,0.65471,0.0255,-0.024,-9.8424,-0.4527,0.0373,0.0582,0.1739,3,11,0.94,1.08,0.43,24.48,17.31,90.5,41.6,19908.0,8172,8401,8184,8621,57.7,59.4,57.2,61.6,2.756,2.754,2.651,2.777,2.01,162.9,33.9,78.8,1011.03,-32.8,0.4,1.02,24.6,47.0,35.6,0,no_anomaly,0.0,0,0,0,0,22.5725736,88.3639423,19.2,0.0
2024-07-23T13:29:09.200Z,MISSION_0045,92,0,transit,SITE_KOL_006,22.5725706,88.3639461,19.2,80.24,1.22,0.069,6.09,-6.2879,-2.3869,80.2378,0.76413,-0.02853,-0.05124,0.64239,-0.0059,0.0104,-9.7456,0.409,-0.6253,0.6309,0.0871,3,12,0.78,0.93,0.36,24.639,23.83,90.4,42.0,19896.0,8383,8264,8286,8409,57.8,62.1,56.9,60.9,2.817,3.034,2.703,2.927,1.5,159.0,34.4,78.6,1010.96,-29.62,0.96,1.61,31.9,40.8,35.0,0,no_anomaly,0.0,0,0,0,0,22.5725706,88.3639461,19.2,0.0
2024-07-23T13:29:09.300Z,MISSION_0045,93,0,transit,SITE_KOL_006,22.5725703,88.3639437,19.2,81.0,0.846,0.162,5.88,0.5964,-0.4052,80.9971,0.7604,0.00625,0.00069,0.64943,0.0091,0.0205,-9.8972,0.0009,0.3625,0.0167,0.1256,3,20,0.81,0.88,0.39,24.572,17.24,90.4,42.9,19885.0,8280,8635,8189,8427,54.4,55.5,60.4,58.0,2.787,2.584,2.769,2.772,0.0,165.9,34.3,78.7,1010.97,-29.76,-1.96,1.0,32.8,50.6,39.2,0,no_anomaly,0.0,0,0,0,0,22.5725703,88.3639437,19.2,0.0
2024-07-23T13:29:09.400Z,MISSION_0045,94,0,transit,SITE_KOL_006,22.5725686,88.3639487,19.2,77.83,1.192,0.115,6.46,-1.9453,-2.0313,77.8283,0.77804,-0.00207,-0.02445,0.62773,0.0656,-0.0009,-9.8239,-0.2311,0.2792,0.5717,0.1531,3,10,0.64,0.72,0.35,24.615,25.49,90.3,42.6,19873.0,8410,8630,8174,8453,59.6,57.5,61.2,58.4,2.711,2.794,2.779,2.721,0.47,160.4,34.1,79.1,1011.14,-32.99,-0.61,1.67,30.4,46.8,38.5,0,no_anomaly,0.0,0,0,0,0,22.5725686,88.3639487,19.2,0.0
2024-07-23T13:29:09.500Z,MISSION_0045,95,0,transit,SITE_KOL_006,22.5725731,88.363949,19.2,78.12,1.016,0.161,6.22,-1.6325,-3.5881,78.118,0.77632,0.00867,-0.03328,0.6294,0.0046,-0.0782,-9.8457,0.1931,-0.3283,-0.285,0.1992,3,18,0.72,0.94,0.31,24.467,18.67,90.3,42.7,19861.0,8207,8223,8394,8416,59.0,61.6,56.4,62.8,2.557,2.766,2.931,2.883,0.72,168.7,34.5,79.0,1010.53,-31.04,-0.39,1.29,33.0,49.1,35.6,0,no_anomaly,0.0,0,0,0,0,22.5725731,88.363949,19.2,0.0
2024-07-23T13:29:09.600Z,MISSION_0045,96,0,transit,SITE_KOL_006,22.5725743,88.3639457,19.2,77.89,1.572,0.185,5.84,-1.2847,-1.3295,77.8852,0.77776,-0.00143,-0.01607,0.62836,-0.0435,-0.031,-9.7499,-0.3686,-0.235,0.1269,0.1403,3,16,0.67,1.11,0.38,24.533,21.08,90.2,41.9,19849.0,8366,8278,8133,8379,56.2,59.2,61.2,62.2,2.828,2.85,2.724,2.589,0.52,164.5,34.1,77.8,1010.82,-29.68,-0.01,1.55,30.6,41.1,36.1,0,no_anomaly,0.0,0,0,0,0,22.5725743,88.3639457,19.2,0.0
2024-07-23T13:29:09.700Z,MISSION_0045,97,0,transit,SITE_KOL_006,22.5725665,88.3639489,19.2,75.61,1.782,0.098,6.6,2.1275,-3.2477,75.6067,0.78934,0.03203,-0.01101,0.61302,0.0474,-0.0761,-9.8211,0.2417,-0.8169,0.3901,0.0969,3,19,0.83,1.13,0.39,24.61,20.81,90.2,42.3,19838.0,8279,8268,8480,8548,60.2,60.1,59.1,60.5,2.883,2.381,2.988,2.858,0.14,163.7,34.3,79.0,1010.88,-29.22,-1.05,1.44,31.2,48.7,37.9,0,no_anomaly,0.0,0,0,0,0,22.5725665,88.3639489,19.2,0.0
2024-07-23T13:29:09.800Z,MISSION_0045,98,0,transit,SITE_KOL_006,22.5725698,88.3639435,19.2,75.79,1.646,0.093,5.9,0.9693,-1.5693,75.7863,0.78898,0.01509,-0.00561,0.6142,-0.0473,-0.0034,-9.7547,0.026,1.0839,-0.0923,0.2985,3,10,0.68,0.84,0.27,24.475,22.44,90.1,41.6,19826.0,8363,8232,8541,8010,63.3,61.9,55.5,61.0,2.868,2.635,2.615,2.673,0.64,164.6,33.8,78.2,1011.15,-25.75,0.96,1.6,26.8,46.1,35.5,0,no_anomaly,0.0,0,0,0,0,22.5725698,88.3639435,19.2,0.0
2024-07-23T13:29:09.900Z,MISSION_0045,99,0,transit,SITE_KOL_006,22.572576,88.3639434,19.2,75.03,1.616,0.063,5.52,0.9201,-2.6763,75.0326,0.79282,0.02059,-0.01363,0.60895,-0.036,0.0125,-9.7809,1.1745,-0.4134,-0.627,0.1919,3,12,0.69,0.67,0.2,24.564,17.69,90.1,42.3,19814.0,8260,8352,8199,8494,58.6,58.9,61.5,55.9,2.701,2.871,2.749,2.611,1.89,162.8,34.1,78.4,1011.08,-27.97,-1.45,1.19,27.4,47.8,35.8,0,no_anomaly,0.0,0,0,0,0,22.572576,88.3639434,19.2,0.0
2024-07-23T13:29:10.000Z,MISSION_0045,100,0,transit,SITE_KOL_006,22.5725716,88.3639442,19.2,76.66,1.529,0.119,5.85,0.8656,-1.6623,76.6594,0.78428,0.01492,-0.00669,0.62019,-0.0425,-0.107,-9.8018,0.3289,0.3191,0.0354,0.1559,3,20,0.66,0.9,0.21,24.579,20.71,90.0,42.8,19802.0,8028,8497,8223,8648,61.3,60.2,60.7,61.7,2.864,2.808,2.745,2.782,1.21,162.7,34.5,78.0,1010.86,-31.58,1.26,1.52,32.6,41.0,36.6,0,no_anomaly,0.0,0,0,0,0,22.5725716,88.3639442,19.2,0.0
2024-07-23T13:29:10.100Z,MISSION_0045,101,0,transit,SITE_KOL_006,22.5725745,88.3639388,19.2,76.92,1.648,-0.007,5.17,0.4173,-0.3851,76.9233,0.78301,0.00494,-0.00037,0.62199,-0.0797,0.008,-9.821,0.1868,-1.078,0.296,0.0993,3,16,0.73,0.82,0.22,24.541,18.41,90.0,41.8,19791.0,8417,8315,8400,8146,57.1,59.5,55.4,59.2,2.829,2.944,3.088,2.715,0.79,159.6,34.2,79.4,1010.87,-26.56,1.65,1.59,28.8,46.2,35.1,0,no_anomaly,0.0,0,0,0,0,22.5725745,88.3639388,19.2,0.0
2024-07-23T13:29:10.200Z,MISSION_0045,102,0,transit,SITE_KOL_006,22.5725745,88.3639405,19.2,75.89,1.615,0.125,5.32,-0.4243,-1.1934,75.8942,0.78855,0.00348,-0.01049,0.61487,0.0149,-0.0321,-9.7167,-0.3411,0.1126,0.0029,0.1427,3,18,0.8,1.18,0.36,24.621,12.97,89.9,43.0,19779.0,8530,8313,8295,8106,61.9,59.7,58.6,61.0,2.889,2.693,2.899,2.692,1.12,161.2,34.1,78.0,1010.88,-32.09,0.53,1.77,27.3,43.2,37.1,0,no_anomaly,0.0,0,0,0,0,22.5725745,88.3639405,19.2,0.0
2024-07-23T13:29:10.300Z,MISSION_0045,103,1,transit,SITE_KOL_006,22.5725759,88.3639399,19.2,74.2,1.408,0.126,5.19,0.6461,-0.4458,74.198,0.79756,0.00684,0.0003,0.6032,-0.1211,-0.0822,-9.8594,0.1912,0.5604,0.1013,0.0935,3,14,0.61,0.74,0.28,24.566,20.12,89.9,42.9,19767.0,8585,8369,8448,8420,58.4,59.7,61.5,58.9,2.762,2.878,2.843,2.821,0.48,157.3,34.0,79.4,1011.27,-28.08,-0.0,1.14,25.4,44.9,37.7,0,no_anomaly,0.0,0,0,0,0,22.5725759,88.3639399,19.2,0.0
2024-07-23T13:29:10.400Z,MISSION_0045,104,1,transit,SITE_KOL_006,22.5725798,88.3639422,19.2,75.27,1.841,0.096,5.21,-0.715,-2.1274,75.2705,0.79183,0.0064,-0.01851,0.61042,-0.0363,-0.0515,-9.8368,0.1343,1.0516,-0.049,0.1752,3,20,1.01,0.87,0.33,24.569,15.99,89.8,42.0,19755.0,8677,8387,8125,8467,58.7,57.8,61.0,61.1,2.738,2.661,2.647,2.965,1.52,154.3,34.0,78.4,1011.25,-32.93,-0.62,1.32,29.2,44.2,34.6,0,no_anomaly,0.0,0,0,0,0,22.5725798,88.3639422,19.2,0.0
2024-07-23T13:29:10.500Z,MISSION_0045,105,1,transit,SITE_KOL_006,22.5725848,88.3639427,19.2,74.77,2.266,0.168,5.04,-2.8055,-1.7339,74.7748,0.79444,-0.01026,-0.02688,0.60666,0.0946,-0.067,-9.838,0.395,0.753,-0.0938,0.0763,3,15,0.73,0.81,0.36,24.483,20.01,89.7,43.6,19744.0,7971,8189,8118,8599,57.9,57.8,57.3,60.1,2.819,2.758,2.863,2.618,0.64,160.3,34.4,78.7,1010.88,-27.88,0.41,1.44,27.5,46.3,35.2,0,no_anomaly,0.0,0,0,0,0,22.5725848,88.3639427,19.2,0.0
2024-07-23T13:29:10.600Z,MISSION_0045,106,1,transit,SITE_KOL_006,22.5725847,88.3639489,19.2,72.43,2.493,0.13,5.71,-0.4496,-1.0403,72.4293,0.80679,0.0022,-0.00964,0.59075,0.0072,0.0431,-9.8326,0.9059,-0.506,-0.3798,0.1688,3,20,0.6,0.6,0.38,24.59,18.7,89.7,41.7,19732.0,8353,8350,8449,8121,61.3,59.3,59.9,61.2,2.862,2.87,2.993,2.602,0.52,160.0,34.5,78.9,1011.27,-27.33,-0.77,1.69,30.9,46.1,34.1,0,no_anomaly,0.0,0,0,0,0,22.5725847,88.3639489,19.2,0.0
2024-07-23T13:29:10.700Z,MISSION_0045,107,1,transit,SITE_KOL_006,22.5725864,88.3639501,19.2,72.62,2.558,0.184,5.78,-1.0631,-2.8571,72.6192,0.80568,0.00729,-0.02558,0.59175,0.0208,0.0313,-9.8205,-0.502,-0.6454,-0.4185,0.0659,3,11,0.78,0.95,0.31,24.562,17.12,89.6,41.6,19720.0,8358,8410,8247,8493,59.8,58.0,58.9,60.5,2.896,2.816,2.683,2.829,2.05,167.7,34.2,78.3,1011.08,-28.55,-0.52,1.62,34.3,46.1,38.0,0,no_anomaly,0.0,0,0,0,0,22.5725864,88.3639501,19.2,0.0
2024-07-23T13:29:10.800Z,MISSION_0045,108,1,transit,SITE_KOL_006,22.5725879,88.3639467,19.2,74.09,3.13,0.137,5.37,-2.9004,-3.6874,74.0898,0.79799,-0.00081,-0.04091,0.60129,-0.052,0.0464,-9.8182,-0.1526,-0.5402,-0.3476,0.0414,3,15,0.67,1.04,0.34,24.584,21.08,89.6,42.5,19708.0,8384,8218,8362,8370,57.7,59.5,61.1,58.9,2.927,2.572,2.828,2.792,1.67,161.4,33.9,78.9,1011.28,-27.65,2.12,1.66,29.4,40.3,39.6,0,no_anomaly,0.0,0,0,0,0,22.5725879,88.3639467,19.2,0.0
2024-07-23T13:29:10.900Z,MISSION_0045,109,1,transit,SITE_KOL_006,22.5725906,88.3639506,19.2,71.58,3.347,0.08,5.73,1.9033,-0.5324,71.5831,0.81098,0.01619,0.00595,0.58481,-0.0415,-0.0062,-9.849,-0.0643,-0.2394,0.1987,0.1528,3,18,0.68,0.89,0.21,24.505,22.0,89.5,42.1,19696.0,8352,8464,8325,8205,58.4,60.2,57.1,58.5,3.101,2.731,3.105,2.927,1.05,161.1,34.1,79.3,1011.44,-28.77,-0.66,1.42,27.5,43.6,36.3,0,no_anomaly,0.0,0,0,0,0,22.5725906,88.3639506,19.2,0.0
2024-07-23T13:29:11.000Z,MISSION_0045,110,1,transit,SITE_KOL_006,22.5725918,88.3639482,19.2,74.38,3.669,0.055,5.44,-2.3127,-3.7949,74.3763,0.79646,0.00394,-0.03856,0.60345,0.0062,-0.0362,-9.831,0.037,0.7254,0.0853,0.1477,3,14,0.71,0.89,0.32,24.567,20.34,89.5,42.7,19685.0,8294,8403,8251,8312,62.5,62.1,58.6,59.1,2.645,2.855,2.751,2.753,0.0,164.1,34.5,77.8,1010.94,-28.85,-0.98,1.8,30.8,44.3,38.7,0,no_anomaly,0.0,0,0,0,0,22.5725918,88.3639482,19.2,0.0
2024-07-23T13:29:11.100Z,MISSION_0045,111,1,transit,SITE_KOL_006,22.5725908,88.3639491,19.2,74.71,3.641,0.081,5.56,2.152,-7.7165,74.7142,0.79216,0.05572,-0.04211,0.6063,-0.0801,-0.0611,-9.874,0.3317,-0.1652,0.0799,0.0704,3,15,0.67,1.16,0.22,24.533,19.62,89.4,42.9,19673.0,8322,8174,8549,8503,56.7,60.6,58.7,58.5,2.869,2.623,2.722,2.472,0.0,160.8,34.5,79.3,1010.95,-36.32,0.17,1.32,27.0,42.6,35.1,0,no_anomaly,0.0,0,0,0,0,22.5725908,88.3639491,19.2,0.0
2024-07-23T13:29:11.200Z,MISSION_0045,112,1,transit,SITE_KOL_006,22.5725947,88.3639499,19.2,74.67,3.736,0.079,5.59,1.569,-0.3295,74.6673,0.79502,0.01263,0.00602,0.60643,0.0107,0.0543,-9.8699,0.2517,0.083,0.4318,0.1512,3,17,0.66,0.78,0.28,24.526,18.27,89.4,43.5,19661.0,8274,8257,8403,8310,63.0,60.7,60.4,58.6,2.764,2.747,2.849,2.97,1.14,164.1,33.9,78.3,1010.87,-33.12,-0.44,1.33,27.0,45.6,37.9,0,no_anomaly,0.0,0,0,0,0,22.5725947,88.3639499,19.2,0.0
2024-07-23T13:29:11.300Z,MISSION_0045,113,1,transit,SITE_KOL_006,22.5725979,88.3639494,19.2,73.84,3.731,0.065,5.51,3.8007,-1.3276,73.8361,0.79877,0.03347,0.01066,0.60061,0.0597,-0.022,-9.7634,0.9076,-0.4089,0.1437,0.1737,3,17,0.84,0.81,0.24,24.587,19.75,89.3,43.1,19649.0,8589,8435,8348,8439,60.7,58.7,63.9,59.3,2.737,2.837,2.791,2.833,0.49,169.8,34.3,78.3,1011.09,-29.53,0.05,1.86,26.7,48.8,36.4,0,no_anomaly,0.0,0,0,0,0,22.5725979,88.3639494,19.2,0.0
2024-07-23T13:29:11.400Z,MISSION_0045,114,1,transit,SITE_KOL_006,22.5726018,88.3639511,19.2,72.01,3.563,0.161,5.69,-0.0317,-2.5447,72.0077,0.80878,0.01283,-0.01813,0.58769,0.0158,-0.0174,-9.8152,0.4638,-0.1189,0.0538,0.0509,3,20,0.6,0.78,0.26,24.555,22.59,89.3,43.3,19638.0,8160,8074,8262,8352,60.9,62.3,59.4,56.6,2.916,2.991,2.946,2.516,0.91,162.4,33.9,80.2,1010.97,-28.3,1.41,1.71,25.1,44.6,36.7,0,no_anomaly,0.0,0,0,0,0,22.5726018,88.3639511,19.2,0.0
2024-07-23T13:29:11.500Z,MISSION_0045,115,1,transit,SITE_KOL_006,22.5726056,88.3639539,19.2,71.34,3.529,0.143,6.03,0.609,-4.4265,71.3398,0.81165,0.02683,-0.02828,0.58284,-0.0061,0.0292,-9.846,0.1677,0.5272,-0.1328,0.0692,3,11,0.5,0.75,0.2,24.558,20.73,89.2,42.6,19626.0,8199,8502,8176,8229,60.4,61.1,65.3,63.1,2.745,2.578,2.768,2.967,1.04,158.6,34.5,78.5,1010.77,-33.96,-0.23,1.22,30.8,45.0,39.0,0,no_anomaly,0.0,0,0,0,0,22.5726056,88.3639539,19.2,0.0
2024-07-23T13:29:11.600Z,MISSION_0045,116,1,transit,SITE_KOL_006,22.5726062,88.3639528,19.2,72.3,3.683,0.065,5.91,3.4725,-4.8491,72.304,0.80561,0.04939,-0.01628,0.59017,0.0377,-0.1089,-9.8632,-0.5866,-0.9149,0.6109,0.1444,3,12,0.63,1.01,0.26,24.44,16.1,89.2,42.9,19614.0,8353,8449,8211,8468,57.1,63.8,58.3,62.1,2.913,2.935,2.619,2.794,1.36,161.8,33.9,79.2,1011.18,-27.45,-0.61,1.3,32.7,43.3,38.2,0,no_anomaly,0.0,0,0,0,0,22.5726062,88.3639528,19.2,0.0
2024-07-23T13:29:11.700Z,MISSION_0045,117,1,transit,SITE_KOL_006,22.5726117,88.3639511,19.2,71.69,3.807,0.125,5.83,-0.4089,-0.9853,71.6941,0.81057,0.00214,-0.00906,0.58557,-0.0054,-0.0299,-9.8501,-0.0695,-0.9319,-0.4615,0.0655,3,16,0.71,0.83,0.33,24.535,16.62,89.1,42.6,19602.0,8291,8318,8349,8553,60.9,59.7,61.2,63.7,2.94,2.75,3.085,2.675,1.14,164.4,34.5,78.7,1010.88,-30.18,-2.61,1.17,31.8,50.0,37.2,0,no_anomaly,0.0,0,0,0,0,22.5726117,88.3639511,19.2,0.0
2024-07-23T13:29:11.800Z,MISSION_0045,118,1,transit,SITE_KOL_006,22.5726102,88.3639485,19.2,69.93,3.562,0.18,5.52,1.3775,-1.6178,69.9308,0.81926,0.01794,-0.00468,0.57312,-0.0751,-0.1207,-9.8212,-0.0189,-0.1606,-0.2503,0.082,3,19,0.73,0.93,0.24,24.483,22.62,89.0,42.4,19591.0,8441,8362,8054,8256,60.0,61.1,58.9,61.2,3.075,3.008,2.497,2.819,0.92,159.4,34.3,78.8,1010.99,-30.1,-0.22,1.09,28.1,44.4,40.5,0,no_anomaly,0.0,0,0,0,0,22.5726102,88.3639485,19.2,0.0
2024-07-23T13:29:11.900Z,MISSION_0045,119,1,transit,SITE_KOL_006,22.5726156,88.3639524,19.2,67.51,3.027,0.055,6.08,4.1059,-2.411,67.5099,0.83029,0.04146,0.00242,0.55579,-0.1317,-0.0248,-9.7982,-0.5684,-0.0037,-0.2518,0.0762,3,14,0.72,0.96,0.28,24.452,18.52,89.0,43.0,19579.0,8234,8260,8482,8059,58.2,60.4,60.3,60.3,2.584,2.782,2.881,2.805,1.66,172.4,34.1,78.2,1011.34,-27.41,1.77,1.62,32.8,41.1,38.4,0,no_anomaly,0.0,0,0,0,0,22.5726156,88.3639524,19.2,0.0
2024-07-23T13:29:12.000Z,MISSION_0045,120,1,transit,SITE_KOL_006,22.572617,88.3639572,19.2,66.84,3.125,0.076,6.64,-1.6226,-3.6818,66.8414,0.83438,0.00588,-0.0346,0.55006,-0.1329,-0.039,-9.7351,-0.077,1.3085,0.4932,0.1029,3,12,0.69,0.9,0.29,24.481,20.75,88.9,43.0,19567.0,8280,8173,8342,8342,61.2,59.9,55.9,61.4,2.845,2.998,2.879,2.768,0.55,161.0,34.3,78.2,1011.07,-26.66,-1.49,1.75,28.8,48.6,37.2,0,no_anomaly,0.0,0,0,0,0,22.572617,88.3639572,19.2,0.0
2024-07-23T13:29:12.100Z,MISSION_0045,121,1,transit,SITE_KOL_006,22.5726155,88.3639578,19.2,66.71,3.175,0.129,6.66,2.532,-5.0278,66.7081,0.83375,0.04255,-0.02449,0.54996,-0.0204,-0.0045,-9.7645,0.453,0.0479,0.3274,0.183,3,20,0.74,0.63,0.29,24.527,17.86,88.9,42.7,19555.0,8238,8284,8333,8457,57.5,63.5,61.9,57.8,2.775,3.014,2.697,2.957,0.81,149.4,34.1,79.0,1011.11,-28.31,-0.1,1.86,28.6,43.3,37.6,0,no_anomaly,0.0,0,0,0,0,22.5726155,88.3639578,19.2,0.0
2024-07-23T13:29:12.200Z,MISSION_0045,122,1,transit,SITE_KOL_006,22.5726151,88.363958,19.2,66.58,2.654,0.068,6.67,0.3054,3.5415,66.5809,0.83554,-0.01473,0.02729,0.54855,0.0451,0.0658,-9.7969,0.0239,-0.6135,0.1335,0.0457,3,12,0.67,0.87,0.3,24.483,20.28,88.8,42.5,19544.0,8536,8134,8496,8321,59.6,57.4,59.3,58.7,2.991,2.636,2.874,2.676,0.35,155.5,34.3,78.6,1011.24,-26.12,0.11,1.76,26.6,44.0,34.4,0,no_anomaly,0.0,0,0,0,0,22.5726151,88.363958,19.2,0.0
2024-07-23T13:29:12.300Z,MISSION_0045,123,1,orbit_base,SITE_KOL_006,22.5725317,88.3638583,19.5,68.66,2.832,0.077,8.91,0.9472,-1.2296,68.6603,0.82568,0.01288,-0.0042,0.56398,-0.0123,-0.0343,-9.7658,-0.3599,0.0021,-0.2738,0.171,3,19,0.63,1.19,0.25,24.555,18.29,88.8,42.8,19532.0,8355,8576,8277,8435,57.8,58.5,60.0,61.0,2.914,2.535,2.844,2.685,1.33,161.3,34.3,79.1,1011.02,-29.67,-0.93,1.0,32.0,44.6,34.9,0,no_anomaly,0.0,0,0,0,0,22.5725317,88.3638583,19.5,0.0
2024-07-23T13:29:12.400Z,MISSION_0045,124,1,orbit_base,SITE_KOL_006,22.572533,88.3638563,19.8,66.62,2.846,0.181,8.91,-2.3422,-3.4456,66.6187,0.8355,-0.00057,-0.03634,0.54828,0.0616,-0.0031,-9.835,0.2899,-0.0068,-0.1401,0.1399,3,16,0.71,1.0,0.22,24.507,13.39,88.7,41.7,19520.0,8451,8418,8526,8324,59.5,57.8,58.0,61.4,3.252,2.64,2.908,2.626,0.98,154.6,34.3,78.5,1011.3,-30.7,-0.01,1.15,28.0,45.3,35.7,0,no_anomaly,0.0,0,0,0,0,22.572533,88.3638563,19.8,0.0
2024-07-23T13:29:12.500Z,MISSION_0045,125,1,orbit_base,SITE_KOL_006,22.5725344,88.3638543,20.1,63.53,3.049,0.066,8.91,-3.3264,-1.5575,63.5275,0.85,-0.01752,-0.02683,0.52581,-0.0316,-0.0677,-9.7765,-0.0303,1.0177,0.0914,0.1045,3,13,0.85,1.07,0.45,24.481,17.98,88.7,42.7,19508.0,8111,7944,8497,8322,58.4,58.6,61.2,59.5,2.978,2.89,2.769,2.663,1.18,156.6,34.3,78.6,1010.88,-30.15,2.37,1.2,31.1,41.2,35.7,0,no_anomaly,0.0,0,0,0,0,22.5725344,88.3638543,20.1,0.0
2024-07-23T13:29:12.600Z,MISSION_0045,126,1,orbit_base,SITE_KOL_006,22.5725358,88.3638523,20.4,62.55,2.658,0.176,8.91,1.7777,-1.2178,62.548,0.85446,0.01877,-0.00103,0.51918,0.0905,0.0153,-9.7884,-0.5863,0.3081,0.0622,0.2069,3,12,0.82,0.86,0.3,24.527,18.72,88.6,42.2,19497.0,8375,8218,8207,8290,58.6,57.4,60.5,60.0,2.943,2.865,2.923,2.818,0.64,155.3,33.8,77.7,1011.09,-34.69,1.14,1.32,28.2,38.9,35.4,0,no_anomaly,0.0,0,0,0,0,22.5725358,88.3638523,20.4,0.0
2024-07-23T13:29:12.700Z,MISSION_0045,127,1,orbit_base,SITE_KOL_006,22.5725372,88.3638504,20.7,59.47,2.211,0.151,8.91,2.8894,-0.2721,59.4703,0.86802,0.02307,0.01044,0.49588,0.1288,0.0545,-9.8338,-0.4244,0.6095,0.3943,0.1729,3,20,0.66,0.85,0.26,24.426,21.66,88.6,42.6,19485.0,8342,8137,8352,8511,56.5,61.4,63.7,60.2,2.988,2.928,2.903,2.806,0.4,154.4,34.3,78.4,1011.24,-30.15,-0.17,1.72,27.1,38.3,31.8,0,no_anomaly,0.0,0,0,0,0,22.5725372,88.3638504,20.7,0.0
2024-07-23T13:29:12.800Z,MISSION_0045,128,1,orbit_base,SITE_KOL_006,22.5725387,88.3638486,21.0,58.41,1.611,0.114,8.91,-0.5794,-2.0034,58.4096,0.87278,0.00412,-0.01773,0.48777,-0.0731,0.0163,-9.7905,0.5734,-0.9528,0.275,0.2085,3,18,0.69,0.88,0.34,24.451,24.9,88.5,41.9,19473.0,8062,8333,8388,8463,61.7,61.0,61.7,57.8,2.948,2.868,3.172,2.773,1.36,164.0,34.4,79.3,1011.11,-25.26,0.51,1.86,32.6,50.0,38.4,0,no_anomaly,0.0,0,0,0,0,22.5725387,88.3638486,21.0,0.0
2024-07-23T13:29:12.900Z,MISSION_0045,129,1,orbit_base,SITE_KOL_006,22.5725403,88.3638467,21.3,60.32,1.546,0.071,8.91,1.0753,-1.9871,60.321,0.86437,0.01682,-0.01028,0.50247,0.0358,-0.0405,-9.7831,-0.4488,0.3579,-0.316,0.1724,3,11,0.72,0.88,0.22,24.483,15.22,88.5,42.6,19461.0,8269,7861,8296,8066,61.5,57.0,59.0,58.4,2.713,2.848,2.789,2.662,1.47,162.6,34.4,78.7,1011.4,-24.99,0.04,1.15,28.4,48.2,37.8,0,no_anomaly,0.0,0,0,0,0,22.5725403,88.3638467,21.3,0.0
