timestamp_utc,mission_id,frame_id,waypoint_id,inspection_phase,site_id,latitude_deg,longitude_deg,altitude_m,heading_deg,ground_speed_ms,vertical_speed_ms,distance_to_tower_m,roll_deg,pitch_deg,yaw_deg,quat_w,quat_x,quat_y,quat_z,accel_x_ms2,accel_y_ms2,accel_z_ms2,gyro_x_rads,gyro_y_rads,gyro_z_rads,vibration_level,gps_fix_type,gps_satellite_count,gps_hdop,gps_vdop,position_error_m,battery_voltage_v,battery_current_a,battery_remaining_pct,battery_temp_c,battery_capacity_mah,motor_fl_rpm,motor_fr_rpm,motor_rl_rpm,motor_rr_rpm,motor_fl_temp_c,motor_fr_temp_c,motor_rl_temp_c,motor_rr_temp_c,motor_fl_thrust_n,motor_fr_thrust_n,motor_rl_thrust_n,motor_rr_thrust_n,wind_speed_ms,wind_dir_deg,air_temp_c,humidity_pct,pressure_hpa,gimbal_pitch_deg,gimbal_roll_deg,zoom_factor,ir_temp_min_c,ir_temp_max_c,ir_temp_avg_c,anomaly_detected,anomaly_class,anomaly_confidence,anomaly_bbox_x,anomaly_bbox_y,anomaly_bbox_w,anomaly_bbox_h,anomaly_gps_lat,anomaly_gps_lon,anomaly_gps_alt_m,ir_temp_delta_c
2024-11-21T16:31:00.000Z,MISSION_0028,0,0,takeoff,SITE_JAI_009,26.9124019,75.7872977,1.5,90.84,0.229,0.118,0.33,5.2955,-3.2087,90.8404,0.69996,0.05233,0.01326,0.71214,0.192,-0.0062,-9.7104,0.1896,0.1486,-0.1644,0.2373,3,13,0.7,0.86,0.22,24.661,17.18,95.3,38.3,20975.0,7339,7463,7426,7373,56.8,52.8,55.5,55.1,2.765,2.826,2.821,2.844,7.21,157.4,30.5,45.2,1012.63,-32.54,-0.55,1.57,26.6,41.5,32.9,0,no_anomaly,0.0,0,0,0,0,26.9124019,75.7872977,1.5,0.0
2024-11-21T16:31:00.100Z,MISSION_0028,1,0,takeoff,SITE_JAI_009,26.9124018,75.7872987,3.0,90.79,0.887,0.152,0.25,-1.4531,-2.0607,90.7917,0.7022,0.0039,-0.02165,0.71164,-0.2676,0.0017,-9.7947,-0.6555,-0.5103,-0.1378,0.2164,3,18,0.7,1.04,0.21,24.632,14.53,95.2,38.3,20954.0,7198,7458,7479,7327,57.9,55.1,54.3,55.6,2.878,2.866,2.652,2.867,7.05,160.7,30.3,45.7,1012.82,-32.04,-0.14,1.35,21.6,43.3,31.5,0,no_anomaly,0.0,0,0,0,0,26.9124018,75.7872987,3.0,0.0
2024-11-21T16:31:00.200Z,MISSION_0028,2,0,takeoff,SITE_JAI_009,26.9124046,75.7872975,4.5,90.82,0.774,0.118,0.58,4.5773,-1.9416,90.822,0.70087,0.04009,0.01655,0.71197,0.0526,0.0021,-9.8463,0.0145,0.2786,-0.1331,0.2009,3,14,0.66,0.71,0.35,24.654,19.46,95.2,37.1,20933.0,7341,7235,7297,7521,55.0,52.0,55.6,56.2,2.951,2.781,2.86,2.737,6.39,148.7,29.8,45.5,1012.64,-33.89,-0.2,1.66,25.6,42.7,34.0,0,no_anomaly,0.0,0,0,0,0,26.9124046,75.7872975,4.5,0.0
2024-11-21T16:31:00.300Z,MISSION_0028,3,0,takeoff,SITE_JAI_009,26.9124019,75.7872933,5.0,89.34,0.7,-0.021,0.78,2.3323,-3.8609,89.3353,0.71016,0.03814,-0.00965,0.70294,-0.0145,-0.0136,-9.8914,0.619,0.5918,-0.1425,0.3096,3,20,0.63,0.95,0.2,24.652,21.22,95.1,38.5,20913.0,7312,7169,6989,7435,53.6,56.1,58.3,49.4,2.765,2.768,2.799,3.103,6.53,164.1,29.9,45.7,1012.64,-27.16,0.83,1.56,26.1,41.9,34.5,0,no_anomaly,0.0,0,0,0,0,26.9124019,75.7872933,5.0,0.0
2024-11-21T16:31:00.400Z,MISSION_0028,4,0,takeoff,SITE_JAI_009,26.9123968,75.7872951,5.0,89.27,0.468,0.098,0.65,4.6794,-0.3948,89.2726,0.71089,0.03147,0.02623,0.70211,-0.482,0.0245,-9.7256,-0.1787,-0.2655,0.0224,0.1608,3,15,0.72,0.82,0.32,24.659,13.16,95.0,37.2,20892.0,7329,7353,7155,7121,58.3,54.8,58.3,53.2,2.77,2.716,2.422,2.674,7.04,151.6,29.9,46.7,1012.81,-26.21,-0.61,1.4,27.3,35.9,33.8,0,no_anomaly,0.0,0,0,0,0,26.9123968,75.7872951,5.0,0.0
2024-11-21T16:31:00.500Z,MISSION_0028,5,0,takeoff,SITE_JAI_009,26.9123978,75.7872986,5.0,90.59,0.851,-0.005,0.29,-6.9394,-1.2787,90.5904,0.7026,-0.03465,-0.05085,0.70892,0.2292,-0.0323,-9.9051,0.0309,-0.0225,-0.0219,0.283,3,11,0.77,0.74,0.28,24.718,19.39,94.9,37.5,20871.0,6986,7481,7342,7262,57.7,53.4,56.3,54.7,2.503,2.647,2.765,2.647,6.54,156.5,30.1,46.3,1012.96,-28.75,-0.55,1.04,23.8,37.6,35.0,0,no_anomaly,0.0,0,0,0,0,26.9123978,75.7872986,5.0,0.0
2024-11-21T16:31:00.600Z,MISSION_0028,6,0,takeoff,SITE_JAI_009,26.9123975,75.7872968,5.0,90.23,0.385,0.148,0.46,-2.0073,-2.3467,90.2265,0.70571,0.00215,-0.02686,0.70799,-0.1681,0.0282,-9.9275,0.1937,-0.4512,-0.1548,0.2062,3,17,0.71,0.78,0.35,24.615,23.32,94.8,38.4,20850.0,7311,7468,7243,7603,54.5,58.8,55.4,51.1,2.784,2.667,2.771,2.66,6.16,166.3,29.9,46.8,1012.79,-34.78,-0.06,1.54,23.7,36.0,30.4,0,no_anomaly,0.0,0,0,0,0,26.9123975,75.7872968,5.0,0.0
2024-11-21T16:31:00.700Z,MISSION_0028,7,0,takeoff,SITE_JAI_009,26.9123961,75.7872981,5.0,89.84,0.261,0.11,0.49,9.0825,-2.353,89.8433,0.70455,0.0705,0.04141,0.70492,0.0218,0.0163,-9.8133,-0.2341,0.6733,0.0305,0.2662,3,11,0.55,1.17,0.27,24.765,19.31,94.7,37.9,20830.0,7402,7165,7073,7594,54.8,56.0,52.0,53.6,3.062,2.845,3.066,2.643,7.0,152.5,29.9,45.4,1012.36,-31.96,-0.58,1.5,25.0,33.9,28.9,0,no_anomaly,0.0,0,0,0,0,26.9123961,75.7872981,5.0,0.0
2024-11-21T16:31:00.800Z,MISSION_0028,8,0,takeoff,SITE_JAI_009,26.9123974,75.7872995,5.0,86.51,0.111,0.084,0.29,1.8777,-1.1028,86.5076,0.72809,0.01853,0.00422,0.68522,-0.2401,-0.0168,-9.9037,-0.2799,-0.2172,-0.0145,0.2164,3,13,0.57,0.98,0.23,24.613,17.61,94.6,38.0,20809.0,7653,7408,7417,7072,53.6,57.5,53.5,55.4,2.57,2.843,2.817,2.758,6.59,160.7,29.9,46.2,1012.83,-27.23,-0.5,1.49,21.7,44.2,31.5,0,no_anomaly,0.0,0,0,0,0,26.9123974,75.7872995,5.0,0.0
2024-11-21T16:31:00.900Z,MISSION_0028,9,0,takeoff,SITE_JAI_009,26.9123968,75.7872959,5.0,87.01,0.0,0.139,0.58,3.5891,-0.9324,87.0084,0.72477,0.02831,0.01566,0.68823,0.061,-0.0038,-9.8445,-0.2363,0.9428,0.1466,0.2981,3,18,0.8,0.78,0.29,24.757,19.29,94.5,39.0,20788.0,7403,7185,7198,7356,53.8,51.3,53.4,55.0,3.099,2.632,2.901,3.074,6.87,157.1,30.0,46.0,1012.87,-28.54,0.17,1.07,24.6,39.2,36.1,0,no_anomaly,0.0,0,0,0,0,26.9123968,75.7872959,5.0,0.0
2024-11-21T16:31:01.000Z,MISSION_0028,10,0,takeoff,SITE_JAI_009,26.9123979,75.7872936,5.0,87.03,0.383,0.093,0.74,1.404,-2.3098,87.0296,0.72482,0.02276,-0.00618,0.68853,0.0407,-0.0106,-9.8061,0.2023,0.415,0.0501,0.2468,3,14,0.74,1.06,0.35,24.691,22.96,94.4,38.3,20767.0,7284,7283,7199,7531,52.8,57.2,56.6,52.6,2.76,3.14,2.88,2.59,7.1,168.1,29.6,46.0,1012.51,-34.43,-0.72,1.2,24.8,42.9,31.7,0,no_anomaly,0.0,0,0,0,0,26.9123979,75.7872936,5.0,0.0
2024-11-21T16:31:01.100Z,MISSION_0028,11,0,takeoff,SITE_JAI_009,26.9124037,75.7872925,5.0,86.03,0.062,0.094,0.93,-0.697,-0.2161,86.0268,0.73119,-0.00316,-0.00553,0.68215,0.2868,-0.0137,-9.8137,0.3797,0.3816,-0.2448,0.1943,3,20,0.7,0.86,0.35,24.656,23.93,94.3,38.1,20747.0,7370,7280,7547,7212,56.3,54.2,55.5,54.1,2.708,2.612,2.586,2.808,7.15,157.4,30.0,45.7,1012.49,-36.33,1.03,1.13,26.5,43.8,32.7,0,no_anomaly,0.0,0,0,0,0,26.9124037,75.7872925,5.0,0.0
2024-11-21T16:31:01.200Z,MISSION_0028,12,0,takeoff,SITE_JAI_009,26.9124055,75.78729,5.0,87.44,0.257,0.098,1.27,-2.1201,-1.3223,87.4367,0.72272,-0.0054,-0.02112,0.6908,-0.2066,-0.0185,-9.8683,-0.9368,0.5051,-0.7331,0.1201,3,11,0.66,0.72,0.36,24.726,19.12,94.2,38.4,20726.0,7615,7334,7404,7439,54.3,54.7,53.6,55.7,2.98,2.964,2.832,2.924,5.82,165.7,30.1,45.5,1012.72,-28.16,-0.05,1.54,23.2,36.1,30.9,0,no_anomaly,0.0,0,0,0,0,26.9124055,75.78729,5.0,0.0
2024-11-21T16:31:01.300Z,MISSION_0028,13,0,takeoff,SITE_JAI_009,26.9124053,75.7872844,5.0,86.49,0.135,0.137,1.83,1.1789,-0.8401,86.4885,0.72833,0.01252,0.00171,0.68511,-0.1487,0.064,-9.7755,-0.0806,-0.2171,0.2074,0.2859,3,19,0.84,0.84,0.29,24.617,19.37,94.1,37.7,20705.0,7517,7134,7676,7316,60.7,55.0,56.2,52.7,2.81,2.781,2.655,3.109,7.32,158.3,30.2,46.8,1012.2,-33.67,0.64,1.96,25.3,38.3,31.2,0,no_anomaly,0.0,0,0,0,0,26.9124053,75.7872844,5.0,0.0
2024-11-21T16:31:01.400Z,MISSION_0028,14,0,takeoff,SITE_JAI_009,26.9124025,75.7872849,5.0,85.63,0.173,0.086,1.7,-1.0116,-0.878,85.6327,0.73353,-0.00127,-0.01162,0.67955,-0.0493,0.0137,-9.8064,-0.075,-0.4043,-0.3006,0.2119,3,10,0.61,0.89,0.35,24.624,14.05,94.0,37.8,20684.0,7293,7310,7234,7389,53.2,54.9,55.8,55.5,2.688,2.77,2.797,2.736,6.24,157.3,29.8,45.9,1012.43,-31.52,-0.87,2.07,26.7,37.6,32.6,0,no_anomaly,0.0,0,0,0,0,26.9124025,75.7872849,5.0,0.0
2024-11-21T16:31:01.500Z,MISSION_0028,15,0,takeoff,SITE_JAI_009,26.912404,75.7872876,5.0,86.06,0.0,0.085,1.44,2.2004,-2.77,86.0622,0.73032,0.03052,-0.00457,0.68241,0.272,-0.0512,-9.8098,-0.0768,0.2211,-0.8444,0.259,3,16,0.8,1.03,0.34,24.6,26.17,93.9,37.8,20664.0,7215,7099,7181,7192,56.0,58.8,58.0,57.0,3.031,2.568,2.792,2.755,5.31,159.5,30.1,46.2,1012.67,-27.11,-1.11,1.27,27.2,44.4,35.0,0,no_anomaly,0.0,0,0,0,0,26.912404,75.7872876,5.0,0.0
2024-11-21T16:31:01.600Z,MISSION_0028,16,0,takeoff,SITE_JAI_009,26.9124089,75.7872858,5.0,86.79,0.0,0.088,1.87,-1.3001,-1.2281,86.7948,0.7266,-0.00088,-0.01558,0.68688,0.2052,-0.0005,-9.7968,0.0067,-0.2203,0.0442,0.2037,3,12,0.58,0.65,0.21,24.679,12.7,93.8,38.0,20643.0,7464,7322,7369,7299,52.8,54.4,59.0,54.5,2.548,2.737,2.811,2.812,6.95,149.3,30.0,46.5,1012.92,-27.05,0.1,1.03,26.8,40.3,34.2,0,no_anomaly,0.0,0,0,0,0,26.9124089,75.7872858,5.0,0.0
2024-11-21T16:31:01.700Z,MISSION_0028,17,0,takeoff,SITE_JAI_009,26.9124014,75.7872919,5.0,87.7,0.037,0.081,0.91,-0.6331,-0.8311,87.6972,0.72117,0.00104,-0.00906,0.6927,-0.03,-0.0079,-9.7767,0.0674,-0.2964,0.058,0.347,3,13,0.8,1.02,0.31,24.61,18.96,93.7,39.1,20622.0,7265,7368,7404,7414,54.8,53.9,55.4,54.7,2.78,3.029,2.754,3.003,6.61,158.7,29.9,46.3,1012.64,-29.43,-0.32,1.19,25.2,41.1,33.9,0,no_anomaly,0.0,0,0,0,0,26.9124014,75.7872919,5.0,0.0
2024-11-21T16:31:01.800Z,MISSION_0028,18,0,takeoff,SITE_JAI_009,26.9123995,75.7872904,5.0,89.8,0.0,0.086,1.07,4.8588,-2.4903,89.7993,0.70689,0.04534,0.01453,0.70572,-0.2064,-0.0246,-9.8764,0.1149,-0.2501,-0.6147,0.2977,3,14,0.71,0.61,0.2,24.602,16.95,93.6,38.2,20601.0,7523,7385,7347,7616,54.6,55.9,52.1,55.0,2.933,2.642,2.765,2.75,7.08,156.0,29.9,45.6,1012.69,-33.51,-0.01,1.58,23.4,37.2,33.6,0,no_anomaly,0.0,0,0,0,0,26.9123995,75.7872904,5.0,0.0
2024-11-21T16:31:01.900Z,MISSION_0028,19,0,takeoff,SITE_JAI_009,26.9123988,75.7872875,5.0,92.11,0.368,0.054,1.39,2.8234,-2.661,92.1091,0.69316,0.03381,0.00162,0.71999,-0.0204,0.0071,-9.859,0.2916,-0.9454,0.1393,0.3261,3,17,0.63,0.92,0.26,24.632,19.27,93.5,37.9,20581.0,7359,6999,7502,7318,53.8,58.2,55.4,55.0,2.838,2.865,2.552,2.983,6.78,157.5,29.8,45.6,1012.64,-31.33,-0.93,1.92,26.0,42.2,32.9,0,no_anomaly,0.0,0,0,0,0,26.9123988,75.7872875,5.0,0.0
2024-11-21T16:31:02.000Z,MISSION_0028,20,0,takeoff,SITE_JAI_009,26.9123997,75.7872841,5.0,90.12,0.0,0.076,1.77,4.4251,0.2679,90.1172,0.70592,0.02562,0.02898,0.70724,-0.022,-0.0023,-9.8458,-0.1842,0.2346,-0.1732,0.2213,3,12,0.86,0.91,0.44,24.495,15.35,93.5,38.5,20560.0,7346,7421,7303,7159,57.9,54.9,56.2,53.2,2.611,2.922,2.955,2.533,6.57,163.1,29.8,46.4,1012.93,-29.82,0.51,1.48,24.1,39.2,34.2,0,no_anomaly,0.0,0,0,0,0,26.9123997,75.7872841,5.0,0.0
2024-11-21T16:31:02.100Z,MISSION_0028,21,0,takeoff,SITE_JAI_009,26.912404,75.7872861,5.0,92.56,0.0,0.094,1.62,1.8713,-4.6351,92.5569,0.69002,0.0405,-0.01615,0.72248,-0.3963,0.0045,-9.8639,-0.3105,-0.0981,-0.1352,0.241,3,18,0.67,0.85,0.36,24.568,20.18,93.4,38.1,20539.0,7491,7212,7266,7439,57.7,54.1,52.2,56.2,2.944,2.892,2.915,2.711,7.25,166.0,29.6,46.2,1012.58,-32.38,-0.67,1.19,26.5,42.2,31.7,0,no_anomaly,0.0,0,0,0,0,26.912404,75.7872861,5.0,0.0
2024-11-21T16:31:02.200Z,MISSION_0028,22,0,takeoff,SITE_JAI_009,26.9124041,75.7872873,5.0,92.42,0.021,0.09,1.49,-2.7008,-2.9583,92.4246,0.692,0.00233,-0.03486,0.72105,-0.106,0.0127,-9.7943,-0.5202,0.1965,0.1489,0.3009,3,12,0.8,0.85,0.2,24.73,18.93,93.3,38.3,20518.0,7307,7443,7765,7284,56.9,57.3,55.1,59.2,2.823,2.783,2.795,3.167,6.06,160.3,29.9,46.3,1013.05,-25.64,0.55,1.11,25.8,41.4,32.5,0,no_anomaly,0.0,0,0,0,0,26.9124041,75.7872873,5.0,0.0
2024-11-21T16:31:02.300Z,MISSION_0028,23,0,takeoff,SITE_JAI_009,26.912402,75.7872854,5.0,94.04,0.0,0.067,1.64,0.5792,-2.616,94.0414,0.68146,0.02014,-0.01187,0.73148,-0.2284,-0.0233,-9.7429,-1.1012,0.2498,0.3547,0.2793,3,14,0.68,0.9,0.25,24.637,19.35,93.2,38.4,20498.0,7313,7337,7117,7177,56.2,55.8,56.2,53.9,2.746,2.802,2.96,2.862,6.56,160.4,30.0,45.8,1012.84,-29.59,-0.24,1.17,24.0,38.6,33.0,0,no_anomaly,0.0,0,0,0,0,26.912402,75.7872854,5.0,0.0
2024-11-21T16:31:02.400Z,MISSION_0028,24,0,takeoff,SITE_JAI_009,26.9123991,75.7872813,5.0,94.74,0.114,0.158,2.09,-1.1899,-1.5448,94.7404,0.67726,0.00289,-0.01677,0.73554,0.0255,0.0379,-9.8517,-0.533,-0.7385,0.0967,0.2607,3,17,0.61,0.81,0.23,24.619,19.57,93.1,37.5,20477.0,7424,7473,7420,7349,56.9,54.8,54.2,58.5,2.658,2.806,2.978,2.848,5.86,160.1,30.0,46.1,1012.66,-31.51,-1.26,1.49,27.6,41.5,35.4,0,no_anomaly,0.0,0,0,0,0,26.9123991,75.7872813,5.0,0.0
2024-11-21T16:31:02.500Z,MISSION_0028,25,0,takeoff,SITE_JAI_009,26.9123983,75.7872793,5.0,96.05,0.004,0.115,2.32,-1.9347,-3.201,96.046,0.66883,0.00947,-0.03122,0.7427,0.1605,0.0269,-9.7774,0.3994,-0.3811,-0.5113,0.2332,3,18,0.75,1.06,0.2,24.608,14.77,93.0,37.7,20456.0,7461,7263,7298,7232,55.6,52.8,53.5,57.2,2.926,2.588,2.69,2.782,7.06,158.4,30.1,45.1,1012.98,-26.5,-0.09,1.0,23.3,42.1,34.8,0,no_anomaly,0.0,0,0,0,0,26.9123983,75.7872793,5.0,0.0
2024-11-21T16:31:02.600Z,MISSION_0028,26,0,takeoff,SITE_JAI_009,26.9123969,75.7872793,5.0,97.02,0.045,0.151,2.33,-5.0513,-2.1411,97.0182,0.66236,-0.01521,-0.04537,0.74766,0.0808,-0.0579,-9.793,0.4027,0.1439,-0.0047,0.3177,3,20,0.84,0.79,0.4,24.679,19.2,92.9,38.0,20435.0,7357,7337,7276,7260,53.1,56.2,58.8,52.1,3.05,2.565,3.064,2.697,5.22,164.7,30.0,45.6,1012.74,-35.05,1.36,1.46,22.6,35.7,31.2,0,no_anomaly,0.0,0,0,0,0,26.9123969,75.7872793,5.0,0.0
2024-11-21T16:31:02.700Z,MISSION_0028,27,0,takeoff,SITE_JAI_009,26.912402,75.7872766,5.0,97.81,0.0,0.171,2.62,1.9339,-1.1299,97.8092,0.65706,0.01852,0.00624,0.75358,0.099,-0.0849,-9.8702,-0.4107,-0.2094,0.2776,0.2826,3,10,0.59,0.84,0.2,24.644,15.3,92.8,38.2,20415.0,7421,7582,7381,7425,58.5,58.0,56.1,52.4,2.615,2.46,2.817,2.673,7.63,144.5,30.1,46.1,1012.72,-26.42,-0.94,1.61,27.1,44.8,32.5,0,no_anomaly,0.0,0,0,0,0,26.912402,75.7872766,5.0,0.0
2024-11-21T16:31:02.800Z,MISSION_0028,28,0,takeoff,SITE_JAI_009,26.9124024,75.7872815,5.0,99.06,0.222,0.179,2.08,3.7734,-1.5993,99.0574,0.6483,0.03198,0.01599,0.76054,0.2172,0.0104,-9.8551,-0.3297,0.2134,-0.4058,0.1927,3,18,0.65,1.19,0.2,24.617,15.27,92.7,37.7,20394.0,7484,7372,7384,7201,53.8,51.8,56.4,54.4,2.979,2.631,2.827,2.86,7.67,157.2,30.0,45.9,1013.02,-29.3,-0.49,1.99,19.4,38.5,29.4,0,no_anomaly,0.0,0,0,0,0,26.9124024,75.7872815,5.0,0.0
2024-11-21T16:31:02.900Z,MISSION_0028,29,0,takeoff,SITE_JAI_009,26.9124015,75.7872867,5.0,100.34,0.036,0.188,1.49,2.1784,-1.1252,100.3368,0.64024,0.01971,0.00831,0.76787,0.1529,0.067,-9.8362,0.1249,-0.5129,0.5343,0.2303,3,10,0.69,0.7,0.29,24.617,14.94,92.6,38.2,20373.0,7274,7337,7253,7449,52.8,58.2,56.3,56.4,2.731,2.899,2.833,2.909,6.76,160.5,29.6,45.7,1012.77,-26.05,0.73,1.79,22.4,38.6,31.5,0,no_anomaly,0.0,0,0,0,0,26.9124015,75.7872867,5.0,0.0
2024-11-21T16:31:03.000Z,MISSION_0028,30,0,takeoff,SITE_JAI_009,26.9124026,75.7872854,5.0,99.8,0.0,0.083,1.65,0.542,-2.3085,99.7998,0.64391,0.01845,-0.00936,0.76482,0.0863,-0.0219,-9.826,-0.6088,-0.0127,-0.3681,0.2582,3,10,0.68,0.73,0.35,24.498,14.48,92.5,38.2,20353.0,7355,7205,7175,7477,54.9,56.7,52.7,53.2,2.996,2.837,2.833,2.624,7.16,159.1,30.0,46.3,1012.8,-25.69,1.08,1.0,26.9,37.2,33.3,0,no_anomaly,0.0,0,0,0,0,26.9124026,75.7872854,5.0,0.0
2024-11-21T16:31:03.100Z,MISSION_0028,31,0,takeoff,SITE_JAI_009,26.912403,75.7872847,5.0,101.75,0.0,0.127,1.73,1.5303,-1.2778,101.7483,0.63081,0.01708,0.00332,0.77574,-0.2442,0.0661,-9.807,0.065,0.5225,0.0217,0.2004,3,17,0.69,0.89,0.36,24.537,16.13,92.4,37.6,20332.0,7226,6979,7153,7318,51.3,58.0,52.9,56.3,3.067,2.827,2.916,2.584,6.73,155.0,29.7,45.5,1012.9,-34.52,-3.5,1.99,23.9,34.9,33.2,0,no_anomaly,0.0,0,0,0,0,26.912403,75.7872847,5.0,0.0
2024-11-21T16:31:03.200Z,MISSION_0028,32,0,takeoff,SITE_JAI_009,26.9123999,75.7872802,5.0,103.43,0.041,0.053,2.21,-3.4246,-5.2601,103.4296,0.61972,0.01751,-0.05185,0.78291,-0.1038,0.0205,-9.8601,0.3042,0.4467,-0.245,0.2732,3,11,0.84,1.01,0.33,24.593,18.63,92.3,37.2,20311.0,7313,7686,7345,7414,57.4,52.3,54.7,53.9,2.656,2.775,2.644,2.669,6.7,153.6,30.1,44.8,1012.51,-30.97,0.78,1.11,21.2,38.1,31.4,0,no_anomaly,0.0,0,0,0,0,26.9123999,75.7872802,5.0,0.0
2024-11-21T16:31:03.300Z,MISSION_0028,33,0,takeoff,SITE_JAI_009,26.9123974,75.78728,5.0,101.46,0.0,0.052,2.24,3.4508,-1.5756,101.4558,0.63234,0.0297,0.01461,0.77399,-0.1361,0.0003,-9.9237,-0.3637,0.2741,-0.1898,0.2063,3,19,0.76,0.97,0.35,24.679,19.96,92.2,37.8,20290.0,7020,7302,7327,7348,57.2,57.5,54.0,54.7,2.99,3.116,2.963,2.793,7.35,166.1,30.1,45.9,1012.7,-36.28,1.4,1.85,22.4,37.6,30.9,0,no_anomaly,0.0,0,0,0,0,26.9123974,75.78728,5.0,0.0
2024-11-21T16:31:03.400Z,MISSION_0028,34,0,takeoff,SITE_JAI_009,26.9123962,75.7872826,5.0,103.88,0.087,0.112,1.98,1.8372,-2.2047,103.8839,0.61602,0.02503,0.00076,0.78733,0.016,0.0429,-9.768,-0.1484,0.5952,0.0009,0.2533,3,15,0.62,0.92,0.3,24.459,12.02,92.1,39.0,20270.0,7412,7151,7197,7464,57.8,57.2,56.7,57.0,3.114,3.074,2.573,2.591,6.8,160.9,30.1,45.8,1012.66,-24.83,-0.92,1.68,24.9,41.1,31.3,0,no_anomaly,0.0,0,0,0,0,26.9123962,75.7872826,5.0,0.0
2024-11-21T16:31:03.500Z,MISSION_0028,35,0,takeoff,SITE_JAI_009,26.9123948,75.7872885,5.0,104.48,0.046,0.073,1.4,2.6509,-1.6428,104.4776,0.61188,0.02549,0.00951,0.79048,0.128,0.0199,-9.7979,0.3831,-0.3592,-0.22,0.2721,3,15,0.66,1.19,0.38,24.651,21.48,92.0,38.1,20249.0,7276,7448,7380,7323,55.0,54.3,55.2,51.9,2.954,2.768,3.003,2.937,6.2,151.7,30.2,46.4,1012.79,-32.19,0.03,1.4,27.7,37.8,31.1,0,no_anomaly,0.0,0,0,0,0,26.9123948,75.7872885,5.0,0.0
2024-11-21T16:31:03.600Z,MISSION_0028,36,0,takeoff,SITE_JAI_009,26.9123922,75.7872839,5.0,104.04,0.0,0.071,1.99,-1.9447,-0.7699,104.0443,0.61534,-0.00515,-0.01751,0.78805,-0.3214,0.0082,-9.8459,0.2707,-0.4348,0.2423,0.2291,3,18,0.65,0.88,0.21,24.593,22.51,91.9,38.2,20228.0,7265,7634,7403,7201,52.3,54.3,57.6,53.1,2.793,2.796,2.829,2.885,6.81,161.8,29.9,45.9,1012.51,-28.16,0.33,1.74,25.9,45.3,35.7,0,no_anomaly,0.0,0,0,0,0,26.9123922,75.7872839,5.0,0.0
2024-11-21T16:31:03.700Z,MISSION_0028,37,0,takeoff,SITE_JAI_009,26.9123923,75.7872836,5.0,105.0,0.73,0.128,2.01,0.5833,-3.0557,105.0046,0.6084,0.02425,-0.01219,0.79317,-0.0863,0.002,-9.7559,-0.0403,0.0707,0.3443,0.3004,3,16,0.8,0.6,0.2,24.61,17.91,91.9,37.4,20207.0,7392,7502,6834,7429,56.7,55.2,56.8,52.6,2.713,2.739,2.958,2.803,6.58,160.6,30.0,45.5,1013.08,-29.21,-1.3,1.47,27.2,35.2,32.1,0,no_anomaly,0.0,0,0,0,0,26.9123923,75.7872836,5.0,0.0
2024-11-21T16:31:03.800Z,MISSION_0028,38,0,takeoff,SITE_JAI_009,26.9123946,75.787286,5.0,105.14,1.054,0.105,1.67,-2.8807,1.4264,105.1433,0.60728,-0.02516,-0.0124,0.79399,-0.223,0.0152,-9.8216,-0.0771,-0.1618,0.0913,0.2075,3,11,0.67,0.83,0.24,24.588,21.79,91.8,38.2,20187.0,7091,7274,7232,7528,52.1,54.8,55.6,58.2,2.702,2.77,2.887,2.984,7.0,153.4,30.0,46.4,1012.83,-26.75,0.96,1.18,22.5,39.7,34.3,0,no_anomaly,0.0,0,0,0,0,26.9123946,75.787286,5.0,0.0
2024-11-21T16:31:03.900Z,MISSION_0028,39,0,takeoff,SITE_JAI_009,26.9123927,75.7872828,5.0,102.77,0.77,0.02,2.08,4.3766,-3.4356,102.769,0.62246,0.04722,0.01113,0.78115,-0.061,-0.0524,-9.8545,-0.1823,-1.0882,0.3589,0.2403,3,20,0.73,0.99,0.31,24.588,17.82,91.7,38.7,20166.0,7077,7261,7359,7598,54.6,55.9,56.1,58.3,2.714,2.624,2.663,3.121,6.62,153.2,30.2,46.4,1012.67,-35.4,-0.73,1.84,25.0,42.5,34.0,0,no_anomaly,0.0,0,0,0,0,26.9123927,75.7872828,5.0,0.0
2024-11-21T16:31:04.000Z,MISSION_0028,40,0,takeoff,SITE_JAI_009,26.912393,75.7872782,5.0,101.79,0.834,0.2,2.55,-2.0762,-3.4871,101.792,0.63076,0.01219,-0.03324,0.77517,-0.2218,0.0264,-9.8215,0.3372,0.9426,-0.2487,0.2249,3,13,0.61,0.86,0.26,24.622,14.95,91.6,38.1,20145.0,7287,7440,7295,7391,53.6,54.9,58.5,58.6,2.829,2.74,3.021,2.741,6.62,148.6,30.0,45.5,1012.49,-29.29,-1.09,1.31,21.9,40.4,31.0,0,no_anomaly,0.0,0,0,0,0,26.912393,75.7872782,5.0,0.0
2024-11-21T16:31:04.100Z,MISSION_0028,41,0,takeoff,SITE_JAI_009,26.9123974,75.7872751,5.0,98.88,0.827,0.112,2.78,-4.0864,-1.0868,98.8836,0.65003,-0.01598,-0.03325,0.75901,-0.0906,0.023,-9.8112,-0.0643,-0.1476,0.3025,0.2797,3,19,0.69,0.87,0.2,24.604,16.15,91.5,38.1,20124.0,7386,7153,7200,7190,54.7,53.6,56.7,53.7,2.776,3.001,2.953,2.742,6.68,161.6,30.0,46.8,1012.49,-28.74,-1.67,1.64,24.9,38.8,33.8,0,no_anomaly,0.0,0,0,0,0,26.9123974,75.7872751,5.0,0.0
2024-11-21T16:31:04.200Z,MISSION_0028,42,0,takeoff,SITE_JAI_009,26.9123963,75.7872747,5.0,100.12,1.105,0.07,2.85,-2.9648,-4.1221,100.1196,0.64207,0.01097,-0.0429,0.76537,0.3266,0.0145,-9.8322,-0.1886,0.0864,-0.4823,0.1745,3,13,0.5,0.65,0.22,24.6,20.34,91.4,37.8,20104.0,7353,7204,7353,7412,53.9,54.9,56.6,55.4,2.871,2.858,2.834,2.865,6.18,161.2,30.0,45.8,1012.71,-31.4,2.04,1.53,20.9,40.2,31.0,0,no_anomaly,0.0,0,0,0,0,26.9123963,75.7872747,5.0,0.0
2024-11-21T16:31:04.300Z,MISSION_0028,43,0,transit,SITE_JAI_009,26.9123985,75.7872751,5.5,101.77,1.171,0.152,2.77,-1.0546,-2.9101,101.77,0.63083,0.0139,-0.02316,0.77545,0.1022,0.0222,-9.8202,0.0956,-0.4328,-0.5829,0.1893,3,10,0.67,1.35,0.25,24.636,17.76,91.3,39.4,20083.0,7303,7415,7170,7141,52.7,53.0,58.9,60.1,2.814,2.686,2.706,2.971,7.12,159.4,30.1,45.5,1012.76,-29.74,0.55,1.13,25.8,41.3,31.7,0,no_anomaly,0.0,0,0,0,0,26.9123985,75.7872751,5.5,0.0
2024-11-21T16:31:04.400Z,MISSION_0028,44,0,transit,SITE_JAI_009,26.9123963,75.7872742,6.0,102.45,0.794,-0.08,2.91,-2.7351,-3.8383,102.4531,0.62634,0.01116,-0.03956,0.77847,-0.0868,0.019,-9.7531,-0.0598,0.5004,-0.4603,0.2198,3,18,0.65,0.9,0.32,24.576,17.99,91.2,38.4,20062.0,7604,7154,7412,7294,51.4,53.9,56.1,57.9,2.775,3.072,2.688,2.676,6.86,154.4,30.0,46.1,1012.52,-28.71,-0.08,1.73,25.4,44.2,30.7,0,no_anomaly,0.0,0,0,0,0,26.9123963,75.7872742,6.0,0.0
2024-11-21T16:31:04.500Z,MISSION_0028,45,0,transit,SITE_JAI_009,26.9123947,75.7872706,6.5,103.57,0.465,0.004,3.32,0.4849,-3.1654,103.5732,0.61826,0.02432,-0.01376,0.78548,-0.0115,0.0426,-9.8276,0.3552,-0.1698,-0.042,0.2419,3,17,0.74,0.89,0.2,24.625,18.12,91.1,38.3,20041.0,7415,7360,7114,7363,52.7,54.3,56.2,56.5,2.711,2.975,2.748,2.833,6.42,160.4,30.0,46.1,1012.62,-29.96,-0.96,1.79,23.3,38.0,29.9,0,no_anomaly,0.0,0,0,0,0,26.9123947,75.7872706,6.5,0.0
2024-11-21T16:31:04.600Z,MISSION_0028,46,0,transit,SITE_JAI_009,26.9123981,75.7872718,7.0,104.9,0.292,0.091,3.15,8.2182,-4.5381,104.8976,0.60518,0.07495,0.0327,0.79188,-0.0325,-0.0604,-9.8242,-0.4407,0.1173,0.1926,0.2591,3,20,0.53,1.06,0.21,24.542,20.9,91.0,38.2,20021.0,7532,6880,7452,7437,55.6,57.5,51.2,54.9,2.856,2.713,2.878,2.748,6.4,157.1,30.1,45.3,1012.45,-26.41,-1.79,1.0,24.6,35.9,30.5,0,no_anomaly,0.0,0,0,0,0,26.9123981,75.7872718,7.0,0.0
2024-11-21T16:31:04.700Z,MISSION_0028,47,0,transit,SITE_JAI_009,26.912397,75.7872718,7.5,103.75,0.677,0.082,3.15,0.4479,-1.0584,103.7467,0.61734,0.00968,-0.00263,0.78663,-0.0132,-0.0235,-9.7873,-0.2056,-0.1998,0.1747,0.2237,3,20,0.79,0.86,0.2,24.658,24.03,90.9,38.1,20000.0,7343,7136,7335,7167,54.9,54.0,55.2,58.5,2.762,2.715,2.761,2.705,6.87,160.4,29.9,46.3,1012.86,-31.67,-0.49,1.67,24.0,37.7,34.4,0,no_anomaly,0.0,0,0,0,0,26.912397,75.7872718,7.5,0.0
2024-11-21T16:31:04.800Z,MISSION_0028,48,0,transit,SITE_JAI_009,26.9123948,75.7872741,8.0,103.89,0.637,0.105,2.94,1.6967,-3.9073,103.892,0.61558,0.03596,-0.00936,0.7872,0.0497,0.0235,-9.8432,0.1901,-0.2445,-0.2772,0.2215,3,16,0.65,0.67,0.2,24.57,15.62,90.8,37.9,19979.0,7192,7405,7174,7455,56.4,56.6,53.7,52.5,2.941,2.705,2.912,2.766,6.83,153.7,29.8,45.3,1012.69,-31.84,0.46,1.0,24.3,39.2,34.4,0,no_anomaly,0.0,0,0,0,0,26.9123948,75.7872741,8.0,0.0
2024-11-21T16:31:04.900Z,MISSION_0028,49,0,transit,SITE_JAI_009,26.9123956,75.7872752,8.5,103.72,0.482,0.019,2.8,1.6489,-0.7638,103.7235,0.61741,0.01413,0.0072,0.78648,-0.149,0.0495,-9.8189,-0.3629,-0.0243,-0.2341,0.2096,3,18,0.9,1.1,0.24,24.553,18.49,90.7,38.9,19958.0,7299,7014,7128,7501,54.7,53.2,55.6,54.8,2.568,2.893,3.135,2.816,7.56,156.8,29.6,47.3,1012.15,-31.87,0.09,1.44,24.5,45.5,32.1,0,no_anomaly,0.0,0,0,0,0,26.9123956,75.7872752,8.5,0.0
2024-11-21T16:31:05.000Z,MISSION_0028,50,0,transit,SITE_JAI_009,26.9123956,75.7872712,9.0,102.5,0.76,0.067,3.25,0.3844,-1.4097,102.4995,0.62584,0.01169,-0.00508,0.77984,0.0783,0.089,-9.9283,-0.7055,-0.8039,0.1032,0.1946,3,13,0.79,0.81,0.38,24.575,14.7,90.6,37.3,19938.0,7042,7206,7433,7350,55.2,57.5,52.8,56.2,2.685,2.676,2.792,3.224,6.63,162.0,30.1,46.6,1012.99,-33.74,-0.09,1.26,22.1,34.2,33.5,0,no_anomaly,0.0,0,0,0,0,26.9123956,75.7872712,9.0,0.0
2024-11-21T16:31:05.100Z,MISSION_0028,51,0,transit,SITE_JAI_009,26.9123925,75.787274,9.5,102.53,0.733,0.146,3.02,0.0457,-2.7976,102.5269,0.62555,0.01929,-0.01496,0.7798,0.036,0.034,-9.8045,0.6838,-0.1232,0.0713,0.2829,3,15,0.64,0.83,0.3,24.489,15.24,90.5,38.1,19917.0,7426,7452,7203,7255,54.9,54.8,56.9,53.1,2.799,2.717,2.932,2.642,6.41,160.6,30.2,45.6,1012.98,-34.59,-1.27,1.82,25.5,35.5,30.2,0,no_anomaly,0.0,0,0,0,0,26.9123925,75.787274,9.5,0.0
2024-11-21T16:31:05.200Z,MISSION_0028,52,0,transit,SITE_JAI_009,26.912393,75.7872748,10.0,104.06,0.709,0.174,2.92,1.8455,-2.739,104.0618,0.61468,0.02874,-0.00201,0.78825,0.1155,-0.0476,-9.746,0.1775,0.0406,0.3112,0.2273,3,13,0.67,1.06,0.36,24.563,17.85,90.4,37.5,19896.0,7356,7350,7274,7498,50.4,55.3,55.5,56.5,2.815,3.046,2.936,2.626,7.22,158.4,29.5,46.5,1012.76,-27.93,-0.73,1.4,26.1,39.8,35.4,0,no_anomaly,0.0,0,0,0,0,26.912393,75.7872748,10.0,0.0
2024-11-21T16:31:05.300Z,MISSION_0028,53,0,transit,SITE_JAI_009,26.9123913,75.7872756,10.5,105.71,0.572,0.082,2.88,10.5814,-2.2634,105.7143,0.59966,0.07134,0.06161,0.79468,-0.0012,-0.0053,-9.8304,0.5171,0.0824,-0.1194,0.2596,3,13,0.74,0.91,0.24,24.564,14.13,90.3,37.9,19875.0,7262,7420,7162,7508,55.2,54.1,56.0,52.5,2.957,2.944,2.794,2.804,7.54,141.6,29.9,45.6,1012.34,-24.62,0.13,1.27,26.6,41.2,33.0,0,no_anomaly,0.0,0,0,0,0,26.9123913,75.7872756,10.5,0.0
2024-11-21T16:31:05.400Z,MISSION_0028,54,0,transit,SITE_JAI_009,26.9123945,75.7872751,11.0,108.51,0.665,0.069,2.84,-2.341,-0.6769,108.507,0.58417,-0.00714,-0.02003,0.81136,0.3481,0.0704,-9.8566,-0.1964,0.841,-0.0854,0.2382,3,13,0.8,0.88,0.47,24.617,20.91,90.2,38.4,19855.0,7506,7126,7202,7441,53.2,52.1,55.1,55.2,2.765,2.928,2.704,2.62,7.59,166.1,30.1,45.6,1012.92,-32.47,-0.79,1.11,24.0,39.8,32.7,0,no_anomaly,0.0,0,0,0,0,26.9123945,75.7872751,11.0,0.0
2024-11-21T16:31:05.500Z,MISSION_0028,55,0,transit,SITE_JAI_009,26.9123974,75.7872759,11.5,107.63,0.78,0.058,2.69,0.9206,-5.2288,107.6331,0.58944,0.04155,-0.02045,0.80648,0.4435,0.0123,-9.855,-0.5495,0.2301,-0.064,0.2224,3,19,0.75,1.04,0.25,24.573,19.42,90.2,38.5,19834.0,7731,7302,7280,7232,56.8,54.1,50.0,53.2,2.894,2.621,2.775,2.849,6.93,156.3,30.0,45.5,1013.07,-26.59,-0.1,1.26,27.9,43.9,32.5,0,no_anomaly,0.0,0,0,0,0,26.9123974,75.7872759,11.5,0.0
2024-11-21T16:31:05.600Z,MISSION_0028,56,0,transit,SITE_JAI_009,26.9123984,75.7872767,12.0,106.43,1.028,0.147,2.6,0.7445,-1.0309,106.4308,0.59872,0.01109,-0.00018,0.80088,0.3106,-0.0496,-9.6789,1.0137,0.1072,0.3901,0.3036,3,10,0.64,0.9,0.26,24.583,19.51,90.1,37.2,19813.0,7311,7557,7640,7508,54.8,55.7,55.6,52.3,3.081,2.827,2.697,2.884,6.93,157.1,29.8,45.6,1012.72,-31.5,0.26,1.21,23.8,39.2,31.5,0,no_anomaly,0.0,0,0,0,0,26.9123984,75.7872767,12.0,0.0
2024-11-21T16:31:05.700Z,MISSION_0028,57,0,transit,SITE_JAI_009,26.9124012,75.7872793,12.5,106.95,0.636,0.125,2.3,2.6453,-0.7073,106.9495,0.59489,0.0187,0.01488,0.80345,0.2022,0.0006,-9.8613,0.0704,0.1373,0.2505,0.2666,3,16,0.75,1.1,0.23,24.547,13.54,90.0,38.7,19793.0,7355,7502,7434,7413,55.7,55.9,55.8,53.7,3.042,2.775,2.733,2.891,6.51,156.4,30.3,46.3,1012.76,-29.53,-0.08,1.22,22.7,39.9,33.4,0,no_anomaly,0.0,0,0,0,0,26.9124012,75.7872793,12.5,0.0
2024-11-21T16:31:05.800Z,MISSION_0028,58,0,transit,SITE_JAI_009,26.912405,75.7872782,13.0,102.56,0.0,0.081,2.49,1.5571,-3.4822,102.5578,0.62486,0.0322,-0.00841,0.78003,-0.0732,0.0159,-9.8379,0.384,0.419,-0.0403,0.2949,3,20,0.76,1.03,0.24,24.551,24.68,89.9,37.5,19772.0,7484,7428,7388,7313,56.2,59.0,53.7,57.2,2.851,2.764,2.631,2.625,6.77,162.5,29.7,46.8,1012.67,-35.53,0.78,1.62,26.6,44.4,30.8,0,no_anomaly,0.0,0,0,0,0,26.912405,75.7872782,13.0,0.0
2024-11-21T16:31:05.900Z,MISSION_0028,59,0,transit,SITE_JAI_009,26.9124077,75.7872794,13.2,100.48,0.0,0.155,2.45,-1.1994,-4.2253,100.4805,0.6394,0.02165,-0.03162,0.76792,0.431,-0.0862,-9.7181,0.6627,-0.1595,-0.3058,0.3059,3,17,0.67,0.98,0.23,24.547,15.09,89.8,38.3,19751.0,7197,7124,7309,7280,57.9,56.8,57.4,59.7,3.051,2.958,2.791,2.969,7.77,166.1,30.3,46.7,1012.58,-27.91,-0.48,1.45,26.9,44.6,33.6,0,no_anomaly,0.0,0,0,0,0,26.9124077,75.7872794,13.2,0.0
2024-11-21T16:31:06.000Z,MISSION_0028,60,0,transit,SITE_JAI_009,26.9124048,75.7872841,13.2,101.79,0.0,0.091,1.85,5.0408,-1.7168,101.7916,0.62954,0.03935,0.02468,0.77558,0.1967,-0.1024,-9.8105,-0.3798,-0.006,-0.2804,0.2104,3,15,0.75,1.1,0.34,24.49,10.19,89.7,38.2,19730.0,7400,7283,7635,7499,51.8,54.8,54.3,54.5,2.68,2.686,2.971,2.759,6.55,162.7,30.0,46.7,1012.95,-28.9,-2.17,1.84,24.3,37.2,29.3,0,no_anomaly,0.0,0,0,0,0,26.9124048,75.7872841,13.2,0.0
2024-11-21T16:31:06.100Z,MISSION_0028,61,0,transit,SITE_JAI_009,26.9124059,75.7872803,13.2,104.87,0.157,0.125,2.28,-1.7468,-2.1943,104.8692,0.60972,0.00588,-0.02375,0.79224,0.0037,-0.0571,-9.7883,0.4297,0.0913,-0.0724,0.1617,3,14,0.74,1.23,0.27,24.56,17.64,89.6,37.8,19710.0,7444,7310,7272,7496,52.5,58.9,50.7,57.7,3.036,2.907,2.69,2.838,6.75,152.8,30.2,46.8,1012.49,-27.21,1.56,1.19,21.0,35.9,30.0,0,no_anomaly,0.0,0,0,0,0,26.9124059,75.7872803,13.2,0.0
2024-11-21T16:31:06.200Z,MISSION_0028,62,0,transit,SITE_JAI_009,26.9123996,75.7872806,13.2,105.14,0.0,0.067,2.16,-0.191,-2.4267,105.1409,0.60768,0.0158,-0.01419,0.7939,0.0408,0.0312,-9.873,-0.0211,0.0525,0.2267,0.1339,3,17,0.5,0.82,0.2,24.568,16.82,89.5,38.0,19689.0,7313,7422,7232,7597,54.1,56.9,51.8,56.1,2.565,2.708,2.872,2.671,6.6,157.5,29.8,45.3,1012.82,-31.3,0.54,1.23,22.2,42.6,31.1,0,no_anomaly,0.0,0,0,0,0,26.9123996,75.7872806,13.2,0.0
2024-11-21T16:31:06.300Z,MISSION_0028,63,0,transit,SITE_JAI_009,26.9124017,75.787278,13.2,106.38,0.111,0.115,2.45,-0.521,-1.5519,106.3791,0.59916,0.00812,-0.01175,0.8005,-0.0743,-0.0309,-9.8487,0.4133,0.588,-0.0337,0.2578,3,15,0.72,0.89,0.23,24.469,22.2,89.4,37.7,19668.0,7383,7473,7205,7373,54.3,57.8,55.4,58.3,2.97,2.858,2.643,2.841,7.92,159.2,29.8,45.5,1012.9,-25.61,2.47,1.41,22.9,38.5,30.6,0,no_anomaly,0.0,0,0,0,0,26.9124017,75.787278,13.2,0.0
2024-11-21T16:31:06.400Z,MISSION_0028,64,0,transit,SITE_JAI_009,26.9124047,75.7872741,13.2,104.29,0.0,0.062,2.94,-4.7108,-4.3577,104.2934,0.61391,0.00479,-0.05574,0.78739,-0.2365,-0.0872,-9.7226,-0.3546,-0.3215,0.5966,0.1638,3,10,0.59,0.99,0.26,24.48,19.7,89.3,38.1,19647.0,7276,7539,7582,7331,54.9,52.9,55.6,59.6,2.905,2.961,2.886,2.685,7.37,169.1,30.3,46.2,1013.02,-31.15,-0.6,1.0,27.1,43.2,33.5,0,no_anomaly,0.0,0,0,0,0,26.9124047,75.7872741,13.2,0.0
2024-11-21T16:31:06.500Z,MISSION_0028,65,0,transit,SITE_JAI_009,26.9124029,75.7872771,13.2,105.91,0.184,0.069,2.57,-2.2944,-2.8782,105.9124,0.60252,0.00798,-0.0311,0.79746,-0.0151,-0.0692,-9.8444,0.2044,-0.3123,-0.0502,0.2669,3,11,0.64,0.94,0.26,24.537,25.43,89.2,38.8,19627.0,7374,7706,7394,7072,55.1,55.4,52.0,57.5,2.666,2.907,2.794,2.833,6.09,159.0,29.9,45.8,1012.65,-26.38,-2.09,1.64,26.9,42.5,33.3,0,no_anomaly,0.0,0,0,0,0,26.9124029,75.7872771,13.2,0.0
2024-11-21T16:31:06.600Z,MISSION_0028,66,0,transit,SITE_JAI_009,26.9124074,75.7872803,13.2,105.26,0.0,0.118,2.34,-0.4018,-1.0711,105.2647,0.60692,0.0053,-0.00846,0.7947,0.1909,0.082,-9.8708,-0.1853,-0.876,0.7158,0.3486,3,15,0.57,0.87,0.2,24.509,14.37,89.1,38.2,19606.0,7542,7301,7120,7618,56.1,56.3,59.4,57.0,2.853,2.638,2.46,2.634,7.38,158.6,30.0,46.7,1012.44,-32.41,0.58,1.48,28.2,42.6,34.4,0,no_anomaly,0.0,0,0,0,0,26.9124074,75.7872803,13.2,0.0
2024-11-21T16:31:06.700Z,MISSION_0028,67,0,transit,SITE_JAI_009,26.9124119,75.787273,13.2,107.77,0.0,0.076,3.29,-0.6737,-1.3211,107.773,0.58939,0.00585,-0.01154,0.80774,-0.183,0.0318,-9.8507,0.2735,1.2902,0.1286,0.3273,3,10,0.54,0.83,0.25,24.474,18.84,89.0,37.7,19585.0,7213,7531,7205,7272,56.5,56.4,55.5,55.1,2.711,2.7,2.942,2.723,6.74,169.1,30.2,45.5,1012.93,-29.19,-0.75,1.3,25.6,41.2,33.8,0,no_anomaly,0.0,0,0,0,0,26.9124119,75.787273,13.2,0.0
2024-11-21T16:31:06.800Z,MISSION_0028,68,0,transit,SITE_JAI_009,26.9124113,75.7872729,13.2,107.65,0.0,0.053,3.26,1.1022,-2.2576,107.6479,0.58997,0.02158,-0.00387,0.80713,0.0373,0.0883,-9.8027,-0.3757,0.5219,0.0922,0.2532,3,15,0.67,1.0,0.26,24.547,21.93,88.9,37.7,19564.0,7761,7517,7323,7190,54.0,55.4,54.2,56.6,2.925,2.501,2.589,2.949,6.48,157.9,30.5,45.9,1012.97,-32.36,0.3,1.15,27.8,46.2,35.8,0,no_anomaly,0.0,0,0,0,0,26.9124113,75.7872729,13.2,0.0
2024-11-21T16:31:06.900Z,MISSION_0028,69,0,transit,SITE_JAI_009,26.9124132,75.7872701,13.2,107.15,0.0,0.14,3.63,-1.9423,-1.4091,107.1537,0.59378,-0.00017,-0.02094,0.80435,0.0501,0.0224,-9.7384,0.2323,0.7391,-0.4408,0.2307,3,17,0.66,0.83,0.31,24.531,12.12,88.8,38.3,19544.0,7179,7377,7334,7277,56.7,55.3,54.9,55.4,2.939,2.756,2.868,2.851,6.29,159.0,29.9,45.4,1012.57,-28.06,0.03,1.49,25.5,41.2,29.3,0,no_anomaly,0.0,0,0,0,0,26.9124132,75.7872701,13.2,0.0
2024-11-21T16:31:07.000Z,MISSION_0028,70,0,transit,SITE_JAI_009,26.9124153,75.7872693,13.2,106.31,0.0,0.035,3.82,0.9221,-3.9023,106.3105,0.59906,0.03207,-0.01398,0.79994,0.0267,-0.0028,-9.8055,0.7397,-0.689,0.1139,0.2168,3,14,0.75,1.05,0.24,24.56,15.5,88.7,37.8,19523.0,7144,7385,7368,7202,54.7,53.4,53.8,57.4,2.709,2.77,2.93,2.518,5.88,156.7,29.9,45.8,1012.46,-32.1,0.1,2.22,23.5,44.3,32.4,0,no_anomaly,0.0,0,0,0,0,26.9124153,75.7872693,13.2,0.0
2024-11-21T16:31:07.100Z,MISSION_0028,71,0,transit,SITE_JAI_009,26.9124146,75.7872669,13.2,107.3,0.004,0.114,4.02,-2.5705,-0.8006,107.3011,0.59267,-0.00767,-0.02221,0.8051,-0.3377,-0.0301,-9.7396,-0.6076,0.8413,-0.2085,0.241,3,12,0.9,1.0,0.28,24.462,21.44,88.6,38.0,19502.0,7355,7406,7319,7239,58.2,55.0,54.0,56.1,2.972,2.687,2.843,2.806,6.27,166.7,30.2,46.2,1012.59,-28.91,-0.56,1.67,21.1,43.1,32.2,0,no_anomaly,0.0,0,0,0,0,26.9124146,75.7872669,13.2,0.0
2024-11-21T16:31:07.200Z,MISSION_0028,72,0,transit,SITE_JAI_009,26.9124079,75.787271,13.2,105.09,0.0,0.187,3.34,4.9578,-2.9874,105.0874,0.60649,0.04697,0.01848,0.79349,-0.0078,0.0243,-9.8528,0.3175,0.2062,-0.3313,0.246,3,13,0.6,0.98,0.3,24.502,20.37,88.6,37.9,19481.0,7384,7802,7208,7239,56.2,56.1,53.7,53.3,2.998,2.823,2.985,2.61,6.33,164.7,30.1,46.4,1012.82,-28.86,-1.46,1.68,26.0,43.5,34.1,0,no_anomaly,0.0,0,0,0,0,26.9124079,75.787271,13.2,0.0
2024-11-21T16:31:07.300Z,MISSION_0028,73,0,transit,SITE_JAI_009,26.912407,75.787271,13.2,108.46,0.0,0.073,3.32,-7.2589,-3.588,108.4558,0.58471,-0.01164,-0.0696,0.80817,-0.1728,-0.0606,-9.8365,0.686,0.547,-0.5575,0.1878,3,17,0.76,0.99,0.26,24.484,17.8,88.5,38.2,19461.0,7320,6945,7229,7559,56.7,57.7,52.9,58.7,2.606,2.51,2.579,2.934,6.55,165.3,30.0,46.7,1012.72,-32.27,-0.21,1.44,22.9,42.1,35.5,0,no_anomaly,0.0,0,0,0,0,26.912407,75.787271,13.2,0.0
2024-11-21T16:31:07.400Z,MISSION_0028,74,0,transit,SITE_JAI_009,26.912404,75.7872726,13.2,108.25,0.582,0.188,3.09,3.9423,-3.2619,108.2464,0.58467,0.0432,0.01119,0.81005,-0.1492,0.0027,-9.7786,-0.3181,-0.6455,0.0042,0.2614,3,19,0.68,0.99,0.21,24.562,15.41,88.4,38.4,19440.0,7601,7473,7277,7332,53.7,56.9,55.9,55.0,3.023,2.623,2.887,2.678,6.59,157.2,29.9,46.2,1012.7,-29.31,-0.4,1.59,24.5,33.9,30.0,0,no_anomaly,0.0,0,0,0,0,26.912404,75.7872726,13.2,0.0
2024-11-21T16:31:07.500Z,MISSION_0028,75,0,transit,SITE_JAI_009,26.9124006,75.7872719,13.2,109.92,1.08,0.222,3.12,-7.1119,-0.3056,109.9218,0.57316,-0.03343,-0.05231,0.81709,0.1385,-0.014,-9.8574,0.2771,0.1453,-0.3255,0.1979,3,20,0.67,0.88,0.38,24.455,16.96,88.3,38.7,19419.0,7503,7397,7458,7366,52.3,55.0,55.4,58.8,3.009,2.69,2.93,2.77,6.17,154.9,30.1,46.3,1012.7,-30.94,0.84,1.64,22.9,38.5,32.9,0,no_anomaly,0.0,0,0,0,0,26.9124006,75.7872719,13.2,0.0
2024-11-21T16:31:07.600Z,MISSION_0028,76,0,transit,SITE_JAI_009,26.9124031,75.7872718,13.2,111.17,0.999,0.11,3.16,0.5137,-2.5334,111.1738,0.56493,0.02077,-0.0088,0.82483,0.1121,-0.0046,-9.7602,-0.0715,-0.3631,-0.0794,0.262,3,13,0.66,0.67,0.22,24.555,16.43,88.2,38.4,19398.0,7471,7374,7813,7277,55.4,54.6,57.2,52.3,2.592,2.936,2.719,2.849,7.17,164.1,30.1,45.8,1012.6,-32.04,0.03,1.66,23.4,37.3,33.4,0,no_anomaly,0.0,0,0,0,0,26.9124031,75.7872718,13.2,0.0
2024-11-21T16:31:07.700Z,MISSION_0028,77,0,transit,SITE_JAI_009,26.9124058,75.7872759,13.2,112.46,0.867,0.092,2.76,2.492,-2.6189,112.4625,0.55515,0.03108,0.00537,0.83115,-0.3293,-0.0205,-9.7859,0.9324,0.0908,-0.459,0.2776,3,13,0.61,0.95,0.2,24.536,23.73,88.1,38.0,19378.0,7477,7369,7232,7399,51.7,53.3,57.3,54.9,2.838,2.778,2.804,2.813,6.55,159.0,30.0,46.1,1012.58,-29.74,0.02,1.91,23.4,40.4,32.2,0,no_anomaly,0.0,0,0,0,0,26.9124058,75.7872759,13.2,0.0
2024-11-21T16:31:07.800Z,MISSION_0028,78,0,transit,SITE_JAI_009,26.9124027,75.7872756,13.2,109.01,1.347,0.176,2.73,3.1623,1.2017,109.0065,0.58064,0.00749,0.02855,0.81363,-0.2357,-0.0525,-9.778,0.0058,0.5837,-0.3954,0.285,3,18,0.56,0.94,0.26,24.466,18.37,88.0,37.9,19357.0,7203,7310,7503,7446,51.1,52.4,55.2,55.2,2.852,2.883,2.695,2.647,6.62,156.1,30.0,45.3,1013.0,-31.87,0.93,1.48,26.0,36.7,32.3,0,no_anomaly,0.0,0,0,0,0,26.9124027,75.7872756,13.2,0.0
2024-11-21T16:31:07.900Z,MISSION_0028,79,0,transit,SITE_JAI_009,26.9123967,75.7872702,13.2,108.45,1.334,0.065,3.34,3.319,-0.3734,108.4534,0.58425,0.01957,0.02159,0.81105,-0.1716,-0.0055,-9.7995,0.8161,-0.1009,-0.0985,0.2097,3,10,0.62,1.22,0.29,24.495,16.86,87.9,37.6,19336.0,7423,7199,7099,7302,56.3,58.3,53.2,54.9,2.765,2.745,2.95,2.465,6.81,161.3,29.9,44.7,1012.73,-35.14,-0.77,1.46,21.6,41.8,29.5,0,no_anomaly,0.0,0,0,0,0,26.9123967,75.7872702,13.2,0.0
2024-11-21T16:31:08.000Z,MISSION_0028,80,0,transit,SITE_JAI_009,26.9123945,75.7872706,13.2,107.15,0.927,0.082,3.33,1.9151,-1.3708,107.1465,0.59351,0.01955,0.00634,0.80457,-0.0457,-0.0818,-9.7666,0.0596,0.4397,0.2365,0.1818,3,12,0.79,1.23,0.35,24.507,17.91,87.8,38.3,19315.0,7380,7314,7333,7584,52.3,56.6,56.8,60.5,2.583,2.921,2.735,2.861,7.58,158.9,29.7,46.5,1012.94,-30.44,-0.14,1.68,27.4,37.1,33.9,0,no_anomaly,0.0,0,0,0,0,26.9123945,75.7872706,13.2,0.0
2024-11-21T16:31:08.100Z,MISSION_0028,81,0,transit,SITE_JAI_009,26.9123896,75.7872704,13.2,109.54,0.517,0.103,3.49,5.3386,-3.2726,109.5447,0.57488,0.05015,0.02157,0.81641,-0.3262,-0.0639,-9.8923,-1.3669,0.0764,0.0007,0.2561,3,19,0.65,0.98,0.3,24.455,18.05,87.7,38.5,19295.0,7369,7424,7484,7313,52.6,53.8,55.2,55.5,2.573,2.445,2.995,2.885,7.06,157.6,29.9,45.6,1012.69,-27.86,-0.07,1.56,26.1,38.8,31.0,0,no_anomaly,0.0,0,0,0,0,26.9123896,75.7872704,13.2,0.0
2024-11-21T16:31:08.200Z,MISSION_0028,82,0,transit,SITE_JAI_009,26.9123923,75.7872727,13.2,111.83,0.503,0.085,3.16,1.48,-1.4521,111.8329,0.56017,0.01773,0.0036,0.82818,0.211,-0.0218,-9.8162,0.5735,0.0611,0.726,0.2422,3,16,0.56,1.06,0.28,24.45,19.49,87.6,38.3,19274.0,7486,7304,7392,7698,55.5,56.0,57.3,58.8,2.776,2.542,2.949,3.103,6.92,163.9,30.0,45.6,1012.76,-27.51,-1.99,1.0,24.6,44.3,34.0,0,no_anomaly,0.0,0,0,0,0,26.9123923,75.7872727,13.2,0.0
2024-11-21T16:31:08.300Z,MISSION_0028,83,0,transit,SITE_JAI_009,26.912388,75.787274,13.2,110.97,0.316,0.182,3.18,-7.612,-1.1073,110.9723,0.56586,-0.02966,-0.06016,0.82177,0.0144,0.0268,-9.8042,0.5706,0.6898,0.186,0.3105,3,20,0.5,0.75,0.25,24.463,18.12,87.5,37.4,19253.0,7366,7544,7116,7275,58.3,53.3,53.2,56.1,2.801,2.715,2.621,2.748,6.73,162.2,30.2,45.7,1012.86,-28.18,-0.34,1.97,24.6,40.8,33.4,0,no_anomaly,0.0,0,0,0,0,26.912388,75.787274,13.2,0.0
2024-11-21T16:31:08.400Z,MISSION_0028,84,0,transit,SITE_JAI_009,26.9123854,75.7872716,13.2,110.69,0.0,0.168,3.55,1.521,-1.3757,110.6946,0.56838,0.01742,0.00409,0.82257,-0.0038,-0.0025,-9.8344,-0.3248,-0.3658,-0.0412,0.2713,3,19,0.52,0.78,0.23,24.451,12.57,87.4,38.2,19232.0,7359,7484,7145,7419,56.7,53.7,57.4,55.3,2.752,2.755,2.852,2.85,7.25,150.1,29.8,45.7,1012.74,-28.12,0.19,2.3,25.1,43.9,31.1,0,no_anomaly,0.0,0,0,0,0,26.9123854,75.7872716,13.2,0.0
2024-11-21T16:31:08.500Z,MISSION_0028,85,1,transit,SITE_JAI_009,26.9123824,75.7872738,13.2,111.75,0.251,0.183,3.51,2.3267,-2.494,111.7527,0.56037,0.0294,0.0046,0.82771,-0.0201,0.0006,-9.8385,0.5167,0.4035,0.0279,0.3498,3,20,0.7,0.95,0.25,24.419,17.58,87.3,37.4,19212.0,7210,7476,7489,7370,57.2,57.8,55.5,54.1,2.651,2.583,3.026,2.717,6.99,152.7,29.9,45.8,1013.2,-29.81,2.04,1.98,24.8,39.1,31.4,0,no_anomaly,0.0,0,0,0,0,26.9123824,75.7872738,13.2,0.0
2024-11-21T16:31:08.600Z,MISSION_0028,86,1,transit,SITE_JAI_009,26.912378,75.7872659,13.2,110.89,0.0,0.117,4.52,-3.313,-0.3051,110.8883,0.56703,-0.0142,-0.02532,0.82318,-0.0031,-0.0125,-9.7983,0.1549,0.2139,-0.4084,0.241,3,17,0.8,1.07,0.46,24.453,16.15,87.2,37.0,19191.0,7443,6921,7406,7345,56.2,52.9,53.2,57.5,2.766,2.672,2.765,2.838,6.07,163.1,30.1,45.5,1013.04,-26.48,0.97,1.13,27.6,37.1,33.8,0,no_anomaly,0.0,0,0,0,0,26.912378,75.7872659,13.2,0.0
2024-11-21T16:31:08.700Z,MISSION_0028,87,1,transit,SITE_JAI_009,26.9123744,75.7872638,13.2,109.54,0.0,0.098,4.94,9.0262,1.6045,109.54,0.57591,0.03399,0.07232,0.8136,-0.1022,0.0526,-9.8338,-0.7538,0.6556,-0.3535,0.2226,3,10,0.74,0.83,0.29,24.484,17.74,87.1,38.4,19170.0,7200,7488,7325,7357,56.6,53.8,56.2,57.3,2.672,2.686,2.968,2.97,7.38,161.9,30.1,45.9,1012.44,-26.87,-0.25,1.72,23.6,35.4,32.2,0,no_anomaly,0.0,0,0,0,0,26.9123744,75.7872638,13.2,0.0
2024-11-21T16:31:08.800Z,MISSION_0028,88,1,transit,SITE_JAI_009,26.9123655,75.7872646,13.2,113.58,0.0,0.09,5.51,-3.2475,-1.4647,113.5771,0.54777,-0.00483,-0.0307,0.83605,-0.2356,0.0462,-9.799,-0.0139,-0.4002,0.4342,0.2867,3,18,0.76,1.01,0.27,24.473,21.21,87.0,38.2,19150.0,7272,7699,7174,7570,53.2,54.5,56.9,54.6,2.839,2.893,2.707,2.716,6.98,160.2,30.2,45.9,1012.58,-29.53,-2.33,2.01,23.5,38.5,34.5,0,no_anomaly,0.0,0,0,0,0,26.9123655,75.7872646,13.2,0.0
2024-11-21T16:31:08.900Z,MISSION_0028,89,1,transit,SITE_JAI_009,26.9123626,75.7872698,13.2,114.82,0.193,0.128,5.35,1.6288,0.0013,114.8228,0.53855,0.00765,0.01198,0.84247,-0.0127,0.0295,-9.8172,0.1561,0.1067,0.6397,0.0749,3,14,0.78,0.91,0.29,24.441,10.74,86.9,38.4,19129.0,7431,7502,7208,7262,55.9,53.7,52.9,55.8,2.635,2.742,2.868,2.831,6.9,153.6,29.7,45.7,1012.64,-23.48,0.25,1.48,25.2,40.2,33.3,0,no_anomaly,0.0,0,0,0,0,26.9123626,75.7872698,13.2,0.0
2024-11-21T16:31:09.000Z,MISSION_0028,90,1,transit,SITE_JAI_009,26.9123632,75.7872741,13.2,115.4,0.0,0.114,5.01,2.6321,-0.0074,115.4003,0.53421,0.01233,0.01938,0.84504,-0.0384,0.0047,-9.901,0.0295,-0.8932,-0.3291,0.2526,3,17,0.62,0.83,0.22,24.415,18.26,86.9,38.3,19108.0,7208,7504,7555,7628,56.2,58.4,52.9,56.7,2.89,2.795,2.75,2.594,7.06,154.7,29.9,45.7,1013.02,-29.59,-0.07,1.99,24.0,43.9,32.7,0,no_anomaly,0.0,0,0,0,0,26.9123632,75.7872741,13.2,0.0
2024-11-21T16:31:09.100Z,MISSION_0028,91,1,transit,SITE_JAI_009,26.91236,75.7872751,13.2,117.81,0.461,0.068,5.25,-0.0558,-2.2631,117.8143,0.51633,0.01666,-0.01062,0.85616,0.0554,0.138,-9.8898,0.1428,0.2248,0.3624,0.3111,3,13,0.56,0.73,0.2,24.367,14.78,86.8,38.1,19087.0,7253,7430,7244,7504,57.0,54.6,56.6,56.4,2.783,2.728,2.593,2.883,6.21,153.3,29.8,45.4,1012.86,-31.3,0.24,2.05,26.3,41.0,34.8,0,no_anomaly,0.0,0,0,0,0,26.91236,75.7872751,13.2,0.0
2024-11-21T16:31:09.200Z,MISSION_0028,92,1,transit,SITE_JAI_009,26.9123604,75.7872745,13.2,119.39,0.066,0.081,5.25,-1.0236,0.6573,119.3906,0.50453,-0.00946,-0.00482,0.86333,0.0345,0.0342,-9.8164,-0.504,-0.0542,-0.5451,0.2668,3,15,0.82,0.99,0.41,24.479,20.15,86.7,38.9,19067.0,7383,7496,7246,7529,54.1,53.0,54.1,56.8,2.542,2.683,2.78,2.994,6.61,163.6,30.1,45.3,1012.63,-32.83,0.87,1.46,25.4,34.9,34.2,0,no_anomaly,0.0,0,0,0,0,26.9123604,75.7872745,13.2,0.0
2024-11-21T16:31:09.300Z,MISSION_0028,93,1,transit,SITE_JAI_009,26.9123669,75.7872772,13.2,115.31,0.0,0.077,4.47,-2.5165,-5.2849,115.3137,0.53515,0.02721,-0.04319,0.84322,-0.1921,-0.0056,-9.8634,-0.3981,0.5633,0.0212,0.2574,3,16,0.8,0.99,0.29,24.425,9.37,86.6,38.4,19046.0,7324,7075,7389,7508,54.8,56.4,54.1,52.7,2.787,2.662,2.546,2.874,8.12,155.7,29.8,45.7,1012.79,-30.68,2.34,1.16,24.8,37.5,34.8,0,no_anomaly,0.0,0,0,0,0,26.9123669,75.7872772,13.2,0.0
2024-11-21T16:31:09.400Z,MISSION_0028,94,1,transit,SITE_JAI_009,26.9123694,75.7872782,13.2,113.55,0.101,0.114,4.18,2.2905,-0.7631,113.5462,0.54772,0.01652,0.01307,0.83639,-0.133,-0.0622,-9.7688,0.0626,-0.3588,0.4389,0.302,3,10,0.58,1.09,0.2,24.491,20.16,86.5,37.8,19025.0,7270,7572,7292,7453,52.8,55.0,56.1,54.1,2.779,2.833,2.965,2.695,5.89,161.9,29.7,45.7,1012.64,-33.7,-0.93,1.19,25.2,41.5,30.7,0,no_anomaly,0.0,0,0,0,0,26.9123694,75.7872782,13.2,0.0
2024-11-21T16:31:09.500Z,MISSION_0028,95,1,transit,SITE_JAI_009,26.9123686,75.7872801,13.2,113.94,0.41,0.14,4.13,1.0219,-2.2193,113.9439,0.54478,0.02109,-0.00308,0.83831,-0.1964,0.0786,-9.8276,-0.0361,0.3521,0.0606,0.26,3,17,0.66,0.68,0.32,24.367,22.12,86.4,37.4,19004.0,7177,7337,7438,7335,55.6,53.6,55.1,57.0,2.656,3.074,2.67,2.741,6.55,157.3,30.2,45.8,1012.71,-24.08,-0.77,1.27,22.4,42.8,29.9,0,no_anomaly,0.0,0,0,0,0,26.9123686,75.7872801,13.2,0.0
2024-11-21T16:31:09.600Z,MISSION_0028,96,1,transit,SITE_JAI_009,26.9123715,75.7872819,13.2,112.52,0.417,0.16,3.75,6.7177,-3.4505,112.5188,0.55276,0.05752,0.03201,0.83074,-0.1865,0.0494,-9.8887,0.3631,0.4466,0.3556,0.2415,3,20,0.68,0.81,0.2,24.379,22.23,86.3,38.4,18984.0,7223,7271,7185,7337,58.5,54.1,53.0,57.4,2.721,3.196,2.769,3.014,6.87,159.3,30.3,46.7,1012.75,-30.54,0.02,1.0,26.0,42.2,32.1,0,no_anomaly,0.0,0,0,0,0,26.9123715,75.7872819,13.2,0.0
2024-11-21T16:31:09.700Z,MISSION_0028,97,1,transit,SITE_JAI_009,26.9123721,75.7872797,13.2,110.82,0.0,0.085,3.84,-0.3875,-1.785,110.8156,0.5677,0.0109,-0.01163,0.82308,-0.0047,0.0066,-9.7723,0.384,-0.4232,0.1253,0.2857,3,15,0.81,0.96,0.23,24.493,18.83,86.2,38.9,18963.0,7484,7452,7551,7358,54.0,51.9,56.6,55.6,2.671,3.063,2.866,2.707,6.7,154.8,30.0,46.0,1012.79,-29.5,-1.99,1.04,23.1,43.3,31.3,0,no_anomaly,0.0,0,0,0,0,26.9123721,75.7872797,13.2,0.0
2024-11-21T16:31:09.800Z,MISSION_0028,98,1,transit,SITE_JAI_009,26.9123724,75.7872778,13.2,110.04,0.0,0.115,3.94,6.2569,-2.4473,110.042,0.57134,0.04875,0.03248,0.81862,-0.0392,0.0336,-9.8123,0.8855,-0.6657,0.2559,0.269,3,16,0.81,0.83,0.26,24.494,24.14,86.1,37.7,18942.0,7389,7419,7557,7425,55.8,56.8,56.0,51.2,2.583,2.581,2.878,2.722,6.35,149.3,29.9,45.6,1012.76,-33.09,1.45,1.0,21.3,37.9,31.4,0,no_anomaly,0.0,0,0,0,0,26.9123724,75.7872778,13.2,0.0
2024-11-21T16:31:09.900Z,MISSION_0028,99,1,transit,SITE_JAI_009,26.9123784,75.7872764,13.2,108.84,0.671,0.049,3.56,1.8732,-1.129,108.8366,0.58163,0.01752,0.00756,0.81323,-0.0825,0.022,-9.7659,0.6538,0.8629,0.5737,0.1771,3,11,0.78,0.93,0.32,24.446,15.64,86.0,37.6,18921.0,7286,7322,7242,7293,53.4,54.6,52.5,53.6,2.531,2.629,2.805,2.6,6.74,149.7,29.7,45.2,1012.67,-33.44,-1.45,1.35,29.6,38.6,36.5,0,no_anomaly,0.0,0,0,0,0,26.9123784,75.7872764,13.2,0.0
2024-11-21T16:31:10.000Z,MISSION_0028,100,1,transit,SITE_JAI_009,26.9123802,75.7872788,13.2,107.37,0.992,0.064,3.23,1.3951,-3.604,107.3726,0.59156,0.03254,-0.00882,0.80556,0.2358,0.0251,-9.8524,0.0106,-0.2044,-0.0433,0.1045,3,18,0.54,0.96,0.33,24.406,18.91,85.9,38.2,18901.0,7630,7224,7183,7472,57.0,56.4,56.2,57.6,2.835,2.971,2.665,2.78,6.52,160.1,29.9,46.4,1013.03,-31.92,-0.84,1.12,27.9,37.8,34.6,0,no_anomaly,0.0,0,0,0,0,26.9123802,75.7872788,13.2,0.0
2024-11-21T16:31:10.100Z,MISSION_0028,101,1,transit,SITE_JAI_009,26.9123786,75.7872756,13.2,104.86,1.487,0.035,3.61,-2.4073,-2.4948,104.8559,0.60984,0.00445,-0.02992,0.79195,-0.258,0.0062,-9.8074,0.348,0.0963,0.1428,0.2975,3,10,0.78,0.89,0.3,24.416,15.66,85.8,39.1,18880.0,7429,7305,7386,7473,55.5,57.9,57.0,54.2,2.809,2.89,3.013,2.884,6.93,161.4,29.8,45.9,1012.76,-31.41,1.67,1.48,27.1,45.2,34.1,0,no_anomaly,0.0,0,0,0,0,26.9123786,75.7872756,13.2,0.0
2024-11-21T16:31:10.200Z,MISSION_0028,102,1,orbit_base,SITE_JAI_009,26.9123203,75.7873065,13.5,103.66,1.303,0.043,8.91,2.3867,-1.3782,103.6583,0.61763,0.02232,0.00894,0.7861,-0.019,0.026,-9.7529,-0.0517,0.5662,-0.2309,0.2686,3,14,0.82,0.96,0.2,24.471,18.46,85.7,37.9,18859.0,7459,7208,7357,7295,55.7,54.8,56.7,56.4,2.728,2.639,2.867,2.768,6.47,164.9,30.1,46.4,1012.8,-31.65,-0.87,1.48,24.7,36.7,30.9,0,no_anomaly,0.0,0,0,0,0,26.9123203,75.7873065,13.5,0.0
2024-11-21T16:31:10.300Z,MISSION_0028,103,1,orbit_base,SITE_JAI_009,26.9123201,75.7873041,13.8,104.18,1.362,0.094,8.91,0.9195,-1.2399,104.1849,0.61426,0.01347,-0.00032,0.78899,-0.296,-0.0176,-9.8501,-0.4228,-0.0757,-0.219,0.2555,3,15,0.75,0.93,0.22,24.526,16.75,85.6,38.3,18838.0,7476,7259,7362,7472,55.8,55.2,57.1,53.0,2.993,2.717,2.871,2.728,7.9,159.5,29.8,46.2,1013.04,-26.66,-0.43,1.5,26.8,39.2,32.3,0,no_anomaly,0.0,0,0,0,0,26.9123201,75.7873041,13.8,0.0
2024-11-21T16:31:10.400Z,MISSION_0028,104,1,orbit_base,SITE_JAI_009,26.91232,75.7873017,14.1,102.71,1.586,0.208,8.91,3.2368,-2.3037,102.7108,0.62367,0.03333,0.00951,0.78092,0.1736,0.0277,-9.7684,0.1703,-0.7407,0.6299,0.2335,3,10,0.54,0.93,0.2,24.37,16.0,85.5,39.0,18818.0,7444,7432,7463,7287,54.8,51.8,54.0,54.0,2.943,2.82,2.743,2.635,6.65,155.7,30.2,46.0,1013.02,-27.36,1.04,1.04,28.1,41.5,35.7,0,no_anomaly,0.0,0,0,0,0,26.91232,75.7873017,14.1,0.0
2024-11-21T16:31:10.500Z,MISSION_0028,105,1,orbit_base,SITE_JAI_009,26.91232,75.7872993,14.4,103.01,1.556,0.058,8.91,0.4131,-2.8965,103.0059,0.6222,0.02202,-0.01291,0.78244,-0.3848,-0.0357,-9.8146,-0.2869,-0.8703,0.2807,0.284,3,19,0.61,0.94,0.22,24.373,16.01,85.4,38.5,18797.0,7517,7353,7299,7434,56.1,53.9,59.4,55.4,2.832,2.707,2.711,2.957,6.98,160.9,30.0,44.9,1012.76,-28.95,0.11,1.59,26.2,38.8,34.1,0,no_anomaly,0.0,0,0,0,0,26.91232,75.7872993,14.4,0.0
2024-11-21T16:31:10.600Z,MISSION_0028,106,1,orbit_base,SITE_JAI_009,26.9123201,75.7872969,14.7,104.89,1.716,0.215,8.91,-2.3522,-0.7629,104.8925,0.60947,-0.00723,-0.02033,0.79251,0.2511,0.0872,-9.7698,-0.5618,-0.1535,-0.3553,0.3213,3,17,0.68,0.99,0.22,24.47,17.83,85.3,38.7,18776.0,7365,7150,7392,7338,52.6,54.4,54.0,55.6,2.857,2.817,2.841,2.789,6.65,164.0,29.8,45.6,1012.89,-37.42,1.4,1.61,23.7,36.6,30.8,0,no_anomaly,0.0,0,0,0,0,26.9123201,75.7872969,14.7,0.0
2024-11-21T16:31:10.700Z,MISSION_0028,107,1,orbit_base,SITE_JAI_009,26.9123202,75.7872945,15.0,107.73,1.706,0.054,8.91,0.3311,-2.5231,107.7313,0.58948,0.01948,-0.01065,0.80747,-0.2004,0.0079,-9.7728,-0.669,-0.9381,0.1461,0.2397,3,15,0.72,0.94,0.2,24.507,13.83,85.3,38.4,18755.0,7475,7496,7347,7565,53.7,53.4,53.5,56.0,2.846,2.64,2.997,3.094,6.96,161.9,30.2,45.9,1013.07,-30.43,0.94,1.56,24.4,40.1,31.2,0,no_anomaly,0.0,0,0,0,0,26.9123202,75.7872945,15.0,0.0
2024-11-21T16:31:10.800Z,MISSION_0028,108,1,orbit_base,SITE_JAI_009,26.9123204,75.7872921,15.3,108.32,1.373,0.082,8.91,2.7018,-2.3397,108.3155,0.58488,0.03035,0.00716,0.81052,-0.1303,0.0441,-9.7529,-0.3932,0.7173,-0.0851,0.204,3,19,0.64,0.84,0.25,24.42,15.49,85.2,37.7,18735.0,7513,7446,7666,7328,52.5,53.9,54.1,55.4,2.853,2.736,3.047,2.975,7.0,158.9,29.9,44.6,1012.82,-27.39,0.82,1.16,21.8,43.1,33.4,0,no_anomaly,0.0,0,0,0,0,26.9123204,75.7872921,15.3,0.0
2024-11-21T16:31:10.900Z,MISSION_0028,109,1,orbit_base,SITE_JAI_009,26.9123207,75.7872898,15.6,107.79,1.178,0.07,8.91,-3.46,0.1426,107.7871,0.58899,-0.0188,-0.02366,0.80758,0.0474,0.0652,-9.7739,0.1958,-0.3723,0.234,0.2038,3,19,0.52,1.13,0.27,24.452,18.92,85.1,38.8,18714.0,7387,7521,7397,7334,56.7,54.5,55.8,56.2,2.955,2.692,3.039,3.059,6.96,163.8,30.3,46.1,1012.87,-31.81,1.43,1.1,26.6,39.6,29.4,0,no_anomaly,0.0,0,0,0,0,26.9123207,75.7872898,15.6,0.0
2024-11-21T16:31:11.000Z,MISSION_0028,110,1,orbit_base,SITE_JAI_009,26.912321,75.7872874,15.9,106.93,0.91,0.106,8.91,0.9812,-1.2258,106.9321,0.59517,0.01369,0.00051,0.80348,0.1009,-0.0881,-9.8515,-0.3709,0.6053,0.6999,0.2684,3,18,0.72,0.64,0.2,24.472,18.73,85.0,37.5,18693.0,7385,7448,7441,7105,55.9,57.2,56.8,55.4,2.964,2.313,2.525,2.619,6.8,161.7,30.0,46.5,1012.79,-33.18,0.92,1.24,27.6,41.2,33.7,0,no_anomaly,0.0,0,0,0,0,26.912321,75.7872874,15.9,0.0
2024-11-21T16:31:11.100Z,MISSION_0028,111,1,orbit_base,SITE_JAI_009,26.9123214,75.787285,16.2,106.13,1.01,0.163,8.91,-1.8368,-2.5776,106.1258,0.601,0.00835,-0.02632,0.79877,0.1147,0.0795,-9.7443,0.0119,0.1554,-0.3276,0.2857,3,19,0.7,0.69,0.33,24.46,18.37,84.9,38.5,18672.0,7321,7290,7318,7361,54.9,55.1,53.1,57.3,2.709,2.822,2.732,2.763,6.32,155.8,30.2,46.6,1013.0,-32.2,1.5,1.14,26.9,35.4,31.5,0,no_anomaly,0.0,0,0,0,0,26.9123214,75.787285,16.2,0.0
2024-11-21T16:31:11.200Z,MISSION_0028,112,1,orbit_base,SITE_JAI_009,26.9123219,75.7872827,16.5,108.13,1.17,0.064,8.91,6.0948,-0.5218,108.1281,0.58585,0.03488,0.04037,0.80866,-0.0131,0.0273,-9.8556,-0.3298,-0.4676,0.4955,0.2014,3,15,0.67,0.85,0.32,24.335,17.53,84.8,39.1,18652.0,7280,7474,7202,7266,57.1,56.2,57.9,53.9,2.779,2.714,2.868,3.125,6.94,158.2,30.3,46.6,1012.7,-24.84,-1.11,1.31,23.8,39.8,34.3,0,no_anomaly,0.0,0,0,0,0,26.9123219,75.7872827,16.5,0.0
2024-11-21T16:31:11.300Z,MISSION_0028,113,1,orbit_base,SITE_JAI_009,26.9123225,75.7872803,16.8,109.88,1.568,0.054,8.91,-2.3901,-3.3044,109.8795,0.57457,0.01162,-0.03362,0.81768,0.0244,0.0243,-9.8281,0.6268,-0.7429,0.0505,0.1726,3,16,0.58,0.71,0.33,24.46,19.67,84.7,38.4,18631.0,7230,7329,7420,7327,55.2,56.8,56.7,58.0,2.876,2.87,2.973,2.952,6.97,163.1,30.0,45.7,1012.8,-29.35,0.04,1.46,25.5,37.1,31.8,0,no_anomaly,0.0,0,0,0,0,26.9123225,75.7872803,16.8,0.0
2024-11-21T16:31:11.400Z,MISSION_0028,114,1,orbit_base,SITE_JAI_009,26.9123231,75.787278,17.1,111.4,1.886,0.045,8.91,-5.3975,-0.8737,111.3964,0.56321,-0.02024,-0.04319,0.82494,0.3751,-0.0519,-9.7701,-0.5997,-0.6606,0.0146,0.2222,3,11,0.51,1.04,0.3,24.456,20.48,84.6,38.9,18610.0,7675,7503,7598,7520,56.3,56.0,56.5,56.0,2.454,2.765,2.77,2.496,6.14,159.7,30.2,45.6,1012.67,-31.0,0.34,1.4,25.5,35.7,32.6,0,no_anomaly,0.0,0,0,0,0,26.9123231,75.787278,17.1,0.0
2024-11-21T16:31:11.500Z,MISSION_0028,115,1,orbit_base,SITE_JAI_009,26.9123238,75.7872757,17.4,112.2,2.319,0.126,8.91,0.9451,-1.9929,112.2011,0.55751,0.01903,-0.00285,0.82994,0.3062,-0.0157,-9.9243,-0.16,0.2772,-0.0816,0.2048,3,15,0.6,0.81,0.2,24.474,15.83,84.5,39.0,18590.0,7492,7288,7339,7334,57.4,55.1,56.5,57.6,2.632,2.828,2.737,2.778,6.27,157.2,30.0,46.6,1012.79,-30.81,-0.49,1.14,26.6,44.4,34.9,0,no_anomaly,0.0,0,0,0,0,26.9123238,75.7872757,17.4,0.0
2024-11-21T16:31:11.600Z,MISSION_0028,116,1,orbit_base,SITE_JAI_009,26.9123245,75.7872734,17.7,109.43,2.615,0.1,8.91,-0.091,-2.0479,109.4301,0.57756,0.01413,-0.01097,0.81615,-0.3403,-0.0035,-9.8217,1.0429,-0.111,0.2187,0.2409,3,14,0.74,1.17,0.24,24.454,21.88,84.4,39.2,18569.0,7352,7218,7447,7251,55.1,54.5,55.8,52.9,2.79,2.949,2.781,2.449,6.12,152.0,30.0,46.0,1012.95,-32.32,0.51,1.9,24.1,41.4,33.0,0,no_anomaly,0.0,0,0,0,0,26.9123245,75.7872734,17.7,0.0
2024-11-21T16:31:11.700Z,MISSION_0028,117,1,orbit_base,SITE_JAI_009,26.9123254,75.7872712,18.0,107.34,2.525,0.075,8.91,0.5847,0.1708,107.3413,0.59242,0.00182,0.00499,0.80561,-0.0131,0.0386,-9.8597,0.1239,0.1453,0.0986,0.2659,3,18,0.61,0.76,0.28,24.406,18.06,84.3,38.4,18548.0,7172,7486,7172,7246,53.4,55.9,54.3,54.3,2.655,2.995,2.918,2.912,7.38,159.0,30.3,45.8,1012.61,-34.23,-1.51,1.23,26.6,34.3,32.4,0,no_anomaly,0.0,0,0,0,0,26.9123254,75.7872712,18.0,0.0
2024-11-21T16:31:11.800Z,MISSION_0028,118,1,orbit_base,SITE_JAI_009,26.9123263,75.787269,18.3,107.17,2.742,0.079,8.91,-4.8238,-3.9396,107.1656,0.59395,0.00267,-0.05423,0.80267,0.0999,-0.0474,-9.8334,0.784,0.2949,0.0986,0.2426,3,16,0.74,1.11,0.2,24.342,20.3,84.2,37.5,18527.0,7538,7138,7299,7242,55.6,54.2,52.3,55.5,2.782,2.816,2.888,2.737,7.53,151.8,29.7,46.8,1012.88,-28.28,-0.12,1.56,27.8,37.2,35.6,0,no_anomaly,0.0,0,0,0,0,26.9123263,75.787269,18.3,0.0
2024-11-21T16:31:11.900Z,MISSION_0028,119,1,orbit_base,SITE_JAI_009,26.9123272,75.7872668,18.6,107.79,2.215,-0.031,8.91,-0.9904,-1.5504,107.7898,0.58929,0.00584,-0.01495,0.80776,-0.1552,-0.0516,-9.7891,0.0503,0.2275,0.1939,0.2017,3,19,0.76,0.95,0.38,24.361,19.26,84.1,38.0,18507.0,7407,7394,7234,7248,53.3,53.8,52.9,53.9,2.959,2.668,2.511,2.795,6.27,156.2,30.1,46.3,1012.67,-31.28,0.15,1.14,26.3,37.5,33.5,0,no_anomaly,0.0,0,0,0,0,26.9123272,75.7872668,18.6,0.0
2024-11-21T16:31:12.000Z,MISSION_0028,120,1,orbit_base,SITE_JAI_009,26.9123283,75.7872646,18.9,111.06,1.895,0.063,8.91,5.8033,-0.7528,111.058,0.56498,0.03406,0.03802,0.82353,0.0605,0.0662,-9.8597,0.7305,0.1342,0.1865,0.2221,3,19,0.69,1.06,0.29,24.239,18.91,84.0,38.6,18486.0,7413,7448,7511,7686,53.2,55.8,53.8,56.8,2.547,2.563,2.595,2.933,6.81,161.5,30.2,46.2,1012.93,-26.5,1.36,1.61,24.8,36.8,35.0,0,no_anomaly,0.0,0,0,0,0,26.9123283,75.7872646,18.9,0.0
2024-11-21T16:31:12.100Z,MISSION_0028,121,1,orbit_base,SITE_JAI_009,26.9123294,75.7872625,19.2,110.8,1.303,0.064,8.91,3.655,-4.538,110.7976,0.56609,0.05067,0.00376,0.82278,0.0011,-0.0082,-9.7762,-0.8952,0.1261,-0.4667,0.3053,3,12,0.6,0.96,0.27,24.386,18.65,83.9,38.3,18465.0,7130,7508,7407,7634,57.5,57.9,57.1,55.8,2.774,3.025,2.761,2.98,7.41,152.9,30.0,45.6,1012.66,-31.48,-1.2,1.17,24.2,42.6,32.0,0,no_anomaly,0.0,0,0,0,0,26.9123294,75.7872625,19.2,0.0
2024-11-21T16:31:12.200Z,MISSION_0028,122,1,orbit_base,SITE_JAI_009,26.9123305,75.7872604,19.5,108.71,2.085,0.06,8.91,6.3929,-0.4297,108.7144,0.58165,0.03554,0.04313,0.81152,-0.1431,0.1315,-9.811,0.0709,-1.2942,-0.2659,0.1765,3,16,0.51,0.78,0.26,24.365,22.62,83.8,38.6,18444.0,7482,7170,7556,7525,55.8,55.4,54.9,57.7,2.888,2.608,2.769,2.716,6.77,161.8,30.1,46.1,1012.57,-29.49,0.28,1.12,26.9,41.9,31.0,0,no_anomaly,0.0,0,0,0,0,26.9123305,75.7872604,19.5,0.0
2024-11-21T16:31:12.300Z,MISSION_0028,123,1,orbit_base,SITE_JAI_009,26.9123317,75.7872583,19.8,109.21,1.738,0.115,8.91,-3.568,-1.284,109.2079,0.57919,-0.0089,-0.03186,0.81452,0.1119,-0.092,-9.7167,-0.5402,-0.6514,0.3055,0.3204,3,16,0.75,0.95,0.28,24.43,12.38,83.7,38.9,18424.0,7225,7559,7778,7272,52.4,59.6,55.4,59.0,3.087,3.119,2.88,2.725,6.58,154.1,29.6,46.3,1012.6,-34.41,-1.16,1.55,25.5,37.5,30.0,0,no_anomaly,0.0,0,0,0,0,26.9123317,75.7872583,19.8,0.0
2024-11-21T16:31:12.400Z,MISSION_0028,124,1,orbit_base,SITE_JAI_009,26.912333,75.7872563,20.1,109.76,1.818,0.096,8.91,2.3117,-1.9243,109.7615,0.5748,0.02534,0.00684,0.81787,0.0531,0.0209,-9.7358,-0.0616,0.5921,0.2532,0.3247,3,14,0.62,0.63,0.2,24.414,14.97,83.6,37.9,18403.0,7175,7298,7466,7237,55.2,59.2,51.4,54.5,2.583,2.663,2.901,2.763,6.65,153.7,30.0,45.8,1012.73,-26.57,-0.96,1.48,27.5,39.0,35.2,0,no_anomaly,0.0,0,0,0,0,26.912333,75.7872563,20.1,0.0
2024-11-21T16:31:12.500Z,MISSION_0028,125,1,orbit_base,SITE_JAI_009,26.9123344,75.7872543,20.4,108.49,1.698,-0.004,8.91,-2.1876,-3.145,108.4872,0.58444,0.01111,-0.03152,0.81075,-0.0776,-0.0076,-9.8213,0.49,-0.6505,0.164,0.1851,3,19,0.84,0.63,0.4,24.355,18.77,83.6,38.8,18382.0,7345,7390,7216,7588,53.3,51.1,56.8,54.7,3.147,2.784,2.642,2.875,6.54,163.4,29.9,46.4,1012.68,-32.02,-2.09,1.29,23.3,34.4,29.8,0,no_anomaly,0.0,0,0,0,0,26.9123344,75.7872543,20.4,0.0
2024-11-21T16:31:12.600Z,MISSION_0028,126,1,orbit_base,SITE_JAI_009,26.9123358,75.7872523,20.7,109.35,1.802,0.13,8.91,12.5034,-0.5868,109.3529,0.57429,0.06712,0.0859,0.81136,0.0408,-0.1157,-9.8499,1.3938,0.463,0.6248,0.2096,3,10,0.7,0.86,0.3,24.333,19.88,83.5,37.6,18361.0,7654,7197,7240,7674,56.4,55.8,54.4,55.2,2.658,2.673,2.757,2.679,6.45,153.2,30.2,46.0,1012.64,-31.87,0.83,1.33,24.1,39.3,29.5,0,no_anomaly,0.0,0,0,0,0,26.9123358,75.7872523,20.7,0.0
2024-11-21T16:31:12.700Z,MISSION_0028,127,1,orbit_base,SITE_JAI_009,26.9123372,75.7872504,21.0,107.75,2.114,0.118,8.91,2.281,-3.2654,107.7469,0.58876,0.03474,-0.00072,0.80756,-0.0289,0.0246,-9.6856,0.561,-0.3511,0.1333,0.2004,3,12,0.85,0.95,0.42,24.469,17.96,83.4,37.8,18341.0,7571,7093,7700,7613,56.3,56.3,54.5,54.2,2.885,2.758,2.781,3.097,6.15,164.6,29.7,46.1,1012.83,-30.86,-0.14,1.08,26.0,45.1,33.8,0,no_anomaly,0.0,0,0,0,0,26.9123372,75.7872504,21.0,0.0
2024-11-21T16:31:12.800Z,MISSION_0028,128,1,orbit_base,SITE_JAI_009,26.9123387,75.7872486,21.3,107.93,2.156,0.164,8.91,-1.2754,-1.0959,107.9345,0.58827,0.00119,-0.01462,0.80853,-0.0559,-0.0496,-9.8539,-0.6115,0.2745,-0.1183,0.282,3,15,0.78,0.83,0.35,24.384,20.23,83.3,38.4,18320.0,7507,7542,7614,7312,57.2,56.0,55.9,57.6,2.587,2.918,2.962,2.663,6.59,156.1,29.7,45.8,1012.83,-29.25,-0.37,1.25,24.4,40.0,33.1,0,no_anomaly,0.0,0,0,0,0,26.9123387,75.7872486,21.3,0.0
2024-11-21T16:31:12.900Z,MISSION_0028,129,1,orbit_base,SITE_JAI_009,26.9123403,75.7872467,21.6,107.2,2.401,0.105,8.91,3.3291,-1.8967,107.1964,0.59273,0.03055,0.01356,0.80471,0.1684,-0.0579,-9.8018,-0.6561,0.1511,0.0876,0.085,3,14,0.6,0.87,0.33,24.337,26.66,83.2,38.8,18299.0,7205,7287,7345,7455,56.2,52.4,52.8,53.5,2.882,2.696,2.922,2.766,6.79,148.4,30.2,46.4,1012.7,-36.59,-0.93,1.44,26.4,40.3,36.0,0,no_anomaly,0.0,0,0,0,0,26.9123403,75.7872467,21.6,0.0
