timestamp_utc,mission_id,frame_id,waypoint_id,inspection_phase,site_id,latitude_deg,longitude_deg,altitude_m,heading_deg,ground_speed_ms,vertical_speed_ms,distance_to_tower_m,roll_deg,pitch_deg,yaw_deg,quat_w,quat_x,quat_y,quat_z,accel_x_ms2,accel_y_ms2,accel_z_ms2,gyro_x_rads,gyro_y_rads,gyro_z_rads,vibration_level,gps_fix_type,gps_satellite_count,gps_hdop,gps_vdop,position_error_m,battery_voltage_v,battery_current_a,battery_remaining_pct,battery_temp_c,battery_capacity_mah,motor_fl_rpm,motor_fr_rpm,motor_rl_rpm,motor_rr_rpm,motor_fl_temp_c,motor_fr_temp_c,motor_rl_temp_c,motor_rr_temp_c,motor_fl_thrust_n,motor_fr_thrust_n,motor_rl_thrust_n,motor_rr_thrust_n,wind_speed_ms,wind_dir_deg,air_temp_c,humidity_pct,pressure_hpa,gimbal_pitch_deg,gimbal_roll_deg,zoom_factor,ir_temp_min_c,ir_temp_max_c,ir_temp_avg_c,anomaly_detected,anomaly_class,anomaly_confidence,anomaly_bbox_x,anomaly_bbox_y,anomaly_bbox_w,anomaly_bbox_h,anomaly_gps_lat,anomaly_gps_lon,anomaly_gps_alt_m,ir_temp_delta_c
2024-11-09T11:06:00.000Z,MISSION_0058,0,0,takeoff,SITE_JAI_009,26.9123963,75.7872998,1.5,275.04,0.0,0.186,0.42,-1.6875,-5.829,275.0414,-0.73598,0.04518,0.02756,0.67493,-0.2238,-0.0208,-9.8395,0.357,0.3852,-0.1811,0.2246,3,20,0.59,0.81,0.2,24.692,14.56,95.1,31.5,20923.0,8264,7745,8147,8032,49.4,48.0,49.1,48.0,2.744,2.87,2.737,2.704,3.46,21.9,23.8,49.8,1017.48,-26.77,0.8,1.75,16.8,32.0,25.6,0,no_anomaly,0.0,0,0,0,0,26.9123963,75.7872998,1.5,0.0
2024-11-09T11:06:00.100Z,MISSION_0058,1,0,takeoff,SITE_JAI_009,26.9124004,75.7872991,3.0,276.94,0.0,0.045,0.11,-0.4618,-1.2122,276.9365,-0.74851,0.01003,0.00525,0.66302,0.2955,0.0005,-9.9157,-0.6073,0.0338,0.1168,0.2239,3,20,0.8,0.65,0.3,24.665,15.32,95.0,31.5,20902.0,8039,8032,8101,8241,47.4,47.8,47.4,49.5,2.878,2.838,2.684,2.493,4.02,25.9,23.9,50.3,1017.83,-32.18,0.1,1.82,18.4,33.9,25.8,0,no_anomaly,0.0,0,0,0,0,26.9124004,75.7872991,3.0,0.0
2024-11-09T11:06:00.200Z,MISSION_0058,2,0,takeoff,SITE_JAI_009,26.9124007,75.787305,4.5,277.41,0.0,0.058,0.56,-2.1964,-2.2599,277.4148,-0.75082,0.02741,0.00217,0.65994,-0.0014,-0.0921,-9.8049,-0.2118,0.7346,-0.1984,0.195,3,18,0.89,0.62,0.2,24.647,15.23,94.9,31.9,20881.0,7869,8245,8232,8131,50.7,46.4,47.2,46.3,2.81,2.799,2.974,2.684,3.87,23.2,23.8,50.9,1018.1,-29.19,-1.4,2.17,18.6,28.7,25.4,0,no_anomaly,0.0,0,0,0,0,26.9124007,75.787305,4.5,0.0
2024-11-09T11:06:00.300Z,MISSION_0058,3,0,takeoff,SITE_JAI_009,26.9123982,75.7873013,5.0,278.13,0.0,0.03,0.25,4.7762,-2.5277,278.1266,-0.7552,-0.01703,0.04394,0.6538,0.1512,0.0388,-9.7311,-0.0957,-0.1683,0.0392,0.1514,3,11,0.84,0.96,0.5,24.605,18.6,94.8,31.4,20860.0,7904,8192,8085,8077,45.9,48.8,47.4,51.9,2.806,2.599,2.923,2.744,2.79,27.2,23.8,50.8,1018.04,-24.58,0.58,1.2,14.9,33.2,24.4,0,no_anomaly,0.0,0,0,0,0,26.9123982,75.7873013,5.0,0.0
2024-11-09T11:06:00.400Z,MISSION_0058,4,0,takeoff,SITE_JAI_009,26.9123959,75.787298,5.0,278.61,0.0,0.115,0.51,4.5471,-2.723,278.613,-0.75801,-0.01459,0.04386,0.6506,0.2364,0.0155,-9.7681,0.1497,-1.3226,0.222,0.1015,3,15,0.72,0.77,0.4,24.663,19.36,94.7,31.4,20839.0,7971,8181,7971,8169,50.4,47.3,54.7,46.6,2.819,2.951,3.014,2.889,4.52,32.6,23.6,50.0,1018.25,-33.8,1.51,1.62,19.1,35.9,25.0,0,no_anomaly,0.0,0,0,0,0,26.9123959,75.787298,5.0,0.0
2024-11-09T11:06:00.500Z,MISSION_0058,5,0,takeoff,SITE_JAI_009,26.912396,75.7873037,5.0,278.18,0.274,0.159,0.61,-0.2668,-1.7923,278.1837,-0.75564,0.012,0.0103,0.65479,-0.0975,-0.0284,-9.8371,-0.073,-1.4374,0.0374,0.1504,3,16,0.69,0.74,0.2,24.672,14.6,94.6,31.1,20818.0,8018,8271,8239,8219,50.3,48.1,47.3,50.4,2.861,2.518,2.982,2.785,3.79,31.6,23.4,50.0,1017.74,-25.81,0.45,1.43,20.4,37.8,24.9,0,no_anomaly,0.0,0,0,0,0,26.912396,75.7873037,5.0,0.0
2024-11-09T11:06:00.600Z,MISSION_0058,6,0,takeoff,SITE_JAI_009,26.9123984,75.7873051,5.0,278.81,0.553,0.202,0.59,0.5139,-1.8913,278.8124,-0.75928,0.00733,0.01545,0.65054,0.0073,0.0006,-9.8173,0.6997,-0.0799,-0.0492,0.1255,3,15,0.61,1.07,0.23,24.646,20.94,94.5,32.3,20797.0,8194,8261,8295,8024,43.8,51.1,45.7,49.6,2.731,2.895,2.776,2.585,4.55,27.7,23.9,50.8,1018.13,-27.66,-1.84,1.35,22.6,35.5,29.0,0,no_anomaly,0.0,0,0,0,0,26.9123984,75.7873051,5.0,0.0
2024-11-09T11:06:00.700Z,MISSION_0058,7,0,takeoff,SITE_JAI_009,26.9124001,75.7873064,5.0,277.52,0.243,0.101,0.72,4.4513,-3.632,277.5173,-0.75181,-0.00831,0.0494,0.65748,0.0103,0.0172,-9.8575,-0.5188,-0.3867,-0.1719,0.1791,3,20,0.83,0.98,0.35,24.58,17.63,94.4,31.5,20776.0,8288,8136,7906,8076,49.8,48.4,47.7,53.3,2.901,2.884,2.809,2.863,3.5,18.3,23.9,50.3,1017.92,-29.92,-0.42,1.01,18.8,30.2,27.9,0,no_anomaly,0.0,0,0,0,0,26.9124001,75.7873064,5.0,0.0
2024-11-09T11:06:00.800Z,MISSION_0058,8,0,takeoff,SITE_JAI_009,26.9123962,75.7873065,5.0,278.09,0.173,0.183,0.84,0.5897,-3.6921,278.0894,-0.75493,0.01723,0.0277,0.655,0.0043,0.0241,-9.8248,0.5423,-0.1608,-0.0518,0.1166,3,16,0.72,0.86,0.2,24.623,18.9,94.3,30.9,20755.0,8228,8040,7918,8188,49.5,46.8,49.0,49.3,2.835,2.634,2.861,2.827,3.8,33.9,23.4,50.7,1017.72,-28.7,-0.67,1.34,19.6,29.8,26.1,0,no_anomaly,0.0,0,0,0,0,26.9123962,75.7873065,5.0,0.0
2024-11-09T11:06:00.900Z,MISSION_0058,9,0,takeoff,SITE_JAI_009,26.9123916,75.7873105,5.0,278.17,0.0,0.079,1.5,0.2146,-4.1511,278.1702,-0.75523,0.02231,0.02859,0.65446,0.0719,-0.0339,-9.7401,-0.1776,-1.3061,0.0382,0.2324,3,17,0.68,0.79,0.2,24.677,14.85,94.2,31.0,20734.0,8022,7936,8017,8090,48.3,50.4,49.3,48.0,2.872,2.997,2.93,2.82,3.71,27.6,23.5,50.4,1018.12,-26.82,-0.24,1.44,20.0,32.7,25.7,0,no_anomaly,0.0,0,0,0,0,26.9123916,75.7873105,5.0,0.0
2024-11-09T11:06:01.000Z,MISSION_0058,10,0,takeoff,SITE_JAI_009,26.9123959,75.7873084,5.0,276.46,0.0,0.134,1.04,0.0869,-3.4305,276.4588,-0.7455,0.01937,0.02283,0.66583,0.2713,0.0689,-9.8085,-0.4775,0.0889,0.2169,0.1501,3,15,0.82,0.88,0.28,24.634,15.12,94.1,31.9,20713.0,7889,8049,7676,8307,46.5,48.2,51.5,47.3,2.602,2.602,2.872,2.819,2.78,22.4,23.8,50.5,1018.04,-23.86,-0.33,1.0,21.5,33.8,29.2,0,no_anomaly,0.0,0,0,0,0,26.9123959,75.7873084,5.0,0.0
2024-11-09T11:06:01.100Z,MISSION_0058,11,0,takeoff,SITE_JAI_009,26.9123977,75.787308,5.0,276.65,0.0,0.076,0.93,2.7493,-1.5003,276.6479,-0.74685,-0.00921,0.02573,0.66444,-0.1393,-0.1147,-9.7974,0.3684,0.759,0.4985,0.2002,3,17,0.69,0.65,0.29,24.653,16.6,94.1,31.3,20691.0,7915,8199,8156,8042,49.1,49.5,49.9,49.1,3.074,2.959,2.58,2.641,3.11,35.7,23.3,49.9,1018.0,-23.32,0.69,1.09,19.4,29.4,26.4,0,no_anomaly,0.0,0,0,0,0,26.9123977,75.787308,5.0,0.0
2024-11-09T11:06:01.200Z,MISSION_0058,12,0,takeoff,SITE_JAI_009,26.9123956,75.7873102,5.0,276.56,0.0,0.064,1.23,-0.1198,-2.3673,276.5561,-0.74621,0.01453,0.01472,0.66539,0.1693,0.0009,-9.7378,-0.0898,-0.1116,-0.0582,0.1262,3,19,0.62,0.94,0.35,24.63,21.27,94.0,31.8,20670.0,7969,8221,8118,7928,54.1,50.9,48.4,47.9,2.776,2.86,2.937,2.735,2.38,22.9,24.0,50.6,1018.04,-37.07,-1.84,1.0,16.5,39.0,24.3,0,no_anomaly,0.0,0,0,0,0,26.9123956,75.7873102,5.0,0.0
2024-11-09T11:06:01.300Z,MISSION_0058,13,0,takeoff,SITE_JAI_009,26.9123996,75.7873077,5.0,273.9,0.159,0.045,0.86,-2.2415,-1.7103,273.9022,-0.73035,0.02448,-0.00245,0.68263,0.2111,-0.0811,-9.8374,-0.5634,-0.1707,-0.003,0.1921,3,19,0.56,0.76,0.23,24.673,17.11,93.9,31.9,20649.0,8479,8097,8278,8127,49.1,50.5,50.2,48.9,2.794,2.678,2.436,2.745,3.76,20.7,23.9,51.2,1018.04,-29.48,-2.07,1.51,21.8,31.8,25.0,0,no_anomaly,0.0,0,0,0,0,26.9123996,75.7873077,5.0,0.0
2024-11-09T11:06:01.400Z,MISSION_0058,14,0,takeoff,SITE_JAI_009,26.9123985,75.7873064,5.0,272.14,0.436,0.141,0.73,-0.5283,-1.8227,272.1392,-0.72003,0.01435,0.00826,0.69374,-0.0411,0.0755,-9.8446,0.0061,0.424,0.2243,0.1513,3,16,0.7,1.1,0.2,24.701,23.9,93.8,31.7,20628.0,8057,7961,8176,8083,53.4,46.7,51.5,47.4,2.74,2.79,2.989,2.795,3.02,23.6,23.5,50.8,1018.09,-25.07,0.42,1.67,15.2,28.8,27.3,0,no_anomaly,0.0,0,0,0,0,26.9123985,75.7873064,5.0,0.0
2024-11-09T11:06:01.500Z,MISSION_0058,15,0,takeoff,SITE_JAI_009,26.9124001,75.7873077,5.0,272.27,0.735,0.151,0.86,-2.3052,-2.6543,272.2719,-0.72032,0.03054,0.00276,0.69296,0.0276,0.0491,-9.8697,0.395,-0.0254,-0.1767,0.2058,3,12,0.83,0.69,0.45,24.614,20.74,93.7,31.8,20607.0,8231,8347,8201,8231,50.0,49.9,52.2,48.3,2.776,2.697,2.874,2.929,3.76,30.1,23.7,50.8,1018.1,-27.87,-0.75,1.44,19.4,34.8,23.9,0,no_anomaly,0.0,0,0,0,0,26.9124001,75.7873077,5.0,0.0
2024-11-09T11:06:01.600Z,MISSION_0058,16,0,takeoff,SITE_JAI_009,26.912397,75.7873074,5.0,273.71,0.294,0.035,0.89,0.5889,-1.2147,273.7138,-0.72963,0.0035,0.01125,0.68374,-0.0748,0.0552,-9.8067,-0.3097,0.477,-0.0719,0.2169,3,14,0.72,1.03,0.21,24.641,18.85,93.6,31.9,20586.0,8199,7972,8098,8278,53.6,52.7,46.5,52.9,2.662,2.658,2.936,2.868,3.66,37.7,23.7,52.0,1017.91,-34.48,-1.11,1.59,19.2,37.0,29.0,0,no_anomaly,0.0,0,0,0,0,26.912397,75.7873074,5.0,0.0
2024-11-09T11:06:01.700Z,MISSION_0058,17,0,takeoff,SITE_JAI_009,26.9123998,75.7873068,5.0,273.94,0.39,0.11,0.76,-5.7229,-2.8054,273.9407,-0.72904,0.05316,-0.01618,0.68221,-0.2197,0.0285,-9.7827,-0.2208,0.1511,-0.0753,0.1363,3,17,0.69,0.92,0.27,24.655,17.36,93.5,31.9,20565.0,8262,7857,8183,7877,49.0,46.8,48.3,49.1,2.64,2.748,2.874,2.944,3.15,26.5,23.6,50.4,1018.09,-24.45,-0.53,1.8,18.0,34.8,25.7,0,no_anomaly,0.0,0,0,0,0,26.9123998,75.7873068,5.0,0.0
2024-11-09T11:06:01.800Z,MISSION_0058,18,0,takeoff,SITE_JAI_009,26.9123958,75.7873111,5.0,271.62,0.0,0.104,1.33,-1.1269,-2.8509,271.6186,-0.7166,0.02439,0.01098,0.69697,-0.1197,-0.0655,-9.7824,-0.1375,0.8065,0.1081,0.1478,3,20,0.66,0.86,0.25,24.595,19.62,93.4,32.1,20544.0,8266,8004,8157,8052,50.0,46.1,49.9,50.9,2.784,3.22,2.96,3.061,4.0,17.7,23.7,49.9,1017.89,-25.78,-0.11,2.2,18.3,36.9,24.4,0,no_anomaly,0.0,0,0,0,0,26.9123958,75.7873111,5.0,0.0
2024-11-09T11:06:01.900Z,MISSION_0058,19,0,takeoff,SITE_JAI_009,26.9123967,75.787311,5.0,273.29,0.042,0.093,1.28,-4.0848,-1.895,273.2927,-0.72616,0.03726,-0.01245,0.6864,-0.0383,0.0583,-9.7129,0.1692,-0.5395,-0.3014,0.2497,3,15,0.53,0.93,0.23,24.558,15.23,93.3,31.4,20523.0,7876,7859,8018,7924,47.9,50.5,52.8,47.9,2.91,2.842,2.812,3.067,3.39,30.2,24.0,50.3,1018.05,-32.61,0.83,2.25,22.1,33.2,25.5,0,no_anomaly,0.0,0,0,0,0,26.9123967,75.787311,5.0,0.0
2024-11-09T11:06:02.000Z,MISSION_0058,20,0,takeoff,SITE_JAI_009,26.9123994,75.7873137,5.0,274.86,0.0,-0.001,1.53,0.7745,-2.0601,274.8561,-0.73637,0.00718,0.01781,0.6763,-0.1714,-0.0851,-9.8015,-0.8264,0.0042,-0.2347,0.1107,3,13,0.69,0.77,0.2,24.65,20.55,93.2,32.4,20502.0,7995,8104,7901,8065,52.3,50.1,46.4,49.0,2.802,2.79,2.822,2.718,3.18,36.9,23.7,50.5,1018.2,-25.14,2.0,1.77,17.7,30.2,27.0,0,no_anomaly,0.0,0,0,0,0,26.9123994,75.7873137,5.0,0.0
2024-11-09T11:06:02.100Z,MISSION_0058,21,0,takeoff,SITE_JAI_009,26.9123992,75.7873164,5.0,277.15,0.258,0.122,1.83,0.0601,-3.5973,277.1528,-0.74948,0.02037,0.02388,0.66128,-0.0009,-0.0498,-9.8333,0.1069,-0.2818,0.3049,0.1254,3,19,0.83,0.69,0.26,24.68,16.71,93.1,31.5,20481.0,7985,8352,8242,8389,46.7,50.7,49.9,49.7,2.697,2.835,3.005,2.758,4.02,31.2,23.5,50.7,1018.04,-27.23,-1.22,1.54,19.8,34.1,22.1,0,no_anomaly,0.0,0,0,0,0,26.9123992,75.7873164,5.0,0.0
2024-11-09T11:06:02.200Z,MISSION_0058,22,0,takeoff,SITE_JAI_009,26.9123983,75.7873195,5.0,276.76,0.151,0.241,2.18,2.9702,-3.6207,276.7628,-0.7475,0.00161,0.04081,0.663,-0.2017,-0.0363,-9.8039,-0.0736,-0.1046,-0.0369,0.2175,3,10,0.59,0.84,0.2,24.604,17.32,93.0,31.9,20460.0,8139,8003,8329,8203,47.9,47.5,49.1,46.9,2.666,2.679,2.765,2.978,4.23,24.0,23.9,49.7,1017.82,-30.03,-0.17,1.44,17.6,32.3,27.5,0,no_anomaly,0.0,0,0,0,0,26.9123983,75.7873195,5.0,0.0
2024-11-09T11:06:02.300Z,MISSION_0058,23,0,takeoff,SITE_JAI_009,26.9123975,75.7873187,5.0,280.26,0.187,0.092,2.1,-0.0167,-0.7355,280.2624,-0.7675,0.00423,0.00483,0.64102,-0.0689,0.0024,-9.7862,-0.0193,0.2576,0.2297,0.1894,3,15,0.71,0.72,0.32,24.599,21.71,92.9,32.5,20439.0,8172,8134,7915,8109,49.8,48.9,47.1,47.6,2.808,2.861,2.773,2.842,3.06,35.1,23.6,49.8,1018.1,-31.46,0.3,1.63,20.2,31.9,24.7,0,no_anomaly,0.0,0,0,0,0,26.9123975,75.7873187,5.0,0.0
2024-11-09T11:06:02.400Z,MISSION_0058,24,0,takeoff,SITE_JAI_009,26.9123952,75.7873164,5.0,279.39,0.0,0.077,1.9,-2.1283,-2.4561,279.3883,-0.76204,0.02802,0.00433,0.64691,-0.0005,-0.0475,-9.803,-0.4137,0.2291,0.0007,0.1528,3,13,0.78,0.6,0.37,24.624,15.76,92.8,32.0,20418.0,7812,8046,7936,8233,48.9,44.8,47.9,46.9,2.73,2.812,2.744,2.929,3.58,28.8,23.5,50.8,1018.13,-37.72,-1.07,1.45,20.4,36.3,24.4,0,no_anomaly,0.0,0,0,0,0,26.9123952,75.7873164,5.0,0.0
2024-11-09T11:06:02.500Z,MISSION_0058,25,0,takeoff,SITE_JAI_009,26.9123967,75.7873129,5.0,279.0,0.0,0.045,1.48,-0.3618,-0.3517,279.0009,-0.7604,0.00439,0.00028,0.64944,-0.0545,0.0585,-9.8501,0.6393,-0.9012,-0.0201,0.1726,3,14,0.6,0.78,0.24,24.556,23.45,92.7,31.5,20397.0,8142,7875,7983,8091,44.9,47.2,46.8,48.0,2.719,2.986,2.92,2.673,3.62,22.9,24.1,50.1,1017.94,-31.36,-0.94,1.63,17.2,32.2,28.2,0,no_anomaly,0.0,0,0,0,0,26.9123967,75.7873129,5.0,0.0
2024-11-09T11:06:02.600Z,MISSION_0058,26,0,takeoff,SITE_JAI_009,26.9124009,75.7873151,5.0,279.76,0.0,0.089,1.69,-0.2255,-2.3279,279.7586,-0.7645,0.01459,0.01427,0.6443,-0.0559,0.0121,-9.7647,-0.1551,0.5336,0.172,0.1479,3,10,0.64,1.03,0.25,24.569,21.4,92.6,31.9,20376.0,8062,7873,8210,8051,48.8,46.6,50.6,46.2,2.491,2.68,3.046,2.73,3.27,31.2,23.7,50.9,1018.18,-33.05,0.02,2.19,20.9,30.5,26.7,0,no_anomaly,0.0,0,0,0,0,26.9124009,75.7873151,5.0,0.0
2024-11-09T11:06:02.700Z,MISSION_0058,27,0,takeoff,SITE_JAI_009,26.9123981,75.7873173,5.0,277.9,0.0,0.121,1.94,-3.3873,-2.9572,277.9011,-0.75306,0.03922,5e-05,0.65678,0.0054,-0.0384,-9.836,0.1268,0.1309,-0.1402,0.1364,3,20,0.67,0.6,0.27,24.613,18.5,92.5,30.9,20354.0,8079,8388,8011,8261,49.1,49.8,49.1,48.3,2.881,2.563,2.892,2.773,4.65,25.2,24.0,50.7,1017.84,-34.32,0.66,1.28,20.6,37.6,24.7,0,no_anomaly,0.0,0,0,0,0,26.9123981,75.7873173,5.0,0.0
2024-11-09T11:06:02.800Z,MISSION_0058,28,0,takeoff,SITE_JAI_009,26.9123985,75.7873204,5.0,278.07,0.0,0.049,2.28,-0.7674,-0.0499,278.0684,-0.75508,0.00534,-0.00406,0.6556,0.0482,-0.033,-9.8045,-0.2331,-0.4239,-0.1135,0.1308,3,14,0.7,0.91,0.3,24.584,14.9,92.4,31.9,20333.0,8006,7843,7903,8186,48.7,46.4,47.5,48.1,2.965,2.849,2.946,3.038,3.8,23.4,24.1,50.0,1018.23,-27.1,1.05,1.1,21.8,32.7,27.5,0,no_anomaly,0.0,0,0,0,0,26.9123985,75.7873204,5.0,0.0
2024-11-09T11:06:02.900Z,MISSION_0058,29,0,takeoff,SITE_JAI_009,26.9123965,75.7873168,5.0,276.96,0.0,0.048,1.91,6.2319,-4.0384,276.9569,-0.7484,-0.01735,0.06235,0.66008,0.1161,-0.1052,-9.7087,0.5195,-0.3847,0.4081,0.1743,3,16,0.68,0.72,0.36,24.637,13.54,92.3,31.7,20312.0,8260,8127,8135,8206,46.1,49.9,47.6,50.2,3.043,2.816,2.807,2.973,4.12,33.4,23.6,51.2,1018.1,-24.1,-0.14,1.83,23.3,40.0,29.9,0,no_anomaly,0.0,0,0,0,0,26.9123965,75.7873168,5.0,0.0
2024-11-09T11:06:03.000Z,MISSION_0058,30,0,takeoff,SITE_JAI_009,26.9123974,75.787314,5.0,276.73,0.261,0.116,1.59,-2.3854,-2.1376,276.7297,-0.74684,0.02794,0.00011,0.66442,-0.1269,-0.003,-9.8254,-0.0431,0.2491,0.5636,0.1773,3,15,0.63,1.13,0.23,24.654,22.9,92.2,31.4,20291.0,8123,7904,8232,8125,47.3,50.2,44.4,47.4,2.774,2.7,2.979,3.015,3.63,26.4,23.5,51.6,1017.78,-29.29,-1.71,1.84,19.5,36.3,24.1,0,no_anomaly,0.0,0,0,0,0,26.9123974,75.787314,5.0,0.0
2024-11-09T11:06:03.100Z,MISSION_0058,31,0,takeoff,SITE_JAI_009,26.9123944,75.7873154,5.0,275.21,0.761,0.089,1.82,1.9911,-2.4268,275.2127,-0.7385,0.00145,0.02735,0.6737,-0.3154,-0.0551,-9.8506,0.7118,-0.0136,0.1216,0.235,3,11,0.64,0.6,0.31,24.567,19.77,92.1,32.1,20270.0,8050,8182,8103,8175,50.9,48.7,47.7,49.4,2.779,2.72,2.76,2.993,3.29,27.6,23.3,50.5,1018.03,-34.98,0.36,1.4,19.9,33.4,25.7,0,no_anomaly,0.0,0,0,0,0,26.9123944,75.7873154,5.0,0.0
2024-11-09T11:06:03.200Z,MISSION_0058,32,0,takeoff,SITE_JAI_009,26.9123991,75.7873133,5.0,276.16,1.021,0.071,1.48,-2.5638,-3.8328,276.1587,-0.74297,0.03897,0.00994,0.66812,0.1227,-0.0069,-9.7703,-0.2162,-0.1068,-0.0031,0.1787,3,20,0.66,0.95,0.32,24.587,16.3,92.0,31.3,20249.0,8119,7938,8088,8022,49.7,46.2,48.4,46.7,2.729,2.878,2.836,2.738,2.92,23.1,23.8,50.0,1018.3,-30.15,-0.59,1.31,19.8,35.3,27.2,0,no_anomaly,0.0,0,0,0,0,26.9123991,75.7873133,5.0,0.0
2024-11-09T11:06:03.300Z,MISSION_0058,33,0,takeoff,SITE_JAI_009,26.912398,75.7873125,5.0,276.09,0.917,0.089,1.41,-3.7557,-3.1305,276.0866,-0.74238,0.04261,-0.0016,0.66863,0.0165,0.0241,-9.8054,-0.0037,-0.6704,-0.0796,0.2125,3,12,0.65,1.19,0.25,24.718,19.52,91.9,32.3,20228.0,8160,8175,7919,8262,48.6,49.2,50.8,45.6,2.936,2.906,2.926,2.662,3.51,27.3,23.6,50.5,1017.97,-36.9,-0.54,1.18,17.9,36.6,25.4,0,no_anomaly,0.0,0,0,0,0,26.912398,75.7873125,5.0,0.0
2024-11-09T11:06:03.400Z,MISSION_0058,34,0,takeoff,SITE_JAI_009,26.912395,75.7873056,5.0,276.26,1.13,0.098,0.83,-2.1851,-1.1328,276.2615,-0.74437,0.02079,-0.00537,0.66742,0.1372,0.0943,-9.8057,-0.1425,-0.0709,0.1489,0.1127,3,11,0.71,1.26,0.3,24.711,14.08,91.9,31.6,20207.0,7965,8127,8340,8145,48.6,48.4,50.9,48.9,2.982,2.881,2.764,2.566,4.04,33.4,23.7,50.8,1018.12,-35.22,0.88,1.59,20.6,29.5,29.0,0,no_anomaly,0.0,0,0,0,0,26.912395,75.7873056,5.0,0.0
2024-11-09T11:06:03.500Z,MISSION_0058,35,0,takeoff,SITE_JAI_009,26.9123942,75.7873063,5.0,276.61,1.124,0.016,0.95,0.7337,0.3932,276.607,-0.74664,-0.00706,0.0017,0.66518,-0.0494,-0.0027,-9.7931,0.907,-0.1703,-0.0813,0.1472,3,17,0.75,0.97,0.2,24.619,22.98,91.8,31.2,20186.0,8191,8283,8082,7893,48.0,49.7,47.2,47.0,2.763,2.952,2.944,2.88,2.57,28.2,24.1,50.7,1017.96,-27.31,-0.47,2.2,21.0,38.9,28.4,0,no_anomaly,0.0,0,0,0,0,26.9123942,75.7873063,5.0,0.0
2024-11-09T11:06:03.600Z,MISSION_0058,36,0,takeoff,SITE_JAI_009,26.9123912,75.7873014,5.0,276.82,1.081,0.095,0.99,2.7981,-1.4552,276.8198,-0.74784,-0.00983,0.0257,0.66331,-0.0414,-0.0164,-9.6734,-0.6578,-0.2165,-0.1359,0.1383,3,10,0.9,0.81,0.26,24.65,14.02,91.7,32.8,20165.0,8003,8312,8124,7869,47.7,49.1,48.6,50.9,3.138,3.113,2.837,3.133,3.42,20.9,23.6,50.2,1018.15,-33.83,0.39,1.13,20.2,36.7,23.5,0,no_anomaly,0.0,0,0,0,0,26.9123912,75.7873014,5.0,0.0
2024-11-09T11:06:03.700Z,MISSION_0058,37,0,takeoff,SITE_JAI_009,26.9123925,75.7872978,5.0,275.08,1.082,0.135,0.87,-2.6251,1.9062,275.0762,-0.73769,0.00567,-0.02773,0.67455,0.0468,0.0459,-9.805,-0.8324,0.5363,0.0715,0.2136,3,13,0.86,0.87,0.33,24.699,16.0,91.6,32.0,20144.0,8325,8200,8157,8094,50.4,48.4,46.8,47.6,2.578,2.615,2.524,2.933,2.21,25.6,24.0,50.6,1017.85,-29.8,-0.55,1.39,20.2,28.9,24.1,0,no_anomaly,0.0,0,0,0,0,26.9123925,75.7872978,5.0,0.0
2024-11-09T11:06:03.800Z,MISSION_0058,38,0,takeoff,SITE_JAI_009,26.9123945,75.7872987,5.0,275.82,1.211,0.09,0.63,-2.113,-4.2012,275.8203,-0.74102,0.03824,0.01485,0.67023,-0.1555,0.0143,-9.8051,0.0834,0.6259,0.0081,0.2817,3,11,0.88,1.08,0.35,24.637,14.19,91.5,32.0,20123.0,8229,7972,7942,8008,47.8,49.8,46.3,50.6,2.698,2.998,3.063,3.026,3.96,26.9,23.8,50.8,1018.16,-26.23,-1.03,1.54,19.7,29.8,28.4,0,no_anomaly,0.0,0,0,0,0,26.9123945,75.7872987,5.0,0.0
2024-11-09T11:06:03.900Z,MISSION_0058,39,0,takeoff,SITE_JAI_009,26.9123912,75.7872958,5.0,275.86,0.823,0.144,1.08,1.5761,-4.6183,275.8555,-0.742,0.01679,0.03911,0.66905,0.0379,0.0447,-9.7725,-0.0131,0.3377,0.3332,0.1572,3,16,0.71,1.0,0.26,24.554,22.55,91.4,30.6,20102.0,8073,8003,8408,8099,48.4,50.1,51.4,50.1,2.772,2.9,2.877,2.964,3.89,27.9,23.8,50.4,1017.95,-27.3,0.31,1.43,15.5,30.8,27.1,0,no_anomaly,0.0,0,0,0,0,26.9123912,75.7872958,5.0,0.0
2024-11-09T11:06:04.000Z,MISSION_0058,40,0,takeoff,SITE_JAI_009,26.9123874,75.7872956,5.0,276.34,1.094,0.162,1.49,7.6522,-1.9866,276.3374,-0.74411,-0.03818,0.05739,0.66449,0.0564,-0.1294,-9.7914,-0.9347,0.9516,0.1632,0.1138,3,16,0.78,0.8,0.36,24.519,15.34,91.3,32.0,20081.0,8009,8142,8292,8237,46.8,47.2,49.9,47.4,3.036,2.412,2.871,2.811,4.04,37.0,23.5,49.7,1018.34,-29.47,-0.68,1.77,16.9,33.0,27.5,0,no_anomaly,0.0,0,0,0,0,26.9123874,75.7872956,5.0,0.0
2024-11-09T11:06:04.100Z,MISSION_0058,41,0,takeoff,SITE_JAI_009,26.9123849,75.7872969,5.0,274.67,1.357,0.177,1.71,-2.7655,-5.4917,274.6716,-0.7335,0.05018,0.01888,0.67757,0.2648,0.0584,-9.8199,-0.0653,-0.3013,0.0098,0.201,3,11,0.63,0.92,0.25,24.548,16.91,91.2,31.9,20060.0,8054,8090,8169,8009,50.2,50.9,48.3,48.5,2.869,2.588,2.96,2.83,3.75,34.1,23.4,50.9,1018.0,-32.8,0.15,1.46,20.2,37.0,26.4,0,no_anomaly,0.0,0,0,0,0,26.9123849,75.7872969,5.0,0.0
2024-11-09T11:06:04.200Z,MISSION_0058,42,0,takeoff,SITE_JAI_009,26.9123877,75.7872984,5.0,275.25,1.358,0.079,1.38,-3.653,1.2917,275.2547,-0.7386,0.01595,-0.0298,0.6733,-0.0812,-0.0592,-9.8293,0.425,-0.7014,0.0138,0.1096,3,17,0.88,0.6,0.3,24.614,24.33,91.1,32.2,20039.0,8065,8134,8185,8171,47.2,48.4,48.7,49.2,2.883,3.081,3.057,2.801,4.17,32.2,23.6,50.8,1017.97,-23.36,-1.05,1.77,20.9,34.0,26.8,0,no_anomaly,0.0,0,0,0,0,26.9123877,75.7872984,5.0,0.0
2024-11-09T11:06:04.300Z,MISSION_0058,43,0,takeoff,SITE_JAI_009,26.9123865,75.7872947,5.0,274.43,1.4,0.034,1.61,3.7939,-1.8171,274.4276,-0.73376,-0.01352,0.03411,0.67842,-0.063,0.0206,-9.8437,-0.0746,0.2145,-0.3242,0.178,3,12,0.76,0.85,0.43,24.556,13.8,91.0,32.4,20017.0,8292,8236,8075,8173,42.5,47.4,52.2,46.3,2.68,2.939,2.852,2.415,3.87,22.9,23.6,50.1,1018.12,-27.34,2.06,1.44,16.7,33.8,26.3,0,no_anomaly,0.0,0,0,0,0,26.9123865,75.7872947,5.0,0.0
2024-11-09T11:06:04.400Z,MISSION_0058,44,0,takeoff,SITE_JAI_009,26.912385,75.7872958,5.0,275.31,1.776,0.133,1.73,1.1049,-0.3617,275.3078,-0.73907,-0.005,0.00883,0.67355,0.0469,0.0014,-9.7888,-0.285,0.1,0.0094,0.1795,3,18,0.63,0.65,0.2,24.588,20.74,90.9,31.7,19996.0,7973,7868,8132,7899,48.3,52.5,53.4,46.2,2.878,2.964,2.88,2.715,4.1,25.6,23.8,50.4,1017.83,-24.65,1.07,1.51,20.2,33.0,25.5,0,no_anomaly,0.0,0,0,0,0,26.912385,75.7872958,5.0,0.0
2024-11-09T11:06:04.500Z,MISSION_0058,45,0,takeoff,SITE_JAI_009,26.9123819,75.7872977,5.0,275.66,1.965,0.036,2.03,-0.8447,-2.6975,275.6602,-0.74082,0.02126,0.0125,0.67126,0.0515,0.0888,-9.7338,-0.9029,0.1613,-0.0243,0.2184,3,20,0.62,1.15,0.2,24.492,16.24,90.8,31.5,19975.0,8019,7973,7745,7967,51.9,46.3,53.5,50.6,2.924,2.845,2.614,2.649,3.33,23.0,23.6,50.4,1018.22,-28.38,-1.24,1.93,16.6,32.1,28.1,0,no_anomaly,0.0,0,0,0,0,26.9123819,75.7872977,5.0,0.0
2024-11-09T11:06:04.600Z,MISSION_0058,46,0,takeoff,SITE_JAI_009,26.9123831,75.7872984,5.0,278.75,1.655,0.112,1.89,-3.4421,-1.3896,278.7512,-0.75836,0.03069,-0.01035,0.65103,0.159,-0.0004,-9.769,-0.5618,0.7991,0.1259,0.147,3,10,0.78,0.78,0.26,24.542,21.85,90.7,31.8,19954.0,8004,7924,8145,8190,47.8,50.6,53.9,48.8,3.069,2.818,2.636,2.813,3.42,22.0,23.8,50.7,1018.41,-30.91,-0.26,1.37,19.1,28.5,25.9,0,no_anomaly,0.0,0,0,0,0,26.9123831,75.7872984,5.0,0.0
2024-11-09T11:06:04.700Z,MISSION_0058,47,0,takeoff,SITE_JAI_009,26.9123833,75.7872938,5.0,278.24,1.572,0.067,1.99,2.7521,-1.6798,278.2436,-0.75603,-0.00857,0.02679,0.65393,-0.1424,0.0593,-9.852,-0.3169,-0.3461,-0.0593,0.1497,3,17,0.81,0.69,0.22,24.516,21.55,90.6,32.0,19933.0,8183,8003,8222,8298,50.7,48.5,48.2,48.2,2.77,2.501,2.821,2.862,2.99,27.3,23.7,51.1,1018.16,-32.12,1.44,1.69,15.2,36.6,26.1,0,no_anomaly,0.0,0,0,0,0,26.9123833,75.7872938,5.0,0.0
2024-11-09T11:06:04.800Z,MISSION_0058,48,0,takeoff,SITE_JAI_009,26.9123844,75.7872937,5.0,277.99,1.647,0.113,1.87,-1.2789,0.4706,277.9914,-0.75464,0.00573,-0.01042,0.65603,0.098,0.0093,-9.8095,0.2293,-0.3748,-0.3725,0.0977,3,20,0.71,0.92,0.27,24.503,22.14,90.5,31.9,19912.0,8021,7980,8200,7863,50.6,50.0,49.9,52.5,2.596,2.703,2.686,2.511,3.76,26.2,23.9,50.6,1017.86,-29.06,0.85,1.48,16.0,28.8,23.3,0,no_anomaly,0.0,0,0,0,0,26.9123844,75.7872937,5.0,0.0
2024-11-09T11:06:04.900Z,MISSION_0058,49,0,takeoff,SITE_JAI_009,26.9123817,75.7872937,5.0,274.18,1.074,0.131,2.15,-1.1841,-0.4304,274.1769,-0.73234,0.01013,-0.00428,0.68086,0.0213,0.0473,-9.8498,-1.3304,0.2898,-0.0561,0.1877,3,13,0.82,0.91,0.43,24.594,16.67,90.4,32.5,19891.0,7996,8283,8005,8187,51.9,48.2,52.4,49.2,2.505,2.859,2.86,2.695,3.5,38.4,23.6,50.5,1018.03,-25.82,-0.43,1.69,17.1,34.4,27.4,0,no_anomaly,0.0,0,0,0,0,26.9123817,75.7872937,5.0,0.0
2024-11-09T11:06:05.000Z,MISSION_0058,50,0,takeoff,SITE_JAI_009,26.9123848,75.7872903,5.0,275.72,1.058,0.1,2.01,-4.1756,-1.3405,275.7217,-0.74069,0.03486,-0.01577,0.67076,-0.0084,-0.0717,-9.7898,-0.4206,0.4294,-0.22,0.2205,3,13,0.83,0.74,0.2,24.52,17.8,90.3,31.9,19870.0,8175,8066,8024,7959,46.8,47.5,47.0,48.7,2.737,2.845,2.773,2.674,3.1,31.4,23.6,50.5,1017.9,-29.83,0.57,2.08,20.4,36.6,28.6,0,no_anomaly,0.0,0,0,0,0,26.9123848,75.7872903,5.0,0.0
2024-11-09T11:06:05.100Z,MISSION_0058,51,0,takeoff,SITE_JAI_009,26.9123822,75.7872915,5.0,274.07,1.181,0.132,2.2,-1.207,-0.8637,274.0669,-0.73164,0.01284,-0.00166,0.68157,-0.0091,0.0661,-9.8141,0.4763,-0.4204,0.3106,0.2434,3,18,0.6,0.76,0.22,24.57,13.06,90.2,31.7,19849.0,8254,8095,7976,7800,48.0,51.1,46.3,52.4,2.81,3.088,3.002,3.025,2.86,22.7,23.5,51.3,1017.96,-34.12,-1.28,1.78,19.5,29.9,25.7,0,no_anomaly,0.0,0,0,0,0,26.9123822,75.7872915,5.0,0.0
2024-11-09T11:06:05.200Z,MISSION_0058,52,0,takeoff,SITE_JAI_009,26.9123784,75.7872854,5.0,271.76,1.331,0.122,2.91,-0.0106,-1.3827,271.7637,-0.71785,0.00847,0.0086,0.69609,0.0162,0.0241,-9.8704,-0.6331,-0.5764,0.0325,0.1525,3,19,0.69,0.65,0.33,24.572,23.28,90.1,32.4,19828.0,8052,8210,8138,8088,50.0,47.6,50.4,49.4,2.869,2.8,2.958,2.737,3.57,27.9,23.8,50.9,1017.99,-33.3,1.04,1.73,17.6,31.3,25.1,0,no_anomaly,0.0,0,0,0,0,26.9123784,75.7872854,5.0,0.0
2024-11-09T11:06:05.300Z,MISSION_0058,53,0,takeoff,SITE_JAI_009,26.9123828,75.7872833,5.0,272.85,1.065,0.111,2.67,-3.149,-1.4179,272.8453,-0.72388,0.02843,-0.00998,0.68927,-0.0525,-0.0431,-9.8387,-0.4353,0.3641,0.0914,0.2457,3,20,0.75,0.87,0.2,24.474,16.39,90.0,32.8,19807.0,7978,7832,7996,8120,50.1,48.7,47.1,49.1,2.695,2.981,2.917,2.63,3.94,26.2,23.7,50.1,1017.77,-29.07,-1.3,1.97,17.2,32.1,22.5,0,no_anomaly,0.0,0,0,0,0,26.9123828,75.7872833,5.0,0.0
2024-11-09T11:06:05.400Z,MISSION_0058,54,0,takeoff,SITE_JAI_009,26.9123797,75.7872833,5.0,272.97,0.928,0.109,2.93,1.8655,1.1462,272.9702,-0.72495,-0.01869,0.00396,0.68854,-0.0288,-0.0216,-9.8495,0.0227,-0.0545,-0.4116,0.2368,3,19,0.68,0.6,0.42,24.647,17.56,89.9,32.0,19786.0,8167,8104,7973,8051,48.3,46.8,50.5,49.1,2.655,2.524,2.839,2.653,3.77,22.2,23.6,50.8,1017.84,-30.45,2.19,2.12,19.3,29.4,25.5,0,no_anomaly,0.0,0,0,0,0,26.9123797,75.7872833,5.0,0.0
2024-11-09T11:06:05.500Z,MISSION_0058,55,0,takeoff,SITE_JAI_009,26.9123791,75.7872809,5.0,275.4,1.054,0.139,3.15,0.6108,-3.8898,275.403,-0.73933,0.0189,0.02869,0.67246,0.0988,-0.051,-9.8057,-0.5404,0.8994,-0.0844,0.124,3,11,0.78,0.98,0.24,24.578,18.75,89.8,32.2,19765.0,8122,8157,7976,8122,49.0,49.2,49.2,53.9,3.028,2.797,2.821,2.893,3.55,34.3,23.7,50.2,1018.1,-28.29,-1.04,1.71,14.5,37.0,26.0,0,no_anomaly,0.0,0,0,0,0,26.9123791,75.7872809,5.0,0.0
2024-11-09T11:06:05.600Z,MISSION_0058,56,0,takeoff,SITE_JAI_009,26.9123755,75.7872856,5.0,276.65,1.026,0.127,3.16,-0.375,-2.7892,276.6543,-0.74668,0.01863,0.016,0.66474,-0.2537,0.0457,-9.8305,0.2193,-0.8452,0.2919,0.1626,3,11,0.72,1.15,0.34,24.502,16.57,89.7,32.6,19744.0,8180,8132,8034,8070,46.8,50.1,49.1,49.3,2.821,2.612,2.799,3.041,3.1,21.4,23.6,51.4,1017.72,-34.63,1.17,1.0,18.4,30.4,25.8,0,no_anomaly,0.0,0,0,0,0,26.9123755,75.7872856,5.0,0.0
2024-11-09T11:06:05.700Z,MISSION_0058,57,0,takeoff,SITE_JAI_009,26.9123755,75.7872906,5.0,274.95,1.029,0.077,2.92,-2.359,-4.0331,274.9522,-0.73589,0.03894,0.01202,0.67587,0.0417,-0.0515,-9.7723,0.1455,-0.0777,0.2921,0.1504,3,11,0.6,1.03,0.2,24.573,16.72,89.6,32.1,19723.0,7878,8202,8344,8134,48.0,45.9,50.2,48.0,2.891,2.851,2.872,2.963,3.85,16.8,23.2,50.4,1018.36,-26.74,2.34,1.18,21.6,31.7,25.6,0,no_anomaly,0.0,0,0,0,0,26.9123755,75.7872906,5.0,0.0
2024-11-09T11:06:05.800Z,MISSION_0058,58,0,takeoff,SITE_JAI_009,26.9123781,75.7872911,5.0,273.34,0.892,0.072,2.63,-4.6636,-1.9832,273.3377,-0.72621,0.04146,-0.01534,0.68606,-0.0232,0.0233,-9.7766,-0.7047,0.4453,0.3045,0.0954,3,13,0.79,0.67,0.33,24.434,23.76,89.6,32.3,19702.0,8396,8066,7764,8195,45.1,48.4,50.1,47.8,2.894,2.829,2.393,2.987,4.26,28.3,24.0,52.0,1017.9,-32.17,0.47,1.69,18.4,31.4,26.8,0,no_anomaly,0.0,0,0,0,0,26.9123781,75.7872911,5.0,0.0
2024-11-09T11:06:05.900Z,MISSION_0058,59,0,takeoff,SITE_JAI_009,26.9123758,75.7872982,5.0,272.06,1.31,0.092,2.7,-0.7055,-3.7268,272.0568,-0.71915,0.027,0.01913,0.69407,-0.1794,0.0678,-9.7884,-0.1238,-0.4213,0.5166,0.1882,3,14,0.73,0.93,0.2,24.624,21.54,89.5,31.8,19680.0,7747,8098,8135,8070,48.5,51.4,49.1,48.1,2.896,2.771,2.977,2.637,4.04,27.6,23.9,50.7,1018.05,-30.24,0.79,1.92,18.3,30.9,28.0,0,no_anomaly,0.0,0,0,0,0,26.9123758,75.7872982,5.0,0.0
2024-11-09T11:06:06.000Z,MISSION_0058,60,0,takeoff,SITE_JAI_009,26.9123788,75.7873008,5.0,270.83,1.642,0.155,2.37,1.4973,-2.7044,270.83,-0.71217,0.00726,0.02597,0.70149,0.0174,-0.0871,-9.8722,-0.0788,-0.0767,0.6889,0.1835,3,19,0.71,0.9,0.28,24.538,23.96,89.4,32.3,19659.0,8045,8023,8399,7515,48.6,48.9,48.2,45.6,2.755,2.753,2.746,2.525,3.83,28.0,23.9,50.6,1018.09,-30.19,0.97,1.91,18.1,30.7,25.0,0,no_anomaly,0.0,0,0,0,0,26.9123788,75.7873008,5.0,0.0
2024-11-09T11:06:06.100Z,MISSION_0058,61,0,takeoff,SITE_JAI_009,26.912374,75.7873009,5.0,271.04,1.684,0.102,2.9,5.5748,-2.5036,271.0384,-0.71322,-0.0194,0.04963,0.69892,0.0055,0.0524,-9.7656,-1.0925,-0.2908,-0.1559,0.172,3,13,0.71,0.79,0.42,24.538,19.2,89.3,31.8,19638.0,8358,7977,8127,7970,52.2,47.0,50.5,49.7,3.028,2.918,2.722,2.626,3.69,27.5,23.7,50.6,1017.64,-29.28,-1.01,1.0,14.8,35.2,23.1,0,no_anomaly,0.0,0,0,0,0,26.912374,75.7873009,5.0,0.0
2024-11-09T11:06:06.200Z,MISSION_0058,62,0,takeoff,SITE_JAI_009,26.9123715,75.7872988,5.0,271.32,1.184,0.143,3.18,0.801,-4.6695,271.3154,-0.71476,0.02348,0.03402,0.69814,-0.2633,-0.034,-9.876,-0.3913,-0.1738,-0.1524,0.1372,3,13,0.63,0.69,0.2,24.488,20.8,89.2,32.5,19617.0,8321,8008,8043,8145,46.8,50.6,47.3,48.3,2.829,2.666,2.844,2.831,3.77,29.1,23.5,50.7,1018.04,-32.29,-0.21,1.35,15.5,29.0,27.2,0,no_anomaly,0.0,0,0,0,0,26.9123715,75.7872988,5.0,0.0
2024-11-09T11:06:06.300Z,MISSION_0058,63,0,takeoff,SITE_JAI_009,26.912372,75.7873027,5.0,271.99,0.834,0.145,3.13,2.1372,-2.5721,271.9942,-0.71929,0.00218,0.02909,0.6941,-0.1172,0.0604,-9.8322,0.1121,0.3767,0.3834,0.128,3,19,0.71,0.71,0.21,24.472,23.06,89.1,31.5,19596.0,8254,7983,8056,7926,45.8,45.5,46.9,49.0,2.703,2.637,3.073,2.936,2.94,27.0,23.6,50.7,1017.98,-28.96,0.17,1.24,18.0,34.5,26.3,0,no_anomaly,0.0,0,0,0,0,26.912372,75.7873027,5.0,0.0
2024-11-09T11:06:06.400Z,MISSION_0058,64,0,takeoff,SITE_JAI_009,26.9123736,75.7873027,5.0,271.22,1.188,0.127,2.96,-5.6375,-3.8122,271.2167,-0.71217,0.05836,-0.01064,0.6995,-0.1956,0.0449,-9.8709,-0.6361,-0.0361,-0.4884,0.169,3,20,0.73,0.99,0.21,24.387,18.39,89.0,31.8,19575.0,7905,7982,8276,8097,48.8,46.6,48.9,52.0,2.788,2.945,2.689,3.002,3.61,23.4,23.8,50.2,1017.74,-28.62,0.2,1.48,15.7,33.1,24.5,0,no_anomaly,0.0,0,0,0,0,26.9123736,75.7873027,5.0,0.0
2024-11-09T11:06:06.500Z,MISSION_0058,65,0,takeoff,SITE_JAI_009,26.9123732,75.7872966,5.0,273.36,1.201,0.177,3.01,0.4672,-1.3022,273.3589,-0.72751,0.00483,0.01106,0.686,-0.1099,-0.0255,-9.7627,-0.4848,0.4719,0.1117,0.1574,3,15,0.51,0.81,0.2,24.532,20.79,88.9,31.7,19554.0,8173,8230,8064,8263,47.9,47.0,48.4,52.1,2.872,2.732,2.909,2.925,3.12,26.6,23.5,50.5,1018.4,-26.86,0.81,1.34,15.1,29.0,27.2,0,no_anomaly,0.0,0,0,0,0,26.9123732,75.7872966,5.0,0.0
2024-11-09T11:06:06.600Z,MISSION_0058,66,0,takeoff,SITE_JAI_009,26.9123728,75.7872969,5.0,273.36,0.936,0.009,3.05,-3.2617,-0.4888,273.3633,-0.72717,0.02363,-0.01642,0.68586,0.0912,-0.0432,-9.7383,0.0363,-0.8038,-0.3713,0.1508,3,11,0.71,1.39,0.32,24.501,13.31,88.8,31.4,19533.0,7938,7943,8167,8055,50.5,49.2,48.8,49.7,2.816,2.824,2.84,2.943,2.72,33.0,23.4,50.6,1018.02,-30.18,-1.77,1.49,17.1,36.2,24.9,0,no_anomaly,0.0,0,0,0,0,26.9123728,75.7872969,5.0,0.0
2024-11-09T11:06:06.700Z,MISSION_0058,67,0,takeoff,SITE_JAI_009,26.9123739,75.7872992,5.0,274.91,0.954,0.131,2.91,0.0813,-3.284,274.9054,-0.73643,0.01885,0.02159,0.67591,0.1536,0.0486,-9.7872,-0.471,0.3694,-0.1282,0.1924,3,14,0.71,0.82,0.3,24.502,18.42,88.7,31.9,19512.0,8059,8107,8434,8309,50.2,46.4,51.8,47.1,3.045,2.732,2.659,2.871,3.59,31.6,23.6,50.2,1018.0,-28.11,-0.33,1.4,20.0,31.9,25.1,0,no_anomaly,0.0,0,0,0,0,26.9123739,75.7872992,5.0,0.0
2024-11-09T11:06:06.800Z,MISSION_0058,68,0,takeoff,SITE_JAI_009,26.9123724,75.7872984,5.0,276.73,1.198,-0.015,3.07,2.2289,0.2223,276.729,-0.74722,-0.01583,0.01147,0.66429,0.1797,-0.0299,-9.8208,0.4682,-0.403,0.2945,0.1407,3,11,0.78,0.7,0.23,24.451,21.63,88.6,31.0,19491.0,8128,8111,8526,8039,49.8,48.5,47.9,48.6,2.688,2.79,2.885,3.157,3.67,28.9,23.4,50.4,1017.87,-31.14,-1.02,1.75,19.4,39.4,27.3,0,no_anomaly,0.0,0,0,0,0,26.9123724,75.7872984,5.0,0.0
2024-11-09T11:06:06.900Z,MISSION_0058,69,0,takeoff,SITE_JAI_009,26.9123743,75.7872993,5.0,278.51,0.93,0.114,2.86,-4.1237,-3.7175,278.5121,-0.75598,0.0484,0.00109,0.6528,-0.1546,0.0043,-9.7429,0.0664,-0.2386,-0.444,0.1713,3,15,0.68,0.68,0.28,24.525,13.54,88.5,32.8,19470.0,7924,8415,8067,8007,45.9,43.0,50.6,45.7,2.576,3.23,2.766,2.85,3.42,24.4,23.7,50.7,1017.85,-21.61,0.95,1.51,14.6,27.8,23.9,0,no_anomaly,0.0,0,0,0,0,26.9123743,75.7872993,5.0,0.0
2024-11-09T11:06:07.000Z,MISSION_0058,70,0,takeoff,SITE_JAI_009,26.9123675,75.7872988,5.0,277.17,0.821,0.133,3.62,0.5784,1.7404,277.1725,-0.74981,-0.01383,-0.00805,0.66146,0.221,-0.0355,-9.7546,0.0201,-0.1996,-0.0245,0.2234,3,14,0.75,0.97,0.27,24.445,23.17,88.4,32.2,19449.0,7953,7995,8054,7904,50.0,48.7,49.2,50.9,2.758,2.652,2.608,2.651,3.3,27.2,23.7,50.4,1018.15,-33.75,-0.94,1.54,21.4,29.1,26.9,0,no_anomaly,0.0,0,0,0,0,26.9123675,75.7872988,5.0,0.0
2024-11-09T11:06:07.100Z,MISSION_0058,71,0,takeoff,SITE_JAI_009,26.912367,75.7873001,5.0,277.84,0.399,0.004,3.67,-4.4404,-2.2524,277.8437,-0.7526,0.0421,-0.01065,0.65704,0.0782,0.042,-9.7885,0.9608,-0.416,0.4273,0.209,3,16,0.85,0.92,0.26,24.429,16.39,88.3,31.2,19428.0,8126,8266,7982,8281,46.1,50.1,49.5,46.7,2.601,2.689,2.919,2.739,3.77,21.2,23.4,50.2,1018.2,-30.47,-0.33,1.7,14.7,33.0,22.5,0,no_anomaly,0.0,0,0,0,0,26.912367,75.7873001,5.0,0.0
2024-11-09T11:06:07.200Z,MISSION_0058,72,0,takeoff,SITE_JAI_009,26.9123646,75.787299,5.0,275.29,0.121,0.016,3.95,-1.1012,-4.8055,275.2898,-0.73803,0.03534,0.02451,0.6734,-0.0941,-0.0166,-9.809,-0.2581,-0.7954,0.3102,0.2333,3,12,0.83,1.01,0.38,24.542,16.08,88.2,32.8,19407.0,8045,8147,8134,7998,46.4,54.8,49.3,51.5,2.714,2.903,2.664,2.89,3.16,20.0,23.6,50.6,1017.8,-31.9,-0.49,1.67,20.4,37.4,27.5,0,no_anomaly,0.0,0,0,0,0,26.9123646,75.787299,5.0,0.0
2024-11-09T11:06:07.300Z,MISSION_0058,73,0,takeoff,SITE_JAI_009,26.9123617,75.7872956,5.0,274.92,0.278,0.163,4.3,2.8598,1.4544,274.9236,-0.73632,-0.02696,0.00752,0.67605,-0.0556,-0.0121,-9.7628,0.7876,-0.805,0.1087,0.1915,3,17,0.55,0.87,0.24,24.494,16.5,88.1,31.9,19386.0,7943,8197,8209,8124,48.5,45.3,49.0,52.9,2.75,2.681,3.039,2.954,3.88,26.5,23.6,51.0,1017.93,-32.68,-1.26,1.91,21.0,32.9,23.8,0,no_anomaly,0.0,0,0,0,0,26.9123617,75.7872956,5.0,0.0
2024-11-09T11:06:07.400Z,MISSION_0058,74,0,takeoff,SITE_JAI_009,26.9123607,75.7872939,5.0,276.13,0.537,0.03,4.42,-4.0291,-0.7962,276.1281,-0.74325,0.03079,-0.01833,0.66805,-0.3254,-0.0815,-9.8424,0.4252,-0.3414,0.0713,0.1694,3,14,0.77,0.79,0.24,24.51,20.1,88.0,31.9,19365.0,8110,8129,8077,7993,47.6,46.0,50.7,49.8,2.845,2.743,2.95,2.808,3.08,29.9,23.9,50.3,1018.35,-38.87,1.39,1.2,17.7,30.1,26.7,0,no_anomaly,0.0,0,0,0,0,26.9123607,75.7872939,5.0,0.0
2024-11-09T11:06:07.500Z,MISSION_0058,75,0,takeoff,SITE_JAI_009,26.9123637,75.7872924,5.0,278.07,0.296,0.006,4.13,-1.6463,-2.706,278.0676,-0.75459,0.02632,0.00841,0.65562,-0.1812,-0.046,-9.8602,-0.2498,-0.731,0.1889,0.1291,3,11,0.78,1.05,0.33,24.543,15.45,87.9,32.2,19343.0,8242,8109,7976,8122,46.0,46.6,49.5,51.0,2.544,2.95,2.556,2.842,3.63,34.7,23.6,50.8,1018.16,-36.82,0.41,1.18,17.3,35.5,22.7,0,no_anomaly,0.0,0,0,0,0,26.9123637,75.7872924,5.0,0.0
2024-11-09T11:06:07.600Z,MISSION_0058,76,0,takeoff,SITE_JAI_009,26.9123643,75.7872866,5.0,278.14,0.309,0.131,4.24,2.0069,-3.2619,278.1423,-0.75543,0.00542,0.03297,0.65438,0.1826,-0.048,-9.7977,-0.3795,-0.0937,-0.0209,0.236,3,19,0.79,0.66,0.33,24.469,21.76,87.8,32.6,19322.0,8266,8344,8235,7922,46.0,46.3,52.4,46.3,2.732,2.83,2.67,2.905,3.21,30.2,23.5,49.9,1017.93,-32.55,0.34,1.79,16.4,31.4,23.8,0,no_anomaly,0.0,0,0,0,0,26.9123643,75.7872866,5.0,0.0
2024-11-09T11:06:07.700Z,MISSION_0058,77,0,takeoff,SITE_JAI_009,26.9123638,75.7872884,5.0,278.92,0.297,0.124,4.23,0.1343,-2.2223,278.9243,-0.75985,0.01171,0.0155,0.64981,0.0411,-0.0351,-9.755,0.502,0.8537,0.0989,0.1864,3,14,0.51,0.93,0.24,24.468,19.97,87.7,31.3,19301.0,8036,7886,8336,8034,53.4,48.5,47.7,48.4,2.9,2.946,2.731,2.921,4.47,25.4,23.9,51.1,1018.03,-28.29,0.02,1.73,18.1,29.0,23.6,0,no_anomaly,0.0,0,0,0,0,26.9123638,75.7872884,5.0,0.0
2024-11-09T11:06:07.800Z,MISSION_0058,78,0,takeoff,SITE_JAI_009,26.9123703,75.7872854,5.0,278.41,0.051,0.047,3.69,-1.5479,0.2813,278.4062,-0.75698,0.00862,-0.01068,0.65329,-0.0294,-0.0126,-9.7767,-0.6606,0.9983,0.0859,0.1772,3,14,0.83,0.88,0.35,24.448,16.44,87.6,31.8,19280.0,8254,8007,8368,7850,53.9,49.2,49.3,49.0,2.735,2.904,2.861,2.876,3.83,29.3,23.5,49.9,1018.06,-25.49,-0.85,1.86,15.4,28.0,26.6,0,no_anomaly,0.0,0,0,0,0,26.9123703,75.7872854,5.0,0.0
2024-11-09T11:06:07.900Z,MISSION_0058,79,0,transit,SITE_JAI_009,26.9123775,75.7872827,5.5,278.61,0.132,0.003,3.16,-4.4511,-1.8087,278.6097,-0.75712,0.03972,-0.01336,0.65193,0.3348,-0.0218,-9.825,-0.2186,0.3805,0.1716,0.1253,3,17,0.75,0.87,0.23,24.385,21.59,87.5,31.9,19259.0,7994,8303,8100,7949,52.5,48.9,49.9,50.0,2.9,2.717,2.855,2.857,3.52,31.4,24.1,50.5,1018.4,-29.79,-0.18,1.44,20.5,32.0,29.7,0,no_anomaly,0.0,0,0,0,0,26.9123775,75.7872827,5.5,0.0
2024-11-09T11:06:08.000Z,MISSION_0058,80,0,transit,SITE_JAI_009,26.9123741,75.7872802,6.0,273.96,0.178,0.21,3.63,2.0807,-2.2559,273.9637,-0.73112,0.00016,0.02677,0.68172,-0.207,-0.0299,-9.8498,0.5335,0.2099,0.2432,0.1887,3,16,0.77,0.94,0.27,24.437,17.8,87.4,32.0,19238.0,7868,7973,8344,7865,50.8,51.9,48.4,50.9,2.631,2.738,3.024,2.861,4.22,24.3,23.9,51.5,1018.33,-26.91,0.04,1.23,16.9,30.3,24.6,0,no_anomaly,0.0,0,0,0,0,26.9123741,75.7872802,6.0,0.0
2024-11-09T11:06:08.100Z,MISSION_0058,81,0,transit,SITE_JAI_009,26.9123707,75.7872773,6.5,275.33,0.15,0.085,4.12,1.6197,-4.6895,275.3279,-0.7389,0.01711,0.03975,0.67242,0.1509,-0.0442,-9.8458,0.2452,0.4239,-0.3015,0.2678,3,20,0.59,0.75,0.33,24.485,15.9,87.4,31.6,19217.0,8119,8166,8209,8043,46.4,50.1,49.1,45.1,2.871,2.812,3.054,2.597,3.8,27.0,23.7,50.2,1018.18,-38.12,-0.11,1.62,23.6,33.0,26.7,0,no_anomaly,0.0,0,0,0,0,26.9123707,75.7872773,6.5,0.0
2024-11-09T11:06:08.200Z,MISSION_0058,82,0,transit,SITE_JAI_009,26.9123693,75.7872754,7.0,274.75,0.117,0.053,4.38,0.8386,-0.0466,274.7484,-0.73577,-0.00511,0.00526,0.67719,0.0475,0.0493,-9.8575,0.1426,0.4978,0.1685,0.1401,3,12,0.69,0.95,0.26,24.416,21.08,87.3,33.1,19196.0,8183,8059,7969,8067,50.8,46.5,47.7,49.5,2.651,2.921,2.842,2.713,3.42,26.5,23.2,50.9,1017.98,-24.87,-0.91,1.46,16.6,34.7,24.2,0,no_anomaly,0.0,0,0,0,0,26.9123693,75.7872754,7.0,0.0
2024-11-09T11:06:08.300Z,MISSION_0058,83,0,transit,SITE_JAI_009,26.9123677,75.7872762,7.5,275.9,0.181,0.04,4.47,-4.9609,-3.3627,275.9039,-0.74072,0.05176,-0.00721,0.66978,0.0262,-0.026,-9.8466,0.1486,-0.2456,0.2318,0.1702,3,13,0.66,0.75,0.33,24.49,16.41,87.2,31.7,19175.0,7912,8145,8180,8118,48.4,46.4,46.2,49.9,2.969,2.674,2.916,2.799,3.54,20.8,23.6,50.1,1017.77,-29.47,-0.28,1.05,18.6,31.7,29.6,0,no_anomaly,0.0,0,0,0,0,26.9123677,75.7872762,7.5,0.0
2024-11-09T11:06:08.400Z,MISSION_0058,84,0,transit,SITE_JAI_009,26.9123713,75.7872767,8.0,275.4,0.574,0.039,4.12,1.1057,0.4999,275.4032,-0.73958,-0.01007,0.00327,0.67299,-0.0785,-0.0769,-9.8224,-0.0971,0.1075,-0.2466,0.117,3,13,0.76,0.84,0.34,24.529,23.43,87.1,33.1,19154.0,8124,8339,7945,8259,46.1,50.3,50.7,45.9,2.694,2.915,2.894,2.765,3.85,28.7,23.7,51.1,1018.17,-34.89,0.62,1.0,19.9,32.4,24.7,0,no_anomaly,0.0,0,0,0,0,26.9123713,75.7872767,8.0,0.0
2024-11-09T11:06:08.500Z,MISSION_0058,85,0,transit,SITE_JAI_009,26.9123764,75.7872754,8.5,273.7,0.234,0.03,3.79,2.7191,-2.8387,273.703,-0.72956,-0.00037,0.03429,0.68306,0.1119,-0.0029,-9.8539,-0.6505,-0.8537,-0.3416,0.2118,3,10,0.5,0.93,0.2,24.461,16.82,87.0,31.5,19133.0,8407,8120,8239,8258,49.4,50.3,50.3,49.0,2.971,2.996,2.643,2.777,3.51,24.8,24.0,50.5,1017.86,-31.8,-1.38,1.37,17.4,36.0,28.0,0,no_anomaly,0.0,0,0,0,0,26.9123764,75.7872754,8.5,0.0
2024-11-09T11:06:08.600Z,MISSION_0058,86,0,transit,SITE_JAI_009,26.9123755,75.7872735,9.0,273.92,0.262,0.08,4.02,-0.3973,-2.1901,273.9183,-0.73068,0.01558,0.0116,0.68244,-0.1914,0.0092,-9.8859,-0.1179,0.2391,0.1116,0.1899,3,18,0.71,0.95,0.27,24.558,18.05,86.9,31.8,19112.0,8205,8074,7977,8040,50.0,48.1,52.3,50.1,2.8,2.76,2.693,2.745,4.15,23.9,23.7,50.8,1017.99,-32.9,-0.72,1.47,16.5,36.3,23.5,0,no_anomaly,0.0,0,0,0,0,26.9123755,75.7872735,9.0,0.0
2024-11-09T11:06:08.700Z,MISSION_0058,87,0,transit,SITE_JAI_009,26.9123744,75.7872784,9.5,272.12,0.03,0.075,3.72,-4.2635,-3.7736,272.1198,-0.71833,0.0496,-0.00211,0.69393,0.1873,0.0372,-9.7938,-0.1483,-0.4131,-0.2862,0.2001,3,16,0.73,0.91,0.27,24.483,19.85,86.8,31.4,19091.0,7941,8212,8199,8043,49.3,47.3,49.7,45.7,2.689,2.604,2.9,2.335,4.02,23.5,23.3,50.1,1018.1,-30.66,-0.75,1.51,18.9,29.3,24.2,0,no_anomaly,0.0,0,0,0,0,26.9123744,75.7872784,9.5,0.0
2024-11-09T11:06:08.800Z,MISSION_0058,88,0,transit,SITE_JAI_009,26.9123743,75.7872855,10.0,274.48,0.0,0.078,3.28,0.7876,-3.9022,274.4817,-0.73393,0.01807,0.02966,0.67834,0.0017,-0.0084,-9.8586,0.2667,-0.1845,-0.3618,0.1564,3,13,0.79,1.03,0.44,24.59,13.22,86.7,32.8,19070.0,8182,8347,8316,8033,48.4,50.0,47.4,47.6,2.76,2.655,2.875,2.781,3.33,28.1,23.5,51.0,1018.15,-28.16,-1.35,1.65,19.6,35.6,24.3,0,no_anomaly,0.0,0,0,0,0,26.9123743,75.7872855,10.0,0.0
2024-11-09T11:06:08.900Z,MISSION_0058,89,0,transit,SITE_JAI_009,26.9123796,75.7872876,10.5,272.78,0.0,0.098,2.65,0.134,-1.5021,272.7764,-0.72398,0.0082,0.0103,0.6897,0.1277,-0.0395,-9.8405,0.8042,-0.0002,-0.0402,0.2754,3,10,0.64,0.9,0.21,24.366,24.28,86.6,32.5,19049.0,7930,8116,8098,7951,47.3,44.9,46.1,50.7,2.683,2.784,2.927,2.709,5.0,25.8,23.9,50.6,1018.11,-26.75,0.79,1.46,18.5,32.7,24.3,0,no_anomaly,0.0,0,0,0,0,26.9123796,75.7872876,10.5,0.0
2024-11-09T11:06:09.000Z,MISSION_0058,90,0,transit,SITE_JAI_009,26.9123801,75.7872818,11.0,270.6,0.0,0.069,3.0,1.7498,-1.84,270.5984,-0.71079,0.00044,0.02215,0.70306,-0.041,0.0508,-9.952,-1.484,0.3316,-0.1561,0.1238,3,14,0.65,0.66,0.22,24.479,15.91,86.5,31.9,19028.0,8200,7910,8065,8171,48.2,47.0,50.3,52.2,2.911,2.958,2.604,2.844,4.32,24.7,23.8,50.4,1017.96,-32.53,1.34,1.12,21.4,36.5,26.0,0,no_anomaly,0.0,0,0,0,0,26.9123801,75.7872818,11.0,0.0
2024-11-09T11:06:09.100Z,MISSION_0058,91,0,transit,SITE_JAI_009,26.9123817,75.7872772,11.5,269.01,0.0,0.135,3.25,3.788,-2.435,269.0063,-0.70091,-0.00802,0.03845,0.71217,0.091,0.0074,-9.8198,0.3873,-0.174,0.3532,0.25,3,11,0.67,1.0,0.27,24.44,21.79,86.4,31.8,19006.0,8146,8056,8145,8090,51.3,49.9,47.8,47.1,3.016,2.62,2.823,3.182,3.01,28.8,23.6,50.3,1018.18,-22.59,1.37,1.15,18.0,31.3,29.4,0,no_anomaly,0.0,0,0,0,0,26.9123817,75.7872772,11.5,0.0
2024-11-09T11:06:09.200Z,MISSION_0058,92,0,transit,SITE_JAI_009,26.9123866,75.787271,12.0,268.18,0.0,-0.0,3.56,-1.0105,-1.2711,268.185,-0.69568,0.0141,0.00138,0.71821,0.027,-0.0325,-9.829,1.0243,0.2841,-0.0651,0.1687,3,10,0.55,1.18,0.2,24.497,24.47,86.3,32.0,18985.0,8181,8038,8045,8109,50.4,49.3,44.7,49.8,3.009,2.65,2.458,2.886,3.03,15.5,23.5,51.2,1018.17,-27.81,0.75,1.59,16.5,36.6,27.3,0,no_anomaly,0.0,0,0,0,0,26.9123866,75.787271,12.0,0.0
2024-11-09T11:06:09.300Z,MISSION_0058,93,0,transit,SITE_JAI_009,26.9123855,75.7872684,12.5,265.8,0.216,0.165,3.87,-3.0272,0.4019,265.7965,-0.68052,0.01541,-0.02174,0.73224,0.0108,0.0473,-9.8362,-0.4383,-0.6244,0.1644,0.1802,3,16,0.65,1.08,0.39,24.471,13.7,86.2,32.5,18964.0,8131,8085,8263,8205,48.0,50.9,49.4,49.0,2.797,2.846,2.599,2.688,3.93,31.0,23.8,50.3,1017.92,-26.45,0.35,1.56,19.6,31.4,25.4,0,no_anomaly,0.0,0,0,0,0,26.9123855,75.7872684,12.5,0.0
2024-11-09T11:06:09.400Z,MISSION_0058,94,0,transit,SITE_JAI_009,26.9123855,75.7872665,13.0,267.45,0.117,0.108,4.07,1.4555,-2.1892,267.4459,-0.69117,0.00503,0.02238,0.72233,-0.1019,0.0013,-9.7754,-0.0276,-0.8294,-0.0858,0.1109,3,11,0.75,1.0,0.31,24.411,16.93,86.1,31.2,18943.0,8109,7956,8120,8010,46.5,49.9,49.0,49.0,2.919,2.791,2.785,2.939,3.33,19.5,23.6,50.3,1017.55,-26.92,2.04,1.79,20.8,29.4,24.7,0,no_anomaly,0.0,0,0,0,0,26.9123855,75.7872665,13.0,0.0
2024-11-09T11:06:09.500Z,MISSION_0058,95,0,transit,SITE_JAI_009,26.9123866,75.7872666,13.2,268.54,0.423,0.133,4.01,-1.5484,-2.2604,268.5443,-0.69768,0.02355,0.00409,0.71601,0.2035,0.0502,-9.7677,-0.2505,0.4904,-0.0057,0.2258,3,19,0.8,0.7,0.45,24.405,15.6,86.0,31.9,18922.0,8192,7851,8221,8197,48.4,50.7,48.4,47.4,3.005,2.838,2.679,2.833,3.79,26.7,23.8,49.9,1017.8,-28.79,1.69,1.23,16.0,34.7,25.9,0,no_anomaly,0.0,0,0,0,0,26.9123866,75.7872666,13.2,0.0
2024-11-09T11:06:09.600Z,MISSION_0058,96,0,transit,SITE_JAI_009,26.9123881,75.7872637,13.2,268.85,0.727,0.212,4.25,-0.9565,-0.8635,268.8509,-0.69989,0.01122,-0.00069,0.71416,-0.0977,0.0235,-9.777,0.4,0.1187,-0.1275,0.1629,3,12,0.74,0.93,0.41,24.472,17.36,85.9,32.0,18901.0,8154,8127,8138,8029,52.7,48.2,47.6,48.3,2.697,2.879,2.81,2.772,4.07,31.6,23.5,50.8,1017.97,-36.04,1.87,1.04,19.8,32.8,24.1,0,no_anomaly,0.0,0,0,0,0,26.9123881,75.7872637,13.2,0.0
2024-11-09T11:06:09.700Z,MISSION_0058,97,0,transit,SITE_JAI_009,26.9123909,75.7872641,13.2,268.68,0.799,0.118,4.13,1.9704,-0.6903,268.685,-0.6989,-0.00771,0.01651,0.71498,-0.0499,-0.016,-9.8817,-0.9988,-0.7071,-0.2462,0.1352,3,13,0.7,0.64,0.22,24.391,17.35,85.8,32.6,18880.0,8004,8130,8099,8183,46.6,53.8,46.1,47.1,2.958,2.804,2.643,2.855,3.19,31.9,23.8,50.8,1017.94,-31.6,-1.82,1.35,20.5,34.5,26.0,0,no_anomaly,0.0,0,0,0,0,26.9123909,75.7872641,13.2,0.0
2024-11-09T11:06:09.800Z,MISSION_0058,98,0,transit,SITE_JAI_009,26.9123971,75.7872626,13.2,268.06,0.807,0.031,4.17,-0.2646,-1.3691,268.06,-0.69496,0.01019,0.00664,0.71894,-0.1291,0.0101,-9.7847,-0.6392,0.2882,0.0915,0.1734,3,17,0.81,1.0,0.3,24.347,20.37,85.7,31.3,18859.0,8156,8295,8002,8318,49.9,47.6,46.2,48.3,2.649,2.922,2.666,2.905,2.46,25.0,23.5,50.0,1017.93,-31.16,0.05,1.01,21.3,28.6,24.5,0,no_anomaly,0.0,0,0,0,0,26.9123971,75.7872626,13.2,0.0
2024-11-09T11:06:09.900Z,MISSION_0058,99,0,transit,SITE_JAI_009,26.9123994,75.7872633,13.2,268.46,0.432,0.084,4.09,0.3888,-2.4681,268.4554,-0.6974,0.01307,0.01745,0.71635,0.0871,-0.0146,-9.8126,0.3872,-0.0755,0.0996,0.143,3,20,0.78,0.84,0.41,24.436,15.91,85.6,31.5,18838.0,7915,8015,8069,8069,48.6,46.8,48.2,48.5,2.815,2.601,2.957,2.802,2.63,29.6,23.6,50.2,1017.95,-33.83,0.25,1.94,18.7,31.3,30.0,0,no_anomaly,0.0,0,0,0,0,26.9123994,75.7872633,13.2,0.0
2024-11-09T11:06:10.000Z,MISSION_0058,100,0,transit,SITE_JAI_009,26.9123965,75.7872655,13.2,269.06,0.819,0.107,3.86,-0.1653,-1.3826,269.0562,-0.70119,0.00961,0.00743,0.71287,-0.0365,0.0045,-9.7608,-0.618,-0.729,0.0918,0.2282,3,19,0.63,0.76,0.21,24.392,16.19,85.5,31.2,18817.0,7987,8015,8341,8125,48.2,48.2,48.6,47.1,2.875,2.733,2.671,2.608,4.37,26.7,23.7,51.0,1018.25,-35.07,-0.45,1.98,18.4,37.3,27.3,0,no_anomaly,0.0,0,0,0,0,26.9123965,75.7872655,13.2,0.0
2024-11-09T11:06:10.100Z,MISSION_0058,101,0,transit,SITE_JAI_009,26.9123963,75.7872675,13.2,268.41,0.777,0.131,3.64,1.3275,-4.6067,268.4053,-0.69692,0.02074,0.03632,0.71593,-0.0628,-0.0659,-9.779,0.134,-0.6288,-0.0623,0.2208,3,20,0.83,1.01,0.45,24.413,12.35,85.4,30.7,18796.0,8195,8168,8124,7969,48.4,50.1,53.8,47.1,2.83,2.811,3.101,2.597,3.81,30.3,23.4,49.2,1018.28,-31.09,-1.34,1.51,18.5,33.7,24.8,0,no_anomaly,0.0,0,0,0,0,26.9123963,75.7872675,13.2,0.0
2024-11-09T11:06:10.200Z,MISSION_0058,102,0,transit,SITE_JAI_009,26.9123944,75.7872639,13.2,269.94,0.96,0.129,4.06,-0.9304,-2.9686,269.9383,-0.70632,0.02406,0.01256,0.70738,-0.0125,-0.0177,-9.7863,0.8849,0.097,0.3555,0.2856,3,17,0.67,0.82,0.26,24.394,14.39,85.3,32.2,18775.0,8179,8195,8315,8126,46.7,52.2,49.5,47.9,2.769,2.809,2.668,3.051,3.42,28.4,24.0,51.0,1017.94,-26.87,-0.24,1.54,17.9,32.6,25.6,0,no_anomaly,0.0,0,0,0,0,26.9123944,75.7872639,13.2,0.0
2024-11-09T11:06:10.300Z,MISSION_0058,103,0,transit,SITE_JAI_009,26.9123906,75.7872642,13.2,267.38,1.684,0.144,4.12,1.7317,-1.0507,267.3798,-0.69075,-0.00381,0.01726,0.72288,-0.1475,0.0182,-9.8796,-0.4278,-0.2723,-0.2022,0.135,3,14,0.66,0.99,0.27,24.408,17.08,85.2,32.4,18754.0,8014,7894,8347,8049,48.8,47.9,47.7,48.3,2.613,2.464,2.634,2.658,3.71,34.3,23.5,50.6,1017.97,-26.8,-0.57,1.38,19.3,33.9,26.2,0,no_anomaly,0.0,0,0,0,0,26.9123906,75.7872642,13.2,0.0
2024-11-09T11:06:10.400Z,MISSION_0058,104,0,transit,SITE_JAI_009,26.9123792,75.7872692,13.2,268.51,2.08,0.188,4.14,0.5604,-2.6768,268.5067,-0.69772,0.01332,0.0198,0.71598,-0.2921,-0.0032,-9.8153,-0.0094,-0.3182,-0.1746,0.2266,3,11,0.76,0.63,0.27,24.428,23.12,85.1,31.5,18733.0,8290,8270,8375,8210,49.9,47.4,50.3,50.1,2.832,2.667,2.678,2.613,2.91,19.3,23.9,49.9,1018.17,-30.75,-0.51,1.32,22.2,38.1,26.9,0,no_anomaly,0.0,0,0,0,0,26.9123792,75.7872692,13.2,0.0
2024-11-09T11:06:10.500Z,MISSION_0058,105,0,transit,SITE_JAI_009,26.9123801,75.7872754,13.2,268.59,1.791,0.073,3.53,1.0911,-0.3543,268.5878,-0.69832,-0.00444,0.00897,0.71571,0.1515,-0.0741,-9.7646,1.1826,0.1926,-0.7688,0.1777,3,12,0.75,0.98,0.28,24.349,13.13,85.1,31.1,18712.0,8088,7969,8261,8252,48.6,48.2,50.6,48.8,2.575,2.902,2.828,2.669,4.02,28.7,24.1,50.3,1018.45,-28.24,0.35,1.75,21.8,30.2,29.1,0,no_anomaly,0.0,0,0,0,0,26.9123801,75.7872754,13.2,0.0
2024-11-09T11:06:10.600Z,MISSION_0058,106,0,transit,SITE_JAI_009,26.9123745,75.787273,13.2,269.18,1.881,0.108,4.13,-1.6187,-2.572,269.1762,-0.70153,0.0259,0.0057,0.71214,-0.0423,-0.0116,-9.8377,-0.678,-0.2718,-0.4024,0.1007,3,20,0.82,0.77,0.42,24.448,18.73,85.0,32.5,18691.0,8205,8096,7697,8096,46.7,46.3,50.3,46.0,2.784,2.756,2.795,3.057,3.52,18.4,23.6,50.4,1018.23,-33.06,2.18,1.81,17.3,32.5,29.1,0,no_anomaly,0.0,0,0,0,0,26.9123745,75.787273,13.2,0.0
2024-11-09T11:06:10.700Z,MISSION_0058,107,0,transit,SITE_JAI_009,26.9123728,75.7872718,13.2,267.79,1.638,0.199,4.36,1.7915,0.0161,267.7877,-0.69324,-0.01094,0.01117,0.72054,0.2462,0.0185,-9.8288,0.3113,-0.0985,0.6375,0.2258,3,12,0.73,1.11,0.49,24.335,17.22,84.9,31.5,18669.0,8298,8447,8084,8154,47.4,49.7,49.1,48.5,2.788,2.894,2.619,3.074,4.25,22.0,23.7,51.1,1018.03,-27.49,-0.05,2.11,18.6,28.6,25.4,0,no_anomaly,0.0,0,0,0,0,26.9123728,75.7872718,13.2,0.0
2024-11-09T11:06:10.800Z,MISSION_0058,108,0,transit,SITE_JAI_009,26.9123739,75.7872709,13.2,269.08,1.632,0.061,4.35,0.5038,-2.3108,269.0842,-0.70135,0.01129,0.01728,0.71252,0.0133,0.0354,-9.7457,0.2505,-0.2357,0.3579,0.2573,3,11,0.73,0.66,0.3,24.357,16.46,84.8,32.2,18648.0,8093,8473,8144,8117,50.2,50.6,49.9,46.6,2.998,2.916,2.753,2.824,3.5,20.6,23.5,51.2,1018.03,-30.08,-1.59,1.49,18.9,33.4,24.8,0,no_anomaly,0.0,0,0,0,0,26.9123739,75.7872709,13.2,0.0
2024-11-09T11:06:10.900Z,MISSION_0058,109,0,transit,SITE_JAI_009,26.9123736,75.787266,13.2,267.11,1.666,0.038,4.79,-0.8987,-4.1587,267.1131,-0.68839,0.03169,0.01932,0.72439,0.1138,0.0676,-9.8258,0.1369,0.2665,-0.0374,0.1054,3,20,0.55,0.71,0.2,24.341,16.51,84.7,32.2,18627.0,8148,8117,8167,8020,49.5,49.9,49.0,43.3,2.577,2.885,2.96,2.615,3.72,29.7,23.5,49.8,1017.77,-30.08,-0.15,1.77,16.9,31.0,26.5,0,no_anomaly,0.0,0,0,0,0,26.9123736,75.787266,13.2,0.0
2024-11-09T11:06:11.000Z,MISSION_0058,110,0,transit,SITE_JAI_009,26.912375,75.7872643,13.2,264.74,1.569,0.148,4.85,-3.2929,-4.6198,264.7395,-0.67223,0.04911,0.00594,0.73869,-0.0206,0.0118,-9.7776,-0.094,-0.5326,-0.0771,0.0256,3,20,0.82,0.94,0.41,24.379,20.63,84.6,32.5,18606.0,8084,8025,8274,8322,49.8,48.6,49.8,49.1,2.613,3.045,2.928,2.845,4.17,32.7,23.8,50.3,1017.9,-29.9,-0.6,1.77,21.6,32.8,26.8,0,no_anomaly,0.0,0,0,0,0,26.912375,75.7872643,13.2,0.0
2024-11-09T11:06:11.100Z,MISSION_0058,111,0,transit,SITE_JAI_009,26.9123738,75.787262,13.2,262.15,1.76,0.155,5.14,-2.4318,0.127,262.1496,-0.65691,0.01311,-0.01672,0.75367,-0.1194,0.0733,-9.8592,-0.2953,0.6514,0.2437,0.1017,3,19,0.61,1.06,0.22,24.418,19.83,84.5,32.3,18585.0,8092,8182,8031,8290,52.7,49.1,46.4,44.7,2.837,2.708,2.883,2.928,3.66,25.6,23.7,50.6,1018.02,-33.18,0.31,1.89,16.8,34.8,26.6,0,no_anomaly,0.0,0,0,0,0,26.9123738,75.787262,13.2,0.0
2024-11-09T11:06:11.200Z,MISSION_0058,112,0,transit,SITE_JAI_009,26.9123742,75.7872595,13.2,264.05,1.681,0.168,5.35,-0.5399,-2.621,264.0477,-0.66918,0.02014,0.01181,0.74274,-0.1554,0.0762,-9.8313,-0.6917,0.1541,0.5607,0.2157,3,16,0.58,1.01,0.2,24.307,18.53,84.4,31.2,18564.0,7831,8020,8261,8149,44.2,49.4,46.6,50.2,3.013,2.611,2.852,2.7,4.23,21.6,23.7,50.8,1017.72,-28.95,-0.25,1.34,18.0,32.8,23.0,0,no_anomaly,0.0,0,0,0,0,26.9123742,75.7872595,13.2,0.0
2024-11-09T11:06:11.300Z,MISSION_0058,113,0,transit,SITE_JAI_009,26.9123747,75.7872568,13.2,264.82,1.718,0.088,5.57,-6.5332,-3.5629,264.8242,-0.67173,0.06133,-0.02112,0.73795,0.0757,0.0474,-9.7229,0.0582,0.1896,-0.6698,0.1012,3,18,0.61,0.76,0.25,24.46,18.96,84.3,31.3,18543.0,8106,8178,8232,7900,50.3,46.1,48.2,47.0,2.776,2.942,3.011,3.024,3.86,36.2,23.7,51.3,1017.98,-30.82,-0.13,1.01,20.7,34.7,28.1,0,no_anomaly,0.0,0,0,0,0,26.9123747,75.7872568,13.2,0.0
2024-11-09T11:06:11.400Z,MISSION_0058,114,0,transit,SITE_JAI_009,26.9123766,75.7872534,13.2,267.63,2.222,0.185,5.8,-1.4333,-1.7165,267.6279,-0.69205,0.01947,0.00135,0.72158,-0.0274,-0.0382,-9.8116,1.2302,-0.6734,-0.0522,0.2426,3,19,0.54,0.94,0.22,24.438,17.26,84.2,32.0,18522.0,8213,7906,8226,8218,50.1,47.5,44.4,46.8,2.731,2.921,2.864,2.986,3.87,33.8,23.7,50.7,1018.29,-30.69,0.59,1.4,19.3,34.0,25.4,0,no_anomaly,0.0,0,0,0,0,26.9123766,75.7872534,13.2,0.0
2024-11-09T11:06:11.500Z,MISSION_0058,115,0,transit,SITE_JAI_009,26.9123775,75.7872546,13.2,268.68,2.509,-0.002,5.64,1.2236,-3.2448,268.6754,-0.69878,0.01279,0.02742,0.71469,-0.0245,0.0807,-9.8058,-0.0578,1.0192,-0.1596,0.1447,3,18,0.7,0.91,0.26,24.295,21.21,84.1,31.8,18501.0,8073,8019,8190,7976,51.0,50.9,50.2,46.0,2.606,2.641,3.031,2.712,3.61,27.5,23.6,50.5,1017.94,-29.17,1.01,1.68,17.5,38.3,29.3,0,no_anomaly,0.0,0,0,0,0,26.9123775,75.7872546,13.2,0.0
2024-11-09T11:06:11.600Z,MISSION_0058,116,0,transit,SITE_JAI_009,26.9123754,75.7872603,13.2,269.37,2.616,0.075,5.2,-1.7215,-4.5788,269.3733,-0.70216,0.03895,0.01742,0.71074,0.0403,0.0425,-9.7526,-0.4992,0.0118,0.011,0.0942,3,17,0.7,0.84,0.21,24.33,16.47,84.0,32.2,18480.0,8384,8129,7957,7878,50.8,48.9,46.7,48.6,2.763,2.597,2.9,2.633,3.31,20.7,23.0,51.0,1018.11,-34.04,2.51,1.5,16.3,36.2,25.1,0,no_anomaly,0.0,0,0,0,0,26.9123754,75.7872603,13.2,0.0
2024-11-09T11:06:11.700Z,MISSION_0058,117,0,transit,SITE_JAI_009,26.9123735,75.78726,13.2,269.7,2.663,0.178,5.35,0.9402,0.0939,269.697,-0.70521,-0.00637,0.00524,0.70895,0.1909,-0.0266,-9.8389,0.177,-0.0515,0.7979,0.1629,3,16,0.82,0.87,0.2,24.39,24.13,83.9,32.1,18459.0,8021,7862,7913,7928,50.6,48.4,52.7,46.3,2.902,2.932,2.866,2.892,4.28,22.4,23.9,50.5,1018.06,-29.84,-0.12,1.58,16.1,32.6,24.8,0,no_anomaly,0.0,0,0,0,0,26.9123735,75.78726,13.2,0.0
2024-11-09T11:06:11.800Z,MISSION_0058,118,0,transit,SITE_JAI_009,26.9123777,75.7872609,13.2,270.04,3.151,0.088,5.01,-3.1433,-2.7497,270.0422,-0.70643,0.03635,-0.00242,0.70684,0.0885,0.0637,-9.8547,0.143,-0.5314,0.3195,0.2325,3,18,0.81,1.02,0.3,24.364,23.14,83.8,32.6,18438.0,8114,8185,7997,7921,49.4,46.7,47.9,49.5,2.556,2.664,2.862,2.64,4.17,27.7,23.3,50.3,1018.1,-31.79,2.12,1.51,18.1,37.4,27.7,0,no_anomaly,0.0,0,0,0,0,26.9123777,75.7872609,13.2,0.0
2024-11-09T11:06:11.900Z,MISSION_0058,119,0,transit,SITE_JAI_009,26.9123768,75.7872566,13.2,268.84,3.114,0.081,5.48,-0.7484,-2.449,268.8404,-0.69964,0.01983,0.01029,0.71415,-0.0684,-0.0106,-9.8294,0.3175,-0.8634,0.0337,0.2146,3,10,0.68,0.97,0.35,24.453,18.69,83.7,31.2,18417.0,8095,7971,7878,8352,51.5,45.4,47.2,50.5,2.677,2.865,2.88,2.676,3.84,23.8,23.8,50.6,1017.84,-28.63,1.98,1.32,18.2,35.3,23.6,0,no_anomaly,0.0,0,0,0,0,26.9123768,75.7872566,13.2,0.0
2024-11-09T11:06:12.000Z,MISSION_0058,120,0,transit,SITE_JAI_009,26.9123806,75.787258,13.2,271.89,3.73,0.114,5.15,0.0289,-2.7248,271.8881,-0.71846,0.01635,0.01726,0.69516,0.1555,0.004,-9.8224,-0.0242,-0.0564,-0.244,0.2804,3,18,0.6,0.73,0.24,24.334,18.17,83.6,32.0,18396.0,8284,8284,8259,8145,48.9,47.1,48.1,52.5,2.735,2.947,2.808,2.937,4.06,32.0,23.5,49.9,1017.9,-31.34,-0.33,1.84,18.6,31.2,27.9,0,no_anomaly,0.0,0,0,0,0,26.9123806,75.787258,13.2,0.0
2024-11-09T11:06:12.100Z,MISSION_0058,121,0,transit,SITE_JAI_009,26.9123747,75.7872549,13.2,269.8,3.263,0.062,5.75,0.1307,-2.3085,269.8036,-0.70577,0.01346,0.01503,0.70816,0.0441,-0.0468,-9.8141,-0.3901,-0.1906,0.4345,0.2168,3,11,0.66,0.9,0.2,24.369,17.34,83.5,31.9,18375.0,7869,8036,7997,8701,48.4,49.7,49.5,49.0,2.722,2.749,2.636,2.722,4.37,32.5,23.7,50.9,1017.51,-29.65,-1.84,1.68,22.0,34.6,28.2,0,no_anomaly,0.0,0,0,0,0,26.9123747,75.7872549,13.2,0.0
2024-11-09T11:06:12.200Z,MISSION_0058,122,0,transit,SITE_JAI_009,26.9123734,75.7872503,13.2,268.14,3.389,0.092,6.27,-0.56,-2.5493,268.1377,-0.69526,0.01938,0.01196,0.71839,-0.1072,-0.0317,-9.7329,0.128,0.2022,-0.164,0.1855,3,14,0.57,0.78,0.2,24.452,18.88,83.4,32.0,18354.0,8110,8215,8015,7945,49.0,50.2,50.7,50.8,2.513,2.621,3.001,2.956,3.03,30.5,23.5,50.4,1018.26,-35.37,1.42,1.5,18.3,30.0,26.6,0,no_anomaly,0.0,0,0,0,0,26.9123734,75.7872503,13.2,0.0
2024-11-09T11:06:12.300Z,MISSION_0058,123,0,transit,SITE_JAI_009,26.9123742,75.7872522,13.2,270.7,3.683,0.149,6.05,-2.2063,-1.8157,270.6964,-0.71096,0.02483,-0.00226,0.70279,0.0572,-0.1364,-9.7333,-0.9256,-0.2532,-0.0522,0.1539,3,19,0.77,1.02,0.24,24.408,24.61,83.3,31.9,18332.0,8262,7700,8236,8308,49.2,45.6,51.9,47.0,2.834,2.711,3.053,2.663,4.02,19.8,23.3,50.8,1017.88,-32.69,-1.1,1.14,23.4,35.0,25.9,0,no_anomaly,0.0,0,0,0,0,26.9123742,75.7872522,13.2,0.0
2024-11-09T11:06:12.400Z,MISSION_0058,124,0,transit,SITE_JAI_009,26.9123764,75.7872495,13.2,268.14,4.008,0.128,6.2,0.003,-1.5561,268.1438,-0.6955,0.00974,0.00946,0.7184,0.0026,0.0379,-9.8608,-0.1671,0.0099,0.6359,0.1359,3,15,0.58,0.96,0.27,24.367,19.09,83.2,32.6,18311.0,8080,8087,8191,8060,44.8,49.6,46.4,45.9,3.104,2.64,2.69,2.812,3.79,28.8,23.7,50.4,1018.08,-30.39,-1.11,2.12,22.2,30.9,26.2,0,no_anomaly,0.0,0,0,0,0,26.9123764,75.7872495,13.2,0.0
2024-11-09T11:06:12.500Z,MISSION_0058,125,0,transit,SITE_JAI_009,26.9123792,75.7872482,13.2,269.27,4.062,0.069,6.22,5.1976,-1.2175,269.2652,-0.70214,-0.0243,0.03972,0.71052,-0.1587,-0.0192,-9.852,0.0056,0.0083,0.6649,0.2355,3,20,0.59,0.94,0.2,24.411,22.85,83.1,31.7,18290.0,8011,8235,8191,8157,46.3,48.8,50.5,47.2,2.833,2.876,2.799,2.703,2.97,23.3,23.8,50.0,1018.21,-32.84,0.52,1.68,22.3,38.9,26.7,0,no_anomaly,0.0,0,0,0,0,26.9123792,75.7872482,13.2,0.0
2024-11-09T11:06:12.600Z,MISSION_0058,126,0,transit,SITE_JAI_009,26.9123743,75.7872498,13.2,268.71,3.401,0.14,6.28,2.0117,-0.8285,268.7149,-0.6991,-0.0071,0.0176,0.71477,-0.27,0.0085,-9.7683,-0.0383,0.5825,-0.1755,0.1435,3,11,0.69,0.99,0.28,24.311,22.8,83.0,31.9,18269.0,8126,8374,8316,8215,46.1,50.1,46.5,46.2,2.866,2.858,2.712,2.88,3.38,26.3,23.7,51.1,1018.21,-32.5,0.02,1.18,19.7,32.1,26.1,0,no_anomaly,0.0,0,0,0,0,26.9123743,75.7872498,13.2,0.0
2024-11-09T11:06:12.700Z,MISSION_0058,127,0,transit,SITE_JAI_009,26.9123767,75.7872538,13.2,270.82,3.175,0.217,5.76,0.174,-4.3019,270.8164,-0.71166,0.02527,0.02779,0.70151,-0.062,0.0443,-9.857,0.2115,-0.1827,-0.3114,0.2218,3,11,0.8,0.81,0.28,24.36,18.14,82.9,31.9,18248.0,8333,8099,7945,7912,46.5,51.6,47.6,48.2,2.921,2.984,2.766,2.734,3.64,21.0,23.7,51.0,1018.32,-24.76,0.54,1.65,17.2,33.1,24.1,0,no_anomaly,0.0,0,0,0,0,26.9123767,75.7872538,13.2,0.0
2024-11-09T11:06:12.800Z,MISSION_0058,128,0,transit,SITE_JAI_009,26.9123742,75.7872476,13.2,272.06,3.372,0.152,6.51,0.5096,-3.04,272.0634,-0.71955,0.01522,0.02218,0.69392,0.029,0.0484,-9.7802,0.2582,-0.267,0.0811,0.2332,3,20,0.78,1.13,0.32,24.321,22.68,82.9,32.3,18227.0,8373,7923,8244,8225,46.7,50.2,51.5,48.7,2.566,2.925,2.682,2.834,3.39,30.8,23.9,50.1,1018.14,-26.93,-0.32,1.33,16.6,38.5,28.7,0,no_anomaly,0.0,0,0,0,0,26.9123742,75.7872476,13.2,0.0
2024-11-09T11:06:12.900Z,MISSION_0058,129,0,transit,SITE_JAI_009,26.9123696,75.7872505,13.2,270.5,3.764,0.172,6.46,-1.6085,-0.0446,270.501,-0.71012,0.01024,-0.00961,0.70394,0.1013,0.1693,-9.8466,-0.2282,-0.4895,0.1184,0.1843,3,12,0.5,0.8,0.2,24.353,14.5,82.8,31.8,18206.0,7974,8084,8166,8112,46.3,48.3,48.0,51.9,2.683,2.71,2.895,2.787,3.51,28.5,23.7,50.9,1017.88,-32.84,-0.35,2.12,18.8,32.8,26.0,0,no_anomaly,0.0,0,0,0,0,26.9123696,75.7872505,13.2,0.0
