timestamp_utc,mission_id,frame_id,waypoint_id,inspection_phase,site_id,latitude_deg,longitude_deg,altitude_m,heading_deg,ground_speed_ms,vertical_speed_ms,distance_to_tower_m,roll_deg,pitch_deg,yaw_deg,quat_w,quat_x,quat_y,quat_z,accel_x_ms2,accel_y_ms2,accel_z_ms2,gyro_x_rads,gyro_y_rads,gyro_z_rads,vibration_level,gps_fix_type,gps_satellite_count,gps_hdop,gps_vdop,position_error_m,battery_voltage_v,battery_current_a,battery_remaining_pct,battery_temp_c,battery_capacity_mah,motor_fl_rpm,motor_fr_rpm,motor_rl_rpm,motor_rr_rpm,motor_fl_temp_c,motor_fr_temp_c,motor_rl_temp_c,motor_rr_temp_c,motor_fl_thrust_n,motor_fr_thrust_n,motor_rl_thrust_n,motor_rr_thrust_n,wind_speed_ms,wind_dir_deg,air_temp_c,humidity_pct,pressure_hpa,gimbal_pitch_deg,gimbal_roll_deg,zoom_factor,ir_temp_min_c,ir_temp_max_c,ir_temp_avg_c,anomaly_detected,anomaly_class,anomaly_confidence,anomaly_bbox_x,anomaly_bbox_y,anomaly_bbox_w,anomaly_bbox_h,anomaly_gps_lat,anomaly_gps_lon,anomaly_gps_alt_m,ir_temp_delta_c
2024-01-28T12:33:00.000Z,MISSION_0054,0,0,takeoff,SITE_HYD_005,17.3849957,78.4867002,1.5,232.18,0.446,0.061,0.48,0.5626,-2.3733,232.1768,-0.43975,0.01644,0.01352,0.89787,0.0892,-0.0009,-9.8223,0.1075,0.0878,0.3494,0.2935,3,15,0.6,1.04,0.31,24.7,14.32,96.5,43.8,21226.0,8861,8733,8707,8850,59.0,60.3,61.2,60.8,2.798,2.959,2.914,2.783,6.27,54.1,35.5,46.2,1019.99,-33.23,0.1,1.0,29.7,43.9,35.3,0,no_anomaly,0.0,0,0,0,0,17.3849957,78.4867002,1.5,0.0
2024-01-28T12:33:00.100Z,MISSION_0054,1,0,takeoff,SITE_HYD_005,17.3849965,78.4867013,3.0,233.25,0.354,0.174,0.41,4.6266,1.194,233.2501,-0.44738,-0.0274,0.03142,0.89337,-0.1764,-0.0534,-9.8281,-0.157,-0.1579,-0.7674,0.2498,3,18,0.67,0.77,0.32,24.616,18.71,96.4,43.2,21212.0,8832,8807,8756,8886,62.1,60.3,59.6,59.2,2.389,2.787,2.703,2.833,5.58,61.2,35.9,46.1,1019.97,-31.76,-1.7,2.08,28.5,42.9,39.8,0,no_anomaly,0.0,0,0,0,0,17.3849965,78.4867013,3.0,0.0
2024-01-28T12:33:00.200Z,MISSION_0054,2,0,takeoff,SITE_HYD_005,17.3849939,78.4867031,4.5,233.26,0.555,0.077,0.76,1.3404,-1.9654,233.2631,-0.44833,0.01009,0.01814,0.89362,-0.0598,0.0141,-9.8344,0.3748,0.0596,-0.7246,0.2198,3,12,0.7,0.7,0.21,24.664,24.6,96.4,43.1,21198.0,9215,8639,8855,8889,58.8,60.9,62.6,58.0,2.822,2.874,2.645,2.919,5.44,55.6,35.4,46.3,1020.17,-28.56,-1.4,1.44,33.8,41.6,36.4,0,no_anomaly,0.0,0,0,0,0,17.3849939,78.4867031,4.5,0.0
2024-01-28T12:33:00.300Z,MISSION_0054,3,0,takeoff,SITE_HYD_005,17.3849914,78.486701,5.0,234.13,1.006,0.073,0.97,-1.4334,-2.1836,234.1275,-0.45465,0.02266,-0.00247,0.89038,0.1533,-0.0683,-9.7984,-0.0525,-0.1588,0.2094,0.2237,3,11,0.79,0.97,0.24,24.675,22.68,96.3,43.7,21184.0,8890,9040,9027,8910,62.1,63.9,61.2,60.3,2.471,2.831,2.871,2.806,5.13,59.4,35.2,46.0,1019.98,-21.8,-0.63,1.69,32.5,48.6,35.2,0,no_anomaly,0.0,0,0,0,0,17.3849914,78.486701,5.0,0.0
2024-01-28T12:33:00.400Z,MISSION_0054,4,0,takeoff,SITE_HYD_005,17.384987,78.4867033,5.0,233.57,0.582,0.174,1.5,6.3371,-2.2333,233.5712,-0.45084,-0.00753,0.0581,0.89068,-0.2026,0.0762,-9.7743,-0.9495,0.1105,-0.351,0.1979,3,14,0.5,1.12,0.22,24.749,14.48,96.2,43.0,21170.0,8888,8905,8745,8687,61.4,60.2,61.3,62.1,2.623,2.826,2.771,2.75,6.06,51.4,35.2,45.5,1019.91,-26.59,0.09,1.44,29.1,47.3,36.6,0,no_anomaly,0.0,0,0,0,0,17.384987,78.4867033,5.0,0.0
2024-01-28T12:33:00.500Z,MISSION_0054,5,0,takeoff,SITE_HYD_005,17.3849824,78.4867047,5.0,236.11,0.8,0.034,2.03,2.6104,-0.6507,236.1107,-0.47031,-0.0057,0.02277,0.88219,0.1188,-0.0373,-9.8606,-0.4574,0.018,0.5323,0.1658,3,10,0.78,1.05,0.33,24.807,20.99,96.2,44.1,21156.0,8875,8805,8852,9003,62.4,60.8,56.4,56.7,2.802,2.809,2.731,2.687,5.46,62.3,35.4,46.1,1019.83,-32.92,1.05,1.13,31.5,43.7,40.5,0,no_anomaly,0.0,0,0,0,0,17.3849824,78.4867047,5.0,0.0
2024-01-28T12:33:00.600Z,MISSION_0054,6,0,takeoff,SITE_HYD_005,17.3849823,78.4867082,5.0,237.5,0.692,0.137,2.17,-1.196,-2.2511,237.5012,-0.4807,0.02224,0.0003,0.8766,0.1014,-0.0213,-9.8825,0.0117,0.2776,0.1824,0.2206,3,14,0.63,0.6,0.21,24.786,22.96,96.1,43.8,21142.0,9032,8987,9089,8813,60.0,59.7,60.0,61.3,2.8,2.779,2.89,2.537,6.19,50.9,35.6,46.3,1019.81,-31.59,-0.49,1.42,33.8,49.2,39.7,0,no_anomaly,0.0,0,0,0,0,17.3849823,78.4867082,5.0,0.0
2024-01-28T12:33:00.700Z,MISSION_0054,7,0,takeoff,SITE_HYD_005,17.3849804,78.4867097,5.0,238.61,0.35,0.076,2.44,3.43,-3.5939,238.6079,-0.4898,0.01269,0.04143,0.87076,0.0862,0.03,-9.8054,0.1631,0.7173,0.2991,0.2195,3,18,0.68,0.97,0.33,24.716,21.0,96.0,43.4,21128.0,9189,8945,9090,8809,59.7,62.4,62.8,59.0,2.702,2.721,2.76,2.886,5.27,57.4,35.6,45.4,1019.91,-27.41,-1.43,2.14,32.9,49.5,38.6,0,no_anomaly,0.0,0,0,0,0,17.3849804,78.4867097,5.0,0.0
2024-01-28T12:33:00.800Z,MISSION_0054,8,0,takeoff,SITE_HYD_005,17.3849861,78.4867071,5.0,238.85,0.72,0.042,1.74,0.5234,0.4139,238.8533,-0.49129,-0.00539,0.0022,0.87098,-0.1209,-0.0486,-9.7209,-0.2833,0.1977,0.1626,0.252,3,12,0.78,1.19,0.33,24.78,10.65,96.0,43.6,21114.0,8705,8798,8610,8736,57.6,58.0,63.7,59.2,2.81,2.946,2.912,2.821,5.43,55.9,35.5,45.6,1020.34,-25.85,-0.65,1.14,30.3,47.8,36.4,0,no_anomaly,0.0,0,0,0,0,17.3849861,78.4867071,5.0,0.0
2024-01-28T12:33:00.900Z,MISSION_0054,9,0,takeoff,SITE_HYD_005,17.3849844,78.4867024,5.0,236.01,0.775,0.162,1.75,5.0558,-2.0729,236.0073,-0.4697,-0.00475,0.04742,0.88154,0.0911,-0.0902,-9.8543,0.2946,-0.4389,0.2199,0.198,3,16,0.55,1.06,0.21,24.653,12.93,95.9,42.9,21101.0,8966,8724,8891,8747,57.5,63.9,60.9,63.2,2.701,2.545,2.61,2.782,4.56,51.5,35.3,45.2,1020.03,-29.4,-0.37,2.05,30.5,44.1,36.4,0,no_anomaly,0.0,0,0,0,0,17.3849844,78.4867024,5.0,0.0
2024-01-28T12:33:01.000Z,MISSION_0054,10,0,takeoff,SITE_HYD_005,17.3849838,78.4867021,5.0,235.67,0.72,0.153,1.82,0.6963,-0.9696,235.6747,-0.46698,0.00464,0.00932,0.8842,0.0443,0.0136,-9.7463,-0.8507,-0.4461,-0.321,0.2662,3,16,0.8,0.97,0.43,24.68,15.1,95.8,43.2,21087.0,8805,8793,8917,8836,58.5,55.6,61.5,57.6,2.744,2.945,2.92,2.705,5.47,54.4,35.7,46.5,1020.01,-30.35,-1.08,1.26,30.6,50.6,38.8,0,no_anomaly,0.0,0,0,0,0,17.3849838,78.4867021,5.0,0.0
2024-01-28T12:33:01.100Z,MISSION_0054,11,0,takeoff,SITE_HYD_005,17.384984,78.4867003,5.0,239.84,0.847,0.192,1.78,-3.8014,-1.945,239.8419,-0.49797,0.03124,-0.02028,0.86639,-0.0393,-0.0732,-9.7796,-0.1902,0.0568,-0.2222,0.1593,3,18,0.6,0.82,0.3,24.67,17.61,95.8,43.6,21073.0,8632,9038,8926,8594,58.9,59.6,57.7,63.2,2.847,2.835,3.021,2.839,5.38,55.0,35.4,47.5,1020.23,-29.7,-0.51,1.39,29.0,47.1,38.2,0,no_anomaly,0.0,0,0,0,0,17.384984,78.4867003,5.0,0.0
2024-01-28T12:33:01.200Z,MISSION_0054,12,0,takeoff,SITE_HYD_005,17.3849808,78.4867006,5.0,239.12,1.045,0.117,2.14,0.3361,-3.6306,239.1161,-0.49314,0.02611,0.01818,0.86937,-0.0603,0.0125,-9.8658,0.2665,-0.1027,-0.1164,0.1776,3,15,0.54,1.07,0.21,24.695,18.83,95.7,43.2,21059.0,8594,8785,8847,8844,58.6,59.8,61.4,63.2,2.787,2.964,2.938,2.912,5.02,55.3,36.0,45.2,1019.96,-30.52,2.12,1.42,29.3,49.2,37.1,0,no_anomaly,0.0,0,0,0,0,17.3849808,78.4867006,5.0,0.0
2024-01-28T12:33:01.300Z,MISSION_0054,13,0,takeoff,SITE_HYD_005,17.3849736,78.4867007,5.0,238.24,1.056,0.151,2.94,2.8022,-2.4074,238.2384,-0.48682,0.00645,0.03158,0.87291,-0.0168,0.002,-9.7513,-0.0331,0.2687,-0.244,0.2781,3,12,0.68,0.93,0.25,24.645,19.48,95.7,43.2,21045.0,8683,8930,8663,9108,59.8,64.5,60.5,60.1,2.734,2.808,2.929,2.892,5.66,60.9,35.5,45.6,1020.06,-29.27,0.32,1.49,27.6,42.4,35.6,0,no_anomaly,0.0,0,0,0,0,17.3849736,78.4867007,5.0,0.0
2024-01-28T12:33:01.400Z,MISSION_0054,14,0,takeoff,SITE_HYD_005,17.3849697,78.486698,5.0,242.01,1.272,0.196,3.38,-7.7175,-3.3682,242.0111,-0.51204,0.05978,-0.04255,0.85582,-0.2231,-0.0206,-9.8924,0.3739,-0.4001,0.1673,0.2298,3,10,0.73,0.83,0.34,24.757,21.0,95.6,44.3,21031.0,8801,8851,8773,8958,55.4,62.5,54.4,61.6,2.752,2.839,2.769,3.061,5.64,54.0,35.3,47.3,1019.98,-27.29,0.97,1.0,26.7,43.2,35.6,0,no_anomaly,0.0,0,0,0,0,17.3849697,78.486698,5.0,0.0
2024-01-28T12:33:01.500Z,MISSION_0054,15,0,takeoff,SITE_HYD_005,17.3849756,78.4866961,5.0,241.92,1.002,0.135,2.74,-0.3174,-3.0484,241.9199,-0.51419,0.02423,0.01131,0.85726,0.0688,-0.0011,-9.8641,0.1986,-0.1802,-0.2196,0.2089,3,18,0.75,1.02,0.28,24.698,19.23,95.5,43.1,21017.0,9054,8941,8873,8976,62.9,59.6,62.7,58.4,2.794,2.821,2.748,2.597,4.45,62.0,35.5,46.8,1019.57,-31.49,-0.53,1.47,31.1,49.5,35.4,0,no_anomaly,0.0,0,0,0,0,17.3849756,78.4866961,5.0,0.0
2024-01-28T12:33:01.600Z,MISSION_0054,16,0,takeoff,SITE_HYD_005,17.3849697,78.4866978,5.0,243.15,1.412,0.115,3.39,-1.9208,-2.2151,243.1507,-0.52317,0.02524,-0.00416,0.85184,0.0243,0.0365,-9.8027,0.1939,-0.3912,0.1448,0.1544,3,16,0.55,0.78,0.23,24.699,17.56,95.5,43.3,21003.0,9212,9004,8559,8815,58.2,61.1,57.7,60.1,2.854,2.918,2.991,2.888,4.82,50.6,35.6,46.2,1020.17,-25.28,0.86,1.44,30.8,41.3,39.9,0,no_anomaly,0.0,0,0,0,0,17.3849697,78.4866978,5.0,0.0
2024-01-28T12:33:01.700Z,MISSION_0054,17,0,takeoff,SITE_HYD_005,17.3849695,78.486698,5.0,245.1,1.614,0.129,3.4,-7.1456,-3.7681,245.1006,-0.53498,0.06117,-0.03484,0.84193,0.1362,0.0402,-9.7933,0.2281,-1.0194,0.4772,0.3238,3,10,0.68,0.64,0.3,24.703,19.7,95.4,44.0,20989.0,8894,9060,8813,8939,62.1,62.7,62.6,58.7,2.74,2.678,2.862,2.788,6.25,67.6,35.7,46.1,1020.51,-32.48,0.62,1.91,33.0,42.5,37.0,0,no_anomaly,0.0,0,0,0,0,17.3849695,78.486698,5.0,0.0
2024-01-28T12:33:01.800Z,MISSION_0054,18,0,takeoff,SITE_HYD_005,17.3849706,78.4866927,5.0,244.27,1.374,0.002,3.37,3.5369,-2.0816,244.2701,-0.53205,-0.00104,0.03579,0.84596,-0.3693,-0.0124,-9.8307,0.8258,0.7092,0.1483,0.2968,3,11,0.66,0.88,0.31,24.783,19.5,95.3,43.7,20975.0,8879,9083,9036,8817,62.1,64.2,59.5,60.1,2.776,2.809,2.896,2.693,5.57,56.5,35.7,46.6,1020.05,-32.28,0.49,1.18,34.5,48.2,40.8,0,no_anomaly,0.0,0,0,0,0,17.3849706,78.4866927,5.0,0.0
2024-01-28T12:33:01.900Z,MISSION_0054,19,0,takeoff,SITE_HYD_005,17.3849707,78.4866978,5.0,245.23,1.288,0.046,3.27,-1.6465,-1.5902,245.226,-0.53869,0.01943,-0.00462,0.84227,-0.0247,-0.0697,-9.7848,-0.5381,0.3175,0.1278,0.2,3,12,0.65,0.93,0.37,24.719,21.0,95.3,44.3,20961.0,9090,8995,8959,8817,58.6,61.1,59.1,56.6,2.755,2.862,2.721,2.977,4.93,59.9,35.5,45.8,1019.89,-33.62,1.62,1.15,29.3,41.9,39.7,0,no_anomaly,0.0,0,0,0,0,17.3849707,78.4866978,5.0,0.0
2024-01-28T12:33:02.000Z,MISSION_0054,20,0,takeoff,SITE_HYD_005,17.3849655,78.4866981,5.0,248.02,1.268,0.071,3.85,-3.534,-2.5552,248.0211,-0.55837,0.03572,-0.01309,0.82872,-0.0536,-0.0373,-9.8321,-0.3033,-0.5844,-0.0322,0.0996,3,14,0.5,0.87,0.21,24.723,20.48,95.2,45.1,20947.0,8776,8987,8787,8703,60.8,58.5,57.0,64.0,2.674,2.862,2.927,2.594,5.56,49.3,35.6,46.2,1019.85,-24.32,0.58,1.51,29.4,46.7,38.3,0,no_anomaly,0.0,0,0,0,0,17.3849655,78.4866981,5.0,0.0
2024-01-28T12:33:02.100Z,MISSION_0054,21,0,takeoff,SITE_HYD_005,17.3849619,78.4866933,5.0,248.05,0.985,0.096,4.3,-2.7982,-1.3838,248.0546,-0.55914,0.02367,-0.01348,0.82863,0.0545,0.0191,-9.8508,0.5052,0.7376,-0.1097,0.2441,3,13,0.69,0.98,0.35,24.722,14.29,95.2,42.7,20933.0,8670,8874,8791,8681,54.5,65.7,55.8,58.9,2.787,3.098,2.607,2.652,5.75,63.5,35.7,46.4,1020.13,-32.0,0.45,1.08,30.1,49.4,39.8,0,no_anomaly,0.0,0,0,0,0,17.3849619,78.4866933,5.0,0.0
2024-01-28T12:33:02.200Z,MISSION_0054,22,0,takeoff,SITE_HYD_005,17.3849602,78.4866966,5.0,249.08,0.504,0.011,4.45,5.582,-0.1107,249.0752,-0.56631,-0.02681,0.04066,0.82275,0.0753,0.0113,-9.7454,-0.0145,-0.1031,0.0031,0.2631,3,14,0.67,0.75,0.2,24.692,21.11,95.1,42.8,20920.0,8974,8570,8857,8612,60.2,60.7,58.1,62.8,2.886,2.858,2.85,2.822,5.05,64.9,35.3,46.7,1019.83,-29.52,-1.41,1.0,30.4,48.1,38.9,0,no_anomaly,0.0,0,0,0,0,17.3849602,78.4866966,5.0,0.0
2024-01-28T12:33:02.300Z,MISSION_0054,23,0,takeoff,SITE_HYD_005,17.3849614,78.4866946,5.0,249.63,0.4,0.004,4.34,-8.6015,-1.147,249.6339,-0.5687,0.05101,-0.05587,0.81906,-0.1383,-0.0726,-9.7912,0.724,0.4644,-0.4195,0.1468,3,10,0.68,1.03,0.34,24.636,20.97,95.0,44.2,20906.0,9057,9161,8755,9214,61.6,58.9,58.3,61.6,2.755,2.841,2.562,2.795,5.73,49.8,35.5,46.0,1020.35,-36.53,1.93,1.41,27.0,40.8,34.5,0,no_anomaly,0.0,0,0,0,0,17.3849614,78.4866946,5.0,0.0
2024-01-28T12:33:02.400Z,MISSION_0054,24,0,takeoff,SITE_HYD_005,17.3849603,78.4866978,5.0,249.14,0.445,0.127,4.42,2.5186,-1.9447,249.1403,-0.5675,0.0015,0.02772,0.8229,0.0183,-0.0192,-9.7454,0.3974,0.6726,0.5164,0.2263,3,12,0.59,0.71,0.2,24.722,21.66,95.0,44.1,20892.0,8997,8949,9094,9013,59.0,60.9,60.9,62.7,3.015,2.527,3.067,2.681,5.25,52.5,35.3,45.8,1019.8,-30.66,0.27,1.2,28.2,42.8,36.9,0,no_anomaly,0.0,0,0,0,0,17.3849603,78.4866978,5.0,0.0
2024-01-28T12:33:02.500Z,MISSION_0054,25,0,takeoff,SITE_HYD_005,17.3849599,78.486697,5.0,248.9,0.839,0.157,4.48,1.4658,0.596,248.9038,-0.56561,-0.01152,0.00761,0.82456,0.2091,-0.0372,-9.7066,0.0415,-1.1749,-0.0924,0.1778,3,11,0.74,0.96,0.45,24.649,22.2,94.9,43.6,20878.0,8701,8918,8986,8799,59.5,55.9,60.1,59.2,2.613,2.592,2.797,2.55,5.4,60.5,35.4,45.8,1019.84,-28.86,0.95,1.36,32.3,45.9,39.2,0,no_anomaly,0.0,0,0,0,0,17.3849599,78.486697,5.0,0.0
2024-01-28T12:33:02.600Z,MISSION_0054,26,0,takeoff,SITE_HYD_005,17.3849598,78.4866939,5.0,246.91,0.471,0.061,4.52,-2.6402,-0.4664,246.9126,-0.55107,0.0161,-0.01698,0.83413,-0.0252,0.0308,-9.9138,-0.0827,-0.5541,-0.1786,0.1408,3,13,0.75,0.94,0.27,24.635,15.03,94.8,43.1,20864.0,9182,8897,8685,8696,62.7,63.2,60.3,61.1,2.697,2.754,2.84,2.769,4.56,54.0,35.8,46.5,1020.48,-22.68,0.03,1.21,29.6,46.2,35.6,0,no_anomaly,0.0,0,0,0,0,17.3849598,78.4866939,5.0,0.0
2024-01-28T12:33:02.700Z,MISSION_0054,27,0,takeoff,SITE_HYD_005,17.3849607,78.4866928,5.0,246.96,1.018,0.181,4.45,0.3731,-1.6963,246.9561,-0.55159,0.01055,0.01088,0.83397,-0.0535,-0.0177,-9.8899,0.2525,1.2275,-0.1863,0.227,3,10,0.77,0.94,0.21,24.738,21.22,94.8,43.5,20850.0,8730,8706,8810,8714,59.5,57.7,59.6,62.2,2.904,2.847,2.839,2.97,5.3,47.5,35.8,46.8,1019.72,-26.28,0.61,1.92,29.2,50.0,39.0,0,no_anomaly,0.0,0,0,0,0,17.3849607,78.4866928,5.0,0.0
2024-01-28T12:33:02.800Z,MISSION_0054,28,0,takeoff,SITE_HYD_005,17.3849589,78.4866946,5.0,245.18,1.084,0.146,4.61,-0.6393,-4.2364,245.1773,-0.53805,0.03414,0.01521,0.84208,0.0533,0.0373,-9.7253,0.4422,0.0239,-0.2312,0.1988,3,15,0.72,1.33,0.41,24.678,14.67,94.7,43.3,20836.0,8771,8720,8767,8958,60.4,58.4,55.5,58.0,3.01,2.747,2.696,3.063,5.2,57.4,35.5,46.0,1020.2,-31.27,-2.11,1.49,25.9,38.8,36.9,0,no_anomaly,0.0,0,0,0,0,17.3849589,78.4866946,5.0,0.0
2024-01-28T12:33:02.900Z,MISSION_0054,29,0,takeoff,SITE_HYD_005,17.3849551,78.4866985,5.0,244.46,1.158,0.112,5.0,-1.0304,-4.0988,244.4562,-0.53266,0.03504,0.01147,0.84553,0.0807,0.0272,-9.7335,0.2846,0.2329,0.2372,0.267,3,20,0.81,0.98,0.3,24.62,19.98,94.6,43.6,20822.0,8915,8649,8656,8909,64.6,60.0,59.1,60.6,2.699,2.975,2.891,2.727,6.31,59.2,35.7,46.9,1019.87,-24.81,-0.75,2.05,27.2,47.1,37.4,0,no_anomaly,0.0,0,0,0,0,17.3849551,78.4866985,5.0,0.0
2024-01-28T12:33:03.000Z,MISSION_0054,30,0,takeoff,SITE_HYD_005,17.3849561,78.4866954,5.0,244.66,1.302,0.122,4.91,0.1091,-3.8094,244.6619,-0.53454,0.02758,0.01858,0.84449,-0.2203,-0.0055,-9.7701,0.1668,0.298,-0.3931,0.1853,3,13,0.57,0.91,0.21,24.66,15.15,94.6,43.3,20808.0,8670,8827,8575,8827,61.2,61.0,61.9,65.4,2.856,3.015,2.66,2.813,6.41,60.9,35.7,46.0,1019.85,-29.98,-2.1,1.49,29.3,50.6,38.3,0,no_anomaly,0.0,0,0,0,0,17.3849561,78.4866954,5.0,0.0
2024-01-28T12:33:03.100Z,MISSION_0054,31,0,takeoff,SITE_HYD_005,17.3849571,78.4866972,5.0,242.85,1.448,0.051,4.78,-3.0959,-3.6068,242.8531,-0.52023,0.04092,-0.00664,0.85302,-0.1225,0.0147,-9.8519,0.0754,0.3942,0.0992,0.1961,3,18,0.69,0.84,0.33,24.612,18.21,94.5,43.3,20794.0,8817,8659,9090,8690,60.1,59.4,61.3,64.3,2.683,2.927,2.663,3.156,4.6,59.6,35.6,45.6,1020.09,-29.43,-1.47,1.52,29.8,47.7,39.0,0,no_anomaly,0.0,0,0,0,0,17.3849571,78.4866972,5.0,0.0
2024-01-28T12:33:03.200Z,MISSION_0054,32,0,takeoff,SITE_HYD_005,17.3849544,78.4866943,5.0,242.34,1.112,0.187,5.12,-2.7179,-1.3565,242.3359,-0.51713,0.0224,-0.01417,0.8555,0.2423,-0.0453,-9.8019,-0.2564,-0.1474,-0.4194,0.2541,3,14,0.59,0.69,0.32,24.621,16.58,94.5,43.6,20780.0,8838,8739,8809,8743,60.9,62.5,62.2,62.9,2.981,2.832,2.672,3.033,5.11,57.1,35.7,47.4,1020.32,-27.91,0.65,1.0,32.0,49.6,37.4,0,no_anomaly,0.0,0,0,0,0,17.3849544,78.4866943,5.0,0.0
2024-01-28T12:33:03.300Z,MISSION_0054,33,0,takeoff,SITE_HYD_005,17.3849543,78.4866905,5.0,237.52,1.07,0.074,5.2,-2.2966,-0.4559,237.5219,-0.48099,0.01313,-0.01565,0.87649,0.0981,0.032,-9.7742,-0.7382,-0.1567,-0.0383,0.1939,3,16,0.71,0.89,0.29,24.638,17.79,94.4,44.0,20766.0,8718,8944,8595,8802,61.0,61.5,63.4,56.4,2.651,2.749,2.719,2.944,5.18,53.4,35.2,45.9,1020.31,-35.41,0.2,1.36,32.7,46.6,37.4,0,no_anomaly,0.0,0,0,0,0,17.3849543,78.4866905,5.0,0.0
2024-01-28T12:33:03.400Z,MISSION_0054,34,0,takeoff,SITE_HYD_005,17.3849561,78.4866928,5.0,237.58,1.529,0.15,4.95,-0.0424,-3.2377,237.58,-0.4814,0.02494,0.01328,0.87605,-0.0005,-0.0242,-9.7989,-0.2155,-0.4536,-0.0066,0.2678,3,17,0.59,0.94,0.2,24.678,18.0,94.3,44.3,20753.0,8994,8914,8952,9096,61.2,61.5,64.7,60.6,2.945,2.75,2.825,2.635,5.88,56.7,35.5,46.7,1020.19,-25.7,1.88,1.11,32.6,48.5,39.1,0,no_anomaly,0.0,0,0,0,0,17.3849561,78.4866928,5.0,0.0
2024-01-28T12:33:03.500Z,MISSION_0054,35,0,takeoff,SITE_HYD_005,17.384956,78.4866886,5.0,237.53,1.774,0.066,5.06,3.8685,-3.8712,237.5282,-0.48166,0.01336,0.04581,0.87506,-0.1305,0.0216,-9.8262,0.3169,-0.8815,0.0248,0.1986,3,13,0.77,0.88,0.38,24.661,20.79,94.3,44.1,20739.0,8758,8868,8754,8853,61.8,59.1,59.7,59.6,2.563,2.916,2.914,2.67,6.2,64.3,35.6,46.8,1020.19,-26.4,-0.57,1.77,31.0,41.9,37.1,0,no_anomaly,0.0,0,0,0,0,17.384956,78.4866886,5.0,0.0
2024-01-28T12:33:03.600Z,MISSION_0054,36,0,takeoff,SITE_HYD_005,17.3849592,78.4866899,5.0,234.53,1.859,0.133,4.67,-1.0916,-2.3621,234.5261,-0.45778,0.02268,0.00098,0.88877,0.103,0.092,-9.8153,0.069,0.8091,-0.073,0.2036,3,14,0.62,0.75,0.36,24.677,17.6,94.2,43.2,20725.0,8896,8729,9105,8845,60.6,61.2,59.5,60.3,3.026,2.791,2.753,2.802,5.79,56.3,35.6,46.8,1019.75,-31.08,-0.35,1.56,30.3,42.6,41.9,0,no_anomaly,0.0,0,0,0,0,17.3849592,78.4866899,5.0,0.0
2024-01-28T12:33:03.700Z,MISSION_0054,37,0,takeoff,SITE_HYD_005,17.3849628,78.4866889,5.0,232.43,1.53,0.08,4.32,-0.7496,-0.6214,232.4342,-0.44173,0.00775,-0.00347,0.89711,-0.2097,0.0204,-9.8069,0.2576,-0.1336,-0.1221,0.2906,3,12,0.79,0.71,0.36,24.729,24.09,94.1,44.2,20711.0,8871,9103,8901,8737,62.2,58.3,61.3,58.0,2.907,2.81,2.969,2.704,6.39,44.7,35.4,46.6,1019.94,-28.49,-0.08,1.66,30.8,44.2,38.7,0,no_anomaly,0.0,0,0,0,0,17.3849628,78.4866889,5.0,0.0
2024-01-28T12:33:03.800Z,MISSION_0054,38,0,takeoff,SITE_HYD_005,17.3849637,78.4866911,5.0,231.12,1.375,0.101,4.16,-5.049,1.0793,231.1207,-0.4314,0.01052,-0.04379,0.90104,0.2161,-0.071,-9.7687,-0.3889,-0.0915,-0.1211,0.1571,3,17,0.67,0.89,0.28,24.553,23.86,94.1,43.8,20697.0,8894,8903,8848,8810,58.8,58.4,64.5,58.1,2.742,2.703,2.866,2.834,5.44,55.8,35.6,46.1,1019.89,-33.07,0.11,1.4,27.4,42.8,40.1,0,no_anomaly,0.0,0,0,0,0,17.3849637,78.4866911,5.0,0.0
2024-01-28T12:33:03.900Z,MISSION_0054,39,0,takeoff,SITE_HYD_005,17.3849575,78.4866926,5.0,229.99,1.794,0.163,4.8,2.1469,-0.313,229.9943,-0.42254,-0.00544,0.01813,0.90614,0.1651,0.0325,-9.7929,-0.0099,-0.3098,0.1523,0.2417,3,13,0.74,0.93,0.3,24.612,19.01,94.0,42.7,20683.0,8723,8872,9081,8860,59.7,62.9,56.2,61.2,3.028,3.05,2.866,2.775,5.19,56.6,35.7,45.4,1019.76,-26.75,0.95,1.26,33.5,47.2,36.9,0,no_anomaly,0.0,0,0,0,0,17.3849575,78.4866926,5.0,0.0
2024-01-28T12:33:04.000Z,MISSION_0054,40,0,takeoff,SITE_HYD_005,17.3849552,78.4866939,5.0,232.58,2.201,0.119,5.04,-0.781,-1.451,232.5807,-0.4428,0.01437,-0.0005,0.89651,0.0865,0.0494,-9.8231,0.0166,-0.2599,0.1231,0.2043,3,15,0.62,0.85,0.21,24.637,15.38,94.0,43.7,20669.0,9062,8591,8737,8783,61.2,58.5,56.3,62.6,2.716,2.813,2.635,2.992,4.55,61.1,35.4,46.6,1019.91,-22.34,1.09,1.15,27.9,48.6,40.1,0,no_anomaly,0.0,0,0,0,0,17.3849552,78.4866939,5.0,0.0
2024-01-28T12:33:04.100Z,MISSION_0054,41,0,takeoff,SITE_HYD_005,17.3849557,78.486691,5.0,233.69,2.27,0.098,5.03,1.8695,-1.0253,233.6883,-0.45162,0.00062,0.0186,0.89202,-0.0824,0.0478,-9.7071,-0.4982,-0.7801,0.0266,0.157,3,12,0.88,0.83,0.26,24.671,21.72,93.9,43.3,20655.0,9010,8826,8538,8782,60.7,63.0,62.5,63.0,2.777,2.792,2.731,2.765,5.59,57.6,35.2,46.9,1020.02,-28.3,0.61,1.7,27.2,40.1,39.2,0,no_anomaly,0.0,0,0,0,0,17.3849557,78.486691,5.0,0.0
2024-01-28T12:33:04.200Z,MISSION_0054,42,0,takeoff,SITE_HYD_005,17.3849599,78.4866893,5.0,232.31,1.855,0.154,4.62,-0.7227,-1.4396,232.3118,-0.4407,0.01406,-0.00012,0.89754,-0.2126,-0.0228,-9.8639,-0.5829,0.2611,-0.053,0.2133,3,20,0.75,1.09,0.36,24.685,17.37,93.8,43.4,20641.0,9074,8857,9022,8910,59.1,57.9,58.1,60.2,2.87,2.774,2.739,2.831,5.92,63.7,35.5,47.1,1019.77,-28.79,0.04,1.72,31.2,42.8,36.5,0,no_anomaly,0.0,0,0,0,0,17.3849599,78.4866893,5.0,0.0
2024-01-28T12:33:04.300Z,MISSION_0054,43,0,takeoff,SITE_HYD_005,17.3849608,78.4866924,5.0,232.13,1.647,0.166,4.44,-0.3078,-2.7754,232.1254,-0.43917,0.02293,0.00823,0.89808,-0.0966,-0.0176,-9.776,-0.2162,-0.3012,-0.6182,0.2904,3,16,0.72,0.72,0.29,24.581,16.5,93.8,44.1,20627.0,8685,8654,8829,9127,56.9,59.6,63.8,59.4,2.874,2.845,2.811,2.745,5.55,49.7,35.8,45.8,1019.91,-30.28,0.28,1.3,31.5,49.5,38.9,0,no_anomaly,0.0,0,0,0,0,17.3849608,78.4866924,5.0,0.0
2024-01-28T12:33:04.400Z,MISSION_0054,44,0,takeoff,SITE_HYD_005,17.3849615,78.4866915,5.0,233.31,1.47,-0.002,4.38,0.2916,-3.0708,233.3143,-0.44855,0.02281,0.01429,0.89335,-0.0635,0.0436,-9.9025,0.1767,0.1074,0.3073,0.2144,3,15,0.59,1.02,0.24,24.639,20.13,93.7,44.1,20613.0,8871,8750,8888,8846,63.8,61.0,61.7,63.8,2.856,2.574,2.997,2.922,5.53,46.6,35.2,45.6,1020.4,-28.56,1.03,1.28,30.5,46.2,36.8,0,no_anomaly,0.0,0,0,0,0,17.3849615,78.4866915,5.0,0.0
2024-01-28T12:33:04.500Z,MISSION_0054,45,0,takeoff,SITE_HYD_005,17.3849694,78.4866922,5.0,234.14,1.225,0.082,3.52,1.8823,-0.675,234.1444,-0.45513,-0.00223,0.01731,0.89025,-0.2261,0.093,-9.8748,0.1986,0.4939,-0.0006,0.2302,3,10,0.66,0.87,0.2,24.679,18.48,93.6,44.8,20599.0,8821,9054,8852,8949,62.2,61.6,61.4,63.0,2.734,2.871,2.805,3.062,5.74,58.8,35.4,46.9,1019.56,-30.75,-0.73,1.71,34.3,50.0,39.0,0,no_anomaly,0.0,0,0,0,0,17.3849694,78.4866922,5.0,0.0
2024-01-28T12:33:04.600Z,MISSION_0054,46,0,takeoff,SITE_HYD_005,17.384964,78.4866945,5.0,232.73,0.973,0.021,4.05,1.4543,2.2566,232.7279,-0.44373,-0.02328,0.00262,0.89586,-0.109,-0.0214,-9.7901,1.0458,0.3148,0.1075,0.214,3,10,0.72,0.89,0.2,24.673,21.16,93.6,43.7,20586.0,8803,9123,8992,8896,59.5,62.4,59.7,61.4,2.679,2.785,2.752,2.771,5.88,56.1,35.5,45.5,1019.7,-30.89,-0.38,1.51,29.1,42.5,37.9,0,no_anomaly,0.0,0,0,0,0,17.384964,78.4866945,5.0,0.0
2024-01-28T12:33:04.700Z,MISSION_0054,47,0,takeoff,SITE_HYD_005,17.3849723,78.4866936,5.0,234.1,0.719,0.074,3.17,2.1396,-3.0486,234.0984,-0.45496,0.0152,0.02872,0.88992,-0.0936,0.0845,-9.7309,-1.2699,0.0049,-0.7582,0.1937,3,18,0.71,0.82,0.28,24.62,21.3,93.5,43.2,20572.0,8965,8919,8931,8876,61.4,62.6,60.3,58.8,3.279,2.779,2.877,2.624,5.93,46.0,35.7,46.1,1019.84,-32.39,-0.09,1.81,31.1,44.3,37.6,0,no_anomaly,0.0,0,0,0,0,17.3849723,78.4866936,5.0,0.0
2024-01-28T12:33:04.800Z,MISSION_0054,48,0,takeoff,SITE_HYD_005,17.3849684,78.4866901,5.0,233.6,0.987,0.156,3.69,1.4561,-2.6487,233.5964,-0.45096,0.0149,0.02176,0.89216,0.2808,-0.0437,-9.8156,-0.1644,0.7294,-0.2269,0.2431,3,11,0.79,0.68,0.25,24.589,16.97,93.4,43.4,20558.0,8707,8752,8751,9167,60.4,60.7,65.3,61.2,3.02,2.779,2.711,2.954,5.6,50.7,35.7,47.2,1019.78,-29.18,0.46,1.36,26.8,45.0,35.0,0,no_anomaly,0.0,0,0,0,0,17.3849684,78.4866901,5.0,0.0
2024-01-28T12:33:04.900Z,MISSION_0054,49,0,takeoff,SITE_HYD_005,17.3849678,78.4866867,5.0,234.0,0.605,0.185,3.88,0.4873,-0.4971,233.995,-0.45396,0.00193,0.00576,0.891,0.0162,-0.0207,-9.7403,-0.42,0.51,-0.2603,0.1464,3,15,0.52,0.85,0.29,24.581,21.33,93.4,44.5,20544.0,9018,8792,9091,9030,63.9,55.9,62.4,60.6,2.546,2.865,2.79,2.906,5.7,63.0,35.2,47.0,1019.96,-27.6,0.45,1.57,29.7,52.5,40.8,0,no_anomaly,0.0,0,0,0,0,17.3849678,78.4866867,5.0,0.0
2024-01-28T12:33:05.000Z,MISSION_0054,50,0,takeoff,SITE_HYD_005,17.3849656,78.4866836,5.0,232.81,0.953,0.024,4.24,-3.9825,-1.0403,232.8091,-0.44414,0.02358,-0.02709,0.89524,-0.1226,0.0071,-9.878,-0.2765,0.0553,0.0522,0.2667,3,10,0.73,1.21,0.3,24.654,16.72,93.3,44.0,20530.0,8828,9056,8911,8613,62.5,56.3,60.7,59.9,2.783,2.734,2.546,2.702,5.14,52.9,35.5,45.8,1019.85,-33.18,0.01,1.22,26.4,40.5,35.9,0,no_anomaly,0.0,0,0,0,0,17.3849656,78.4866836,5.0,0.0
2024-01-28T12:33:05.100Z,MISSION_0054,51,0,takeoff,SITE_HYD_005,17.3849651,78.4866882,5.0,231.81,0.874,0.099,4.1,-1.6102,-0.5408,231.8067,-0.43675,0.01038,-0.01058,0.89946,-0.2076,0.0145,-9.8346,0.0382,0.5302,-0.1253,0.2117,3,13,0.67,0.94,0.34,24.664,14.32,93.3,43.9,20516.0,8994,9118,8814,8923,57.6,59.7,58.5,61.1,2.662,2.942,2.92,2.383,6.67,54.1,35.7,46.5,1019.85,-30.42,0.71,1.43,29.7,44.8,36.0,0,no_anomaly,0.0,0,0,0,0,17.3849651,78.4866882,5.0,0.0
2024-01-28T12:33:05.200Z,MISSION_0054,52,0,takeoff,SITE_HYD_005,17.3849635,78.4866895,5.0,230.61,0.686,0.154,4.23,-4.8416,-1.5425,230.6127,-0.42652,0.03021,-0.03243,0.90339,-0.2775,-0.0224,-9.8873,-0.0843,0.6567,0.4092,0.1629,3,10,0.62,0.99,0.2,24.672,18.36,93.2,43.5,20502.0,8876,8928,8934,8829,58.0,60.2,58.8,61.1,2.773,2.866,2.719,2.67,5.84,51.9,35.6,46.1,1020.09,-31.97,1.1,1.79,28.0,40.0,37.3,0,no_anomaly,0.0,0,0,0,0,17.3849635,78.4866895,5.0,0.0
2024-01-28T12:33:05.300Z,MISSION_0054,53,0,takeoff,SITE_HYD_005,17.384965,78.4866864,5.0,235.36,0.721,0.074,4.18,-2.8026,-0.4606,235.3572,-0.46428,0.01492,-0.01979,0.88534,-0.1663,-0.0054,-9.7672,0.2161,-0.5062,-0.1266,0.2544,3,16,0.5,0.81,0.23,24.509,16.39,93.1,43.3,20488.0,8495,8801,8711,8656,59.2,64.5,57.5,64.0,2.91,2.797,2.666,2.834,5.86,50.0,36.0,45.6,1020.32,-28.16,0.17,1.43,35.3,42.9,40.5,0,no_anomaly,0.0,0,0,0,0,17.384965,78.4866864,5.0,0.0
2024-01-28T12:33:05.400Z,MISSION_0054,54,0,takeoff,SITE_HYD_005,17.3849631,78.4866861,5.0,235.12,0.395,0.083,4.39,2.163,-0.7048,235.1192,-0.46268,-0.00328,0.01958,0.8863,-0.0429,0.0308,-9.7758,-1.0273,-0.2925,-0.2374,0.2675,3,14,0.97,0.91,0.24,24.602,21.19,93.1,43.2,20474.0,9204,8593,8848,8836,59.0,58.0,59.4,60.7,2.873,2.764,2.862,2.832,5.23,57.0,35.3,46.3,1019.99,-31.79,0.79,1.58,29.3,43.6,37.0,0,no_anomaly,0.0,0,0,0,0,17.3849631,78.4866861,5.0,0.0
2024-01-28T12:33:05.500Z,MISSION_0054,55,0,takeoff,SITE_HYD_005,17.384964,78.4866881,5.0,233.77,0.462,0.081,4.22,2.3046,-0.7506,233.7668,-0.45219,-0.00325,0.0209,0.89167,-0.1662,0.0026,-9.7889,0.1311,-0.3146,-0.1568,0.2931,3,14,0.63,0.95,0.29,24.609,20.81,93.0,42.7,20460.0,8768,8851,8641,9204,60.5,59.2,60.9,59.7,2.755,2.832,2.903,2.593,5.24,52.0,35.5,46.5,1019.61,-35.56,-1.11,1.57,33.7,42.8,36.9,0,no_anomaly,0.0,0,0,0,0,17.384964,78.4866881,5.0,0.0
2024-01-28T12:33:05.600Z,MISSION_0054,56,0,takeoff,SITE_HYD_005,17.3849671,78.4866841,5.0,236.06,0.397,0.09,4.07,1.6468,-3.1424,236.0614,-0.47007,0.01745,0.02556,0.88209,0.1756,-0.041,-9.7985,0.4846,0.1377,-0.1805,0.088,3,13,0.79,0.77,0.25,24.655,17.64,92.9,43.6,20446.0,8848,8982,8697,8830,64.1,60.0,58.0,62.3,2.77,3.076,2.709,2.499,4.78,64.8,35.6,46.1,1019.97,-26.95,-0.08,1.51,31.7,44.6,40.1,0,no_anomaly,0.0,0,0,0,0,17.3849671,78.4866841,5.0,0.0
2024-01-28T12:33:05.700Z,MISSION_0054,57,0,takeoff,SITE_HYD_005,17.3849628,78.4866912,5.0,237.71,0.646,0.162,4.25,0.23,-1.3699,237.709,-0.48257,0.0095,0.00753,0.87577,0.0379,0.0454,-9.8546,0.483,-0.0037,0.7347,0.1519,3,10,0.62,0.92,0.28,24.582,19.31,92.9,43.0,20432.0,8794,8799,8996,8927,62.8,58.9,64.8,59.7,2.845,2.661,2.776,2.763,5.56,49.3,35.2,45.7,1019.88,-26.03,1.06,2.16,33.5,48.0,40.0,0,no_anomaly,0.0,0,0,0,0,17.3849628,78.4866912,5.0,0.0
2024-01-28T12:33:05.800Z,MISSION_0054,58,0,takeoff,SITE_HYD_005,17.3849594,78.486692,5.0,237.87,0.854,0.092,4.61,-1.2797,-2.0054,237.8745,-0.48358,0.02072,-0.0013,0.87506,0.1159,-0.0548,-9.7943,-0.2752,0.0892,-0.0142,0.295,3,19,0.73,0.94,0.24,24.574,20.2,92.8,43.6,20419.0,8865,8762,8774,8649,60.3,58.3,61.1,62.4,2.745,2.934,2.74,2.763,5.58,51.3,35.4,46.9,1019.74,-29.53,0.5,1.82,29.9,41.9,35.8,0,no_anomaly,0.0,0,0,0,0,17.3849594,78.486692,5.0,0.0
2024-01-28T12:33:05.900Z,MISSION_0054,59,0,takeoff,SITE_HYD_005,17.3849608,78.4866875,5.0,236.36,0.699,0.078,4.58,-0.5452,-0.024,236.3625,-0.47226,0.00243,-0.0041,0.88145,-0.2624,0.0113,-9.771,-0.0738,-0.6666,-0.1674,0.1542,3,11,0.65,0.87,0.21,24.623,27.83,92.7,42.5,20405.0,8935,8857,8836,8778,61.2,60.2,61.5,57.6,3.011,3.02,2.697,2.748,4.92,52.4,35.7,46.1,1019.78,-29.02,2.15,1.25,25.6,46.8,35.1,0,no_anomaly,0.0,0,0,0,0,17.3849608,78.4866875,5.0,0.0
2024-01-28T12:33:06.000Z,MISSION_0054,60,0,takeoff,SITE_HYD_005,17.3849577,78.4866831,5.0,237.55,0.552,0.107,5.07,-6.9006,-1.9295,237.5545,-0.47958,0.0437,-0.04465,0.87527,0.0523,-0.0093,-9.8052,0.074,0.364,-0.0809,0.2252,3,19,0.74,0.99,0.35,24.639,17.08,92.7,44.9,20391.0,8605,8932,8805,8943,62.8,63.2,62.1,61.6,2.933,2.777,2.74,2.281,5.53,46.7,35.3,46.4,1019.89,-28.77,0.42,1.0,30.4,42.8,40.4,0,no_anomaly,0.0,0,0,0,0,17.3849577,78.4866831,5.0,0.0
2024-01-28T12:33:06.100Z,MISSION_0054,61,0,takeoff,SITE_HYD_005,17.3849573,78.4866742,5.0,239.89,0.978,0.128,5.55,-1.3145,-1.4498,239.8911,-0.49898,0.01669,-0.00362,0.86645,-0.0708,0.0425,-9.8031,-0.8757,-0.5236,0.3932,0.1845,3,17,0.75,0.81,0.38,24.634,16.27,92.6,43.4,20377.0,9224,8917,9079,8847,62.3,58.8,61.1,62.0,3.035,2.74,3.084,3.002,5.3,58.5,35.5,46.3,1020.05,-32.53,0.81,1.37,30.3,42.2,40.2,0,no_anomaly,0.0,0,0,0,0,17.3849573,78.4866742,5.0,0.0
2024-01-28T12:33:06.200Z,MISSION_0054,62,0,takeoff,SITE_HYD_005,17.384961,78.4866726,5.0,240.55,0.783,0.114,5.31,-5.3189,-1.1181,240.5483,-0.50318,0.03181,-0.03516,0.86288,-0.0924,0.035,-9.8066,-0.0384,0.4456,0.1146,0.2392,3,14,0.65,1.14,0.33,24.596,17.93,92.6,44.2,20363.0,8856,8847,8872,9045,58.2,60.6,60.6,59.0,2.829,2.775,2.879,2.747,5.53,62.2,35.8,46.6,1019.76,-30.69,0.39,1.52,31.3,47.5,39.0,0,no_anomaly,0.0,0,0,0,0,17.384961,78.4866726,5.0,0.0
2024-01-28T12:33:06.300Z,MISSION_0054,63,0,takeoff,SITE_HYD_005,17.3849616,78.486667,5.0,241.04,0.519,0.169,5.63,-0.9724,-0.7536,241.0385,-0.50775,0.00997,-0.00397,0.86144,0.07,0.0115,-9.8703,0.6303,0.0499,-0.0497,0.1707,3,17,0.74,0.9,0.27,24.602,18.63,92.5,43.3,20349.0,8947,8949,8648,8838,61.7,61.5,58.9,56.7,2.926,2.792,3.012,2.588,5.39,56.4,35.8,46.8,1020.08,-26.88,1.58,1.12,28.7,43.1,38.8,0,no_anomaly,0.0,0,0,0,0,17.3849616,78.486667,5.0,0.0
2024-01-28T12:33:06.400Z,MISSION_0054,64,0,takeoff,SITE_HYD_005,17.3849618,78.4866692,5.0,239.05,0.568,0.171,5.46,1.5411,-2.0918,239.0495,-0.49289,0.00926,0.02069,0.8698,-0.0883,-0.0316,-9.8215,0.7051,-0.1049,0.2747,0.2243,3,15,0.66,0.82,0.29,24.649,20.89,92.4,44.0,20335.0,9009,8945,8915,8920,60.6,60.9,62.5,59.6,2.914,2.849,2.659,2.703,5.68,53.6,35.2,46.5,1020.36,-32.64,1.35,1.41,29.5,50.7,37.5,0,no_anomaly,0.0,0,0,0,0,17.3849618,78.4866692,5.0,0.0
2024-01-28T12:33:06.500Z,MISSION_0054,65,0,takeoff,SITE_HYD_005,17.3849648,78.4866721,5.0,241.04,0.455,0.165,5.0,-0.8319,-3.5721,241.0364,-0.50736,0.03053,0.00958,0.86114,-0.0053,-0.03,-9.7555,-0.6181,0.5781,0.412,0.1968,3,19,0.75,0.86,0.43,24.602,18.78,92.4,43.8,20321.0,8460,8623,8682,8848,58.9,61.8,55.7,60.5,3.115,2.791,3.061,2.792,5.48,53.1,35.4,46.9,1019.97,-25.84,-0.24,1.81,29.8,47.1,37.5,0,no_anomaly,0.0,0,0,0,0,17.3849648,78.4866721,5.0,0.0
2024-01-28T12:33:06.600Z,MISSION_0054,66,0,takeoff,SITE_HYD_005,17.3849638,78.4866736,5.0,240.23,0.216,0.042,4.98,3.1918,0.2409,240.2348,-0.50153,-0.01579,0.02304,0.86469,-0.0228,0.0781,-9.8493,-0.1103,0.7744,-0.0111,0.2189,3,13,0.56,0.82,0.38,24.712,19.27,92.3,43.8,20307.0,8864,8882,8470,8571,61.5,61.7,65.4,61.8,2.86,2.926,2.993,2.64,5.57,62.2,35.2,46.3,1020.11,-32.71,0.63,1.8,31.5,49.8,39.8,0,no_anomaly,0.0,0,0,0,0,17.3849638,78.4866736,5.0,0.0
2024-01-28T12:33:06.700Z,MISSION_0054,67,0,takeoff,SITE_HYD_005,17.384962,78.486671,5.0,238.85,0.0,0.073,5.32,-1.9997,-0.6169,238.8524,-0.49114,0.01326,-0.01255,0.87089,0.0507,-0.0111,-9.7158,0.6385,0.6865,-0.608,0.1557,3,13,0.62,0.61,0.3,24.629,18.84,92.2,44.8,20293.0,8827,8774,8909,8783,60.7,60.0,63.4,58.8,2.902,2.743,2.722,2.954,5.77,55.5,35.3,46.2,1020.1,-25.61,-0.33,1.63,31.8,46.4,41.1,0,no_anomaly,0.0,0,0,0,0,17.384962,78.486671,5.0,0.0
2024-01-28T12:33:06.800Z,MISSION_0054,68,0,takeoff,SITE_HYD_005,17.3849612,78.486668,5.0,240.85,0.0,0.121,5.6,-0.7988,-3.3937,240.8479,-0.50598,0.02906,0.00899,0.86201,-0.1683,-0.0044,-9.7515,0.5523,0.9029,-0.3763,0.2146,3,15,0.65,0.84,0.2,24.509,17.4,92.2,44.2,20279.0,8769,8693,9024,9261,58.0,56.2,58.0,61.2,2.678,2.961,2.847,2.754,5.31,68.5,35.7,46.2,1019.87,-29.24,-0.01,2.04,33.9,49.2,38.0,0,no_anomaly,0.0,0,0,0,0,17.3849612,78.486668,5.0,0.0
2024-01-28T12:33:06.900Z,MISSION_0054,69,0,takeoff,SITE_HYD_005,17.3849606,78.4866701,5.0,238.33,0.269,0.121,5.5,1.8116,-3.1976,238.3267,-0.48744,0.01666,0.02739,0.87257,-0.0296,-0.0403,-9.7176,0.847,0.2026,0.0022,0.1224,3,17,0.76,0.6,0.2,24.666,22.81,92.1,44.2,20265.0,8460,8996,8438,8655,63.3,58.2,63.7,58.1,2.745,2.849,2.881,2.835,5.34,55.7,35.7,46.1,1020.04,-29.88,1.59,1.82,32.6,47.2,40.5,0,no_anomaly,0.0,0,0,0,0,17.3849606,78.4866701,5.0,0.0
2024-01-28T12:33:07.000Z,MISSION_0054,70,0,takeoff,SITE_HYD_005,17.3849607,78.4866767,5.0,238.23,0.0,0.043,5.08,8.1529,-1.0617,238.2317,-0.4859,-0.02651,0.0666,0.87107,-0.1101,-0.0266,-9.8515,-0.5349,0.4828,-0.0096,0.2644,3,17,0.74,1.02,0.46,24.646,14.05,92.1,43.3,20251.0,9009,8871,8696,8539,61.7,61.3,64.8,60.0,2.945,3.044,2.629,2.787,4.94,60.1,35.8,46.1,1020.17,-27.72,-0.68,1.06,28.4,44.6,37.4,0,no_anomaly,0.0,0,0,0,0,17.3849607,78.4866767,5.0,0.0
2024-01-28T12:33:07.100Z,MISSION_0054,71,0,takeoff,SITE_HYD_005,17.3849598,78.4866733,5.0,238.6,0.044,0.099,5.38,1.1036,-2.4952,238.6037,-0.48945,0.01427,0.01905,0.8717,-0.0824,0.0587,-9.8208,0.2033,0.4541,0.0136,0.1574,3,16,0.67,0.96,0.25,24.646,21.4,92.0,44.0,20238.0,8913,9116,8703,9174,59.2,61.4,62.4,61.3,3.131,2.931,2.947,2.621,5.22,56.0,35.4,45.6,1019.92,-28.04,1.91,1.18,28.6,45.6,36.3,0,no_anomaly,0.0,0,0,0,0,17.3849598,78.4866733,5.0,0.0
2024-01-28T12:33:07.200Z,MISSION_0054,72,0,takeoff,SITE_HYD_005,17.3849592,78.4866712,5.0,238.68,0.0,0.041,5.56,-4.2622,-0.1886,238.6843,-0.48963,0.01966,-0.03161,0.87114,-0.0667,-0.0156,-9.7692,-0.3914,-0.3911,-0.0582,0.1041,3,18,0.73,0.97,0.32,24.54,15.94,91.9,42.9,20224.0,8847,8711,8639,9117,60.5,61.2,60.5,59.7,2.534,2.84,3.091,3.053,4.47,55.3,35.6,46.3,1019.66,-31.15,-0.89,1.62,31.9,48.1,37.3,0,no_anomaly,0.0,0,0,0,0,17.3849592,78.4866712,5.0,0.0
2024-01-28T12:33:07.300Z,MISSION_0054,73,0,takeoff,SITE_HYD_005,17.3849599,78.4866703,5.0,240.88,0.0,0.132,5.55,-0.7767,-3.3191,240.875,-0.50621,0.0284,0.00883,0.8619,0.1388,0.0303,-9.7381,0.6856,0.1241,0.2476,0.2259,3,12,0.58,0.95,0.29,24.62,20.03,91.9,43.9,20210.0,8967,8907,9135,8893,59.8,62.2,61.7,64.6,2.791,2.868,2.914,2.644,5.04,56.4,35.5,46.5,1020.34,-27.69,0.83,1.28,27.3,46.4,37.3,0,no_anomaly,0.0,0,0,0,0,17.3849599,78.4866703,5.0,0.0
2024-01-28T12:33:07.400Z,MISSION_0054,74,0,takeoff,SITE_HYD_005,17.3849609,78.4866703,5.0,239.08,0.0,0.036,5.47,-3.0937,-2.5418,239.0768,-0.49219,0.0326,-0.01255,0.86979,0.0611,-0.0235,-9.9652,0.4251,0.234,0.2831,0.2734,3,13,0.65,0.93,0.22,24.663,23.91,91.8,43.3,20196.0,8672,8793,9023,8882,57.8,60.2,58.2,60.5,2.876,2.997,2.66,2.853,5.34,64.8,35.3,46.7,1019.84,-26.32,-0.13,1.4,32.1,45.0,36.6,0,no_anomaly,0.0,0,0,0,0,17.3849609,78.4866703,5.0,0.0
2024-01-28T12:33:07.500Z,MISSION_0054,75,0,takeoff,SITE_HYD_005,17.3849627,78.4866737,5.0,238.92,0.115,0.138,5.07,-1.7546,-1.0785,238.9192,-0.4916,0.01572,-0.0087,0.87063,0.0695,0.0075,-9.7616,-0.5343,0.3399,-0.0945,0.2159,3,10,0.83,1.03,0.29,24.558,20.37,91.7,43.6,20182.0,8712,9126,8826,8497,65.6,59.4,60.9,62.7,3.235,2.623,2.826,3.027,6.2,57.7,35.4,46.2,1019.78,-26.06,-0.9,1.3,33.0,43.6,40.6,0,no_anomaly,0.0,0,0,0,0,17.3849627,78.4866737,5.0,0.0
2024-01-28T12:33:07.600Z,MISSION_0054,76,0,takeoff,SITE_HYD_005,17.3849654,78.486677,5.0,237.81,0.021,0.154,4.63,-1.0991,-0.2088,237.8115,-0.48333,0.00623,-0.00752,0.87538,0.3117,-0.0628,-9.8151,0.1454,-0.3135,-0.2611,0.2461,3,20,0.64,0.97,0.3,24.614,14.07,91.7,43.0,20168.0,9136,8898,8972,8838,64.7,56.2,58.4,58.3,2.598,2.745,2.797,2.702,3.76,58.9,35.5,46.9,1019.88,-25.8,-1.05,1.88,28.3,44.7,37.9,0,no_anomaly,0.0,0,0,0,0,17.3849654,78.486677,5.0,0.0
2024-01-28T12:33:07.700Z,MISSION_0054,77,0,takeoff,SITE_HYD_005,17.3849646,78.4866809,5.0,238.23,0.032,0.125,4.48,-2.715,-1.497,238.2335,-0.48614,0.02294,-0.01434,0.87346,0.1505,-0.043,-9.8068,0.1766,-0.4624,0.3243,0.1637,3,17,0.9,1.02,0.41,24.655,24.48,91.6,44.3,20154.0,8895,8950,8808,8795,63.5,59.4,60.3,59.8,2.855,2.845,2.701,2.702,5.76,64.6,35.4,46.7,1020.1,-27.06,-1.24,1.44,27.9,45.4,38.3,0,no_anomaly,0.0,0,0,0,0,17.3849646,78.4866809,5.0,0.0
2024-01-28T12:33:07.800Z,MISSION_0054,78,0,takeoff,SITE_HYD_005,17.3849621,78.4866775,5.0,238.46,0.0,0.088,4.91,2.149,-3.7551,238.4644,-0.48854,0.01943,0.03235,0.87173,0.0584,-0.0375,-9.7677,0.3824,0.3627,0.0736,0.2678,3,11,0.74,0.91,0.47,24.571,18.13,91.5,43.3,20140.0,8849,8869,9134,8755,60.4,63.2,58.0,64.1,2.994,2.802,2.775,2.75,6.36,57.3,35.3,46.4,1019.93,-29.92,-0.23,1.77,31.1,49.3,39.5,0,no_anomaly,0.0,0,0,0,0,17.3849621,78.4866775,5.0,0.0
2024-01-28T12:33:07.900Z,MISSION_0054,79,0,takeoff,SITE_HYD_005,17.3849582,78.4866819,5.0,236.42,0.0,0.064,5.07,-3.4259,-1.7357,236.424,-0.47207,0.02747,-0.01918,0.88092,0.0114,-0.0354,-9.7171,0.9421,-0.2084,0.2985,0.1432,3,18,0.59,0.79,0.33,24.594,13.05,91.5,43.7,20126.0,8751,8719,8803,8977,61.0,57.5,61.5,59.3,2.639,2.913,2.743,2.888,5.13,55.3,35.9,46.9,1019.92,-27.2,-0.51,1.64,29.7,43.3,37.3,0,no_anomaly,0.0,0,0,0,0,17.3849582,78.4866819,5.0,0.0
2024-01-28T12:33:08.000Z,MISSION_0054,80,0,takeoff,SITE_HYD_005,17.3849555,78.4866834,5.0,236.72,0.0,0.064,5.29,-4.5201,-1.8798,236.7249,-0.47405,0.03315,-0.02691,0.87946,0.0125,-0.0226,-9.7328,-0.2374,-0.0932,-0.0258,0.2598,3,10,0.74,1.2,0.25,24.593,15.46,91.4,44.1,20112.0,8957,8791,8855,8880,60.1,56.1,60.1,62.5,2.698,2.468,2.727,2.841,5.79,61.9,35.4,45.3,1020.1,-31.65,-0.43,1.66,30.5,43.4,41.0,0,no_anomaly,0.0,0,0,0,0,17.3849555,78.4866834,5.0,0.0
2024-01-28T12:33:08.100Z,MISSION_0054,81,0,takeoff,SITE_HYD_005,17.3849616,78.4866859,5.0,238.93,0.0,-0.013,4.55,-2.2224,-4.6959,238.9264,-0.49067,0.04519,0.00328,0.87017,-0.0305,0.0577,-9.7342,-0.1,-0.1788,0.1613,0.22,3,11,0.66,1.02,0.29,24.61,18.51,91.4,43.1,20098.0,8962,8913,8973,8867,61.8,61.2,60.8,57.3,2.881,2.927,2.93,2.698,5.57,55.9,35.2,45.5,1020.01,-31.75,-0.58,1.38,31.6,47.7,37.6,0,no_anomaly,0.0,0,0,0,0,17.3849616,78.4866859,5.0,0.0
2024-01-28T12:33:08.200Z,MISSION_0054,82,0,takeoff,SITE_HYD_005,17.3849609,78.4866835,5.0,238.4,0.081,0.055,4.72,4.6665,-2.3245,238.4044,-0.48811,-0.00217,0.04542,0.8716,0.0037,-0.0588,-9.8237,0.5433,0.2667,0.0799,0.1239,3,19,0.63,1.15,0.29,24.622,17.66,91.3,43.9,20084.0,9210,8779,9195,8816,59.0,66.1,59.3,62.5,2.912,2.863,2.651,2.852,5.7,56.3,35.4,46.1,1020.03,-34.22,0.15,1.58,28.1,45.0,39.2,0,no_anomaly,0.0,0,0,0,0,17.3849609,78.4866835,5.0,0.0
2024-01-28T12:33:08.300Z,MISSION_0054,83,0,takeoff,SITE_HYD_005,17.3849595,78.4866869,5.0,239.08,0.206,0.102,4.74,-1.9976,-1.6483,239.081,-0.49269,0.02111,-0.00807,0.86991,0.3578,0.0015,-9.7928,0.1412,0.5905,-0.2562,0.2193,3,15,0.6,0.89,0.34,24.622,17.22,91.2,43.7,20071.0,8934,8795,8533,8955,61.2,61.7,60.5,61.0,2.738,2.828,3.031,2.916,5.59,55.9,35.2,45.7,1019.63,-32.3,0.38,1.28,31.7,50.7,40.3,0,no_anomaly,0.0,0,0,0,0,17.3849595,78.4866869,5.0,0.0
2024-01-28T12:33:08.400Z,MISSION_0054,84,0,takeoff,SITE_HYD_005,17.3849651,78.4866849,5.0,240.2,0.208,0.111,4.23,4.7559,-3.5201,240.1971,-0.50192,0.00575,0.05127,0.86337,-0.289,0.0221,-9.7882,0.8174,0.531,-0.4099,0.2462,3,14,0.72,0.96,0.41,24.523,16.45,91.2,44.3,20057.0,8889,8962,8674,9307,58.8,60.4,60.8,57.5,3.026,2.674,2.967,2.776,4.88,64.9,35.3,45.5,1019.98,-31.64,-0.82,1.31,32.0,41.8,38.3,0,no_anomaly,0.0,0,0,0,0,17.3849651,78.4866849,5.0,0.0
2024-01-28T12:33:08.500Z,MISSION_0054,85,0,takeoff,SITE_HYD_005,17.3849632,78.4866911,5.0,238.2,0.588,0.155,4.22,-0.0659,-1.6331,238.1973,-0.48626,0.01273,0.00643,0.8737,0.0677,-0.0151,-9.8769,-1.3912,-0.2072,0.1911,0.2442,3,19,0.68,0.87,0.2,24.633,20.19,91.1,43.9,20043.0,8790,8983,8620,8583,58.9,58.8,57.1,63.7,2.653,2.668,2.69,2.749,5.01,49.5,35.3,45.4,1020.31,-25.69,0.38,1.58,33.3,46.8,38.1,0,no_anomaly,0.0,0,0,0,0,17.3849632,78.4866911,5.0,0.0
2024-01-28T12:33:08.600Z,MISSION_0054,86,0,takeoff,SITE_HYD_005,17.3849615,78.4866856,5.0,238.41,0.224,0.097,4.57,3.0407,-3.9556,238.4112,-0.48828,0.01718,0.03998,0.8716,0.0174,-0.0061,-9.8707,-0.0736,-0.5161,-0.0799,0.3098,3,14,0.8,0.88,0.21,24.549,15.64,91.0,43.9,20029.0,9033,8909,8881,8927,60.6,61.4,61.9,62.2,2.508,2.827,2.886,2.675,5.44,61.4,35.4,46.5,1019.86,-23.53,-0.73,1.67,30.8,43.0,36.9,0,no_anomaly,0.0,0,0,0,0,17.3849615,78.4866856,5.0,0.0
2024-01-28T12:33:08.700Z,MISSION_0054,87,0,transit,SITE_HYD_005,17.3849619,78.4866849,5.5,240.67,0.0,0.065,4.56,-0.1147,-2.5788,240.6745,-0.50494,0.01993,0.0105,0.86286,0.0596,0.0867,-9.8265,0.2586,0.1525,0.2761,0.1852,3,17,0.57,0.99,0.38,24.563,13.12,91.0,43.9,20015.0,8946,8589,8919,9129,58.5,64.3,60.5,58.8,3.167,2.648,2.818,2.803,5.03,56.3,35.2,45.4,1019.98,-28.74,-0.72,1.45,28.2,41.3,38.8,0,no_anomaly,0.0,0,0,0,0,17.3849619,78.4866849,5.5,0.0
2024-01-28T12:33:08.800Z,MISSION_0054,88,0,transit,SITE_HYD_005,17.3849675,78.4866864,6.0,241.45,0.0,0.109,3.92,4.1288,-2.0497,241.4514,-0.51107,-0.00304,0.04009,0.8586,0.1457,0.0099,-9.6881,0.3729,-1.1385,0.2965,0.2043,3,10,0.86,0.89,0.2,24.567,16.99,90.9,43.8,20001.0,8913,8932,8643,8917,64.2,58.2,57.3,62.5,2.715,2.648,2.712,2.896,5.85,58.9,35.6,46.8,1020.26,-33.89,-0.45,1.6,26.4,47.5,38.7,0,no_anomaly,0.0,0,0,0,0,17.3849675,78.4866864,6.0,0.0
2024-01-28T12:33:08.900Z,MISSION_0054,89,0,transit,SITE_HYD_005,17.3849702,78.4866852,6.5,240.76,0.0,-0.048,3.7,-0.5058,-1.7239,240.7647,-0.50565,0.01521,0.0038,0.8626,0.1122,0.0161,-9.8555,-0.6667,0.0698,0.226,0.1618,3,18,0.79,0.9,0.3,24.519,15.85,90.9,43.3,19987.0,9034,8879,8748,8829,59.8,60.7,60.1,55.5,2.555,2.678,2.73,2.58,6.26,60.5,35.4,45.6,1020.06,-30.6,-0.47,1.02,29.3,46.0,39.2,0,no_anomaly,0.0,0,0,0,0,17.3849702,78.4866852,6.5,0.0
2024-01-28T12:33:09.000Z,MISSION_0054,90,0,transit,SITE_HYD_005,17.3849745,78.4866888,7.0,240.28,0.0,0.137,3.1,-3.6444,-3.0785,240.2826,-0.50096,0.03918,-0.01401,0.86447,-0.0212,-0.0747,-9.787,0.0237,-0.2675,0.0647,0.1808,3,19,0.77,0.95,0.33,24.506,12.54,90.8,42.7,19973.0,8685,8908,8842,8607,59.4,64.1,58.1,64.6,2.985,3.016,2.81,3.02,5.86,60.4,35.7,46.9,1020.27,-37.09,1.35,2.08,29.0,47.6,39.8,0,no_anomaly,0.0,0,0,0,0,17.3849745,78.4866888,7.0,0.0
2024-01-28T12:33:09.100Z,MISSION_0054,91,0,transit,SITE_HYD_005,17.3849743,78.4866907,7.5,239.2,0.127,0.065,3.05,-6.4815,-1.2929,239.2033,-0.49259,0.03772,-0.04359,0.86835,-0.0358,0.0108,-9.822,-0.2414,-0.067,-0.2801,0.1418,3,11,0.63,0.89,0.2,24.568,20.19,90.7,44.2,19959.0,8945,8871,8654,8966,63.4,62.6,61.8,63.6,2.926,2.694,2.672,2.828,5.62,69.7,35.7,46.8,1019.99,-27.05,-1.31,1.87,27.6,47.3,38.9,0,no_anomaly,0.0,0,0,0,0,17.3849743,78.4866907,7.5,0.0
2024-01-28T12:33:09.200Z,MISSION_0054,92,0,transit,SITE_HYD_005,17.3849738,78.4866884,8.0,238.1,0.031,0.107,3.19,-3.639,-1.9142,238.1,-0.4848,0.03001,-0.01965,0.87389,-0.1,-0.0167,-9.7602,-0.3195,-0.869,-0.2253,0.3044,3,16,0.66,0.6,0.29,24.522,13.02,90.7,43.2,19945.0,9037,8939,8723,8912,58.2,62.6,65.5,59.4,2.92,2.66,2.542,2.92,5.56,58.7,35.6,46.9,1020.14,-25.76,-0.42,1.8,33.0,45.4,39.2,0,no_anomaly,0.0,0,0,0,0,17.3849738,78.4866884,8.0,0.0
2024-01-28T12:33:09.300Z,MISSION_0054,93,0,transit,SITE_HYD_005,17.3849736,78.4866846,8.5,238.84,0.0,0.086,3.4,1.6967,-2.1293,238.8358,-0.49128,0.00891,0.02202,0.87068,-0.2611,-0.0451,-9.8133,-0.2028,0.4497,0.2271,0.3142,3,16,0.68,0.96,0.34,24.526,13.6,90.6,43.1,19931.0,8980,8963,8581,8965,63.1,55.8,60.1,60.6,2.966,2.645,2.714,2.703,5.7,53.0,35.7,47.0,1019.94,-31.95,2.1,1.65,31.8,49.9,40.9,0,no_anomaly,0.0,0,0,0,0,17.3849736,78.4866846,8.5,0.0
2024-01-28T12:33:09.400Z,MISSION_0054,94,0,transit,SITE_HYD_005,17.384975,78.4866813,9.0,238.48,0.018,0.101,3.48,-1.7211,-2.7724,238.4778,-0.48794,0.02844,-0.00129,0.87241,-0.1207,0.0034,-9.8929,0.0363,0.2134,0.0797,0.2138,3,20,0.74,0.83,0.42,24.514,14.24,90.5,43.6,19917.0,8846,8796,8941,8789,60.6,59.5,56.7,66.1,2.656,2.597,3.138,2.866,6.29,57.3,35.5,45.7,1020.06,-31.63,1.55,1.62,28.7,40.8,36.4,0,no_anomaly,0.0,0,0,0,0,17.384975,78.4866813,9.0,0.0
2024-01-28T12:33:09.500Z,MISSION_0054,95,0,transit,SITE_HYD_005,17.3849786,78.4866836,9.5,234.29,0.0,0.163,3.0,0.5004,-5.3973,234.2937,-0.45595,0.03991,0.02536,0.88875,-0.2284,-0.0356,-9.7244,-0.4137,-0.2498,0.3164,0.1705,3,12,0.91,0.89,0.37,24.487,13.69,90.5,44.0,19904.0,8827,8597,9030,8777,60.7,60.1,60.4,60.1,2.945,2.619,2.958,2.632,5.62,58.7,35.7,47.1,1020.24,-34.33,-2.09,1.72,32.3,41.4,40.3,0,no_anomaly,0.0,0,0,0,0,17.3849786,78.4866836,9.5,0.0
2024-01-28T12:33:09.600Z,MISSION_0054,96,0,transit,SITE_HYD_005,17.3849778,78.4866852,10.0,235.99,0.216,0.016,2.98,-4.2885,-3.6104,235.9915,-0.4678,0.04535,-0.01824,0.88248,-0.1144,-0.0418,-9.8342,-0.2281,0.1498,0.3728,0.1598,3,18,0.78,0.85,0.28,24.508,12.53,90.4,43.7,19890.0,8992,8909,9029,8916,63.0,62.2,61.6,57.3,2.845,2.609,2.64,2.764,5.08,53.6,35.6,46.4,1019.69,-29.97,-0.28,1.68,30.6,45.6,37.4,0,no_anomaly,0.0,0,0,0,0,17.3849778,78.4866852,10.0,0.0
2024-01-28T12:33:09.700Z,MISSION_0054,97,0,transit,SITE_HYD_005,17.3849769,78.4866847,10.5,234.14,0.0,0.093,3.08,-5.3416,1.0873,234.1391,-0.45495,0.01276,-0.0458,0.88925,-0.0393,-0.0811,-9.7407,0.0062,0.7779,-0.1324,0.1552,3,13,0.82,0.88,0.24,24.562,17.1,90.3,44.1,19876.0,8606,9171,8699,9010,60.1,60.4,60.2,62.6,2.69,2.801,2.628,2.661,4.09,49.9,35.4,46.5,1019.94,-31.74,-0.44,1.76,29.7,49.9,38.7,0,no_anomaly,0.0,0,0,0,0,17.3849769,78.4866847,10.5,0.0
2024-01-28T12:33:09.800Z,MISSION_0054,98,0,transit,SITE_HYD_005,17.3849743,78.4866862,11.0,236.63,0.459,0.02,3.25,-2.9082,-2.8524,236.6256,-0.47343,0.03394,-0.01053,0.88011,-0.1985,-0.0076,-9.7899,0.7208,0.5057,-0.1175,0.209,3,10,0.71,1.07,0.2,24.529,18.81,90.3,44.1,19862.0,8959,8805,8987,8856,61.2,60.8,61.2,56.4,2.907,2.869,2.678,2.753,5.83,51.0,35.3,46.4,1020.13,-32.98,-1.6,1.76,30.0,45.8,37.3,0,no_anomaly,0.0,0,0,0,0,17.3849743,78.4866862,11.0,0.0
2024-01-28T12:33:09.900Z,MISSION_0054,99,0,transit,SITE_HYD_005,17.3849771,78.4866838,11.5,236.73,0.484,0.158,3.12,-5.3732,-1.7138,236.725,-0.47386,0.03541,-0.03414,0.87923,0.2145,0.0398,-9.8955,0.3532,-1.3072,-0.0122,0.231,3,18,0.67,0.73,0.23,24.619,17.1,90.2,43.8,19848.0,8951,9138,8791,8831,65.2,55.2,57.6,60.2,2.646,2.503,2.737,2.855,5.14,53.1,35.4,46.0,1020.15,-30.14,0.05,1.23,30.3,46.6,36.1,0,no_anomaly,0.0,0,0,0,0,17.3849771,78.4866838,11.5,0.0
2024-01-28T12:33:10.000Z,MISSION_0054,100,0,transit,SITE_HYD_005,17.3849799,78.4866836,12.0,236.03,0.493,0.172,2.88,2.5421,-3.1178,236.0329,-0.46997,0.01359,0.03235,0.88199,-0.184,0.0144,-9.7376,-0.6657,-0.4732,-0.3815,0.1648,3,12,0.56,0.77,0.22,24.495,20.89,90.2,43.3,19834.0,9026,9020,8777,8896,61.4,60.4,62.5,62.6,2.934,3.059,2.856,2.751,5.75,57.0,35.5,46.5,1019.98,-35.54,0.17,1.52,28.5,47.6,39.5,0,no_anomaly,0.0,0,0,0,0,17.3849799,78.4866836,12.0,0.0
2024-01-28T12:33:10.100Z,MISSION_0054,101,0,transit,SITE_HYD_005,17.3849827,78.4866844,12.5,238.34,0.592,0.162,2.59,0.371,-0.6881,238.339,-0.4874,0.00367,0.00575,0.87315,0.3286,0.0553,-9.7768,-0.2398,-0.5586,-0.2579,0.2222,3,16,0.61,0.71,0.23,24.551,15.91,90.1,43.9,19820.0,8754,8993,8837,8937,61.2,61.5,59.3,59.0,2.704,2.733,2.854,2.799,5.81,61.5,35.4,46.3,1020.25,-29.26,0.16,1.62,35.1,43.2,39.0,0,no_anomaly,0.0,0,0,0,0,17.3849827,78.4866844,12.5,0.0
2024-01-28T12:33:10.200Z,MISSION_0054,102,0,transit,SITE_HYD_005,17.3849825,78.4866836,13.0,240.44,0.515,0.115,2.67,-7.6048,-1.2954,240.4441,-0.50156,0.04312,-0.05162,0.8625,-0.1002,0.0204,-9.8919,-0.7374,-0.2374,-0.553,0.1252,3,15,0.9,0.92,0.41,24.558,23.4,90.0,44.9,19806.0,9105,8876,8978,8912,60.3,63.3,59.3,60.5,2.868,2.946,2.792,2.784,4.13,57.5,35.4,45.1,1020.04,-33.11,-0.14,1.33,28.1,40.3,34.6,0,no_anomaly,0.0,0,0,0,0,17.3849825,78.4866836,13.0,0.0
2024-01-28T12:33:10.300Z,MISSION_0054,103,0,transit,SITE_HYD_005,17.3849837,78.4866835,13.5,238.26,0.533,0.118,2.58,-5.4556,-0.1882,238.2611,-0.48618,0.0246,-0.04077,0.87256,0.065,-0.0151,-9.8845,0.2398,0.1217,-0.0078,0.2307,3,14,0.6,0.96,0.23,24.358,21.51,90.0,44.4,19792.0,8797,8738,8709,8857,63.1,55.0,64.5,60.3,2.857,2.745,2.409,2.756,5.78,48.0,35.2,47.0,1020.02,-24.65,1.68,1.0,30.2,45.7,38.2,0,no_anomaly,0.0,0,0,0,0,17.3849837,78.4866835,13.5,0.0
2024-01-28T12:33:10.400Z,MISSION_0054,104,0,transit,SITE_HYD_005,17.3849825,78.4866904,14.0,240.91,0.158,0.141,2.22,0.9792,-1.8118,240.9109,-0.5069,0.0093,0.01538,0.86182,0.1912,0.1121,-9.7984,-0.5154,-0.3567,0.0075,0.1484,3,20,0.75,0.95,0.2,24.583,18.41,89.9,43.3,19778.0,9099,8874,8708,8713,61.0,60.1,58.5,63.3,2.765,2.771,2.589,2.919,5.23,59.8,35.6,45.9,1020.05,-30.11,-2.47,1.45,29.3,42.5,38.6,0,no_anomaly,0.0,0,0,0,0,17.3849825,78.4866904,14.0,0.0
2024-01-28T12:33:10.500Z,MISSION_0054,105,0,transit,SITE_HYD_005,17.3849813,78.4866887,14.5,242.09,0.0,0.123,2.43,-5.4657,-2.2094,242.0864,-0.51421,0.04108,-0.03091,0.85612,0.1185,-0.0603,-9.7636,0.1172,0.2004,0.0049,0.2354,3,15,0.72,0.67,0.21,24.506,19.28,89.8,44.2,19764.0,9029,8726,8649,8801,60.4,59.7,58.7,60.4,2.504,2.579,2.951,2.757,5.88,57.2,35.0,46.3,1020.19,-29.89,-0.65,1.28,30.4,50.4,35.8,0,no_anomaly,0.0,0,0,0,0,17.3849813,78.4866887,14.5,0.0
2024-01-28T12:33:10.600Z,MISSION_0054,106,0,transit,SITE_HYD_005,17.3849824,78.4866888,15.0,239.62,0.0,0.219,2.32,-0.24,-1.5831,239.6196,-0.49705,0.01303,0.00505,0.86761,0.1006,0.1216,-9.8174,-0.3012,0.3221,-0.0446,0.1609,3,13,0.66,0.74,0.2,24.514,16.19,89.8,43.9,19750.0,8764,9105,8787,8767,60.3,61.9,61.0,64.1,3.063,2.549,2.637,2.961,4.64,48.6,35.3,45.8,1019.93,-27.88,1.56,1.61,29.2,44.0,39.1,0,no_anomaly,0.0,0,0,0,0,17.3849824,78.4866888,15.0,0.0
2024-01-28T12:33:10.700Z,MISSION_0054,107,0,transit,SITE_HYD_005,17.3849805,78.4866889,15.5,238.87,0.397,0.046,2.5,4.7247,-3.1317,238.8692,-0.49181,0.00353,0.0493,0.8693,-0.3508,0.0378,-9.7939,-0.473,-0.1755,0.0838,0.2747,3,14,0.76,0.93,0.38,24.485,19.77,89.7,43.7,19736.0,8895,8654,8895,9110,62.8,62.6,64.9,58.9,2.724,2.982,2.893,2.803,5.22,55.1,35.7,45.6,1020.27,-30.0,-0.49,1.72,35.2,53.1,42.8,0,no_anomaly,0.0,0,0,0,0,17.3849805,78.4866889,15.5,0.0
2024-01-28T12:33:10.800Z,MISSION_0054,108,0,transit,SITE_HYD_005,17.3849801,78.4866877,16.0,238.21,0.824,0.085,2.6,-2.3054,-1.6712,238.2099,-0.486,0.02252,-0.01048,0.8736,-0.0295,0.0357,-9.875,-0.4732,-0.5073,0.2954,0.225,3,20,0.7,0.69,0.29,24.507,21.15,89.6,43.2,19723.0,8830,8952,9115,8948,61.7,59.8,57.5,58.4,2.864,2.768,2.804,2.772,4.81,61.9,35.3,46.4,1020.01,-27.79,1.48,1.87,32.1,43.6,36.6,0,no_anomaly,0.0,0,0,0,0,17.3849801,78.4866877,16.0,0.0
2024-01-28T12:33:10.900Z,MISSION_0054,109,0,transit,SITE_HYD_005,17.3849753,78.4866889,16.5,238.36,0.644,0.155,3.01,1.2974,-2.8153,238.359,-0.48761,0.01593,0.02186,0.87264,-0.253,-0.1355,-9.8176,1.3474,0.73,-0.362,0.24,3,15,0.78,0.86,0.21,24.497,14.45,89.6,43.4,19709.0,8836,9039,8755,8915,60.1,63.1,61.7,65.9,2.816,2.866,2.947,2.996,5.41,56.7,35.6,45.5,1019.99,-29.41,-0.34,1.54,32.1,45.2,40.5,0,no_anomaly,0.0,0,0,0,0,17.3849753,78.4866889,16.5,0.0
2024-01-28T12:33:11.000Z,MISSION_0054,110,0,transit,SITE_HYD_005,17.3849737,78.4866867,17.0,239.57,0.098,0.07,3.29,0.3619,-2.3761,239.5663,-0.49667,0.01643,0.01304,0.86769,0.0168,0.0011,-9.8178,0.0072,-0.5764,-0.3397,0.2029,3,16,0.66,0.85,0.2,24.486,18.76,89.5,43.8,19695.0,8897,8931,9186,8893,61.8,59.9,58.5,59.1,2.688,3.001,2.887,2.63,5.58,59.9,35.6,46.1,1020.17,-32.64,0.64,1.8,30.0,42.0,38.6,0,no_anomaly,0.0,0,0,0,0,17.3849737,78.4866867,17.0,0.0
2024-01-28T12:33:11.100Z,MISSION_0054,111,0,transit,SITE_HYD_005,17.3849773,78.4866865,17.5,241.69,0.0,0.098,2.94,1.6956,-3.2652,241.6903,-0.51282,0.01688,0.0273,0.8579,0.2505,0.075,-9.7394,-0.396,-0.2175,0.5675,0.2273,3,17,0.73,0.96,0.29,24.536,12.18,89.5,44.4,19681.0,8761,8633,8777,8576,58.9,60.8,63.4,62.1,2.809,2.705,2.574,2.886,5.48,60.3,35.7,45.9,1019.83,-34.72,-0.84,2.11,31.7,40.5,38.4,0,no_anomaly,0.0,0,0,0,0,17.3849773,78.4866865,17.5,0.0
2024-01-28T12:33:11.200Z,MISSION_0054,112,0,transit,SITE_HYD_005,17.38498,78.4866895,18.0,244.87,0.197,0.103,2.52,2.2132,-1.5666,244.8721,-0.53643,0.00118,0.02363,0.84361,0.0376,-0.0268,-9.7733,0.6594,0.3173,0.0347,0.1896,3,12,0.73,1.1,0.26,24.562,21.37,89.4,44.2,19667.0,8683,9063,8767,9009,57.1,58.2,60.2,60.8,2.625,2.989,2.72,3.006,4.96,53.9,35.3,46.6,1019.81,-28.89,1.04,1.0,28.6,44.1,38.2,0,no_anomaly,0.0,0,0,0,0,17.38498,78.4866895,18.0,0.0
2024-01-28T12:33:11.300Z,MISSION_0054,113,0,transit,SITE_HYD_005,17.384976,78.4866882,18.5,246.42,0.225,0.122,2.98,0.1568,-1.0638,246.4228,-0.54772,0.00702,0.00623,0.83661,0.104,-0.0218,-9.8173,0.6497,-0.3663,-0.3125,0.1988,3,16,0.53,0.94,0.2,24.599,24.11,89.3,43.4,19653.0,8764,8856,8826,8852,59.2,60.3,59.4,61.7,2.909,3.075,2.533,2.654,5.42,66.0,35.5,45.7,1019.89,-25.9,0.88,1.4,27.0,42.2,37.4,0,no_anomaly,0.0,0,0,0,0,17.384976,78.4866882,18.5,0.0
2024-01-28T12:33:11.400Z,MISSION_0054,114,0,transit,SITE_HYD_005,17.3849767,78.4866887,19.0,244.2,0.038,0.158,2.88,0.4746,0.5305,244.198,-0.53136,-0.00612,0.00105,0.84712,-0.13,0.0271,-9.7697,-0.2519,-0.0694,0.2342,0.1938,3,11,0.81,0.9,0.34,24.487,13.22,89.3,43.6,19639.0,8774,8735,8917,8840,58.2,63.3,61.9,61.8,2.729,2.833,2.437,2.677,5.63,57.1,35.7,46.5,1019.6,-30.89,1.0,1.72,29.0,44.1,39.7,0,no_anomaly,0.0,0,0,0,0,17.3849767,78.4866887,19.0,0.0
2024-01-28T12:33:11.500Z,MISSION_0054,115,0,transit,SITE_HYD_005,17.3849733,78.4866845,19.5,242.13,0.106,0.153,3.43,0.4099,-0.0317,242.1348,-0.51604,-0.00161,0.00321,0.85655,0.1281,-0.0784,-9.8184,-0.3457,0.2537,0.3577,0.1657,3,13,0.64,1.03,0.27,24.534,17.63,89.2,43.2,19625.0,9123,9080,8886,9094,58.1,63.2,59.3,59.7,2.952,2.873,2.925,3.042,5.59,62.8,35.5,45.6,1019.72,-30.03,0.99,1.82,33.4,46.0,36.7,0,no_anomaly,0.0,0,0,0,0,17.3849733,78.4866845,19.5,0.0
2024-01-28T12:33:11.600Z,MISSION_0054,116,0,transit,SITE_HYD_005,17.3849752,78.4866883,20.0,241.42,0.0,0.137,3.05,-1.8826,-2.9066,241.4232,-0.51013,0.03019,-0.00117,0.85957,0.2292,0.0024,-9.8161,-0.3153,-0.2351,0.2554,0.2299,3,16,0.74,0.97,0.37,24.474,20.1,89.1,43.7,19611.0,8700,8906,8994,9219,61.8,62.5,61.6,59.7,2.808,3.086,2.884,3.088,5.19,49.0,35.7,47.0,1019.76,-30.9,0.94,1.36,30.8,41.3,39.0,0,no_anomaly,0.0,0,0,0,0,17.3849752,78.4866883,20.0,0.0
2024-01-28T12:33:11.700Z,MISSION_0054,117,0,transit,SITE_HYD_005,17.3849741,78.4866866,20.5,243.74,0.28,0.187,3.25,-5.2057,-0.669,243.7408,-0.52722,0.02893,-0.03549,0.84849,-0.1454,-0.008,-9.8294,-0.4811,-0.0869,0.6177,0.1214,3,10,0.75,1.13,0.28,24.421,17.98,89.1,44.5,19597.0,8998,8884,8998,8966,59.2,57.0,62.4,60.3,2.956,2.492,2.725,2.843,5.7,53.8,35.5,45.1,1019.6,-28.31,1.91,1.4,28.9,49.4,35.3,0,no_anomaly,0.0,0,0,0,0,17.3849741,78.4866866,20.5,0.0
2024-01-28T12:33:11.800Z,MISSION_0054,118,0,transit,SITE_HYD_005,17.3849739,78.4866874,21.0,244.96,0.38,0.105,3.23,-2.3214,-1.9337,244.9605,-0.53653,0.02511,-0.00803,0.84347,-0.058,0.0442,-9.8371,-1.3903,-0.5009,-0.2912,0.2845,3,18,0.73,0.84,0.38,24.503,19.13,89.0,43.1,19583.0,8931,8973,8863,8898,59.9,58.8,62.9,60.4,2.752,2.645,2.498,2.829,5.16,52.3,35.5,46.5,1020.14,-28.65,0.12,1.25,31.7,40.8,35.0,0,no_anomaly,0.0,0,0,0,0,17.3849739,78.4866874,21.0,0.0
2024-01-28T12:33:11.900Z,MISSION_0054,119,0,transit,SITE_HYD_005,17.3849766,78.4866885,21.5,243.33,0.305,0.087,2.9,4.9039,-1.699,243.3256,-0.52492,-0.00985,0.04419,0.84995,-0.0623,0.0374,-9.7212,0.1406,-0.7659,0.2043,0.193,3,20,0.78,1.0,0.28,24.508,14.03,89.0,43.9,19569.0,8796,8976,8816,9346,61.1,60.2,57.8,62.2,2.644,2.94,2.501,2.757,5.56,54.1,35.8,46.7,1019.67,-29.93,-0.51,1.59,30.4,41.7,40.2,0,no_anomaly,0.0,0,0,0,0,17.3849766,78.4866885,21.5,0.0
2024-01-28T12:33:12.000Z,MISSION_0054,120,0,transit,SITE_HYD_005,17.384979,78.4866873,22.0,244.61,0.0,0.062,2.73,1.6259,-4.358,244.6098,-0.53444,0.02456,0.0323,0.84423,0.1025,-0.0053,-9.8393,-1.0225,-0.453,-0.0925,0.2593,3,14,0.57,0.77,0.3,24.579,14.48,88.9,42.6,19556.0,8910,8837,9030,8840,58.8,59.0,59.9,59.4,2.999,2.675,2.678,2.724,4.8,59.8,35.4,45.7,1019.92,-30.15,1.59,1.47,27.4,42.7,37.0,0,no_anomaly,0.0,0,0,0,0,17.384979,78.4866873,22.0,0.0
2024-01-28T12:33:12.100Z,MISSION_0054,121,0,transit,SITE_HYD_005,17.3849768,78.4866886,22.5,246.97,0.497,0.073,2.88,-2.185,-1.6625,246.9723,-0.55135,0.02262,-0.0079,0.83393,0.3351,0.0323,-9.7948,-0.7895,-0.3357,-0.6188,0.1708,3,13,0.7,1.09,0.32,24.471,21.27,88.8,43.6,19542.0,8901,9212,8947,8933,61.5,61.0,61.6,61.3,2.732,2.823,2.866,2.913,5.96,38.4,35.1,45.5,1019.86,-29.43,-0.67,1.27,27.7,48.9,39.3,0,no_anomaly,0.0,0,0,0,0,17.3849768,78.4866886,22.5,0.0
2024-01-28T12:33:12.200Z,MISSION_0054,122,0,transit,SITE_HYD_005,17.384973,78.4866896,23.0,248.97,0.604,0.102,3.22,1.002,-1.924,248.9672,-0.56619,0.00889,0.01671,0.82406,0.1996,-0.1143,-9.8274,-0.4228,-0.9024,-0.3586,0.2077,3,17,0.67,0.88,0.2,24.596,15.9,88.8,44.8,19528.0,8868,9104,8853,8785,57.6,64.7,63.2,60.5,2.76,2.712,2.497,2.49,5.58,59.7,35.7,46.0,1020.41,-30.24,-0.69,1.12,31.6,42.6,40.2,0,no_anomaly,0.0,0,0,0,0,17.384973,78.4866896,23.0,0.0
2024-01-28T12:33:12.300Z,MISSION_0054,123,0,transit,SITE_HYD_005,17.3849798,78.4866857,23.5,246.91,1.08,0.038,2.76,-4.1746,-1.8247,246.914,-0.55039,0.03335,-0.02161,0.83396,-0.1225,-0.0399,-9.7864,0.5888,-1.1153,0.3345,0.2556,3,12,0.69,0.93,0.23,24.487,17.07,88.7,45.6,19514.0,8812,8970,9210,8862,63.6,62.7,59.0,62.1,2.813,2.811,2.747,2.927,4.68,59.1,35.5,46.4,1020.16,-30.35,0.92,1.8,34.9,43.1,38.3,0,no_anomaly,0.0,0,0,0,0,17.3849798,78.4866857,23.5,0.0
2024-01-28T12:33:12.400Z,MISSION_0054,124,0,transit,SITE_HYD_005,17.3849817,78.4866855,24.0,245.49,1.062,0.125,2.6,0.3795,0.4995,245.4889,-0.54087,-0.00546,0.00043,0.84109,0.1048,-0.0158,-9.8189,-0.0397,0.5231,-0.1619,0.2914,3,13,0.66,0.85,0.37,24.48,17.55,88.6,44.5,19500.0,8845,8877,8865,8756,60.5,57.9,58.6,62.1,2.853,3.073,2.727,2.743,6.23,63.6,35.5,46.4,1019.8,-31.75,0.19,1.19,30.3,41.3,37.1,0,no_anomaly,0.0,0,0,0,0,17.3849817,78.4866855,24.0,0.0
2024-01-28T12:33:12.500Z,MISSION_0054,125,0,transit,SITE_HYD_005,17.384982,78.4866834,24.0,244.85,1.559,0.096,2.73,-1.5476,-2.966,244.8517,-0.53568,0.02908,0.00248,0.84391,-0.1831,0.027,-9.812,-0.0962,1.0528,0.0624,0.232,3,14,0.66,0.76,0.29,24.502,16.94,88.6,42.6,19486.0,8920,8914,8877,8715,63.3,62.6,61.0,58.8,3.101,2.909,2.862,2.976,4.69,51.6,35.6,45.9,1020.28,-24.89,0.29,1.55,30.4,46.2,38.4,0,no_anomaly,0.0,0,0,0,0,17.384982,78.4866834,24.0,0.0
2024-01-28T12:33:12.600Z,MISSION_0054,126,0,transit,SITE_HYD_005,17.3849795,78.4866885,24.0,243.06,2.099,0.195,2.61,5.3465,0.4775,243.0633,-0.52223,-0.02794,0.03758,0.85152,-0.1118,0.0411,-9.8171,0.3693,0.2582,0.1975,0.1523,3,10,0.65,1.01,0.35,24.53,17.67,88.5,43.1,19472.0,9013,9126,8919,8518,63.1,61.9,59.1,61.2,2.832,2.859,2.714,2.834,5.93,54.7,35.3,46.0,1020.3,-28.75,1.38,1.27,33.0,49.6,40.4,0,no_anomaly,0.0,0,0,0,0,17.3849795,78.4866885,24.0,0.0
2024-01-28T12:33:12.700Z,MISSION_0054,127,0,transit,SITE_HYD_005,17.3849813,78.4866921,24.0,241.34,2.021,0.071,2.26,-6.8882,-1.2091,241.3398,-0.5086,0.0397,-0.0463,0.85884,-0.1306,-0.01,-9.8321,-0.1581,-0.2889,0.2983,0.2133,3,15,0.67,0.85,0.37,24.509,21.61,88.4,44.0,19458.0,8929,8863,8879,8859,61.1,61.9,58.4,60.9,2.608,2.685,2.598,2.744,6.12,49.9,35.8,47.3,1020.38,-26.93,0.43,1.47,30.8,45.0,40.9,0,no_anomaly,0.0,0,0,0,0,17.3849813,78.4866921,24.0,0.0
2024-01-28T12:33:12.800Z,MISSION_0054,128,0,transit,SITE_HYD_005,17.3849797,78.4866921,24.0,238.68,1.637,0.129,2.43,3.7551,-0.9048,238.6777,-0.48992,-0.00917,0.03243,0.87112,-0.2641,-0.0608,-9.7382,0.1426,0.4873,-0.5123,0.1501,3,15,0.69,0.66,0.33,24.528,21.14,88.4,43.7,19444.0,8894,8632,8868,8955,60.6,63.0,58.9,58.3,2.582,2.778,2.788,2.757,5.32,53.2,35.6,46.2,1019.71,-30.69,0.09,1.68,32.2,49.2,40.4,0,no_anomaly,0.0,0,0,0,0,17.3849797,78.4866921,24.0,0.0
2024-01-28T12:33:12.900Z,MISSION_0054,129,0,transit,SITE_HYD_005,17.3849804,78.4866936,24.0,237.65,1.654,0.081,2.3,1.2157,-0.0514,237.6483,-0.4821,-0.00472,0.00951,0.87605,-0.0153,0.0354,-9.7726,0.2781,0.455,-0.0708,0.2042,3,20,0.79,0.99,0.25,24.505,21.66,88.3,44.4,19430.0,8920,8970,8959,8810,60.9,60.3,61.8,61.6,2.851,2.672,3.195,2.646,5.36,61.7,35.8,45.6,1019.85,-31.83,-0.23,1.53,27.8,41.1,38.9,0,no_anomaly,0.0,0,0,0,0,17.3849804,78.4866936,24.0,0.0
