timestamp_utc,mission_id,frame_id,waypoint_id,inspection_phase,site_id,latitude_deg,longitude_deg,altitude_m,heading_deg,ground_speed_ms,vertical_speed_ms,distance_to_tower_m,roll_deg,pitch_deg,yaw_deg,quat_w,quat_x,quat_y,quat_z,accel_x_ms2,accel_y_ms2,accel_z_ms2,gyro_x_rads,gyro_y_rads,gyro_z_rads,vibration_level,gps_fix_type,gps_satellite_count,gps_hdop,gps_vdop,position_error_m,battery_voltage_v,battery_current_a,battery_remaining_pct,battery_temp_c,battery_capacity_mah,motor_fl_rpm,motor_fr_rpm,motor_rl_rpm,motor_rr_rpm,motor_fl_temp_c,motor_fr_temp_c,motor_rl_temp_c,motor_rr_temp_c,motor_fl_thrust_n,motor_fr_thrust_n,motor_rl_thrust_n,motor_rr_thrust_n,wind_speed_ms,wind_dir_deg,air_temp_c,humidity_pct,pressure_hpa,gimbal_pitch_deg,gimbal_roll_deg,zoom_factor,ir_temp_min_c,ir_temp_max_c,ir_temp_avg_c,anomaly_detected,anomaly_class,anomaly_confidence,anomaly_bbox_x,anomaly_bbox_y,anomaly_bbox_w,anomaly_bbox_h,anomaly_gps_lat,anomaly_gps_lon,anomaly_gps_alt_m,ir_temp_delta_c
2024-03-19T13:39:00.000Z,MISSION_0046,0,0,takeoff,SITE_PUN_007,18.5203991,73.8567058,1.5,137.84,0.0,0.087,0.65,1.8369,-2.3921,137.8352,0.35927,0.02524,0.00745,0.93286,-0.2179,0.0177,-9.8136,-0.3705,-0.3914,-0.2095,0.3345,3,17,0.74,0.6,0.2,24.796,18.51,99.3,42.6,21842.0,8327,8230,8235,8131,58.1,59.3,60.9,57.4,2.977,2.869,2.939,2.659,7.55,335.1,34.2,61.4,1014.07,-27.21,-0.31,1.55,29.1,44.7,36.9,0,no_anomaly,0.0,0,0,0,0,18.5203991,73.8567058,1.5,0.0
2024-03-19T13:39:00.100Z,MISSION_0046,1,0,takeoff,SITE_PUN_007,18.5204012,73.8567025,3.0,137.1,0.0,0.123,0.31,2.8771,0.3192,137.1011,0.36563,0.00659,0.02438,0.93042,0.5433,-0.0369,-9.7726,-0.7949,0.1361,-0.615,0.2392,3,20,0.66,0.82,0.28,24.801,21.51,99.2,42.6,21823.0,8272,8220,8362,8180,61.4,61.1,61.4,64.1,2.489,2.74,2.7,2.763,8.44,336.1,34.3,60.1,1013.21,-32.02,-0.22,1.77,30.4,48.6,39.7,0,no_anomaly,0.0,0,0,0,0,18.5204012,73.8567025,3.0,0.0
2024-03-19T13:39:00.200Z,MISSION_0046,2,0,takeoff,SITE_PUN_007,18.5204054,73.8567028,4.5,135.19,0.0,0.139,0.68,-3.8651,-4.5178,135.193,0.38184,0.02358,-0.04617,0.92277,0.1219,-0.0729,-9.8832,0.3006,0.455,1.1713,0.3344,3,16,0.63,1.01,0.37,24.762,20.01,99.1,41.7,21804.0,8198,8328,8353,8207,59.4,62.4,62.1,59.5,2.738,2.822,2.59,2.77,7.98,335.3,34.5,60.0,1013.71,-31.61,0.85,1.46,31.3,44.6,37.8,0,no_anomaly,0.0,0,0,0,0,18.5204054,73.8567028,4.5,0.0
2024-03-19T13:39:00.300Z,MISSION_0046,3,0,takeoff,SITE_PUN_007,18.5204109,73.8567036,5.0,137.67,0.105,0.083,1.28,8.0124,-0.5379,137.6678,0.35988,0.02959,0.06346,0.93037,-0.0902,0.0318,-9.8481,-0.352,0.1818,-0.2389,0.3227,3,15,0.88,0.95,0.2,24.801,15.31,99.0,42.6,21784.0,8378,8434,8185,8101,58.0,59.5,60.1,63.3,2.641,3.069,2.815,2.969,8.3,345.6,34.2,60.4,1013.82,-33.3,0.58,1.81,32.1,45.6,37.0,0,no_anomaly,0.0,0,0,0,0,18.5204109,73.8567036,5.0,0.0
2024-03-19T13:39:00.400Z,MISSION_0046,4,0,takeoff,SITE_PUN_007,18.5204086,73.856705,5.0,137.33,0.0,0.162,1.11,-4.1201,-1.1043,137.3291,0.3639,-0.00411,-0.03699,0.9307,0.1046,0.0314,-9.7166,0.1008,-0.0212,0.2293,0.1969,3,20,0.72,0.91,0.2,24.694,11.16,98.9,41.6,21765.0,8356,8519,8342,8233,58.8,56.4,55.6,59.7,2.75,2.807,2.755,2.819,8.94,340.9,34.0,60.4,1013.51,-28.6,0.24,1.61,30.5,44.2,34.2,0,no_anomaly,0.0,0,0,0,0,18.5204086,73.856705,5.0,0.0
2024-03-19T13:39:00.500Z,MISSION_0046,5,0,takeoff,SITE_PUN_007,18.5204082,73.8567055,5.0,139.51,0.019,0.166,1.1,-0.729,-1.8017,139.5117,0.34607,0.01255,-0.01141,0.93806,-0.1658,0.0156,-9.7415,-0.4104,0.2431,-0.0717,0.2033,3,16,0.63,0.91,0.27,24.684,15.35,98.8,42.8,21745.0,8288,8141,8511,8341,61.5,57.9,61.5,58.7,2.904,2.902,2.844,2.519,8.55,336.1,34.2,59.6,1013.72,-30.36,-0.57,1.26,27.5,41.1,38.8,0,no_anomaly,0.0,0,0,0,0,18.5204082,73.8567055,5.0,0.0
2024-03-19T13:39:00.600Z,MISSION_0046,6,0,takeoff,SITE_PUN_007,18.5204078,73.8567005,5.0,140.93,0.0,0.108,0.87,1.7458,-0.6777,140.9267,0.33428,0.01067,0.01238,0.94233,0.0828,-0.0689,-9.8886,-0.5466,0.0601,-0.1777,0.2614,3,16,0.73,0.82,0.35,24.71,23.19,98.8,43.1,21726.0,8213,8157,8257,8357,58.8,60.6,57.1,58.8,2.852,2.762,2.709,2.555,7.92,338.0,33.9,60.0,1013.71,-33.61,1.55,1.01,29.1,43.6,37.0,0,no_anomaly,0.0,0,0,0,0,18.5204078,73.8567005,5.0,0.0
2024-03-19T13:39:00.700Z,MISSION_0046,7,0,takeoff,SITE_PUN_007,18.5204049,73.8567004,5.0,141.09,0.079,0.1,0.54,2.5551,-0.0498,141.0863,0.33301,0.00784,0.02088,0.94266,0.0962,-0.027,-9.8014,0.8424,-0.0608,0.1151,0.3247,3,19,0.69,0.81,0.2,24.783,19.73,98.7,42.3,21706.0,8233,8350,8100,8149,62.7,58.4,61.8,60.4,2.724,2.546,2.596,2.624,7.89,340.2,34.4,60.6,1013.95,-31.43,1.7,1.65,28.3,39.8,36.1,0,no_anomaly,0.0,0,0,0,0,18.5204049,73.8567004,5.0,0.0
2024-03-19T13:39:00.800Z,MISSION_0046,8,0,takeoff,SITE_PUN_007,18.520402,73.856703,5.0,139.86,0.239,0.132,0.41,-4.0312,0.8695,139.8561,0.34273,-0.01919,-0.03043,0.93875,0.1289,-0.0004,-9.8094,0.4652,0.0699,0.2141,0.2569,3,11,0.5,0.93,0.2,24.753,17.38,98.6,42.4,21687.0,8143,8391,8432,8289,56.1,57.7,60.3,61.8,2.8,2.745,2.665,2.878,7.3,332.8,34.1,60.9,1013.29,-34.12,1.25,1.49,31.9,48.8,37.5,0,no_anomaly,0.0,0,0,0,0,18.520402,73.856703,5.0,0.0
2024-03-19T13:39:00.900Z,MISSION_0046,9,0,takeoff,SITE_PUN_007,18.5203969,73.8567003,5.0,140.72,0.631,0.079,0.35,2.3172,-2.1252,140.7183,0.33564,0.02426,0.01281,0.94159,-0.0014,-0.0581,-9.8216,-0.8317,-0.5438,-0.1293,0.2958,3,20,0.59,0.86,0.22,24.754,19.22,98.5,42.8,21667.0,8398,7941,8157,8233,60.5,58.2,59.1,56.3,2.88,2.785,2.813,3.016,7.32,322.2,34.1,60.8,1013.74,-28.96,-0.46,1.0,30.8,44.4,36.2,0,no_anomaly,0.0,0,0,0,0,18.5203969,73.8567003,5.0,0.0
2024-03-19T13:39:01.000Z,MISSION_0046,10,0,takeoff,SITE_PUN_007,18.520396,73.8566979,5.0,140.45,0.749,0.045,0.51,6.9836,-0.8326,140.4483,0.33729,0.02743,0.05486,0.9394,-0.0159,-0.0624,-9.8155,-0.4405,-0.3073,-0.0058,0.2708,3,17,0.72,0.87,0.3,24.678,18.2,98.4,42.3,21648.0,8600,8486,8168,8022,57.4,58.3,59.5,58.3,2.996,2.5,2.977,2.862,7.57,334.5,34.3,59.5,1013.45,-28.73,0.01,1.39,28.8,44.6,38.9,0,no_anomaly,0.0,0,0,0,0,18.520396,73.8566979,5.0,0.0
2024-03-19T13:39:01.100Z,MISSION_0046,11,0,takeoff,SITE_PUN_007,18.5203931,73.8567007,5.0,138.84,0.507,0.048,0.77,1.875,-2.3873,138.844,0.35104,0.02525,0.00799,0.93599,-0.1905,-0.0665,-9.8256,0.1436,-1.0983,-0.0613,0.1797,3,10,0.82,0.64,0.36,24.878,16.4,98.3,41.4,21628.0,7977,8090,8361,8333,59.4,61.6,60.7,56.0,3.123,2.831,2.604,2.564,7.72,338.6,34.3,60.3,1013.52,-30.15,-0.12,1.6,32.5,44.8,37.7,0,no_anomaly,0.0,0,0,0,0,18.5203931,73.8567007,5.0,0.0
2024-03-19T13:39:01.200Z,MISSION_0046,12,0,takeoff,SITE_PUN_007,18.520393,73.8567026,5.0,136.21,0.86,0.071,0.83,1.7626,-2.7164,136.2112,0.37241,0.02772,0.00543,0.92764,-0.0966,0.054,-9.7873,-0.8883,0.7432,-0.0798,0.2847,3,10,0.69,0.9,0.29,24.821,16.08,98.2,42.7,21609.0,8131,8142,8217,8030,56.9,64.4,61.4,58.8,2.59,2.788,2.659,2.909,8.92,336.1,34.0,60.1,1013.6,-26.08,0.13,1.45,29.0,42.7,36.6,0,no_anomaly,0.0,0,0,0,0,18.520393,73.8567026,5.0,0.0
2024-03-19T13:39:01.300Z,MISSION_0046,13,0,takeoff,SITE_PUN_007,18.5203967,73.856699,5.0,135.68,1.107,0.205,0.38,4.4987,-1.5007,135.6848,0.37636,0.02692,0.03141,0.92555,-0.2843,0.0061,-9.8434,-0.0332,0.2636,0.3035,0.203,3,16,0.86,0.94,0.31,24.819,19.94,98.1,41.7,21590.0,8332,8412,8521,8298,62.7,60.3,58.6,59.8,2.835,2.713,2.666,2.67,8.1,336.0,34.4,60.2,1013.81,-28.39,1.71,1.48,27.9,45.0,38.7,0,no_anomaly,0.0,0,0,0,0,18.5203967,73.856699,5.0,0.0
2024-03-19T13:39:01.400Z,MISSION_0046,14,0,takeoff,SITE_PUN_007,18.5203941,73.856698,5.0,135.49,0.651,0.12,0.69,-2.4606,-2.9755,135.4886,0.37904,0.01589,-0.0297,0.92477,-0.3869,-0.0505,-9.8081,-0.3893,0.4652,0.1554,0.1755,3,19,0.83,1.01,0.29,24.759,19.66,98.0,41.9,21570.0,8259,8185,8307,8295,58.7,57.1,59.0,57.4,2.773,2.845,2.962,2.462,8.31,329.6,34.2,60.7,1014.04,-32.26,0.48,1.51,26.1,38.4,37.5,0,no_anomaly,0.0,0,0,0,0,18.5203941,73.856698,5.0,0.0
2024-03-19T13:39:01.500Z,MISSION_0046,15,0,takeoff,SITE_PUN_007,18.5203951,73.8567051,5.0,136.33,1.008,0.135,0.78,4.5582,-1.4812,136.3339,0.3711,0.02678,0.03211,0.92765,0.1463,0.0213,-9.8864,0.1971,0.1457,0.1771,0.2467,3,16,0.73,0.99,0.31,24.71,17.24,98.0,42.8,21551.0,8117,8397,8200,8440,59.4,59.0,61.9,59.0,2.774,2.724,2.75,2.722,8.6,338.4,34.3,60.5,1014.07,-27.77,1.32,1.18,25.1,37.9,33.4,0,no_anomaly,0.0,0,0,0,0,18.5203951,73.8567051,5.0,0.0
2024-03-19T13:39:01.600Z,MISSION_0046,16,0,takeoff,SITE_PUN_007,18.5203958,73.856715,5.0,137.05,1.062,0.012,1.73,3.4161,-1.767,137.0485,0.36547,0.02525,0.02209,0.93022,0.533,0.0416,-9.8874,0.3797,0.2736,0.2114,0.196,3,10,0.78,1.03,0.23,24.775,19.76,97.9,42.6,21531.0,8427,8255,8493,8587,57.0,60.6,58.9,61.3,2.699,2.702,2.649,2.919,8.16,335.1,34.2,60.4,1013.86,-27.44,0.4,1.23,30.8,45.9,39.0,0,no_anomaly,0.0,0,0,0,0,18.5203958,73.856715,5.0,0.0
2024-03-19T13:39:01.700Z,MISSION_0046,17,0,takeoff,SITE_PUN_007,18.520396,73.8567102,5.0,136.74,0.985,0.068,1.22,-5.2061,-1.888,136.7397,0.36888,-0.00144,-0.04828,0.92822,0.163,-0.0141,-9.7939,-0.728,0.6719,-0.036,0.2643,3,12,0.55,0.85,0.24,24.731,13.92,97.8,42.8,21512.0,8555,8342,8041,8228,56.5,59.1,57.6,60.5,3.057,2.71,2.752,2.839,8.12,337.4,34.0,60.9,1013.92,-30.61,0.21,1.62,25.4,43.6,33.9,0,no_anomaly,0.0,0,0,0,0,18.520396,73.8567102,5.0,0.0
2024-03-19T13:39:01.800Z,MISSION_0046,18,0,takeoff,SITE_PUN_007,18.5203916,73.8567099,5.0,134.66,1.022,0.065,1.45,0.9677,-0.1561,134.664,0.38537,0.00451,0.00727,0.92272,0.0062,-0.0877,-9.8594,0.3059,-0.18,0.3212,0.221,3,12,0.63,0.83,0.2,24.789,19.08,97.7,42.0,21492.0,8267,8083,8090,8491,58.8,60.3,60.2,57.3,2.963,3.02,2.828,2.985,7.86,333.1,34.6,60.3,1013.59,-27.97,-0.33,1.21,30.1,49.6,35.1,0,no_anomaly,0.0,0,0,0,0,18.5203916,73.8567099,5.0,0.0
2024-03-19T13:39:01.900Z,MISSION_0046,19,0,takeoff,SITE_PUN_007,18.5203913,73.8567114,5.0,133.6,0.476,0.136,1.6,-4.9723,-1.7502,133.6018,0.39412,-0.00306,-0.04588,0.91791,0.1407,-0.0347,-9.8058,0.1865,0.4054,-0.1586,0.2952,3,15,0.58,1.14,0.3,24.753,15.41,97.6,42.5,21473.0,8137,8652,8094,8143,59.7,58.3,58.7,57.3,2.762,2.892,2.824,2.757,7.85,330.1,34.4,60.3,1013.86,-29.5,2.37,2.06,29.4,40.5,35.8,0,no_anomaly,0.0,0,0,0,0,18.5203913,73.8567114,5.0,0.0
2024-03-19T13:39:02.000Z,MISSION_0046,20,0,takeoff,SITE_PUN_007,18.5203907,73.8567115,5.0,131.4,0.721,0.018,1.65,3.0465,-5.3499,131.4031,0.40976,0.05345,0.005,0.91061,0.0168,-0.0281,-9.8677,-0.4474,-0.6681,-0.1966,0.2498,3,16,0.57,1.06,0.24,24.692,17.95,97.5,42.5,21453.0,8347,8316,8442,8275,57.0,61.0,58.0,60.2,2.679,2.762,2.969,2.741,8.13,339.0,34.0,60.3,1014.09,-33.28,-1.8,1.35,27.5,44.0,38.2,0,no_anomaly,0.0,0,0,0,0,18.5203907,73.8567115,5.0,0.0
2024-03-19T13:39:02.100Z,MISSION_0046,21,0,takeoff,SITE_PUN_007,18.5203921,73.8567146,5.0,133.55,0.688,0.071,1.84,-3.7246,-1.6579,133.5481,0.39454,0.00047,-0.03556,0.91819,0.0325,-0.0235,-9.7551,-0.6057,0.1225,-0.5143,0.2637,3,16,0.88,1.16,0.39,24.725,13.56,97.4,41.3,21434.0,8301,8199,8141,8383,61.1,61.6,58.4,60.8,2.595,2.819,2.758,2.851,7.71,341.8,34.3,60.3,1013.73,-30.68,-0.55,1.44,29.1,43.3,36.0,0,no_anomaly,0.0,0,0,0,0,18.5203921,73.8567146,5.0,0.0
2024-03-19T13:39:02.200Z,MISSION_0046,22,0,takeoff,SITE_PUN_007,18.5203955,73.8567191,5.0,133.92,0.996,0.071,2.19,-2.0024,-2.8389,133.9168,0.39162,0.01595,-0.02577,0.91963,-0.0308,-0.0011,-9.7993,-0.3051,0.1691,0.0921,0.2508,3,16,0.78,0.77,0.29,24.759,16.16,97.3,42.4,21414.0,8408,8182,8084,8387,60.6,61.4,58.2,61.8,2.554,2.784,2.683,2.817,7.85,337.3,33.7,60.1,1014.16,-28.54,-0.01,1.67,27.7,42.8,36.6,0,no_anomaly,0.0,0,0,0,0,18.5203955,73.8567191,5.0,0.0
2024-03-19T13:39:02.300Z,MISSION_0046,23,0,takeoff,SITE_PUN_007,18.5203927,73.8567205,5.0,134.41,1.359,0.124,2.43,-3.525,-2.1723,134.4135,0.38769,0.00555,-0.03569,0.92108,-0.0004,-0.0093,-9.8172,0.06,-0.612,-0.5062,0.1987,3,13,0.71,0.86,0.27,24.755,22.39,97.3,41.8,21395.0,8073,8025,8340,8210,55.9,57.2,59.5,60.2,2.834,2.651,2.755,2.479,8.2,327.8,34.1,60.2,1013.77,-24.39,0.26,2.2,29.3,39.9,37.1,0,no_anomaly,0.0,0,0,0,0,18.5203927,73.8567205,5.0,0.0
2024-03-19T13:39:02.400Z,MISSION_0046,24,0,takeoff,SITE_PUN_007,18.5203938,73.8567199,5.0,138.25,1.124,0.123,2.32,0.3109,0.2619,138.2483,0.35635,-0.00117,0.00335,0.93435,-0.2377,-0.0726,-9.8931,-0.9535,0.7983,-0.0598,0.221,3,12,0.73,0.68,0.26,24.77,22.92,97.2,42.4,21376.0,8060,8267,8373,8231,57.9,58.8,58.6,57.4,2.576,2.798,2.945,2.949,7.11,339.7,34.2,60.3,1013.89,-29.17,-0.61,1.24,29.3,40.2,34.9,0,no_anomaly,0.0,0,0,0,0,18.5203938,73.8567199,5.0,0.0
2024-03-19T13:39:02.500Z,MISSION_0046,25,0,takeoff,SITE_PUN_007,18.5203972,73.8567157,5.0,139.3,0.983,0.108,1.78,9.5791,-1.7938,139.3017,0.34526,0.04366,0.07285,0.93466,-0.1946,0.0127,-9.841,0.0959,-0.5592,-0.342,0.2866,3,19,0.63,0.86,0.24,24.628,12.56,97.1,42.7,21356.0,8167,8133,8464,8164,56.8,59.8,57.7,58.7,2.817,2.965,2.812,2.963,6.7,337.5,34.1,60.3,1014.16,-26.84,-0.32,1.31,30.2,44.5,37.2,0,no_anomaly,0.0,0,0,0,0,18.5203972,73.8567157,5.0,0.0
2024-03-19T13:39:02.600Z,MISSION_0046,26,0,takeoff,SITE_PUN_007,18.5203956,73.8567232,5.0,137.86,0.987,0.019,2.63,-2.6052,-2.3314,137.8573,0.35979,0.01081,-0.02852,0.93253,0.1551,-0.0265,-9.8237,-0.3591,0.8977,-0.2782,0.3133,3,17,0.83,0.79,0.24,24.694,24.06,97.0,42.5,21337.0,8350,8007,8116,8450,60.0,57.3,59.1,60.3,2.571,2.722,3.002,2.435,7.22,339.3,34.0,59.3,1013.71,-25.05,0.39,1.57,31.3,38.9,37.4,0,no_anomaly,0.0,0,0,0,0,18.5203956,73.8567232,5.0,0.0
2024-03-19T13:39:02.700Z,MISSION_0046,27,0,takeoff,SITE_PUN_007,18.5203992,73.8567254,5.0,136.68,0.513,0.069,2.83,3.559,-4.137,136.6784,0.36765,0.04498,0.01553,0.92875,-0.1992,0.0983,-9.8256,0.647,-0.1492,0.1606,0.3023,3,11,0.61,0.88,0.25,24.681,24.41,96.9,42.6,21317.0,8537,8196,8259,8307,58.9,60.3,56.8,59.1,2.792,2.811,3.121,2.331,8.84,337.0,34.2,60.6,1014.09,-29.66,-0.91,1.44,27.3,45.2,33.7,0,no_anomaly,0.0,0,0,0,0,18.5203992,73.8567254,5.0,0.0
2024-03-19T13:39:02.800Z,MISSION_0046,28,0,takeoff,SITE_PUN_007,18.5203985,73.8567243,5.0,137.15,0.357,0.029,2.71,0.6924,-2.9743,137.1544,0.36497,0.02637,-0.00386,0.93064,-0.4535,0.0296,-9.8677,-0.25,0.5442,0.4663,0.2355,3,10,0.65,0.94,0.29,24.764,19.36,96.8,42.0,21298.0,8492,8579,8049,8065,59.6,61.4,60.1,58.3,2.773,2.807,2.822,2.476,7.87,335.7,33.8,60.8,1013.88,-29.8,-0.43,1.34,31.9,47.2,37.2,0,no_anomaly,0.0,0,0,0,0,18.5203985,73.8567243,5.0,0.0
2024-03-19T13:39:02.900Z,MISSION_0046,29,0,takeoff,SITE_PUN_007,18.5203965,73.8567235,5.0,135.43,0.527,0.096,2.65,1.6655,-0.6402,135.43,0.37909,0.01068,0.01133,0.92523,-0.3827,-0.0615,-9.7863,-1.0886,0.9243,0.3062,0.2816,3,12,0.8,0.93,0.2,24.789,15.37,96.7,42.3,21278.0,8468,8375,8499,8404,61.7,61.6,60.1,57.3,2.517,2.993,2.77,2.615,7.78,336.3,34.0,60.5,1013.88,-30.02,-0.36,1.7,29.0,41.2,35.8,0,no_anomaly,0.0,0,0,0,0,18.5203965,73.8567235,5.0,0.0
2024-03-19T13:39:03.000Z,MISSION_0046,30,0,takeoff,SITE_PUN_007,18.5203982,73.8567195,5.0,134.53,0.488,0.05,2.18,2.7172,-0.0006,134.5278,0.38638,0.00917,0.02187,0.92204,-0.0429,-0.0094,-9.7916,0.0377,0.7444,0.0771,0.2742,3,20,0.6,1.02,0.29,24.652,13.51,96.6,42.5,21259.0,8194,8244,8300,8313,58.5,59.3,58.6,61.4,3.029,2.966,2.887,2.941,7.84,336.5,34.3,60.8,1013.78,-30.48,-0.99,1.32,28.0,46.8,39.4,0,no_anomaly,0.0,0,0,0,0,18.5203982,73.8567195,5.0,0.0
2024-03-19T13:39:03.100Z,MISSION_0046,31,0,takeoff,SITE_PUN_007,18.5203968,73.8567224,5.0,134.29,0.011,0.069,2.52,-2.4728,-0.7257,134.2918,0.38841,-0.00255,-0.02234,0.92121,0.2367,0.0093,-9.8049,0.2366,-0.3845,-0.1819,0.2411,3,20,0.85,1.07,0.47,24.76,13.58,96.5,41.9,21239.0,8477,8255,8265,8213,61.9,61.1,57.1,59.0,2.883,2.659,2.824,2.505,7.27,330.3,34.3,60.9,1013.59,-28.93,-0.25,2.01,28.6,39.8,35.8,0,no_anomaly,0.0,0,0,0,0,18.5203968,73.8567224,5.0,0.0
2024-03-19T13:39:03.200Z,MISSION_0046,32,0,takeoff,SITE_PUN_007,18.5203965,73.8567244,5.0,136.29,0.0,0.078,2.74,0.3936,-2.9808,136.2858,0.37208,0.02542,-0.0065,0.92783,0.0357,0.0536,-9.7798,0.2882,-0.682,0.0256,0.2319,3,20,0.61,0.83,0.24,24.727,18.75,96.5,42.6,21220.0,8054,8232,8222,8073,58.4,58.0,58.3,60.6,2.731,2.92,2.989,2.889,7.65,340.3,34.5,60.6,1013.88,-29.61,0.34,1.8,26.6,42.2,37.7,0,no_anomaly,0.0,0,0,0,0,18.5203965,73.8567244,5.0,0.0
2024-03-19T13:39:03.300Z,MISSION_0046,33,0,takeoff,SITE_PUN_007,18.5203951,73.8567254,5.0,135.4,0.0,0.13,2.88,5.1403,-0.5567,135.3993,0.37887,0.02151,0.03965,0.92435,-0.1355,-0.0425,-9.8075,1.1109,-0.002,-0.2368,0.2489,3,12,0.85,1.01,0.31,24.64,16.89,96.4,41.3,21200.0,8371,8094,8320,8386,57.3,62.6,55.3,60.5,2.785,3.028,2.895,2.786,7.99,339.0,34.4,60.5,1013.48,-27.78,-0.38,1.62,32.2,47.5,35.7,0,no_anomaly,0.0,0,0,0,0,18.5203951,73.8567254,5.0,0.0
2024-03-19T13:39:03.400Z,MISSION_0046,34,0,takeoff,SITE_PUN_007,18.5203977,73.8567255,5.0,135.32,0.085,0.046,2.85,-4.4513,0.8118,135.3204,0.37955,-0.02131,-0.03323,0.92433,0.0466,0.0295,-9.7028,0.8851,-0.425,-0.1536,0.2871,3,19,0.82,0.83,0.3,24.627,24.2,96.3,42.2,21181.0,8372,8311,8352,8266,60.3,57.9,61.4,59.2,2.766,2.605,2.771,2.585,7.08,340.2,33.9,60.5,1013.85,-33.69,0.27,1.55,25.6,41.4,34.8,0,no_anomaly,0.0,0,0,0,0,18.5203977,73.8567255,5.0,0.0
2024-03-19T13:39:03.500Z,MISSION_0046,35,0,takeoff,SITE_PUN_007,18.5203988,73.8567208,5.0,133.85,0.0,0.158,2.32,1.8197,-1.9625,133.8495,0.39158,0.02198,0.0079,0.91985,-0.0349,-0.024,-9.8568,0.2915,0.21,-0.0475,0.2302,3,17,0.61,1.16,0.27,24.667,18.92,96.2,42.1,21162.0,8402,8391,8352,8316,57.9,59.7,60.2,61.1,2.866,2.832,2.728,2.669,8.7,338.9,34.2,60.0,1013.92,-26.94,1.02,2.0,31.8,42.6,38.1,0,no_anomaly,0.0,0,0,0,0,18.5203988,73.8567208,5.0,0.0
2024-03-19T13:39:03.600Z,MISSION_0046,36,0,takeoff,SITE_PUN_007,18.5203998,73.8567204,5.0,131.81,0.0,0.077,2.27,1.4226,-4.2437,131.8089,0.40753,0.03886,-0.00379,0.91236,-0.1162,0.0494,-9.8412,-0.0002,0.6157,0.0239,0.2976,3,14,0.79,1.17,0.24,24.716,26.08,96.1,42.1,21142.0,8242,8048,8465,8190,58.7,63.0,60.0,59.1,2.88,2.763,2.731,2.841,7.6,339.7,34.4,60.3,1013.69,-29.99,-1.04,1.98,28.3,44.2,35.5,0,no_anomaly,0.0,0,0,0,0,18.5203998,73.8567204,5.0,0.0
2024-03-19T13:39:03.700Z,MISSION_0046,37,0,takeoff,SITE_PUN_007,18.5204001,73.8567193,5.0,131.53,0.0,0.092,2.15,-4.5615,-3.3526,131.5303,0.41104,0.01033,-0.04827,0.91028,-0.1258,0.0847,-9.7316,-0.1851,-0.0149,-0.0342,0.213,3,11,0.5,1.0,0.22,24.705,18.37,96.0,42.6,21123.0,8315,8373,8302,8118,57.3,60.7,62.0,58.1,2.678,2.686,2.886,2.888,8.87,330.2,34.1,60.7,1013.24,-25.28,-0.29,1.35,30.9,44.8,38.1,0,no_anomaly,0.0,0,0,0,0,18.5204001,73.8567193,5.0,0.0
2024-03-19T13:39:03.800Z,MISSION_0046,38,0,takeoff,SITE_PUN_007,18.5204064,73.8567164,5.0,130.42,1.043,0.088,1.96,1.3151,-2.7342,130.4239,0.41887,0.02647,0.00041,0.90766,0.1921,0.0167,-9.8544,-0.3903,-0.2533,0.2619,0.2286,3,19,0.74,0.91,0.2,24.678,21.74,95.9,42.1,21103.0,8272,8188,8245,8044,60.9,60.1,59.1,59.7,2.906,2.838,2.764,3.096,8.18,332.7,34.2,59.3,1013.69,-30.66,1.18,1.36,32.2,43.7,35.0,0,no_anomaly,0.0,0,0,0,0,18.5204064,73.8567164,5.0,0.0
2024-03-19T13:39:03.900Z,MISSION_0046,39,0,takeoff,SITE_PUN_007,18.5204074,73.8567127,5.0,128.49,0.915,0.042,1.64,4.7481,-1.364,128.4877,0.43369,0.02871,0.03214,0.90003,0.0071,-0.016,-9.7767,-0.5938,-0.9682,0.1513,0.1882,3,10,0.85,0.86,0.33,24.694,18.61,95.8,42.9,21084.0,8310,8517,8299,8217,60.5,59.2,62.2,61.3,2.858,2.703,2.938,2.801,7.69,330.1,34.6,60.8,1013.77,-30.11,-0.67,1.13,29.0,45.0,37.7,0,no_anomaly,0.0,0,0,0,0,18.5204074,73.8567127,5.0,0.0
2024-03-19T13:39:04.000Z,MISSION_0046,40,0,takeoff,SITE_PUN_007,18.5204104,73.8567133,5.0,126.96,0.977,0.027,1.88,-2.133,-4.0157,126.9604,0.44674,0.02304,-0.03229,0.89378,-0.1878,0.0428,-9.7586,-1.3933,0.1747,-0.4122,0.2859,3,13,0.71,0.7,0.29,24.711,20.49,95.7,41.9,21064.0,8064,8175,8048,8410,60.2,60.6,61.8,61.5,2.851,2.696,3.06,3.171,8.54,337.7,34.2,61.6,1013.65,-31.15,0.57,1.49,31.5,40.2,37.8,0,no_anomaly,0.0,0,0,0,0,18.5204104,73.8567133,5.0,0.0
2024-03-19T13:39:04.100Z,MISSION_0046,41,0,takeoff,SITE_PUN_007,18.5204096,73.856718,5.0,126.3,0.982,0.099,2.28,-8.4035,-3.0543,126.2983,0.45204,-0.00937,-0.07735,0.88859,0.1216,0.047,-9.819,-0.6539,0.1945,0.3835,0.2627,3,11,0.73,0.76,0.31,24.582,22.43,95.7,41.4,21045.0,8138,8197,8307,8337,55.5,61.0,58.9,57.6,2.555,2.85,2.63,2.581,8.66,335.3,34.1,60.5,1013.96,-30.13,1.48,1.47,30.4,48.6,36.8,0,no_anomaly,0.0,0,0,0,0,18.5204096,73.856718,5.0,0.0
2024-03-19T13:39:04.200Z,MISSION_0046,42,0,takeoff,SITE_PUN_007,18.5204114,73.8567199,5.0,125.92,1.285,0.078,2.55,-1.6296,-2.5801,125.9172,0.45476,0.01359,-0.0229,0.89022,-0.019,-0.0578,-9.8843,-0.8872,0.5287,-0.2768,0.1947,3,11,0.53,1.06,0.28,24.748,17.47,95.6,42.1,21025.0,8261,8169,8400,8183,60.7,59.6,60.2,59.5,2.642,2.859,2.804,2.642,8.96,337.5,34.5,59.9,1013.41,-30.88,-0.82,1.51,27.8,38.9,36.6,0,no_anomaly,0.0,0,0,0,0,18.5204114,73.8567199,5.0,0.0
2024-03-19T13:39:04.300Z,MISSION_0046,43,0,takeoff,SITE_PUN_007,18.5204136,73.8567201,5.0,126.13,1.493,0.036,2.7,1.6745,-1.746,126.1295,0.45268,0.0202,0.00612,0.89142,0.0102,0.0093,-9.8505,0.3272,-0.2761,-0.016,0.3072,3,16,0.68,0.74,0.31,24.579,19.27,95.5,42.6,21006.0,8222,8262,8216,7915,57.1,61.1,60.2,58.8,2.989,2.751,2.822,2.634,8.55,339.8,34.0,60.4,1013.63,-30.75,0.13,1.11,26.8,43.5,38.1,0,no_anomaly,0.0,0,0,0,0,18.5204136,73.8567201,5.0,0.0
2024-03-19T13:39:04.400Z,MISSION_0046,44,0,takeoff,SITE_PUN_007,18.5204125,73.8567239,5.0,126.88,2.208,0.09,3.0,1.3128,-2.0089,126.8826,0.44684,0.0208,0.00241,0.89437,-0.2553,-0.0526,-9.8815,0.2336,0.1179,0.2286,0.3507,3,19,0.66,1.08,0.32,24.703,17.04,95.4,42.2,20986.0,8289,8500,7865,8214,60.2,59.6,58.8,59.5,2.803,2.861,2.903,2.674,7.57,336.3,34.3,59.8,1014.01,-29.93,-1.25,1.23,27.1,39.1,36.9,0,no_anomaly,0.0,0,0,0,0,18.5204125,73.8567239,5.0,0.0
2024-03-19T13:39:04.500Z,MISSION_0046,45,0,takeoff,SITE_PUN_007,18.5204137,73.8567273,5.0,125.71,1.909,0.117,3.4,-3.7272,-3.0973,125.7057,0.45665,0.0092,-0.04125,0.88864,0.2434,-0.0233,-9.7818,-0.4021,0.143,-0.369,0.3545,3,13,0.67,0.94,0.25,24.694,21.42,95.3,42.4,20967.0,8246,8317,8405,8143,60.3,60.8,56.6,64.1,2.637,2.772,2.92,2.568,8.82,342.4,34.0,60.9,1013.72,-28.76,-0.79,1.08,32.5,48.6,36.1,0,no_anomaly,0.0,0,0,0,0,18.5204137,73.8567273,5.0,0.0
2024-03-19T13:39:04.600Z,MISSION_0046,46,0,takeoff,SITE_PUN_007,18.5204164,73.8567248,5.0,125.03,1.919,0.088,3.31,-1.4863,-0.0455,125.0267,0.46151,-0.00563,-0.01169,0.88704,-0.0353,0.0456,-9.8247,0.157,0.2348,-0.2117,0.3169,3,16,0.63,0.84,0.29,24.646,12.27,95.2,41.6,20948.0,8376,7937,8321,8140,55.9,58.5,63.8,60.7,2.669,2.892,2.861,2.713,7.32,336.4,34.1,60.8,1014.07,-31.38,-0.6,1.01,30.8,48.6,38.5,0,no_anomaly,0.0,0,0,0,0,18.5204164,73.8567248,5.0,0.0
2024-03-19T13:39:04.700Z,MISSION_0046,47,0,takeoff,SITE_PUN_007,18.5204144,73.8567248,5.0,126.02,2.043,0.119,3.19,-6.4015,-1.9818,126.022,0.4539,-0.00995,-0.05758,0.88913,0.1864,-0.0,-9.7804,0.3791,0.365,-0.0103,0.1391,3,17,0.84,0.6,0.41,24.603,19.05,95.1,42.9,20928.0,8541,8281,8284,7912,62.6,59.3,59.2,59.0,2.726,2.836,2.599,3.17,8.27,331.7,34.4,60.5,1013.88,-31.31,0.01,1.07,28.8,41.8,36.8,0,no_anomaly,0.0,0,0,0,0,18.5204144,73.8567248,5.0,0.0
2024-03-19T13:39:04.800Z,MISSION_0046,48,0,takeoff,SITE_PUN_007,18.5204187,73.8567281,5.0,127.09,2.189,0.191,3.76,0.3274,-2.3844,127.0876,0.44536,0.0199,-0.00671,0.8951,0.0792,-0.0459,-9.7818,-0.2559,-0.5502,0.1834,0.2517,3,19,0.8,0.78,0.37,24.696,17.83,95.0,42.7,20909.0,8501,8286,8494,8352,60.3,58.1,62.4,57.4,2.766,2.608,2.819,2.751,8.76,336.5,34.1,60.6,1014.13,-32.04,0.07,1.46,28.7,47.2,38.4,0,no_anomaly,0.0,0,0,0,0,18.5204187,73.8567281,5.0,0.0
2024-03-19T13:39:04.900Z,MISSION_0046,49,0,takeoff,SITE_PUN_007,18.5204183,73.8567273,5.0,126.13,1.943,0.037,3.66,-1.871,-2.4451,126.134,0.4531,0.01163,-0.02422,0.89106,-0.1829,-0.0713,-9.8283,0.4775,0.8624,0.1691,0.1932,3,18,0.88,0.76,0.4,24.647,19.23,95.0,41.8,20889.0,8293,8145,8086,8246,61.3,60.0,57.4,58.8,2.952,2.785,2.999,2.881,7.6,336.5,34.3,60.0,1013.99,-23.83,-1.1,1.91,29.7,39.6,33.7,0,no_anomaly,0.0,0,0,0,0,18.5204183,73.8567273,5.0,0.0
2024-03-19T13:39:05.000Z,MISSION_0046,50,0,takeoff,SITE_PUN_007,18.5204213,73.856726,5.0,126.06,1.797,0.165,3.74,-1.1465,-0.0194,126.0627,0.45348,-0.00439,-0.00899,0.89121,-0.003,-0.0227,-9.853,0.3395,0.5513,0.2577,0.2589,3,20,0.67,1.17,0.22,24.671,11.71,94.9,42.4,20870.0,8556,8196,8142,8156,61.4,60.5,60.8,61.3,2.707,2.908,2.927,3.14,8.92,347.8,34.4,59.7,1013.86,-28.84,0.03,1.5,30.8,41.8,33.7,0,no_anomaly,0.0,0,0,0,0,18.5204213,73.856726,5.0,0.0
2024-03-19T13:39:05.100Z,MISSION_0046,51,0,takeoff,SITE_PUN_007,18.5204177,73.856728,5.0,127.33,2.074,0.052,3.69,1.8393,-3.7014,127.3345,0.44283,0.03606,5e-05,0.89588,-0.1749,0.0408,-9.8914,0.0813,-0.2876,0.0557,0.2823,3,20,0.7,0.92,0.26,24.649,20.27,94.8,42.6,20850.0,8416,8311,8248,8356,59.3,57.8,59.1,58.5,2.59,2.837,2.997,2.59,7.38,345.3,33.9,59.8,1013.52,-27.6,1.77,1.64,31.6,41.7,36.3,0,no_anomaly,0.0,0,0,0,0,18.5204177,73.856728,5.0,0.0
2024-03-19T13:39:05.200Z,MISSION_0046,52,0,takeoff,SITE_PUN_007,18.5204162,73.8567284,5.0,125.33,2.354,0.148,3.64,-2.0473,-2.3174,125.3286,0.45936,0.00976,-0.02515,0.88784,0.0798,-0.0641,-9.8167,-0.3455,0.0652,-0.0666,0.1848,3,10,0.71,0.91,0.29,24.677,23.73,94.7,41.7,20831.0,8171,8401,8165,8065,60.2,62.0,59.2,59.6,2.783,2.805,2.622,2.877,7.31,339.5,34.2,59.6,1013.76,-29.05,-1.28,1.42,28.4,42.8,38.2,0,no_anomaly,0.0,0,0,0,0,18.5204162,73.8567284,5.0,0.0
2024-03-19T13:39:05.300Z,MISSION_0046,53,0,takeoff,SITE_PUN_007,18.5204112,73.8567277,5.0,125.42,2.937,0.165,3.32,2.097,-1.3568,125.4174,0.45821,0.01891,0.01083,0.88858,0.0186,0.0837,-9.759,-0.2069,-0.5471,0.3433,0.2458,3,11,0.72,0.97,0.28,24.613,18.96,94.6,41.8,20811.0,8499,8186,8301,8223,58.0,56.9,59.3,61.5,3.036,3.052,2.789,2.781,7.64,335.7,34.1,60.3,1014.13,-28.38,-1.36,1.55,31.0,41.3,37.1,0,no_anomaly,0.0,0,0,0,0,18.5204112,73.8567277,5.0,0.0
2024-03-19T13:39:05.400Z,MISSION_0046,54,0,takeoff,SITE_PUN_007,18.5204094,73.8567252,5.0,126.29,3.612,0.104,2.99,-0.3906,-3.4315,126.2909,0.45161,0.02517,-0.01657,0.8917,-0.1326,-0.0949,-9.8164,-0.3387,-1.2558,-0.0888,0.2578,3,15,0.71,0.92,0.28,24.74,17.36,94.5,42.5,20792.0,8291,8230,8225,8395,60.0,59.1,56.9,60.1,2.622,2.674,2.723,2.709,7.67,329.7,34.3,60.7,1013.78,-31.72,-1.53,1.84,31.6,46.2,36.8,0,no_anomaly,0.0,0,0,0,0,18.5204094,73.8567252,5.0,0.0
2024-03-19T13:39:05.500Z,MISSION_0046,55,0,takeoff,SITE_PUN_007,18.5204124,73.8567248,5.0,128.18,3.944,0.102,3.09,1.3887,-0.3069,128.1766,0.43692,0.0077,0.00973,0.89941,0.0492,0.0199,-9.7954,-0.5507,-0.4375,-0.6489,0.318,3,19,0.65,0.6,0.2,24.65,18.09,94.4,42.6,20772.0,8363,8054,8266,8437,58.7,59.0,57.5,59.3,2.921,2.632,3.037,2.735,8.53,334.3,33.9,60.2,1013.61,-31.31,-0.55,1.18,31.9,49.2,36.3,0,no_anomaly,0.0,0,0,0,0,18.5204124,73.8567248,5.0,0.0
2024-03-19T13:39:05.600Z,MISSION_0046,56,0,takeoff,SITE_PUN_007,18.5204105,73.8567231,5.0,126.66,4.018,0.092,2.82,6.309,-3.2454,126.6646,0.44656,0.04996,0.03646,0.89261,-0.0235,0.0418,-9.7851,-0.6723,0.0978,-0.2467,0.1665,3,11,0.68,1.19,0.28,24.685,18.52,94.3,42.7,20753.0,8095,7961,8171,8434,59.1,62.5,57.7,57.5,2.825,2.905,2.688,3.079,8.29,341.2,34.2,60.3,1013.81,-26.59,1.35,1.15,28.0,40.8,36.5,0,no_anomaly,0.0,0,0,0,0,18.5204105,73.8567231,5.0,0.0
2024-03-19T13:39:05.700Z,MISSION_0046,57,0,takeoff,SITE_PUN_007,18.5204099,73.8567257,5.0,126.9,3.853,0.146,3.07,5.9248,1.1193,126.9013,0.4468,0.01437,0.05059,0.89309,0.2984,0.0374,-9.7389,0.6294,0.0365,-0.1591,0.3109,3,12,0.55,0.69,0.2,24.684,20.55,94.2,41.3,20734.0,8228,8300,8666,8184,59.0,60.2,58.2,59.9,2.866,2.757,2.6,2.983,8.43,332.1,34.0,60.6,1013.86,-32.1,1.09,1.72,28.7,42.9,35.8,0,no_anomaly,0.0,0,0,0,0,18.5204099,73.8567257,5.0,0.0
2024-03-19T13:39:05.800Z,MISSION_0046,58,0,takeoff,SITE_PUN_007,18.520414,73.8567198,5.0,124.7,3.987,0.08,2.7,-3.0452,-0.8953,124.6978,0.46409,-0.00541,-0.02716,0.88535,0.5106,0.0985,-9.9083,-0.3322,0.0139,-0.3397,0.3109,3,19,0.73,0.89,0.31,24.605,19.92,94.2,42.7,20714.0,8208,8034,8267,8210,61.0,57.6,56.9,56.8,2.617,2.632,2.857,2.439,8.61,331.6,34.1,60.8,1013.92,-35.04,-1.14,1.4,26.2,40.4,36.2,0,no_anomaly,0.0,0,0,0,0,18.520414,73.8567198,5.0,0.0
2024-03-19T13:39:05.900Z,MISSION_0046,59,0,takeoff,SITE_PUN_007,18.5204129,73.8567222,5.0,123.95,4.442,0.174,2.86,-1.1722,-3.4841,123.9546,0.46985,0.02203,-0.02331,0.88216,-0.3185,-0.0759,-9.7981,0.6346,0.0466,0.0253,0.2188,3,17,0.6,0.79,0.32,24.629,18.68,94.1,42.3,20695.0,8198,8441,8217,8052,59.5,58.1,57.7,60.7,2.782,2.722,2.762,2.632,9.01,331.2,33.9,60.1,1013.67,-28.59,-2.29,1.8,31.8,40.8,36.1,0,no_anomaly,0.0,0,0,0,0,18.5204129,73.8567222,5.0,0.0
2024-03-19T13:39:06.000Z,MISSION_0046,60,0,takeoff,SITE_PUN_007,18.5204061,73.8567233,5.0,123.63,4.764,0.1,2.68,-1.0943,-0.3671,123.6293,0.47233,-0.00169,-0.00993,0.88136,-0.0278,0.0773,-9.7972,0.6847,0.3467,-0.0489,0.2766,3,11,0.66,0.87,0.33,24.71,15.02,94.0,42.4,20675.0,8389,8239,8207,8297,60.6,56.0,59.9,60.1,2.929,2.451,2.512,2.538,7.61,347.6,34.3,59.5,1013.62,-29.99,0.17,1.64,31.3,44.3,40.1,0,no_anomaly,0.0,0,0,0,0,18.5204061,73.8567233,5.0,0.0
2024-03-19T13:39:06.100Z,MISSION_0046,61,0,takeoff,SITE_PUN_007,18.5204091,73.856725,5.0,124.35,4.474,0.104,2.96,-2.8688,-2.6751,124.3493,0.46702,0.00896,-0.03302,0.88358,0.2435,-0.0213,-9.8519,1.4747,-0.4424,-0.2512,0.2733,3,17,0.7,0.61,0.24,24.59,21.1,93.9,42.8,20656.0,8075,8056,8321,8098,59.0,59.7,61.0,60.5,2.718,2.854,2.598,2.75,8.12,331.1,34.1,59.7,1013.81,-28.91,1.7,2.21,31.6,45.4,37.7,0,no_anomaly,0.0,0,0,0,0,18.5204091,73.856725,5.0,0.0
2024-03-19T13:39:06.200Z,MISSION_0046,62,0,takeoff,SITE_PUN_007,18.5204077,73.85673,5.0,124.91,4.845,0.222,3.45,-7.3529,-4.7059,124.9057,0.46347,0.0067,-0.07575,0.88284,-0.2489,-0.0139,-9.8044,-0.3149,0.012,0.0228,0.3141,3,19,0.58,0.73,0.23,24.594,21.61,93.8,42.2,20636.0,8122,8321,8388,8597,57.3,62.6,59.2,60.4,2.755,2.935,2.817,2.872,7.87,342.3,33.8,60.7,1013.4,-27.52,-1.66,1.46,31.4,39.5,34.6,0,no_anomaly,0.0,0,0,0,0,18.5204077,73.85673,5.0,0.0
2024-03-19T13:39:06.300Z,MISSION_0046,63,0,takeoff,SITE_PUN_007,18.5204041,73.8567321,5.0,124.52,4.403,0.077,3.6,7.9795,-3.5389,124.5248,0.46217,0.05963,0.04722,0.88352,-0.0829,0.017,-9.8986,-0.4603,-0.2843,0.2558,0.3349,3,12,0.9,1.18,0.45,24.711,11.78,93.7,41.7,20617.0,7941,8303,8199,8349,59.8,58.1,59.9,59.0,2.685,2.884,3.056,2.7,7.18,331.5,33.8,61.6,1014.01,-28.93,-0.15,1.25,31.3,48.7,34.2,0,no_anomaly,0.0,0,0,0,0,18.5204041,73.8567321,5.0,0.0
2024-03-19T13:39:06.400Z,MISSION_0046,64,0,takeoff,SITE_PUN_007,18.5204048,73.856728,5.0,123.39,4.247,0.177,3.16,4.1538,-0.8552,123.392,0.47359,0.02375,0.02837,0.87997,0.1897,-0.0598,-9.7926,-1.093,0.3065,-0.1625,0.2126,3,20,0.77,0.96,0.26,24.596,23.61,93.6,41.7,20597.0,8196,8371,8054,8290,57.6,57.5,55.8,56.9,2.612,2.702,2.855,2.721,8.25,332.4,34.1,59.5,1013.69,-26.62,0.96,1.5,26.8,47.0,34.5,0,no_anomaly,0.0,0,0,0,0,18.5204048,73.856728,5.0,0.0
2024-03-19T13:39:06.500Z,MISSION_0046,65,0,takeoff,SITE_PUN_007,18.5204014,73.8567264,5.0,123.31,4.282,0.136,2.94,2.3312,-1.1344,123.3056,0.47451,0.01837,0.0132,0.87996,-0.0279,-0.0585,-9.7612,-0.5827,-0.2786,-0.4552,0.2994,3,18,0.61,0.81,0.25,24.569,20.94,93.5,42.4,20578.0,8253,8644,8229,8564,55.3,62.8,61.1,64.7,2.868,2.965,2.7,2.874,8.04,334.2,34.1,60.0,1013.78,-26.98,1.03,1.34,28.6,40.6,38.3,0,no_anomaly,0.0,0,0,0,0,18.5204014,73.8567264,5.0,0.0
2024-03-19T13:39:06.600Z,MISSION_0046,66,0,takeoff,SITE_PUN_007,18.5203979,73.8567275,5.0,123.21,3.933,0.065,3.07,-6.2378,-1.1357,123.2112,0.47529,-0.01717,-0.05257,0.87809,0.1619,0.0229,-9.8387,-0.097,0.3494,-0.3155,0.2825,3,19,0.82,1.05,0.53,24.662,19.49,93.4,42.8,20558.0,8215,7975,8245,8478,60.3,60.9,59.6,57.2,2.903,2.842,2.749,2.956,8.14,340.1,34.1,60.5,1013.87,-30.72,-0.63,1.75,27.7,41.7,38.1,0,no_anomaly,0.0,0,0,0,0,18.5203979,73.8567275,5.0,0.0
2024-03-19T13:39:06.700Z,MISSION_0046,67,0,takeoff,SITE_PUN_007,18.5204009,73.8567262,5.0,124.02,3.866,0.066,2.92,1.9957,-3.4789,124.0166,0.46859,0.03497,0.00113,0.88272,-0.0567,0.0869,-9.8611,-0.1796,-0.3646,0.3805,0.3192,3,17,0.58,1.31,0.22,24.623,22.95,93.4,42.6,20539.0,8320,8128,8269,8243,60.6,57.0,58.8,58.8,2.595,2.63,2.893,2.516,8.22,342.6,34.0,60.1,1013.86,-25.86,0.29,1.49,30.3,45.3,37.9,0,no_anomaly,0.0,0,0,0,0,18.5204009,73.8567262,5.0,0.0
2024-03-19T13:39:06.800Z,MISSION_0046,68,0,takeoff,SITE_PUN_007,18.5203975,73.8567299,5.0,127.01,3.913,0.013,3.34,-1.1747,-2.4144,127.0131,0.44617,0.01428,-0.01857,0.89464,0.3193,0.0293,-9.7577,0.0936,0.8982,0.1634,0.2045,3,11,0.77,0.87,0.27,24.633,20.59,93.3,42.3,20520.0,8470,8299,8273,8116,59.2,59.3,59.3,58.5,2.985,2.961,2.721,2.811,8.73,337.9,34.3,60.7,1013.85,-34.01,-0.12,1.77,28.9,44.1,36.0,0,no_anomaly,0.0,0,0,0,0,18.5203975,73.8567299,5.0,0.0
2024-03-19T13:39:06.900Z,MISSION_0046,69,0,takeoff,SITE_PUN_007,18.5203975,73.8567295,5.0,128.84,3.926,0.066,3.29,0.6689,-2.4474,128.845,0.43151,0.02178,-0.00396,0.90183,0.0836,0.0193,-9.7987,0.1787,0.453,-0.1469,0.2888,3,13,0.82,0.96,0.32,24.627,19.17,93.2,42.9,20500.0,8484,8224,8058,8202,56.7,58.5,55.3,60.3,2.637,2.703,3.09,3.15,7.77,336.7,34.5,60.2,1013.69,-31.02,-1.67,1.85,31.9,39.4,38.2,0,no_anomaly,0.0,0,0,0,0,18.5203975,73.8567295,5.0,0.0
2024-03-19T13:39:07.000Z,MISSION_0046,70,0,takeoff,SITE_PUN_007,18.5203932,73.8567294,5.0,131.13,4.207,0.173,3.36,-1.6671,-2.7037,131.1286,0.41383,0.01546,-0.023,0.90993,-0.0199,-0.0189,-9.7567,0.4119,-0.8991,0.1214,0.3099,3,10,0.68,1.03,0.33,24.559,20.57,93.1,41.9,20481.0,7891,8454,8471,8189,58.7,59.8,55.1,59.0,2.715,2.812,2.95,2.649,7.32,336.1,34.1,61.1,1013.71,-26.94,0.04,1.43,30.2,49.9,35.4,0,no_anomaly,0.0,0,0,0,0,18.5203932,73.8567294,5.0,0.0
2024-03-19T13:39:07.100Z,MISSION_0046,71,0,takeoff,SITE_PUN_007,18.5203944,73.8567336,5.0,130.14,4.528,0.176,3.79,-3.1618,-2.5346,130.1434,0.42177,0.00842,-0.03433,0.90601,-0.2417,-0.041,-9.7823,0.269,-0.01,0.0131,0.2507,3,16,0.63,1.0,0.2,24.493,21.44,93.0,42.1,20461.0,8205,8253,8218,8378,57.2,55.9,62.0,59.8,2.965,2.938,2.818,3.026,8.29,335.2,34.2,59.6,1014.11,-32.65,0.22,1.23,28.2,45.9,40.5,0,no_anomaly,0.0,0,0,0,0,18.5203944,73.8567336,5.0,0.0
2024-03-19T13:39:07.200Z,MISSION_0046,72,0,takeoff,SITE_PUN_007,18.5203857,73.8567383,5.0,130.86,4.221,0.003,4.55,6.8318,-2.8321,130.8615,0.41359,0.0472,0.04392,0.90818,-0.1271,0.0775,-9.8386,-0.2823,-0.4191,-0.0726,0.2742,3,19,0.68,1.01,0.34,24.577,20.2,92.9,42.7,20442.0,8176,8302,7809,8535,58.8,60.2,63.1,60.9,2.708,2.766,2.608,2.622,7.85,344.4,34.3,60.3,1013.75,-24.31,-1.68,1.79,33.2,46.4,39.6,0,no_anomaly,0.0,0,0,0,0,18.5203857,73.8567383,5.0,0.0
2024-03-19T13:39:07.300Z,MISSION_0046,73,0,takeoff,SITE_PUN_007,18.5203807,73.8567363,5.0,128.44,4.595,0.099,4.58,1.1025,-1.6902,128.4449,0.43468,0.01746,0.00225,0.90041,0.2659,-0.0178,-9.9229,-0.1896,-0.7751,-0.3273,0.2605,3,14,0.57,0.74,0.27,24.546,26.07,92.8,42.7,20422.0,8313,8480,8025,8423,59.0,61.3,56.8,59.1,2.853,3.113,2.918,2.588,8.01,349.2,34.4,60.2,1013.67,-32.49,0.36,1.58,30.7,47.7,34.7,0,no_anomaly,0.0,0,0,0,0,18.5203807,73.8567363,5.0,0.0
2024-03-19T13:39:07.400Z,MISSION_0046,74,0,transit,SITE_PUN_007,18.5203803,73.8567321,5.5,128.3,4.32,0.148,4.19,-2.7666,-4.1789,128.2975,0.43641,0.02228,-0.0376,0.89868,0.0671,0.0676,-9.8064,0.1109,-0.8485,0.2734,0.2726,3,11,0.75,0.8,0.25,24.559,15.22,92.7,42.8,20403.0,8408,8433,8176,8234,63.1,58.3,57.8,62.6,2.72,2.652,2.734,2.525,7.89,334.7,34.2,60.8,1013.72,-27.15,1.37,2.16,30.1,45.1,34.1,0,no_anomaly,0.0,0,0,0,0,18.5203803,73.8567321,5.5,0.0
2024-03-19T13:39:07.500Z,MISSION_0046,75,0,transit,SITE_PUN_007,18.5203817,73.8567366,6.0,129.8,4.065,0.081,4.56,-2.1012,-1.0071,129.7955,0.42429,0.00018,-0.02033,0.9053,0.3018,-0.0476,-9.771,0.4269,-0.0422,-0.2727,0.2492,3,16,0.65,0.89,0.28,24.484,17.29,92.7,42.4,20383.0,8314,8270,8367,8137,59.4,60.1,60.0,61.1,2.785,2.931,2.616,2.835,7.5,333.7,34.1,60.5,1013.52,-25.67,0.84,1.75,30.9,42.5,35.5,0,no_anomaly,0.0,0,0,0,0,18.5203817,73.8567366,6.0,0.0
2024-03-19T13:39:07.600Z,MISSION_0046,76,0,transit,SITE_PUN_007,18.5203809,73.8567374,6.5,128.08,3.72,0.133,4.68,3.9815,-1.5998,128.0832,0.43698,0.02775,0.02512,0.89869,-0.2729,0.0089,-9.816,-0.1572,0.2971,0.1618,0.2581,3,13,0.77,1.09,0.29,24.559,20.14,92.6,42.0,20364.0,8271,8414,8264,8194,62.1,63.3,58.0,64.6,2.647,2.904,2.79,2.811,7.89,333.2,34.1,60.9,1013.68,-26.69,1.32,1.48,30.7,45.8,34.8,0,no_anomaly,0.0,0,0,0,0,18.5203809,73.8567374,6.5,0.0
2024-03-19T13:39:07.700Z,MISSION_0046,77,0,transit,SITE_PUN_007,18.5203829,73.8567369,7.0,127.65,3.624,0.088,4.52,-0.4094,-3.6383,127.6466,0.44102,0.02691,-0.01721,0.89693,0.2172,-0.0516,-9.8096,0.7773,0.0607,0.1919,0.311,3,13,0.81,0.67,0.33,24.64,22.92,92.5,42.6,20344.0,8639,8239,8332,8198,61.1,58.9,57.9,57.8,2.554,2.818,2.903,2.615,8.44,332.4,34.4,60.2,1014.03,-31.57,0.18,1.51,26.1,44.4,33.9,0,no_anomaly,0.0,0,0,0,0,18.5203829,73.8567369,7.0,0.0
2024-03-19T13:39:07.800Z,MISSION_0046,78,0,transit,SITE_PUN_007,18.5203811,73.8567384,7.5,126.06,3.5,0.079,4.76,4.0669,-0.7918,126.0557,0.45304,0.02225,0.02849,0.89076,0.0473,0.0052,-9.7423,-0.2927,0.3663,0.2534,0.281,3,16,0.82,0.87,0.39,24.571,17.87,92.4,42.5,20325.0,8147,8046,8218,8353,56.3,58.6,57.4,60.2,2.96,2.642,3.007,2.808,8.8,342.7,34.3,60.3,1013.6,-27.13,0.19,1.65,29.4,47.0,37.5,0,no_anomaly,0.0,0,0,0,0,18.5203811,73.8567384,7.5,0.0
2024-03-19T13:39:07.900Z,MISSION_0046,79,0,transit,SITE_PUN_007,18.5203839,73.8567391,8.0,128.5,3.637,0.071,4.7,2.7139,-0.9202,128.5004,0.43414,0.01752,0.01784,0.9005,0.2008,-0.017,-9.8104,0.1863,-0.0056,0.1634,0.2516,3,13,0.53,0.77,0.2,24.578,21.04,92.3,41.4,20306.0,8582,8392,8399,8189,58.6,56.5,62.1,58.9,2.76,2.386,2.784,2.663,8.38,330.0,34.2,61.2,1013.48,-32.47,-0.8,1.74,27.0,42.7,35.9,0,no_anomaly,0.0,0,0,0,0,18.5203839,73.8567391,8.0,0.0
2024-03-19T13:39:08.000Z,MISSION_0046,80,0,transit,SITE_PUN_007,18.52038,73.8567412,8.5,129.63,4.086,0.174,5.1,4.3361,-3.6287,129.6311,0.42393,0.04472,0.02075,0.90435,-0.1993,-0.0848,-9.8318,-0.6608,-0.2487,0.211,0.2158,3,18,0.82,1.05,0.41,24.655,14.29,92.2,42.5,20286.0,8374,8569,8085,8424,55.4,61.9,60.0,58.7,2.886,2.883,2.541,2.654,7.5,334.2,34.0,60.7,1014.13,-28.05,-0.28,1.88,27.4,42.9,36.5,0,no_anomaly,0.0,0,0,0,0,18.52038,73.8567412,8.5,0.0
2024-03-19T13:39:08.100Z,MISSION_0046,81,0,transit,SITE_PUN_007,18.520382,73.8567442,9.0,129.78,4.137,0.185,5.31,7.6573,1.7562,129.7796,0.42429,0.01449,0.06694,0.90293,-0.2429,-0.0282,-9.8018,0.6833,0.2897,-0.4497,0.2737,3,15,0.8,0.95,0.23,24.628,22.38,92.1,41.6,20267.0,8184,8227,8308,8103,60.1,59.7,60.7,65.0,2.65,2.805,2.83,2.766,8.48,338.4,34.2,60.2,1013.57,-29.38,0.13,1.77,29.5,47.2,35.1,0,no_anomaly,0.0,0,0,0,0,18.520382,73.8567442,9.0,0.0
2024-03-19T13:39:08.200Z,MISSION_0046,82,0,transit,SITE_PUN_007,18.5203833,73.8567476,9.5,127.9,4.133,0.043,5.62,1.2309,-2.8263,127.897,0.43878,0.02687,-0.00118,0.89819,0.114,-0.106,-9.7853,0.6096,-0.4311,0.0577,0.3005,3,11,0.7,1.21,0.34,24.575,17.29,92.0,42.4,20247.0,8235,8810,8147,8347,59.6,59.4,58.8,61.9,2.8,2.763,2.732,2.911,7.98,339.4,33.8,59.7,1013.66,-36.02,0.16,1.14,27.3,47.4,33.9,0,no_anomaly,0.0,0,0,0,0,18.5203833,73.8567476,9.5,0.0
2024-03-19T13:39:08.300Z,MISSION_0046,83,0,transit,SITE_PUN_007,18.5203799,73.8567459,10.0,129.75,3.711,0.129,5.58,7.9393,-1.065,129.7483,0.42299,0.03779,0.05874,0.90344,-0.0991,-0.0207,-9.8078,0.0677,0.5008,-0.2013,0.2536,3,11,0.5,1.3,0.2,24.497,21.75,91.9,42.4,20228.0,8569,8404,8549,8443,57.1,61.6,60.8,62.3,2.601,2.901,2.641,2.712,7.63,330.4,34.5,60.8,1013.21,-26.77,0.48,1.77,33.4,40.8,36.8,0,no_anomaly,0.0,0,0,0,0,18.5203799,73.8567459,10.0,0.0
2024-03-19T13:39:08.400Z,MISSION_0046,84,0,transit,SITE_PUN_007,18.5203782,73.8567498,10.5,130.06,3.745,0.051,6.06,6.2689,-3.2956,130.0579,0.41993,0.0491,0.03743,0.90545,-0.2081,-0.0047,-9.9031,-0.538,0.0916,0.4757,0.2687,3,18,0.87,1.09,0.46,24.617,24.42,91.9,42.5,20208.0,8405,8306,8317,8262,59.7,62.2,59.0,57.9,2.847,2.785,2.823,2.672,7.65,328.7,34.2,60.6,1013.41,-30.02,-0.12,1.39,30.2,42.6,37.6,0,no_anomaly,0.0,0,0,0,0,18.5203782,73.8567498,10.5,0.0
2024-03-19T13:39:08.500Z,MISSION_0046,85,0,transit,SITE_PUN_007,18.5203753,73.8567452,11.0,132.57,3.585,0.108,5.74,4.2719,-2.0441,132.5654,0.40127,0.03131,0.02695,0.91503,-0.1616,0.0055,-9.784,0.1666,-0.4495,0.1066,0.2626,3,19,0.59,1.1,0.25,24.6,21.78,91.8,42.9,20189.0,8527,8167,8583,8171,58.0,60.6,57.9,57.4,2.616,3.099,2.739,2.822,8.82,332.6,34.0,59.9,1013.76,-31.53,0.97,1.34,28.6,39.3,36.0,0,no_anomaly,0.0,0,0,0,0,18.5203753,73.8567452,11.0,0.0
2024-03-19T13:39:08.600Z,MISSION_0046,86,0,transit,SITE_PUN_007,18.5203752,73.8567449,11.5,133.11,3.663,0.001,5.71,-11.3688,-2.8277,133.11,0.39803,-0.01687,-0.10061,0.91168,-0.0621,0.003,-9.7611,-0.4836,0.1263,0.1189,0.187,3,12,0.6,0.97,0.28,24.601,18.62,91.7,41.8,20169.0,7988,8276,7842,8454,54.8,58.8,60.1,60.7,2.638,2.818,2.708,2.895,8.23,348.2,34.0,60.9,1013.66,-31.36,-0.7,1.11,27.8,45.1,36.8,0,no_anomaly,0.0,0,0,0,0,18.5203752,73.8567449,11.5,0.0
2024-03-19T13:39:08.700Z,MISSION_0046,87,0,transit,SITE_PUN_007,18.5203779,73.8567467,12.0,133.78,3.526,0.047,5.75,3.7852,-2.883,133.7786,0.39141,0.03608,0.0205,0.91928,-0.0608,-0.0351,-9.8257,-0.7554,0.1357,0.2925,0.2466,3,10,0.57,0.79,0.28,24.597,16.65,91.6,42.3,20150.0,8365,8175,8193,7981,60.3,61.6,60.9,55.7,2.84,2.84,2.651,2.979,7.99,337.5,34.4,59.3,1013.52,-29.73,-1.12,1.0,27.7,47.5,37.1,0,no_anomaly,0.0,0,0,0,0,18.5203779,73.8567467,12.0,0.0
2024-03-19T13:39:08.800Z,MISSION_0046,88,0,transit,SITE_PUN_007,18.5203799,73.8567487,12.0,132.79,3.497,-0.002,5.86,-3.3833,-2.3776,132.7873,0.40075,0.00718,-0.03535,0.91548,0.1141,0.082,-9.8921,0.2709,-0.7083,0.1678,0.1747,3,10,0.66,1.33,0.23,24.624,18.38,91.5,42.7,20130.0,8388,8033,8422,8302,58.0,59.5,60.8,56.2,2.717,2.772,2.76,2.86,6.96,336.6,34.1,61.2,1013.54,-34.0,1.14,1.19,26.5,44.3,35.3,0,no_anomaly,0.0,0,0,0,0,18.5203799,73.8567487,12.0,0.0
2024-03-19T13:39:08.900Z,MISSION_0046,89,0,transit,SITE_PUN_007,18.5203788,73.8567461,12.0,130.44,3.476,0.086,5.65,-1.5774,-3.0418,130.4357,0.41931,0.01833,-0.02362,0.90735,0.0345,0.0661,-9.7245,-0.4731,-0.2968,-0.648,0.2019,3,13,0.68,0.81,0.26,24.494,21.92,91.4,42.9,20111.0,8280,8174,8419,8255,58.8,62.5,60.1,58.9,2.83,2.673,2.994,2.828,7.08,332.6,33.8,60.0,1013.59,-28.59,0.49,1.22,29.0,45.6,34.4,0,no_anomaly,0.0,0,0,0,0,18.5203788,73.8567461,12.0,0.0
2024-03-19T13:39:09.000Z,MISSION_0046,90,0,transit,SITE_PUN_007,18.5203786,73.856749,12.0,130.88,3.943,0.196,5.96,-4.472,-1.7194,130.8827,0.41579,-0.00258,-0.04171,0.9085,0.0971,0.0802,-9.8495,0.0204,0.0142,-0.0592,0.3364,3,19,0.67,0.98,0.24,24.594,21.29,91.3,43.0,20092.0,8260,8387,8341,8369,59.4,53.6,58.7,57.1,2.872,2.827,2.652,2.886,7.05,328.7,34.5,60.3,1013.95,-26.42,1.28,1.21,32.3,47.9,39.7,0,no_anomaly,0.0,0,0,0,0,18.5203786,73.856749,12.0,0.0
2024-03-19T13:39:09.100Z,MISSION_0046,91,0,transit,SITE_PUN_007,18.5203829,73.8567566,12.0,131.2,3.832,0.132,6.59,-0.2151,-3.75,131.1956,0.41297,0.02902,-0.01523,0.91015,0.2597,-0.0327,-9.8391,0.1035,-0.1007,-0.5649,0.1891,3,15,0.68,0.8,0.26,24.596,22.77,91.2,42.7,20072.0,8214,8285,8189,8285,60.3,54.6,60.4,62.0,2.93,2.839,2.484,2.876,7.4,338.7,34.5,60.2,1013.58,-31.78,-0.51,1.24,28.2,44.9,36.1,0,no_anomaly,0.0,0,0,0,0,18.5203829,73.8567566,12.0,0.0
2024-03-19T13:39:09.200Z,MISSION_0046,92,0,transit,SITE_PUN_007,18.5203909,73.8567555,12.0,130.16,4.2,0.081,6.27,2.9774,-2.682,130.1557,0.42058,0.03216,0.0137,0.90658,-0.1276,0.0288,-9.8009,0.3478,0.1047,-0.2541,0.2971,3,14,0.83,0.65,0.41,24.597,20.22,91.1,41.8,20053.0,8198,8365,8320,8509,62.4,55.9,62.6,60.8,2.991,2.856,2.817,2.997,7.23,338.0,34.0,60.5,1013.78,-34.75,-0.94,1.37,30.4,47.1,39.7,0,no_anomaly,0.0,0,0,0,0,18.5203909,73.8567555,12.0,0.0
2024-03-19T13:39:09.300Z,MISSION_0046,93,0,transit,SITE_PUN_007,18.5203859,73.856754,12.0,130.35,3.889,0.047,6.21,-9.4449,-0.2145,130.3479,0.41858,-0.03287,-0.0755,0.90444,0.1443,0.0363,-9.7909,0.4461,1.1926,0.1231,0.2527,3,16,0.61,1.19,0.3,24.57,24.06,91.1,42.3,20033.0,8185,8538,8576,8519,61.3,59.3,55.8,56.1,2.71,2.872,2.654,2.829,7.93,333.9,34.3,60.5,1013.65,-35.33,0.84,1.31,29.1,45.7,37.9,0,no_anomaly,0.0,0,0,0,0,18.5203859,73.856754,12.0,0.0
2024-03-19T13:39:09.400Z,MISSION_0046,94,0,transit,SITE_PUN_007,18.5203881,73.8567496,12.0,128.04,4.512,0.074,5.68,-2.1844,-2.3098,128.0378,0.43825,0.00977,-0.02596,0.89842,0.4079,-0.061,-9.8376,0.1294,0.037,0.1209,0.3278,3,18,0.57,0.83,0.23,24.463,17.6,91.0,42.2,20014.0,8167,8102,8224,8318,56.5,57.1,61.2,56.1,2.435,2.887,2.92,2.706,8.19,333.5,34.4,59.3,1013.53,-29.47,1.08,1.0,26.4,45.6,38.1,0,no_anomaly,0.0,0,0,0,0,18.5203881,73.8567496,12.0,0.0
2024-03-19T13:39:09.500Z,MISSION_0046,95,0,transit,SITE_PUN_007,18.5203846,73.8567504,12.0,128.5,4.542,0.065,5.87,1.7287,-0.8836,128.5029,0.43426,0.0135,0.01024,0.90063,-0.2004,0.0097,-9.813,0.0471,-0.8526,-0.0316,0.2639,3,14,0.76,1.05,0.25,24.619,23.36,90.9,42.2,19994.0,8179,8397,8246,8451,60.1,57.8,60.3,62.0,2.749,2.586,2.698,2.699,7.84,343.8,34.2,61.1,1013.89,-35.98,-1.7,1.44,31.1,41.5,35.3,0,no_anomaly,0.0,0,0,0,0,18.5203846,73.8567504,12.0,0.0
2024-03-19T13:39:09.600Z,MISSION_0046,96,0,transit,SITE_PUN_007,18.5203903,73.8567505,12.0,128.95,4.912,0.15,5.72,-5.7788,-1.1495,128.9495,0.4308,-0.01268,-0.0498,0.90099,-0.0758,0.0432,-9.8723,-0.2467,0.1247,0.1675,0.2458,3,20,0.7,0.68,0.23,24.5,21.19,90.8,42.7,19975.0,8095,8340,8345,8457,61.8,60.1,56.9,60.7,2.867,2.977,2.818,2.939,8.03,341.8,34.3,60.0,1013.63,-33.4,-0.11,1.19,27.7,44.3,38.0,0,no_anomaly,0.0,0,0,0,0,18.5203903,73.8567505,12.0,0.0
2024-03-19T13:39:09.700Z,MISSION_0046,97,0,transit,SITE_PUN_007,18.520393,73.8567511,12.0,129.48,4.76,0.113,5.74,2.575,-2.3199,129.4766,0.42615,0.02789,0.01168,0.90415,0.2096,-0.0167,-9.7961,0.1866,0.3801,-0.0498,0.2673,3,12,0.7,0.77,0.31,24.585,25.23,90.7,42.8,19955.0,8296,8258,8247,8058,58.6,62.9,54.7,57.9,2.981,2.904,2.845,2.739,8.38,336.3,34.2,59.8,1013.67,-30.56,1.04,1.32,25.5,44.5,36.0,0,no_anomaly,0.0,0,0,0,0,18.520393,73.8567511,12.0,0.0
2024-03-19T13:39:09.800Z,MISSION_0046,98,0,transit,SITE_PUN_007,18.5203914,73.8567494,12.0,130.39,4.145,0.007,5.58,-4.1794,-1.9792,130.3946,0.41973,0.00037,-0.04034,0.90675,0.0444,0.0061,-9.7984,0.5589,0.0996,0.2472,0.3568,3,10,0.81,1.13,0.32,24.553,17.99,90.6,43.0,19936.0,8432,8635,8434,8212,56.7,58.9,58.6,58.2,2.764,2.824,2.825,2.731,7.73,330.3,33.8,60.3,1013.68,-30.32,-0.36,1.34,29.0,45.4,35.3,0,no_anomaly,0.0,0,0,0,0,18.5203914,73.8567494,12.0,0.0
2024-03-19T13:39:09.900Z,MISSION_0046,99,0,transit,SITE_PUN_007,18.5203942,73.8567485,12.0,131.7,4.051,0.118,5.44,0.1626,-3.0358,131.7015,0.40894,0.02475,-0.00954,0.91218,-0.3346,0.0161,-9.7851,-0.6885,-0.1357,-0.1587,0.1828,3,12,0.62,0.85,0.2,24.624,20.56,90.5,42.4,19916.0,8300,8216,8276,8214,62.0,59.4,62.5,59.3,2.562,2.666,2.941,2.713,7.81,333.3,34.2,59.9,1013.58,-31.15,-0.05,1.05,27.0,46.7,34.7,0,no_anomaly,0.0,0,0,0,0,18.5203942,73.8567485,12.0,0.0
2024-03-19T13:39:10.000Z,MISSION_0046,100,0,transit,SITE_PUN_007,18.5203981,73.8567469,12.0,131.94,4.274,0.176,5.22,-1.5855,-1.7817,131.9406,0.40732,0.00856,-0.01897,0.91305,-0.0493,-0.0271,-9.777,-0.835,0.4898,0.3809,0.2499,3,20,0.77,0.82,0.23,24.641,19.33,90.4,43.3,19897.0,8275,8346,8360,8286,57.0,57.2,59.2,57.5,2.804,2.724,2.516,2.735,8.07,327.3,34.2,59.8,1013.83,-30.49,1.02,1.0,28.4,50.0,39.1,0,no_anomaly,0.0,0,0,0,0,18.5203981,73.8567469,12.0,0.0
2024-03-19T13:39:10.100Z,MISSION_0046,101,0,transit,SITE_PUN_007,18.5203965,73.8567453,12.0,132.35,4.497,0.081,5.06,-0.9306,-1.9895,132.3499,0.404,0.0126,-0.01444,0.91456,0.236,0.0206,-9.8168,0.605,0.0727,-0.2085,0.2597,3,20,0.78,0.83,0.33,24.544,22.46,90.4,42.0,19878.0,8250,8622,8097,8551,58.8,58.4,61.3,59.2,2.702,2.883,2.891,2.827,8.17,328.7,33.9,60.4,1013.92,-28.91,0.88,1.0,27.3,49.2,39.2,0,no_anomaly,0.0,0,0,0,0,18.5203965,73.8567453,12.0,0.0
2024-03-19T13:39:10.200Z,MISSION_0046,102,0,transit,SITE_PUN_007,18.5203922,73.8567458,12.0,133.58,4.072,0.138,5.17,-5.815,-3.1012,133.5843,0.39468,0.00486,-0.05725,0.91702,0.2519,0.0934,-9.7136,-0.7847,-0.0074,0.0523,0.3179,3,16,0.57,1.02,0.23,24.559,8.52,90.3,42.7,19858.0,8317,8534,8167,8148,55.1,58.4,57.2,61.2,2.948,2.341,2.852,2.69,8.16,341.3,34.4,60.3,1013.52,-27.65,-0.44,1.53,31.2,42.7,38.4,0,no_anomaly,0.0,0,0,0,0,18.5203922,73.8567458,12.0,0.0
2024-03-19T13:39:10.300Z,MISSION_0046,103,0,transit,SITE_PUN_007,18.5203903,73.8567426,12.0,134.54,4.109,0.063,4.86,1.8959,-0.0124,134.5437,0.3863,0.00649,0.01522,0.92222,0.2327,0.0751,-9.7699,-0.0629,-0.6536,-0.2947,0.3199,3,15,0.72,0.94,0.29,24.505,17.44,90.2,42.9,19839.0,8106,8309,8439,8596,58.9,57.8,59.3,60.7,3.147,2.965,2.955,2.906,8.15,337.8,34.4,59.8,1013.82,-29.22,-0.31,1.97,26.6,43.0,36.7,0,no_anomaly,0.0,0,0,0,0,18.5203903,73.8567426,12.0,0.0
2024-03-19T13:39:10.400Z,MISSION_0046,104,0,transit,SITE_PUN_007,18.5203967,73.8567411,12.0,133.74,4.412,0.112,4.59,-0.5749,-3.2714,133.741,0.39278,0.02428,-0.01582,0.91918,-0.0326,-0.0005,-9.7613,-0.0581,0.3803,0.2483,0.1593,3,14,0.73,0.95,0.34,24.587,17.06,90.1,42.5,19819.0,8488,8698,8311,8549,61.8,58.2,61.5,52.9,2.75,3.134,2.797,2.726,7.97,333.9,34.6,60.3,1014.0,-24.14,-0.32,1.29,27.4,44.0,36.4,0,no_anomaly,0.0,0,0,0,0,18.5203967,73.8567411,12.0,0.0
2024-03-19T13:39:10.500Z,MISSION_0046,105,0,transit,SITE_PUN_007,18.5204018,73.8567386,12.0,130.95,4.526,0.154,4.3,-0.3357,-0.945,130.9511,0.41509,0.00629,-0.00609,0.90974,-0.242,-0.0145,-9.8544,-0.1172,-0.023,0.5577,0.3093,3,18,0.83,1.08,0.35,24.464,18.0,90.0,41.3,19800.0,8369,8454,8154,8053,60.1,59.7,60.4,56.1,2.886,2.812,2.672,2.985,8.01,330.1,34.4,60.8,1014.16,-25.71,0.6,2.1,28.0,43.6,38.5,0,no_anomaly,0.0,0,0,0,0,18.5204018,73.8567386,12.0,0.0
2024-03-19T13:39:10.600Z,MISSION_0046,106,0,transit,SITE_PUN_007,18.520402,73.856738,12.0,129.05,4.375,0.154,4.24,0.2465,-2.0027,129.0495,0.43002,0.0167,-0.00558,0.90265,0.1825,0.0373,-9.8713,-0.2593,0.8753,0.5642,0.2369,3,20,0.85,1.07,0.46,24.534,24.44,89.9,42.7,19780.0,8405,8268,8341,8303,63.3,59.3,60.3,63.3,2.592,2.869,2.872,2.841,8.21,329.2,34.3,60.7,1013.78,-34.68,-0.77,1.65,32.0,44.7,39.6,0,no_anomaly,0.0,0,0,0,0,18.520402,73.856738,12.0,0.0
2024-03-19T13:39:10.700Z,MISSION_0046,107,0,transit,SITE_PUN_007,18.5204019,73.856739,12.0,129.37,4.201,0.103,4.35,4.1779,-2.2946,129.3738,0.42654,0.03367,0.02439,0.90351,0.0921,0.0164,-9.7816,-0.4156,-0.1568,0.2617,0.1995,3,14,0.75,0.96,0.42,24.506,20.24,89.8,41.7,19761.0,8381,8343,8393,8306,63.3,59.5,59.9,61.7,2.489,2.978,2.579,3.109,8.25,339.3,34.0,60.4,1013.22,-33.41,-0.07,1.69,30.5,47.4,36.8,0,no_anomaly,0.0,0,0,0,0,18.5204019,73.856739,12.0,0.0
2024-03-19T13:39:10.800Z,MISSION_0046,108,0,transit,SITE_PUN_007,18.5203989,73.8567361,12.0,130.23,4.603,0.14,4.02,5.2737,0.5147,130.2294,0.42054,0.01529,0.04362,0.9061,0.0067,0.0464,-9.8007,0.2804,-0.9601,0.461,0.2169,3,12,0.77,0.69,0.45,24.562,20.27,89.7,43.1,19741.0,8242,8427,8083,8356,55.5,65.0,60.4,57.8,2.639,2.617,2.685,3.107,9.16,339.4,34.2,60.2,1013.37,-35.01,1.57,1.89,28.5,46.5,34.9,0,no_anomaly,0.0,0,0,0,0,18.5203989,73.8567361,12.0,0.0
2024-03-19T13:39:10.900Z,MISSION_0046,109,0,transit,SITE_PUN_007,18.5203981,73.8567387,12.0,127.81,5.374,0.084,4.32,-5.8698,-1.5164,127.8072,0.43988,-0.01065,-0.05179,0.8965,0.0742,-0.1292,-9.8269,-0.3397,0.2899,-0.175,0.2809,3,12,0.72,1.12,0.24,24.496,24.35,89.6,43.2,19722.0,8358,8465,8470,8280,58.7,56.7,59.3,58.4,2.915,2.509,2.953,2.652,7.49,336.6,34.1,60.6,1013.85,-34.78,-1.64,1.49,33.8,43.8,38.3,0,no_anomaly,0.0,0,0,0,0,18.5203981,73.8567387,12.0,0.0
2024-03-19T13:39:11.000Z,MISSION_0046,110,0,transit,SITE_PUN_007,18.5203943,73.856736,12.0,128.66,5.099,0.119,4.06,0.0012,-2.8336,128.6645,0.43302,0.02229,-0.0107,0.90105,0.0974,-0.0003,-9.8774,0.6141,0.1316,-0.0978,0.1836,3,13,0.57,0.68,0.31,24.603,20.92,89.6,42.6,19702.0,8217,8459,8557,8147,59.1,58.6,57.6,58.2,2.657,2.763,2.411,2.823,6.89,340.7,34.2,60.1,1014.24,-34.49,0.37,1.45,30.4,41.4,35.6,0,no_anomaly,0.0,0,0,0,0,18.5203943,73.856736,12.0,0.0
2024-03-19T13:39:11.100Z,MISSION_0046,111,0,transit,SITE_PUN_007,18.5203949,73.8567372,12.0,129.76,4.708,0.222,4.18,5.4913,-2.5588,129.7598,0.42296,0.04052,0.03389,0.90461,-0.0094,-0.0249,-9.7995,0.5759,-0.5172,0.2694,0.3083,3,16,0.63,1.12,0.29,24.455,24.18,89.5,43.3,19683.0,8329,8295,8368,8575,59.3,60.5,64.0,59.8,2.776,2.892,2.715,2.709,8.4,329.3,34.2,60.8,1013.58,-30.23,-0.82,2.08,27.3,41.5,34.9,0,no_anomaly,0.0,0,0,0,0,18.5203949,73.8567372,12.0,0.0
2024-03-19T13:39:11.200Z,MISSION_0046,112,0,transit,SITE_PUN_007,18.520394,73.8567346,12.0,131.01,5.098,0.127,3.91,-3.9319,-2.1395,131.0097,0.41488,0.00276,-0.03895,0.90904,-0.1527,-0.0304,-9.8116,0.203,1.2496,0.4534,0.2898,3,19,0.64,0.6,0.24,24.578,22.12,89.4,42.5,19664.0,8417,8354,8241,8224,56.3,62.8,61.7,58.4,2.765,3.005,2.732,3.115,7.98,337.8,34.4,60.4,1013.84,-34.12,0.31,1.75,26.7,40.7,34.5,0,no_anomaly,0.0,0,0,0,0,18.520394,73.8567346,12.0,0.0
2024-03-19T13:39:11.300Z,MISSION_0046,113,0,transit,SITE_PUN_007,18.5203917,73.8567385,12.0,130.24,4.465,0.04,4.39,-3.3962,-0.998,130.2431,0.42073,-0.00457,-0.03054,0.90666,-0.2017,0.0709,-9.8109,0.3404,-0.4559,0.5358,0.2225,3,17,0.82,0.79,0.2,24.578,23.69,89.3,41.9,19644.0,8207,8323,8278,8159,55.2,60.6,56.5,54.5,2.949,2.894,2.804,2.902,8.08,333.3,34.3,61.0,1014.05,-26.76,-1.38,1.16,29.2,49.0,37.3,0,no_anomaly,0.0,0,0,0,0,18.5203917,73.8567385,12.0,0.0
2024-03-19T13:39:11.400Z,MISSION_0046,114,0,transit,SITE_PUN_007,18.5203911,73.8567365,12.0,131.75,4.719,0.102,4.18,4.1836,-2.3387,131.7488,0.4077,0.03353,0.02497,0.91216,0.0169,-0.0117,-9.7902,0.3308,0.2234,-0.1661,0.2284,3,15,0.59,0.99,0.28,24.613,18.68,89.2,43.2,19625.0,8386,8279,8131,8297,62.4,60.2,57.7,58.7,2.86,2.646,2.815,3.019,8.03,328.8,34.0,59.8,1013.88,-29.36,-0.52,1.93,29.7,46.2,37.5,0,no_anomaly,0.0,0,0,0,0,18.5203911,73.8567365,12.0,0.0
2024-03-19T13:39:11.500Z,MISSION_0046,115,0,transit,SITE_PUN_007,18.5203874,73.8567381,12.0,128.62,4.725,0.062,4.47,3.6485,-2.6432,128.6226,0.43248,0.03457,0.01869,0.90078,0.1118,0.0595,-9.828,-0.2054,-0.2395,-0.4236,0.2473,3,13,0.76,0.93,0.39,24.514,20.36,89.1,42.7,19605.0,8408,8479,8322,8235,57.0,57.9,63.4,58.3,2.784,2.737,2.721,2.83,8.06,334.5,34.3,60.2,1013.84,-26.92,0.35,1.27,31.3,41.9,34.9,0,no_anomaly,0.0,0,0,0,0,18.5203874,73.8567381,12.0,0.0
2024-03-19T13:39:11.600Z,MISSION_0046,116,0,transit,SITE_PUN_007,18.5203913,73.8567343,12.0,124.87,4.626,0.086,3.94,2.644,-3.9001,124.8653,0.4617,0.04083,0.0047,0.88608,0.3504,-0.0284,-9.7221,0.0492,0.5582,-0.2985,0.2407,3,17,0.7,0.94,0.29,24.635,18.21,89.0,42.3,19586.0,8187,8199,8368,8391,60.0,56.4,57.2,59.3,2.803,2.882,2.823,2.581,8.27,340.3,34.4,59.9,1013.6,-31.45,-0.34,1.42,30.3,46.9,37.2,0,no_anomaly,0.0,0,0,0,0,18.5203913,73.8567343,12.0,0.0
2024-03-19T13:39:11.700Z,MISSION_0046,117,0,transit,SITE_PUN_007,18.5203943,73.8567347,12.0,126.4,5.0,0.044,3.92,2.0519,-1.6163,126.4042,0.4505,0.02066,0.00962,0.89248,0.1421,-0.0368,-9.7631,0.3701,0.2707,0.1483,0.3026,3,16,0.7,0.91,0.33,24.65,25.11,88.9,42.7,19566.0,8359,8393,8589,8405,58.3,60.6,54.0,58.9,2.777,2.824,2.746,2.773,8.24,338.8,33.6,60.4,1013.59,-30.66,-0.57,1.32,28.7,48.7,37.7,0,no_anomaly,0.0,0,0,0,0,18.5203943,73.8567347,12.0,0.0
2024-03-19T13:39:11.800Z,MISSION_0046,118,0,transit,SITE_PUN_007,18.5203968,73.8567334,12.0,127.1,5.376,0.025,3.73,0.1097,-2.5661,127.1047,0.44525,0.02047,-0.00912,0.89513,0.1314,0.0284,-9.7684,0.4576,0.3754,-0.2899,0.3019,3,12,0.84,0.83,0.41,24.497,21.52,88.8,41.7,19547.0,8350,8095,8263,8331,59.4,58.4,57.6,59.9,2.475,3.221,2.869,2.892,7.36,335.3,34.1,59.3,1013.8,-34.48,-0.13,1.33,30.9,45.4,38.2,0,no_anomaly,0.0,0,0,0,0,18.5203968,73.8567334,12.0,0.0
2024-03-19T13:39:11.900Z,MISSION_0046,119,0,transit,SITE_PUN_007,18.5203956,73.8567334,12.0,126.82,5.291,0.143,3.75,-4.6597,-0.7046,126.8183,0.44746,-0.0127,-0.0391,0.89336,-0.0964,0.0535,-9.7273,-0.6128,0.4133,-0.0634,0.2004,3,16,0.75,1.04,0.39,24.537,17.22,88.8,42.6,19527.0,8226,8344,8240,8297,56.3,59.9,60.6,60.5,2.954,3.215,2.672,2.545,8.28,333.0,34.3,59.9,1013.59,-33.72,0.19,1.23,27.8,47.6,37.4,0,no_anomaly,0.0,0,0,0,0,18.5203956,73.8567334,12.0,0.0
2024-03-19T13:39:12.000Z,MISSION_0046,120,0,transit,SITE_PUN_007,18.5203944,73.8567312,12.0,127.84,5.028,0.119,3.53,-5.2438,-2.03,127.8439,0.43979,-0.00421,-0.04886,0.89676,-0.4909,0.0792,-9.8232,-0.5076,0.5938,0.135,0.2399,3,13,0.65,0.9,0.26,24.449,20.7,88.7,41.8,19508.0,8424,8179,8420,8291,58.3,59.1,60.0,61.4,3.098,2.861,2.96,2.938,8.15,333.0,34.4,60.4,1013.95,-27.96,0.21,1.93,26.2,39.3,34.2,0,no_anomaly,0.0,0,0,0,0,18.5203944,73.8567312,12.0,0.0
2024-03-19T13:39:12.100Z,MISSION_0046,121,0,transit,SITE_PUN_007,18.5203954,73.8567255,12.0,131.56,4.588,0.1,2.88,-9.4784,0.0616,131.5603,0.4088,-0.03438,-0.07513,0.90888,-0.0333,-0.0061,-9.7734,0.3585,0.4785,-0.1053,0.2348,3,15,0.66,0.75,0.2,24.488,20.12,88.6,42.8,19488.0,8517,8438,8142,8438,61.1,64.7,59.5,59.2,2.897,2.829,2.617,2.743,7.85,336.7,34.1,60.8,1013.77,-31.98,-0.86,1.82,31.7,45.0,39.3,0,no_anomaly,0.0,0,0,0,0,18.5203954,73.8567255,12.0,0.0
2024-03-19T13:39:12.200Z,MISSION_0046,122,0,transit,SITE_PUN_007,18.5203971,73.856727,12.0,133.78,4.715,0.02,3.02,-0.5414,-2.0135,133.7763,0.39254,0.01431,-0.01124,0.91956,-0.0473,0.005,-9.8616,0.0059,-0.289,0.3794,0.1982,3,15,0.56,1.17,0.2,24.448,22.08,88.5,42.4,19469.0,8476,8366,8503,7889,61.0,60.6,58.4,58.6,2.752,2.818,2.748,2.757,7.96,334.7,34.4,59.3,1013.78,-32.97,0.73,1.46,26.1,45.7,36.4,0,no_anomaly,0.0,0,0,0,0,18.5203971,73.856727,12.0,0.0
2024-03-19T13:39:12.300Z,MISSION_0046,123,0,transit,SITE_PUN_007,18.5204023,73.8567292,12.0,132.85,4.61,0.119,3.26,-0.659,-2.2288,132.8518,0.39996,0.01553,-0.01305,0.91631,-0.0485,0.0398,-9.783,0.1298,-0.3881,0.2905,0.2528,3,20,0.64,0.6,0.2,24.439,18.28,88.4,42.3,19450.0,8239,8320,8340,8322,62.0,57.0,52.6,59.9,2.782,2.81,2.743,2.433,7.89,343.6,34.4,60.4,1013.75,-25.28,-0.45,1.25,27.6,42.4,38.9,0,no_anomaly,0.0,0,0,0,0,18.5204023,73.8567292,12.0,0.0
2024-03-19T13:39:12.400Z,MISSION_0046,124,0,transit,SITE_PUN_007,18.5203992,73.8567298,12.0,132.22,4.786,0.143,3.32,-0.1568,-0.3649,132.2218,0.40497,0.00236,-0.00254,0.91432,0.0663,-0.0221,-9.8219,0.0623,-0.0528,0.2119,0.2737,3,13,0.56,0.77,0.2,24.505,20.12,88.3,42.8,19430.0,8517,8282,8294,8632,60.4,59.3,63.9,59.5,2.803,2.85,3.128,2.653,8.46,345.2,34.4,60.8,1013.57,-25.22,-0.02,1.78,31.7,39.4,36.8,0,no_anomaly,0.0,0,0,0,0,18.5203992,73.8567298,12.0,0.0
2024-03-19T13:39:12.500Z,MISSION_0046,125,0,transit,SITE_PUN_007,18.5203959,73.856732,12.0,133.92,4.634,0.188,3.6,2.4815,-1.1969,133.9247,0.39101,0.01808,0.01584,0.92007,-0.0874,0.0121,-9.8816,0.8761,0.3851,-0.0435,0.244,3,16,0.68,0.8,0.36,24.509,16.26,88.2,42.6,19411.0,8150,8062,7958,8479,58.0,62.1,61.5,60.8,2.821,2.899,2.802,2.686,7.03,341.8,34.6,61.4,1013.86,-28.81,-0.06,1.2,27.8,43.7,33.7,0,no_anomaly,0.0,0,0,0,0,18.5203959,73.856732,12.0,0.0
2024-03-19T13:39:12.600Z,MISSION_0046,126,0,transit,SITE_PUN_007,18.5203962,73.8567336,12.0,135.84,4.53,0.148,3.76,-1.8923,-2.7653,135.8441,0.37608,0.01615,-0.02437,0.92613,-0.1538,-0.0224,-9.8194,-0.4759,0.6846,-0.3812,0.1827,3,10,0.68,0.74,0.25,24.524,15.15,88.1,43.1,19391.0,8394,8429,8310,8060,58.5,63.4,58.1,59.4,2.976,2.841,2.808,2.843,8.02,338.4,33.9,60.8,1013.58,-28.33,-0.0,1.03,29.3,40.5,34.2,0,no_anomaly,0.0,0,0,0,0,18.5203962,73.8567336,12.0,0.0
2024-03-19T13:39:12.700Z,MISSION_0046,127,0,transit,SITE_PUN_007,18.5203901,73.85673,12.0,134.2,4.698,0.05,3.52,1.0388,-2.8063,134.1958,0.38882,0.02608,-0.00118,0.92094,-0.0784,-0.0266,-9.8172,0.5279,0.1935,-0.2231,0.2892,3,14,0.71,0.77,0.33,24.446,18.75,88.1,42.3,19372.0,8207,8151,8035,8385,59.3,57.1,57.1,58.4,2.953,2.832,2.932,2.775,7.91,343.4,34.1,59.9,1013.67,-28.51,0.84,1.33,28.3,38.7,35.9,0,no_anomaly,0.0,0,0,0,0,18.5203901,73.85673,12.0,0.0
2024-03-19T13:39:12.800Z,MISSION_0046,128,0,transit,SITE_PUN_007,18.5203914,73.8567342,12.0,136.17,5.58,0.125,3.93,6.5906,-1.7769,136.1746,0.37171,0.03581,0.04755,0.92644,-0.2632,-0.1152,-9.7336,0.4619,-0.0588,-0.1368,0.2705,3,13,0.5,0.94,0.2,24.527,23.68,88.0,42.0,19352.0,8379,8378,8264,8323,60.9,61.2,58.7,59.8,3.12,2.759,3.061,2.663,7.9,335.7,34.4,60.6,1013.77,-33.33,0.64,1.35,28.5,48.4,39.4,0,no_anomaly,0.0,0,0,0,0,18.5203914,73.8567342,12.0,0.0
2024-03-19T13:39:12.900Z,MISSION_0046,129,0,transit,SITE_PUN_007,18.5203923,73.8567379,12.0,136.38,5.737,0.023,4.31,8.2823,-2.7767,136.3813,0.36882,0.04926,0.05805,0.92638,-0.0161,0.0135,-9.7503,0.3554,0.7189,0.029,0.2414,3,17,0.72,1.14,0.37,24.41,22.53,87.9,42.1,19333.0,8192,8583,8444,8580,57.1,58.3,58.6,60.1,2.57,2.879,2.942,2.864,7.78,336.1,34.0,60.0,1013.57,-28.44,-0.23,1.36,29.7,42.1,38.0,0,no_anomaly,0.0,0,0,0,0,18.5203923,73.8567379,12.0,0.0
