timestamp_utc,mission_id,frame_id,waypoint_id,inspection_phase,site_id,latitude_deg,longitude_deg,altitude_m,heading_deg,ground_speed_ms,vertical_speed_ms,distance_to_tower_m,roll_deg,pitch_deg,yaw_deg,quat_w,quat_x,quat_y,quat_z,accel_x_ms2,accel_y_ms2,accel_z_ms2,gyro_x_rads,gyro_y_rads,gyro_z_rads,vibration_level,gps_fix_type,gps_satellite_count,gps_hdop,gps_vdop,position_error_m,battery_voltage_v,battery_current_a,battery_remaining_pct,battery_temp_c,battery_capacity_mah,motor_fl_rpm,motor_fr_rpm,motor_rl_rpm,motor_rr_rpm,motor_fl_temp_c,motor_fr_temp_c,motor_rl_temp_c,motor_rr_temp_c,motor_fl_thrust_n,motor_fr_thrust_n,motor_rl_thrust_n,motor_rr_thrust_n,wind_speed_ms,wind_dir_deg,air_temp_c,humidity_pct,pressure_hpa,gimbal_pitch_deg,gimbal_roll_deg,zoom_factor,ir_temp_min_c,ir_temp_max_c,ir_temp_avg_c,anomaly_detected,anomaly_class,anomaly_confidence,anomaly_bbox_x,anomaly_bbox_y,anomaly_bbox_w,anomaly_bbox_h,anomaly_gps_lat,anomaly_gps_lon,anomaly_gps_alt_m,ir_temp_delta_c
2024-09-14T14:39:00.000Z,MISSION_0047,0,0,takeoff,SITE_AMD_008,23.0225017,72.5714021,1.5,79.58,0.473,0.106,0.3,1.117,-0.1551,79.5792,0.76835,0.00836,0.0052,0.63995,0.171,-0.0061,-9.7676,-0.7543,-0.0932,-0.2908,0.0761,3,18,0.81,0.84,0.43,24.848,20.63,99.9,31.7,21981.0,7989,7562,7789,8085,49.7,52.0,48.1,47.4,2.942,2.772,2.642,3.074,1.26,78.9,23.5,43.2,1019.72,-26.31,-1.35,1.69,17.6,35.3,24.2,0,no_anomaly,0.0,0,0,0,0,23.0225017,72.5714021,1.5,0.0
2024-09-14T14:39:00.100Z,MISSION_0047,1,0,takeoff,SITE_AMD_008,23.0225051,72.5714007,3.0,78.36,0.423,0.078,0.57,-0.4677,-0.8588,78.361,0.77515,0.00157,-0.00839,0.63172,0.0791,-0.01,-9.8471,0.098,0.5715,0.2056,0.0912,3,16,0.76,0.79,0.41,24.804,19.67,99.8,32.0,21962.0,8289,8113,8030,8011,45.8,47.7,48.4,50.3,2.8,2.991,2.909,2.603,0.9,94.3,23.9,42.7,1019.51,-29.1,1.55,1.72,19.3,33.7,27.9,0,no_anomaly,0.0,0,0,0,0,23.0225051,72.5714007,3.0,0.0
2024-09-14T14:39:00.200Z,MISSION_0047,2,0,takeoff,SITE_AMD_008,23.0225034,72.5714015,4.5,77.23,0.742,0.063,0.41,0.4743,-0.1131,77.2311,0.78134,0.00385,0.00181,0.62409,0.0474,-0.0777,-9.753,0.6565,-0.0917,-0.4905,0.0844,3,13,0.62,0.95,0.28,24.72,17.11,99.7,31.6,21943.0,7886,8086,8103,8270,50.3,44.6,49.5,49.7,2.853,2.534,2.783,2.603,0.93,81.0,23.2,43.9,1019.22,-32.97,-1.78,1.51,20.7,32.9,25.1,0,no_anomaly,0.0,0,0,0,0,23.0225034,72.5714015,4.5,0.0
2024-09-14T14:39:00.300Z,MISSION_0047,3,0,takeoff,SITE_AMD_008,23.0225084,72.5713988,5.0,77.9,1.06,0.14,0.95,-2.1278,-5.1333,77.9001,0.7773,0.01372,-0.04648,0.62726,-0.085,0.0937,-9.7958,-0.7017,0.0716,0.4645,0.1131,3,11,0.53,1.18,0.2,24.742,21.79,99.7,31.3,21924.0,7930,8132,7829,7790,46.4,51.6,48.0,51.7,2.654,3.107,2.776,3.035,1.77,85.7,23.3,43.1,1019.45,-28.08,-0.09,1.31,21.3,31.2,24.0,0,no_anomaly,0.0,0,0,0,0,23.0225084,72.5713988,5.0,0.0
2024-09-14T14:39:00.400Z,MISSION_0047,4,0,takeoff,SITE_AMD_008,23.022515,72.5713988,5.0,76.97,1.15,0.081,1.67,2.7697,-0.4718,76.967,0.78249,0.02148,0.01182,0.62218,-0.0611,-0.0672,-9.8193,-0.3183,-1.1451,-0.0735,0.0804,3,14,0.55,1.19,0.21,24.882,24.77,99.6,32.4,21906.0,7612,8015,8113,7938,48.8,48.0,52.9,46.7,2.715,2.661,2.942,3.041,1.66,86.0,23.5,43.2,1019.36,-33.17,0.55,1.66,19.3,35.0,27.8,0,no_anomaly,0.0,0,0,0,0,23.022515,72.5713988,5.0,0.0
2024-09-14T14:39:00.500Z,MISSION_0047,5,0,takeoff,SITE_AMD_008,23.0225123,72.5714045,5.0,73.81,0.776,0.066,1.46,-0.9425,1.2366,73.8104,0.7995,-0.01306,0.00369,0.60051,0.0055,0.0392,-9.8072,-0.1252,0.4703,-0.5818,0.0731,3,18,0.6,0.91,0.26,24.869,17.57,99.5,32.3,21887.0,7916,8231,8142,7995,50.5,49.9,47.0,47.9,2.749,2.78,2.846,2.552,0.79,89.0,23.2,42.9,1019.19,-30.21,-0.29,1.41,20.5,38.0,24.4,0,no_anomaly,0.0,0,0,0,0,23.0225123,72.5714045,5.0,0.0
2024-09-14T14:39:00.600Z,MISSION_0047,6,0,takeoff,SITE_AMD_008,23.0225072,72.5714006,5.0,74.74,0.724,0.116,0.8,0.052,0.6737,74.7403,0.79472,-0.00321,0.00495,0.60695,0.0639,0.0866,-9.8373,-0.6847,-1.1105,0.0883,0.2094,3,12,0.54,0.86,0.24,24.782,19.23,99.4,31.9,21868.0,7858,7826,8057,7920,48.8,47.5,45.9,48.2,2.692,2.756,2.916,2.959,1.06,100.7,23.4,43.2,1019.41,-29.06,-1.24,1.0,21.6,34.6,25.6,0,no_anomaly,0.0,0,0,0,0,23.0225072,72.5714006,5.0,0.0
2024-09-14T14:39:00.700Z,MISSION_0047,7,0,takeoff,SITE_AMD_008,23.0225086,72.5714006,5.0,73.0,0.423,0.183,0.96,-0.4091,-3.2332,73.0011,0.80359,0.01391,-0.0248,0.59451,0.0618,0.0781,-9.8489,-0.5402,0.1374,-0.4433,0.164,3,12,0.52,0.93,0.2,24.878,20.48,99.3,31.0,21850.0,7833,8003,7660,8122,51.0,44.3,47.2,50.6,2.606,2.67,2.721,2.534,1.26,82.8,23.4,43.5,1019.15,-28.76,1.18,1.43,17.4,34.9,26.0,0,no_anomaly,0.0,0,0,0,0,23.0225086,72.5714006,5.0,0.0
2024-09-14T14:39:00.800Z,MISSION_0047,8,0,takeoff,SITE_AMD_008,23.0225127,72.5714044,5.0,72.49,0.384,0.132,1.49,1.972,-1.8687,72.4856,0.80613,0.02352,-0.00298,0.59127,0.0062,0.036,-9.7421,-0.1797,-0.1497,-0.016,0.1491,3,20,0.74,0.92,0.29,24.694,12.97,99.2,30.6,21831.0,7770,7917,8055,7970,45.4,48.4,46.4,55.5,2.691,3.022,3.075,2.704,1.35,95.2,23.7,43.0,1019.3,-30.82,1.21,2.79,20.2,29.5,27.0,0,no_anomaly,0.0,0,0,0,0,23.0225127,72.5714044,5.0,0.0
2024-09-14T14:39:00.900Z,MISSION_0047,9,0,takeoff,SITE_AMD_008,23.0225039,72.5714038,5.0,70.09,0.237,0.131,0.61,0.6118,-0.078,70.0878,0.8187,0.00476,0.00251,0.5742,-0.0062,-0.03,-9.7415,-0.1798,-0.4816,0.0454,0.1217,3,19,0.59,0.97,0.3,24.769,24.47,99.1,31.5,21812.0,8025,7999,7858,8003,47.7,45.8,46.1,48.1,2.846,2.774,2.819,2.63,2.02,78.4,23.9,42.3,1019.26,-29.92,-0.79,1.4,21.6,38.7,26.1,0,no_anomaly,0.0,0,0,0,0,23.0225039,72.5714038,5.0,0.0
2024-09-14T14:39:01.000Z,MISSION_0047,10,0,takeoff,SITE_AMD_008,23.0225054,72.5714042,5.0,70.85,0.33,0.092,0.76,0.4708,-0.6732,70.8473,0.81485,0.00675,-0.00241,0.57962,0.0685,-0.0035,-9.8473,1.012,-0.1799,0.9745,0.0841,3,13,0.81,0.73,0.3,24.767,17.52,99.1,31.5,21793.0,8234,7853,7979,8003,52.1,50.6,52.2,49.8,2.79,2.876,2.759,2.704,0.3,79.7,23.1,43.5,1019.44,-33.5,0.18,1.99,20.0,37.5,26.5,0,no_anomaly,0.0,0,0,0,0,23.0225054,72.5714042,5.0,0.0
2024-09-14T14:39:01.100Z,MISSION_0047,11,0,takeoff,SITE_AMD_008,23.0225072,72.5714012,5.0,71.04,0.628,0.09,0.81,1.2722,-1.2041,71.0432,0.81373,0.01514,-0.0021,0.58104,0.1742,0.0087,-9.8003,0.4748,0.3011,0.1606,0.1158,3,12,0.59,1.0,0.25,24.72,15.45,99.0,31.1,21775.0,7880,8170,8077,8085,45.7,50.9,48.3,49.1,2.871,2.749,2.856,2.53,0.71,89.5,23.3,43.1,1019.71,-28.84,1.43,1.55,21.9,32.0,26.7,0,no_anomaly,0.0,0,0,0,0,23.0225072,72.5714012,5.0,0.0
2024-09-14T14:39:01.200Z,MISSION_0047,12,0,takeoff,SITE_AMD_008,23.0225068,72.5714027,5.0,69.97,1.356,0.178,0.82,0.477,-2.0025,69.9686,0.81914,0.01343,-0.01193,0.57332,0.0178,-0.0769,-9.8126,0.3934,0.5626,-0.1386,0.1715,3,10,0.67,0.8,0.32,24.869,19.39,98.9,32.3,21756.0,8134,7948,8038,8037,48.3,47.2,47.8,50.2,2.52,3.079,2.652,2.684,1.19,90.5,23.4,42.9,1019.14,-25.39,0.95,1.46,18.9,37.1,27.7,0,no_anomaly,0.0,0,0,0,0,23.0225068,72.5714027,5.0,0.0
2024-09-14T14:39:01.300Z,MISSION_0047,13,0,takeoff,SITE_AMD_008,23.0225105,72.5714032,5.0,69.38,1.933,0.094,1.23,-1.9115,-2.3882,69.377,0.82216,-0.00185,-0.02662,0.56863,0.1185,0.0943,-9.8844,0.2473,-0.0881,0.0272,0.0781,3,11,0.67,0.71,0.4,24.779,13.21,98.8,31.4,21737.0,7885,7863,8007,7980,49.2,47.7,49.6,50.7,2.884,2.912,2.576,2.76,0.99,88.8,23.3,43.2,1019.45,-29.05,1.01,1.34,17.6,32.3,26.6,0,no_anomaly,0.0,0,0,0,0,23.0225105,72.5714032,5.0,0.0
2024-09-14T14:39:01.400Z,MISSION_0047,14,0,takeoff,SITE_AMD_008,23.0225111,72.571404,5.0,68.49,1.843,0.091,1.32,-1.3144,-2.511,68.4904,0.82653,0.00285,-0.02456,0.56236,-0.0041,0.0386,-9.6654,-0.0662,0.6775,0.2886,0.0482,3,19,0.77,1.16,0.41,24.753,17.35,98.7,31.4,21718.0,7740,7816,8121,8050,48.5,48.8,48.0,50.6,2.72,2.708,2.8,2.898,0.82,82.7,23.6,43.6,1019.31,-31.39,-3.42,1.36,19.6,38.6,24.5,0,no_anomaly,0.0,0,0,0,0,23.0225111,72.571404,5.0,0.0
2024-09-14T14:39:01.500Z,MISSION_0047,15,0,takeoff,SITE_AMD_008,23.0225124,72.5714089,5.0,68.54,1.371,0.024,1.7,4.6295,-0.0893,68.5372,0.82571,0.03382,0.0221,0.56264,0.0446,0.0172,-9.8351,-1.5779,-0.5932,0.5284,0.0902,3,18,0.72,1.18,0.2,24.779,17.64,98.6,31.3,21700.0,7952,7967,7995,7971,46.4,49.9,48.1,49.8,2.692,2.607,2.766,2.856,0.67,83.1,23.3,43.3,1019.52,-37.1,0.12,1.4,21.9,32.5,28.8,0,no_anomaly,0.0,0,0,0,0,23.0225124,72.5714089,5.0,0.0
2024-09-14T14:39:01.600Z,MISSION_0047,16,0,takeoff,SITE_AMD_008,23.0225109,72.57141,5.0,68.28,1.611,0.192,1.65,-2.3802,-1.6657,68.2849,0.82755,-0.00903,-0.02368,0.56082,0.0258,-0.0456,-9.7374,-1.0835,0.5391,-0.233,0.0759,3,17,0.6,1.08,0.23,24.753,18.25,98.5,31.8,21681.0,7879,7824,7817,7990,47.7,49.5,49.6,46.5,2.709,2.989,2.57,2.849,0.65,85.8,23.8,43.3,1019.04,-32.29,-0.35,1.55,19.9,34.1,23.5,0,no_anomaly,0.0,0,0,0,0,23.0225109,72.57141,5.0,0.0
2024-09-14T14:39:01.700Z,MISSION_0047,17,0,takeoff,SITE_AMD_008,23.0225082,72.5714113,5.0,65.85,1.847,0.077,1.55,0.0045,-2.6296,65.8491,0.83917,0.0125,-0.01924,0.54339,-0.0346,-0.0121,-9.8442,0.4181,0.4112,0.5309,0.0569,3,18,0.72,0.86,0.27,24.772,22.76,98.5,31.4,21662.0,7969,8060,8013,7882,49.0,49.0,47.8,47.1,2.486,2.641,2.697,2.574,0.58,82.9,23.5,43.3,1019.46,-29.2,-1.51,1.35,17.4,31.2,27.3,0,no_anomaly,0.0,0,0,0,0,23.0225082,72.5714113,5.0,0.0
2024-09-14T14:39:01.800Z,MISSION_0047,18,0,takeoff,SITE_AMD_008,23.0225058,72.5714096,5.0,65.12,2.132,0.09,1.25,4.365,-1.5192,65.1158,0.84189,0.03922,0.00933,0.53814,0.0429,0.0135,-9.7301,-0.1897,0.1814,-0.3592,0.1781,3,16,0.56,1.2,0.2,24.799,20.67,98.4,32.4,21644.0,7746,8097,7940,8229,46.8,48.3,49.3,43.5,2.739,2.998,2.811,2.752,1.52,88.5,23.7,42.6,1019.33,-30.47,-1.0,1.66,14.6,28.2,27.1,0,no_anomaly,0.0,0,0,0,0,23.0225058,72.5714096,5.0,0.0
2024-09-14T14:39:01.900Z,MISSION_0047,19,0,takeoff,SITE_AMD_008,23.0225063,72.5714063,5.0,64.93,1.952,0.04,0.99,0.8529,-2.6678,64.9314,0.84337,0.01877,-0.01565,0.53678,-0.0338,0.0594,-9.8735,-0.5553,0.4491,-0.0288,0.1102,3,15,0.75,1.05,0.2,24.771,18.85,98.3,30.9,21625.0,7931,7700,7917,7907,50.1,47.3,49.9,44.9,3.036,2.879,2.905,2.699,1.01,85.6,23.6,43.4,1019.26,-24.66,0.54,1.79,17.6,36.1,25.8,0,no_anomaly,0.0,0,0,0,0,23.0225063,72.5714063,5.0,0.0
2024-09-14T14:39:02.000Z,MISSION_0047,20,0,takeoff,SITE_AMD_008,23.0225069,72.5714045,5.0,64.41,1.741,0.161,0.92,0.385,-3.389,64.4113,0.84571,0.0186,-0.02323,0.53281,-0.0177,0.0468,-9.7889,0.586,0.2119,-0.0491,0.1303,3,18,0.76,1.1,0.38,24.796,18.76,98.2,32.0,21606.0,7988,7912,7984,8100,47.7,52.7,44.6,48.6,2.815,2.749,2.838,2.938,1.06,85.3,23.8,42.9,1019.3,-30.17,0.81,1.62,17.9,36.2,27.3,0,no_anomaly,0.0,0,0,0,0,23.0225069,72.5714045,5.0,0.0
2024-09-14T14:39:02.100Z,MISSION_0047,21,0,takeoff,SITE_AMD_008,23.0225091,72.5714061,5.0,63.53,2.154,0.177,1.22,-0.6689,-2.8222,63.5303,0.85002,0.008,-0.02401,0.52615,-0.067,-0.0517,-9.7361,-1.2823,0.3253,-0.2037,0.139,3,14,0.6,0.83,0.2,24.727,15.65,98.1,31.7,21587.0,7771,8042,7901,7954,47.3,49.3,50.7,50.9,2.703,2.911,2.828,2.749,1.15,84.2,23.5,42.7,1019.63,-36.32,-0.08,1.56,21.5,30.8,27.8,0,no_anomaly,0.0,0,0,0,0,23.0225091,72.5714061,5.0,0.0
2024-09-14T14:39:02.200Z,MISSION_0047,22,0,takeoff,SITE_AMD_008,23.022511,72.5714129,5.0,63.88,2.248,0.135,1.89,0.8436,-0.8599,63.8779,0.84854,0.01022,-0.00247,0.52903,-0.0278,-0.0621,-9.8125,0.2348,-0.0228,-0.3826,0.1216,3,10,0.76,0.78,0.44,24.792,18.76,98.0,31.1,21569.0,8156,7700,7909,8064,46.1,48.0,48.8,47.9,2.95,2.594,2.61,2.969,1.23,80.4,23.6,43.6,1019.76,-26.38,-1.46,1.31,19.1,35.9,27.6,0,no_anomaly,0.0,0,0,0,0,23.022511,72.5714129,5.0,0.0
2024-09-14T14:39:02.300Z,MISSION_0047,23,0,takeoff,SITE_AMD_008,23.0225091,72.5714165,5.0,63.13,2.318,0.079,2.1,-0.8988,0.2679,63.1311,0.852,-0.00791,-0.00211,0.52347,-0.086,-0.0258,-9.8332,-0.2228,-0.1161,-0.7243,0.1261,3,17,0.53,0.83,0.2,24.792,19.59,98.0,32.6,21550.0,7918,7920,8167,7822,50.3,49.0,49.8,47.3,2.606,2.834,2.631,2.825,0.0,88.4,23.4,43.0,1018.96,-29.27,0.83,1.99,20.9,32.1,23.7,0,no_anomaly,0.0,0,0,0,0,23.0225091,72.5714165,5.0,0.0
2024-09-14T14:39:02.400Z,MISSION_0047,24,0,takeoff,SITE_AMD_008,23.0225095,72.5714207,5.0,62.82,2.031,0.076,2.54,-0.6328,0.1579,62.8174,0.85345,-0.00543,-0.0017,0.52114,0.1086,-0.0318,-9.867,0.2025,0.3088,-0.3873,0.1509,3,15,0.78,0.88,0.41,24.703,22.28,97.9,32.4,21531.0,8049,7862,8022,7903,47.3,49.8,48.5,47.7,2.982,2.77,2.897,2.726,1.62,98.8,23.5,43.3,1019.52,-31.38,-0.1,1.53,16.6,29.1,23.9,0,no_anomaly,0.0,0,0,0,0,23.0225095,72.5714207,5.0,0.0
2024-09-14T14:39:02.500Z,MISSION_0047,25,0,takeoff,SITE_AMD_008,23.0225091,72.5714249,5.0,62.97,1.236,0.069,2.95,1.2112,-4.6138,62.9652,0.85184,0.03003,-0.02881,0.52215,-0.0643,0.0314,-9.7527,0.3569,-0.2673,-0.542,0.1424,3,15,0.76,1.05,0.49,24.754,19.77,97.8,31.7,21512.0,8099,7921,7690,7779,49.0,48.8,48.7,46.5,3.008,2.797,2.906,2.697,1.18,89.6,23.7,42.6,1019.08,-30.58,2.02,1.74,19.3,34.0,27.7,0,no_anomaly,0.0,0,0,0,0,23.0225091,72.5714249,5.0,0.0
2024-09-14T14:39:02.600Z,MISSION_0047,26,0,takeoff,SITE_AMD_008,23.0225028,72.5714239,5.0,63.28,0.895,0.112,2.68,-0.5215,-3.0179,63.2809,0.85112,0.00994,-0.02481,0.5243,-0.0288,0.0527,-9.786,-0.452,-0.1429,0.3597,0.1211,3,17,0.55,1.01,0.26,24.667,19.91,97.7,32.0,21494.0,8080,7776,7978,8042,51.6,47.0,48.0,43.5,2.95,2.858,2.932,2.841,1.23,89.2,23.5,43.7,1019.53,-32.49,-2.62,1.86,19.5,37.3,27.4,0,no_anomaly,0.0,0,0,0,0,23.0225028,72.5714239,5.0,0.0
2024-09-14T14:39:02.700Z,MISSION_0047,27,0,takeoff,SITE_AMD_008,23.0225076,72.5714219,5.0,61.55,0.493,0.076,2.59,3.035,-1.8636,61.5526,0.85854,0.03107,-0.00042,0.51181,-0.0921,-0.0357,-9.8364,-0.1964,0.0894,-0.247,0.2033,3,15,0.71,0.88,0.34,24.743,19.17,97.6,31.1,21475.0,7838,8103,7746,7934,48.9,50.7,49.2,46.6,2.521,2.669,2.734,2.625,1.59,79.9,23.6,43.1,1019.3,-27.33,1.38,1.24,15.1,32.8,24.2,0,no_anomaly,0.0,0,0,0,0,23.0225076,72.5714219,5.0,0.0
2024-09-14T14:39:02.800Z,MISSION_0047,28,0,takeoff,SITE_AMD_008,23.0225082,72.5714233,5.0,62.25,0.651,0.056,2.75,0.3037,-2.4232,62.2508,0.85581,0.0132,-0.01673,0.51684,0.0208,0.0358,-9.8716,0.1328,-0.6601,0.1288,0.1215,3,10,0.79,0.81,0.36,24.71,19.77,97.5,33.0,21456.0,7923,7927,7859,8058,47.9,48.8,47.4,45.8,2.559,2.827,2.713,2.828,1.0,88.2,23.8,42.6,1019.3,-31.5,1.63,1.3,16.6,39.1,26.4,0,no_anomaly,0.0,0,0,0,0,23.0225082,72.5714233,5.0,0.0
2024-09-14T14:39:02.900Z,MISSION_0047,29,0,takeoff,SITE_AMD_008,23.022505,72.5714261,5.0,63.21,0.929,0.077,2.96,0.6203,1.4977,63.2083,0.85164,-0.00224,0.01397,0.52393,0.0066,0.0687,-9.7371,-0.2569,0.5621,0.4055,0.1302,3,19,0.61,0.84,0.26,24.731,17.38,97.4,31.7,21438.0,7755,7999,7817,7870,48.7,51.0,50.2,49.8,2.419,2.824,2.723,3.097,1.23,68.7,23.1,41.9,1019.54,-30.22,0.51,1.83,16.9,36.4,28.2,0,no_anomaly,0.0,0,0,0,0,23.022505,72.5714261,5.0,0.0
2024-09-14T14:39:03.000Z,MISSION_0047,30,0,takeoff,SITE_AMD_008,23.0225086,72.5714267,5.0,58.74,1.377,0.043,3.12,1.8637,-0.5523,58.7391,0.87131,0.01654,0.00378,0.49044,0.0525,0.0197,-9.8639,-0.087,-0.1038,0.2158,0.1276,3,15,0.68,0.78,0.32,24.729,19.57,97.4,31.9,21419.0,8027,8148,7930,7818,49.7,47.4,50.6,51.0,2.448,2.576,2.873,2.839,1.69,77.5,23.5,43.0,1019.31,-27.38,-1.63,1.44,18.9,38.4,27.1,0,no_anomaly,0.0,0,0,0,0,23.0225086,72.5714267,5.0,0.0
2024-09-14T14:39:03.100Z,MISSION_0047,31,0,takeoff,SITE_AMD_008,23.0225091,72.5714338,5.0,57.25,0.817,0.134,3.9,1.7476,-0.3558,57.2493,0.87765,0.01487,0.00458,0.47905,0.0331,-0.0119,-9.8531,-0.5369,-0.5823,-0.2649,0.2097,3,10,0.64,0.88,0.32,24.704,18.66,97.3,31.4,21400.0,7980,7805,7906,8041,48.2,51.1,49.7,46.5,2.744,2.802,2.677,2.795,1.55,82.1,23.5,42.2,1019.6,-29.92,-0.25,1.5,21.1,38.0,26.2,0,no_anomaly,0.0,0,0,0,0,23.0225091,72.5714338,5.0,0.0
2024-09-14T14:39:03.200Z,MISSION_0047,32,0,takeoff,SITE_AMD_008,23.0225089,72.5714368,5.0,57.38,1.047,0.066,4.22,0.1403,-3.597,57.3777,0.87679,0.01614,-0.02694,0.47985,0.0453,0.0175,-9.7951,0.2129,0.0514,0.2262,0.2206,3,13,0.56,0.94,0.28,24.786,22.19,97.2,31.8,21381.0,8098,7890,7692,7886,46.3,47.2,47.8,49.1,2.852,2.857,2.591,3.059,1.84,87.1,23.5,42.4,1019.41,-29.68,0.13,1.36,16.3,30.9,26.7,0,no_anomaly,0.0,0,0,0,0,23.0225089,72.5714368,5.0,0.0
2024-09-14T14:39:03.300Z,MISSION_0047,33,0,takeoff,SITE_AMD_008,23.022512,72.5714378,5.0,59.3,0.668,0.047,4.41,-1.4839,-0.4061,59.2993,0.86901,-0.0095,-0.00948,0.49461,0.0068,-0.0721,-9.785,-0.3828,0.2334,-0.2089,0.063,3,16,0.73,1.03,0.25,24.649,21.69,97.1,30.3,21363.0,7793,7723,7897,7974,50.0,47.3,46.8,47.5,2.657,2.92,2.866,2.896,0.35,92.5,23.2,43.3,1019.29,-31.97,0.17,1.41,18.4,38.6,29.0,0,no_anomaly,0.0,0,0,0,0,23.022512,72.5714378,5.0,0.0
2024-09-14T14:39:03.400Z,MISSION_0047,34,0,takeoff,SITE_AMD_008,23.0225124,72.5714421,5.0,61.76,0.52,0.197,4.88,-1.9884,-2.5672,61.7618,0.85809,-0.00339,-0.02813,0.51272,0.0461,-0.0094,-9.8294,0.1519,-1.2489,0.1102,0.1051,3,14,0.67,1.21,0.23,24.704,18.57,97.0,32.5,21344.0,8038,7849,7813,7630,47.2,46.7,51.7,47.7,2.851,2.672,2.868,2.674,0.15,81.2,23.6,42.8,1019.24,-26.72,1.22,1.43,16.9,37.0,24.9,0,no_anomaly,0.0,0,0,0,0,23.0225124,72.5714421,5.0,0.0
2024-09-14T14:39:03.500Z,MISSION_0047,35,0,takeoff,SITE_AMD_008,23.0225148,72.5714415,5.0,62.91,0.646,0.186,4.9,-1.7586,-0.0544,62.9092,0.85296,-0.01284,-0.00841,0.52175,-0.0752,-0.0362,-9.7641,0.6924,0.0916,-0.0749,0.064,3,16,0.75,0.83,0.35,24.671,14.85,96.9,31.9,21325.0,7980,7888,7887,7595,45.6,48.6,48.6,49.2,3.113,2.627,3.074,2.688,0.99,90.8,23.6,41.9,1019.39,-29.47,-1.06,1.28,20.8,32.8,28.1,0,no_anomaly,0.0,0,0,0,0,23.0225148,72.5714415,5.0,0.0
2024-09-14T14:39:03.600Z,MISSION_0047,36,0,takeoff,SITE_AMD_008,23.0225126,72.5714395,5.0,64.11,0.439,0.068,4.62,-0.6372,-1.8273,64.1116,0.84746,0.00375,-0.01646,0.53059,-0.0755,0.0041,-9.8248,0.3587,0.1632,-0.032,0.1387,3,14,0.74,0.93,0.21,24.776,18.81,96.8,31.6,21306.0,8224,7719,7998,8018,46.6,52.2,47.1,51.3,2.749,2.762,2.992,2.8,1.32,84.2,23.3,42.9,1019.5,-29.2,-0.91,1.64,18.2,35.1,27.5,0,no_anomaly,0.0,0,0,0,0,23.0225126,72.5714395,5.0,0.0
2024-09-14T14:39:03.700Z,MISSION_0047,37,0,takeoff,SITE_AMD_008,23.0225082,72.5714444,5.0,66.59,0.273,0.09,5.03,0.4306,-5.5814,66.5906,0.83475,0.02986,-0.03864,0.54845,0.0388,0.0566,-9.8005,0.0975,0.2017,-0.3547,0.1139,3,19,0.5,0.86,0.2,24.844,21.13,96.8,31.2,21288.0,8099,7915,8369,7912,51.4,47.3,52.4,52.9,2.599,2.732,2.89,2.682,1.61,84.8,23.6,42.7,1019.64,-31.35,-0.41,1.18,17.4,29.5,24.4,0,no_anomaly,0.0,0,0,0,0,23.0225082,72.5714444,5.0,0.0
2024-09-14T14:39:03.800Z,MISSION_0047,38,0,takeoff,SITE_AMD_008,23.0225109,72.5714399,5.0,66.58,0.088,0.093,4.61,-1.2434,-2.3059,66.5814,0.8358,0.00198,-0.02277,0.54856,0.0789,-0.0619,-9.8074,-0.5424,0.3154,0.0152,0.2173,3,15,0.65,0.7,0.21,24.719,16.46,96.7,30.6,21269.0,7992,8100,7961,7940,47.5,47.6,50.2,51.9,2.94,2.74,2.481,2.771,2.45,92.4,23.4,42.6,1019.37,-25.72,-0.98,1.42,15.9,34.1,26.7,0,no_anomaly,0.0,0,0,0,0,23.0225109,72.5714399,5.0,0.0
2024-09-14T14:39:03.900Z,MISSION_0047,39,0,takeoff,SITE_AMD_008,23.022513,72.5714386,5.0,65.82,0.206,0.083,4.53,4.9777,-3.3945,65.8208,0.83766,0.05252,-0.00126,0.54366,0.0638,-0.0015,-9.8311,0.3395,-0.1264,-0.041,0.2173,3,12,0.71,0.63,0.21,24.748,23.0,96.6,31.8,21250.0,7970,8112,7804,7546,49.5,47.4,48.0,45.0,2.844,2.741,2.891,2.734,1.11,86.3,23.4,42.7,1019.54,-30.75,2.22,1.21,16.8,32.2,23.6,0,no_anomaly,0.0,0,0,0,0,23.022513,72.5714386,5.0,0.0
2024-09-14T14:39:04.000Z,MISSION_0047,40,0,takeoff,SITE_AMD_008,23.0225133,72.5714374,5.0,66.62,0.0,0.045,4.42,1.1009,-2.553,66.6156,0.83537,0.02026,-0.01334,0.54915,0.0135,0.0263,-9.8256,-0.3214,1.1057,0.0095,0.083,3,13,0.5,1.01,0.2,24.744,19.48,96.5,31.3,21232.0,7936,7786,7946,7777,46.1,50.1,46.4,49.1,2.759,2.871,2.769,2.86,1.27,89.4,23.6,43.6,1019.65,-27.72,-0.24,1.32,16.3,36.0,27.9,0,no_anomaly,0.0,0,0,0,0,23.0225133,72.5714374,5.0,0.0
2024-09-14T14:39:04.100Z,MISSION_0047,41,0,takeoff,SITE_AMD_008,23.0225136,72.5714373,5.0,67.19,0.031,0.073,4.42,2.3935,-4.006,67.1909,0.83187,0.03672,-0.01756,0.55347,0.0068,-0.1323,-9.7898,0.4065,-0.1953,-0.055,0.0743,3,15,0.71,0.9,0.33,24.69,15.41,96.4,31.4,21213.0,8168,8130,8255,8084,46.9,49.1,46.8,48.8,2.842,2.87,2.804,2.682,1.38,92.7,23.3,43.4,1019.42,-29.94,-0.36,1.0,19.0,34.1,27.3,0,no_anomaly,0.0,0,0,0,0,23.0225136,72.5714373,5.0,0.0
2024-09-14T14:39:04.200Z,MISSION_0047,42,0,transit,SITE_AMD_008,23.022514,72.5714417,5.5,66.95,0.125,0.062,4.9,-0.6626,-1.0106,66.9506,0.83411,4e-05,-0.01055,0.5515,0.0987,-0.0122,-9.7584,-0.6703,0.5567,-0.1015,0.1657,3,17,0.82,0.71,0.4,24.678,16.52,96.3,31.0,21194.0,7853,7916,8008,7816,52.4,49.8,50.3,50.4,3.173,3.081,2.712,2.838,0.82,79.0,23.3,41.9,1019.34,-30.5,-0.59,1.77,15.2,33.1,25.2,0,no_anomaly,0.0,0,0,0,0,23.022514,72.5714417,5.5,0.0
2024-09-14T14:39:04.300Z,MISSION_0047,43,0,transit,SITE_AMD_008,23.0225092,72.5714391,6.0,65.33,0.55,0.051,4.47,-0.6109,-5.0805,65.3311,0.84112,0.01944,-0.04018,0.539,0.1047,0.0336,-9.8758,0.9045,0.3244,0.0276,0.058,3,16,0.62,1.05,0.23,24.656,14.25,96.3,32.0,21175.0,8039,8031,7762,7787,46.4,46.2,49.0,46.4,3.007,3.044,2.863,2.683,1.09,90.2,23.5,42.9,1019.11,-32.49,1.45,1.65,21.7,38.3,28.3,0,no_anomaly,0.0,0,0,0,0,23.0225092,72.5714391,6.0,0.0
2024-09-14T14:39:04.400Z,MISSION_0047,44,0,transit,SITE_AMD_008,23.0225059,72.571438,6.5,66.38,0.769,0.139,4.28,0.7121,-6.1223,66.3826,0.83546,0.03443,-0.04129,0.54692,0.001,0.0618,-9.809,-0.0396,-0.1184,0.2288,0.1177,3,11,0.72,0.95,0.25,24.744,20.75,96.2,31.6,21157.0,7797,7895,7909,7951,50.5,50.5,49.9,47.6,2.794,2.71,2.725,2.731,1.34,86.5,23.2,43.1,1019.27,-29.52,-0.72,1.36,17.4,31.3,23.9,0,no_anomaly,0.0,0,0,0,0,23.0225059,72.571438,6.5,0.0
2024-09-14T14:39:04.500Z,MISSION_0047,45,0,transit,SITE_AMD_008,23.0225028,72.5714419,7.0,64.87,0.463,0.15,4.68,2.9229,-2.5217,64.874,0.8432,0.03332,-0.00489,0.53654,0.0107,-0.0228,-9.7596,-0.0443,1.0587,0.7868,0.054,3,20,0.78,0.84,0.39,24.657,18.13,96.1,32.3,21138.0,7829,7880,7654,7871,47.9,46.7,48.2,48.4,2.579,3.071,2.995,2.814,0.79,87.2,23.3,42.9,1019.49,-27.64,-0.02,1.67,15.7,31.5,26.2,0,no_anomaly,0.0,0,0,0,0,23.0225028,72.5714419,7.0,0.0
2024-09-14T14:39:04.600Z,MISSION_0047,46,0,transit,SITE_AMD_008,23.0225035,72.5714453,7.5,66.17,0.444,0.159,5.06,-2.6956,-2.5603,66.175,0.83768,-0.00751,-0.03155,0.54519,0.0003,0.0034,-9.8396,0.1786,-0.2648,-0.0997,0.1667,3,16,0.72,1.11,0.2,24.723,20.78,96.0,31.9,21119.0,7984,8078,7822,8006,47.6,52.2,45.6,50.2,2.619,2.876,2.642,2.957,0.96,89.3,23.4,42.6,1019.68,-30.04,-0.22,1.94,18.2,37.2,27.5,0,no_anomaly,0.0,0,0,0,0,23.0225035,72.5714453,7.5,0.0
2024-09-14T14:39:04.700Z,MISSION_0047,47,0,transit,SITE_AMD_008,23.0225028,72.5714455,8.0,66.35,0.687,0.139,5.07,-1.4611,0.5998,66.3548,0.83686,-0.01354,-0.0026,0.54724,0.0255,0.0118,-9.8091,-0.2572,-0.2237,0.4802,0.175,3,20,0.69,0.81,0.24,24.661,19.5,95.9,31.7,21100.0,7925,8059,8022,7801,46.2,46.9,45.4,47.5,2.919,2.769,2.764,2.911,1.3,93.1,23.5,43.1,1019.71,-32.15,0.02,1.93,22.5,30.5,27.1,0,no_anomaly,0.0,0,0,0,0,23.0225028,72.5714455,8.0,0.0
2024-09-14T14:39:04.800Z,MISSION_0047,48,0,transit,SITE_AMD_008,23.0225018,72.571454,8.5,68.23,1.07,0.127,6.02,3.0335,-2.4383,68.2309,0.82712,0.03384,-0.00277,0.56101,-0.0683,-0.0437,-9.8181,1.1988,0.1087,0.3731,0.0915,3,11,0.85,1.1,0.28,24.721,17.04,95.8,32.4,21082.0,7917,7812,7911,8003,48.1,52.0,44.0,46.8,2.958,2.689,2.851,2.455,1.71,89.8,23.3,42.2,1019.11,-24.77,0.42,1.67,18.5,30.5,25.9,0,no_anomaly,0.0,0,0,0,0,23.0225018,72.571454,8.5,0.0
2024-09-14T14:39:04.900Z,MISSION_0047,49,0,transit,SITE_AMD_008,23.0224958,72.5714527,9.0,66.27,0.846,0.123,5.89,0.7079,-4.5496,66.2687,0.83658,0.02686,-0.02986,0.54637,-0.0491,0.0147,-9.7751,0.3172,-0.0624,-0.0368,0.1904,3,11,0.74,0.77,0.2,24.752,16.58,95.7,30.9,21063.0,7880,8042,8027,8144,46.1,52.4,51.7,47.6,2.726,2.746,2.824,2.809,2.21,80.2,23.4,42.1,1019.41,-31.38,0.2,1.0,18.7,28.7,24.1,0,no_anomaly,0.0,0,0,0,0,23.0224958,72.5714527,9.0,0.0
2024-09-14T14:39:05.000Z,MISSION_0047,50,0,transit,SITE_AMD_008,23.0224925,72.5714518,9.5,64.4,1.079,0.045,5.82,-0.5079,-1.0664,64.4039,0.84615,0.00121,-0.01024,0.53284,-0.1192,-0.1044,-9.7693,-0.636,0.0976,-0.0037,0.1534,3,11,0.74,0.87,0.36,24.625,23.34,95.7,31.8,21044.0,8002,7923,7774,7801,49.8,49.5,49.3,49.3,2.958,3.029,2.712,2.854,1.25,86.9,23.6,43.0,1019.56,-28.94,-0.68,1.39,20.6,29.0,25.7,0,no_anomaly,0.0,0,0,0,0,23.0224925,72.5714518,9.5,0.0
2024-09-14T14:39:05.100Z,MISSION_0047,51,0,transit,SITE_AMD_008,23.0224953,72.5714551,10.0,66.94,0.366,0.115,6.16,-4.0212,-0.6201,66.9449,0.83373,-0.02628,-0.02386,0.55103,-0.0285,-0.0415,-9.7949,0.0856,-0.7401,0.0015,0.1756,3,13,0.59,0.83,0.28,24.78,16.7,95.6,31.4,21025.0,7706,8015,7894,8031,48.9,47.7,47.9,47.7,2.853,2.776,2.925,2.998,2.1,84.9,23.7,42.3,1019.36,-32.28,-0.3,1.7,17.9,37.7,22.8,0,no_anomaly,0.0,0,0,0,0,23.0224953,72.5714551,10.0,0.0
2024-09-14T14:39:05.200Z,MISSION_0047,52,0,transit,SITE_AMD_008,23.0224944,72.5714513,10.5,65.62,0.357,0.045,5.74,1.7922,0.4542,65.6201,0.8404,0.011,0.01181,0.54173,-0.0004,0.0042,-9.8239,0.2348,0.5459,-0.0666,0.0774,3,13,0.57,0.72,0.25,24.619,17.67,95.5,32.1,21007.0,8222,8040,7928,8073,49.2,50.8,48.9,46.6,2.78,3.004,2.772,3.004,0.93,81.2,23.2,43.1,1019.5,-31.92,-0.53,1.47,22.1,39.4,24.6,0,no_anomaly,0.0,0,0,0,0,23.0224944,72.5714513,10.5,0.0
2024-09-14T14:39:05.300Z,MISSION_0047,53,0,transit,SITE_AMD_008,23.0224933,72.5714462,11.0,66.44,0.719,0.112,5.19,-2.2937,-2.398,66.4413,0.83645,-0.00528,-0.02846,0.54728,-0.0749,-0.022,-9.8693,-0.4488,0.4745,0.0157,0.1711,3,19,0.63,0.95,0.29,24.659,21.7,95.4,32.5,20988.0,8020,8020,7870,7993,48.2,48.9,49.1,45.2,2.63,2.835,2.816,2.768,1.05,86.8,23.4,44.0,1019.67,-34.51,-1.39,1.6,18.6,38.9,24.8,0,no_anomaly,0.0,0,0,0,0,23.0224933,72.5714462,11.0,0.0
2024-09-14T14:39:05.400Z,MISSION_0047,54,0,transit,SITE_AMD_008,23.0224991,72.571448,11.5,66.59,1.064,0.099,5.35,0.6659,-1.0877,66.5856,0.83579,0.01007,-0.00474,0.54893,-0.0243,-0.1304,-9.8444,0.2792,0.4726,0.6007,0.0787,3,17,0.66,0.77,0.35,24.668,18.66,95.3,31.1,20969.0,7924,7889,8148,8077,48.6,49.2,47.8,47.6,2.778,2.602,2.779,3.06,0.86,89.7,23.4,42.0,1019.37,-30.8,-0.62,1.05,20.2,40.0,27.6,0,no_anomaly,0.0,0,0,0,0,23.0224991,72.571448,11.5,0.0
2024-09-14T14:39:05.500Z,MISSION_0047,55,0,transit,SITE_AMD_008,23.0225004,72.5714512,12.0,68.13,1.194,0.038,5.7,-2.1717,-1.9581,68.1297,0.82832,-0.00613,-0.02477,0.55968,-0.0483,-0.0272,-9.8985,0.3366,0.7578,-0.064,0.1098,3,20,0.62,0.83,0.29,24.652,17.93,95.2,32.4,20951.0,7960,7946,7879,7844,50.3,48.3,47.4,45.5,2.897,2.652,2.783,2.859,1.35,74.8,23.8,42.7,1019.69,-26.88,-0.36,1.28,14.3,30.6,25.5,0,no_anomaly,0.0,0,0,0,0,23.0225004,72.5714512,12.0,0.0
2024-09-14T14:39:05.600Z,MISSION_0047,56,0,transit,SITE_AMD_008,23.022504,72.5714455,12.5,69.44,1.159,0.199,5.09,0.718,-3.5548,69.4438,0.8214,0.02281,-0.02193,0.56947,0.0029,0.0527,-9.7783,-0.1698,0.0338,-0.3222,0.1803,3,16,0.73,1.05,0.23,24.649,15.82,95.1,31.9,20932.0,7748,7758,7890,7998,46.0,47.9,50.1,49.7,2.946,2.782,2.614,2.889,0.75,83.5,23.5,42.8,1019.13,-28.11,-0.58,1.82,14.3,29.9,26.3,0,no_anomaly,0.0,0,0,0,0,23.022504,72.5714455,12.5,0.0
2024-09-14T14:39:05.700Z,MISSION_0047,57,0,transit,SITE_AMD_008,23.0225012,72.5714423,13.0,69.26,1.146,0.084,4.71,-0.6352,-1.8474,69.2591,0.82277,0.0046,-0.01641,0.56811,0.034,0.0309,-9.754,0.2176,0.3104,0.599,0.093,3,20,0.7,1.03,0.29,24.665,19.26,95.1,31.9,20913.0,7985,7893,7985,7978,50.6,46.9,51.3,47.4,2.91,2.743,2.817,2.531,1.11,92.2,23.6,44.0,1018.93,-30.48,0.52,1.43,15.3,30.0,25.2,0,no_anomaly,0.0,0,0,0,0,23.0225012,72.5714423,13.0,0.0
2024-09-14T14:39:05.800Z,MISSION_0047,58,0,transit,SITE_AMD_008,23.0225075,72.5714379,13.5,66.94,1.028,0.102,4.3,0.9948,-3.1434,66.9367,0.83371,0.02236,-0.01809,0.55145,0.0526,0.0282,-9.8885,-0.0295,-0.6674,0.0516,0.1489,3,18,0.78,1.18,0.2,24.676,19.27,95.0,31.2,20894.0,7997,8050,8012,7922,46.8,49.4,45.5,47.5,2.555,2.706,2.799,2.987,0.59,83.0,23.7,43.5,1019.29,-30.66,-0.58,1.0,18.7,34.1,28.3,0,no_anomaly,0.0,0,0,0,0,23.0225075,72.5714379,13.5,0.0
2024-09-14T14:39:05.900Z,MISSION_0047,59,0,transit,SITE_AMD_008,23.0225032,72.5714417,14.0,68.99,1.476,0.005,4.65,-2.5657,-2.4899,68.9879,0.82406,-0.00615,-0.03058,0.56564,0.1072,0.023,-9.7501,-0.0295,-0.5314,0.0386,0.055,3,20,0.58,1.04,0.23,24.759,24.1,94.9,31.9,20876.0,7999,8085,7935,7733,48.2,48.4,50.7,45.6,2.701,2.802,2.727,2.858,1.12,82.6,23.5,42.2,1019.51,-36.31,0.42,1.56,19.1,38.7,28.6,0,no_anomaly,0.0,0,0,0,0,23.0225032,72.5714417,14.0,0.0
2024-09-14T14:39:06.000Z,MISSION_0047,60,0,transit,SITE_AMD_008,23.0225043,72.5714434,14.5,69.32,1.563,0.052,4.85,-0.914,-3.6663,69.3207,0.82224,0.01163,-0.03084,0.56819,0.0172,-0.049,-9.7064,-0.1936,-0.517,-0.0768,0.1683,3,13,0.82,1.06,0.21,24.72,12.1,94.8,31.3,20857.0,7997,8194,8293,7972,48.4,49.7,48.6,48.0,2.549,2.657,2.952,2.845,1.86,91.4,23.4,43.3,1019.46,-29.02,-1.56,1.33,16.3,33.6,27.2,0,no_anomaly,0.0,0,0,0,0,23.0225043,72.5714434,14.5,0.0
2024-09-14T14:39:06.100Z,MISSION_0047,61,0,transit,SITE_AMD_008,23.022501,72.5714381,15.0,69.55,1.626,0.098,4.24,-2.6748,-1.8649,69.545,0.82131,-0.00989,-0.02667,0.56978,0.1271,-0.0041,-9.7766,-0.7548,-0.5624,-0.0613,0.1907,3,12,0.7,0.93,0.29,24.627,10.07,94.7,31.7,20838.0,7966,8043,8175,7893,46.8,47.7,48.6,47.2,2.781,2.962,2.63,2.841,1.26,93.8,23.4,42.9,1019.29,-26.98,1.41,1.23,20.1,34.8,27.5,0,no_anomaly,0.0,0,0,0,0,23.022501,72.5714381,15.0,0.0
2024-09-14T14:39:06.200Z,MISSION_0047,62,0,transit,SITE_AMD_008,23.0224998,72.571437,15.5,71.26,2.216,0.156,4.11,-3.7051,0.4234,71.2571,0.81231,-0.02843,-0.01583,0.58232,-0.0609,-0.0739,-9.8231,0.0222,-0.659,0.0542,0.097,3,19,0.5,0.91,0.2,24.665,15.4,94.6,31.3,20819.0,8249,7708,8196,7811,46.1,51.0,48.5,47.6,2.926,2.668,2.827,2.951,1.96,90.1,23.2,43.0,1019.67,-27.51,0.28,1.12,19.8,28.9,25.2,0,no_anomaly,0.0,0,0,0,0,23.0224998,72.571437,15.5,0.0
2024-09-14T14:39:06.300Z,MISSION_0047,63,0,transit,SITE_AMD_008,23.0224988,72.5714418,16.0,72.45,2.204,0.042,4.65,-3.3576,-0.6514,72.4549,0.80642,-0.02027,-0.0219,0.59059,-0.0521,-0.1123,-9.8882,-0.7532,0.3926,-0.5652,0.1433,3,16,0.77,0.66,0.21,24.683,21.17,94.5,31.2,20801.0,7955,7913,8110,8043,48.5,49.3,47.4,51.7,2.854,2.683,3.081,2.675,0.99,84.7,23.5,42.3,1019.61,-31.04,1.12,1.41,17.2,27.7,23.0,0,no_anomaly,0.0,0,0,0,0,23.0224988,72.5714418,16.0,0.0
2024-09-14T14:39:06.400Z,MISSION_0047,64,0,transit,SITE_AMD_008,23.022502,72.5714437,16.5,72.65,2.591,0.13,4.87,2.4238,-3.9521,72.645,0.8046,0.03745,-0.01525,0.59243,0.0643,-0.039,-9.7953,-0.1719,0.4627,0.1793,0.1587,3,12,0.79,0.98,0.3,24.739,19.74,94.5,31.4,20782.0,8233,8139,7772,7926,49.0,48.1,46.9,48.9,2.94,2.686,2.954,2.834,1.24,82.4,23.3,43.4,1019.19,-32.6,0.81,1.49,17.4,37.6,24.5,0,no_anomaly,0.0,0,0,0,0,23.022502,72.5714437,16.5,0.0
2024-09-14T14:39:06.500Z,MISSION_0047,65,0,transit,SITE_AMD_008,23.0224994,72.5714438,17.0,71.6,2.972,0.064,4.88,-1.635,-4.1888,71.6026,0.81073,0.00981,-0.03798,0.5841,-0.0874,0.0695,-9.8323,0.0211,-0.5589,-0.1843,0.1602,3,19,0.89,1.04,0.44,24.575,18.33,94.4,32.3,20763.0,8270,8130,8067,8054,49.1,48.3,49.7,48.8,2.569,2.654,2.402,2.826,1.44,90.0,23.6,43.2,1019.52,-32.12,-0.24,1.69,15.1,36.8,25.0,0,no_anomaly,0.0,0,0,0,0,23.0224994,72.5714438,17.0,0.0
2024-09-14T14:39:06.600Z,MISSION_0047,66,0,transit,SITE_AMD_008,23.0225,72.5714457,17.5,72.18,2.442,0.129,5.09,-2.2462,-3.5164,72.1768,0.80793,0.00224,-0.03633,0.58816,0.0405,0.0269,-9.8902,1.1363,-0.0845,-0.2883,0.1377,3,11,0.71,1.02,0.25,24.658,20.21,94.3,31.7,20745.0,7895,7990,7997,7754,49.7,51.0,46.1,46.1,2.65,2.902,2.651,2.937,1.8,84.7,23.6,43.2,1019.18,-26.35,-1.13,1.24,14.9,29.0,24.4,0,no_anomaly,0.0,0,0,0,0,23.0225,72.5714457,17.5,0.0
2024-09-14T14:39:06.700Z,MISSION_0047,67,0,transit,SITE_AMD_008,23.0225008,72.5714457,18.0,72.02,2.655,0.091,5.08,-4.1889,0.9664,72.0192,0.80817,-0.03452,-0.01467,0.58776,-0.0788,-0.0166,-9.8589,0.1554,0.1235,0.2888,0.1151,3,11,0.73,0.63,0.29,24.701,17.39,94.2,32.1,20726.0,7832,7958,7939,8160,48.4,48.5,49.5,46.6,2.654,2.707,2.887,3.034,1.41,82.3,23.4,43.0,1019.34,-26.04,0.76,1.64,16.6,30.9,26.1,0,no_anomaly,0.0,0,0,0,0,23.0225008,72.5714457,18.0,0.0
2024-09-14T14:39:06.800Z,MISSION_0047,68,0,transit,SITE_AMD_008,23.0225004,72.5714471,18.0,71.34,2.48,0.09,5.24,0.4128,-2.0529,71.3448,0.81219,0.01337,-0.01245,0.58311,0.0529,-0.0011,-9.791,0.7689,-0.9596,-0.5243,0.1623,3,18,0.55,1.11,0.29,24.673,16.16,94.1,32.1,20707.0,8149,8022,8140,7829,48.9,49.5,46.5,46.6,2.746,3.046,2.962,2.669,1.89,88.5,23.5,42.7,1019.39,-33.25,-1.98,2.12,19.7,35.7,23.7,0,no_anomaly,0.0,0,0,0,0,23.0225004,72.5714471,18.0,0.0
2024-09-14T14:39:06.900Z,MISSION_0047,69,0,transit,SITE_AMD_008,23.0224991,72.5714459,18.0,73.44,2.08,0.136,5.11,-0.4857,-4.0827,73.4424,0.80113,0.0179,-0.03108,0.59742,-0.0183,-0.059,-9.7967,0.663,0.5118,-0.0103,0.1521,3,10,0.58,0.93,0.2,24.649,16.35,94.0,31.0,20688.0,8061,7761,8304,7914,46.3,49.3,50.5,49.0,2.737,3.005,2.956,2.823,1.49,81.5,23.9,42.3,1019.55,-28.37,-0.42,1.29,20.0,34.8,28.0,0,no_anomaly,0.0,0,0,0,0,23.0224991,72.5714459,18.0,0.0
2024-09-14T14:39:07.000Z,MISSION_0047,70,0,transit,SITE_AMD_008,23.0224922,72.5714477,18.0,71.78,1.799,0.145,5.38,1.1746,-2.904,71.7829,0.80967,0.02316,-0.01452,0.58624,-0.0075,-0.0241,-9.7891,-0.5284,-0.4994,0.0123,0.1675,3,12,0.76,0.8,0.28,24.658,16.77,94.0,32.2,20670.0,8096,8116,8060,8083,49.2,50.8,49.9,49.5,2.954,2.4,2.976,2.665,2.14,92.6,23.7,42.5,1019.61,-29.24,-0.48,1.57,18.7,29.4,24.4,0,no_anomaly,0.0,0,0,0,0,23.0224922,72.5714477,18.0,0.0
2024-09-14T14:39:07.100Z,MISSION_0047,71,0,transit,SITE_AMD_008,23.0224887,72.571443,18.0,71.31,2.273,0.066,4.95,-0.4106,1.1787,71.3108,0.81247,-0.00891,0.00627,0.5829,0.1078,-0.0016,-9.7716,0.2391,0.9414,-0.2856,0.0909,3,17,0.82,0.96,0.45,24.665,17.1,93.9,32.5,20651.0,7909,7865,8009,8185,50.7,49.6,50.5,50.6,2.81,2.675,3.077,2.536,0.99,76.6,23.5,43.6,1019.83,-29.22,1.14,1.43,20.5,31.6,28.0,0,no_anomaly,0.0,0,0,0,0,23.0224887,72.571443,18.0,0.0
2024-09-14T14:39:07.200Z,MISSION_0047,72,0,transit,SITE_AMD_008,23.0224869,72.5714385,18.0,70.24,2.65,0.101,4.53,2.0816,-2.7165,70.242,0.81733,0.02849,-0.00894,0.5754,-0.0892,0.0504,-9.8617,0.106,-0.4825,-0.2045,0.1474,3,15,0.7,1.09,0.4,24.589,14.53,93.8,31.4,20632.0,8027,7861,8197,8023,47.8,46.6,49.9,49.3,2.902,2.604,2.853,2.821,1.56,84.9,23.0,42.9,1019.29,-31.81,1.62,1.34,17.1,30.2,26.4,0,no_anomaly,0.0,0,0,0,0,23.0224869,72.5714385,18.0,0.0
2024-09-14T14:39:07.300Z,MISSION_0047,73,0,transit,SITE_AMD_008,23.022482,72.5714325,18.0,68.72,3.038,0.12,4.14,1.6323,-2.693,68.719,0.82501,0.02502,-0.01136,0.56445,0.0213,-0.0413,-9.8139,0.3209,0.4807,0.1655,0.1789,3,15,0.73,0.84,0.29,24.697,21.81,93.7,31.7,20613.0,7842,7795,7825,8105,47.3,47.6,46.9,48.0,2.636,2.809,2.889,2.661,0.76,99.2,23.4,42.6,1019.27,-31.84,-0.99,1.32,15.2,29.9,23.3,0,no_anomaly,0.0,0,0,0,0,23.022482,72.5714325,18.0,0.0
2024-09-14T14:39:07.400Z,MISSION_0047,74,0,transit,SITE_AMD_008,23.0224839,72.571433,18.0,69.28,3.099,0.073,4.09,0.0275,-2.1272,69.2833,0.82258,0.01075,-0.01514,0.56835,0.0598,-0.0054,-9.7974,-0.6159,-0.3717,0.4428,0.0925,3,16,0.77,1.09,0.39,24.659,13.97,93.6,32.0,20595.0,7997,8082,7893,8064,47.6,48.9,47.3,49.6,2.75,3.028,2.755,3.036,0.45,90.0,23.2,42.2,1019.58,-30.37,-1.69,1.87,16.2,32.2,28.1,0,no_anomaly,0.0,0,0,0,0,23.0224839,72.571433,18.0,0.0
2024-09-14T14:39:07.500Z,MISSION_0047,75,0,transit,SITE_AMD_008,23.0224851,72.5714307,18.0,68.52,2.803,0.078,3.8,2.0576,-2.6864,68.5167,0.82591,0.02803,-0.00927,0.56303,-0.214,0.0683,-9.7546,0.055,0.1099,0.0156,0.2065,3,13,0.58,0.93,0.21,24.677,17.27,93.5,32.0,20576.0,7944,7901,8051,7793,48.0,49.2,49.2,49.2,2.41,2.729,2.857,2.69,1.02,75.4,23.7,43.2,1019.79,-27.48,0.01,1.36,17.5,34.6,24.9,0,no_anomaly,0.0,0,0,0,0,23.0224851,72.5714307,18.0,0.0
2024-09-14T14:39:07.600Z,MISSION_0047,76,0,transit,SITE_AMD_008,23.0224861,72.5714333,18.0,69.87,3.253,0.04,4.02,4.1305,-4.8629,69.8741,0.81764,0.0538,-0.01414,0.57304,0.0373,-0.0092,-9.8887,0.0961,-0.0183,0.0705,0.0488,3,19,0.77,1.14,0.28,24.587,20.51,93.4,32.5,20557.0,7866,7879,8066,8030,48.2,44.8,49.5,46.7,2.94,2.799,2.775,2.833,0.79,83.2,23.4,43.1,1019.4,-32.79,0.41,1.44,20.2,35.1,26.2,0,no_anomaly,0.0,0,0,0,0,23.0224861,72.5714333,18.0,0.0
2024-09-14T14:39:07.700Z,MISSION_0047,77,0,transit,SITE_AMD_008,23.0224874,72.5714281,18.0,69.46,2.926,0.117,3.43,-0.4949,-0.5333,69.4579,0.82185,-0.0009,-0.00629,0.56967,-0.016,-0.0519,-9.737,0.4344,0.3631,0.3908,0.1721,3,13,0.65,1.1,0.25,24.587,20.58,93.4,31.4,20539.0,8050,8043,8073,8276,46.3,46.2,52.3,47.7,2.784,2.625,2.876,2.812,1.05,81.9,23.6,42.9,1019.47,-33.02,-1.26,1.51,24.0,40.4,29.5,0,no_anomaly,0.0,0,0,0,0,23.0224874,72.5714281,18.0,0.0
2024-09-14T14:39:07.800Z,MISSION_0047,78,0,transit,SITE_AMD_008,23.0224864,72.5714342,18.0,70.47,2.906,0.133,4.1,-1.7779,-2.438,70.4739,0.81668,-0.0004,-0.02632,0.57649,0.0326,0.0177,-9.8115,-0.4886,0.6511,-0.0611,0.0452,3,12,0.71,0.94,0.2,24.681,23.48,93.3,31.5,20520.0,7894,8127,7887,7952,43.5,49.7,47.3,46.7,2.761,2.68,2.531,2.635,1.2,85.2,23.5,43.5,1019.53,-28.15,-0.31,1.37,19.1,32.5,27.5,0,no_anomaly,0.0,0,0,0,0,23.0224864,72.5714342,18.0,0.0
2024-09-14T14:39:07.900Z,MISSION_0047,79,0,transit,SITE_AMD_008,23.0224881,72.5714366,18.0,71.84,2.887,0.079,4.29,-0.7286,-3.5716,71.84,0.80954,0.01314,-0.02896,0.5862,-0.0855,0.0361,-9.7449,-0.2444,-0.644,-0.1371,0.086,3,19,0.76,0.87,0.22,24.652,16.71,93.2,31.7,20501.0,7851,7921,7694,7909,49.8,50.0,48.2,50.5,2.836,2.818,2.941,2.972,0.77,98.1,23.5,41.9,1019.21,-27.6,1.4,1.34,16.5,31.5,23.6,0,no_anomaly,0.0,0,0,0,0,23.0224881,72.5714366,18.0,0.0
2024-09-14T14:39:08.000Z,MISSION_0047,80,0,transit,SITE_AMD_008,23.0224927,72.5714354,18.0,72.45,3.119,0.062,4.03,1.1995,-2.1804,72.4471,0.80641,0.01969,-0.00916,0.59096,-0.1235,0.0054,-9.8185,0.006,-0.0726,-0.0018,0.1829,3,19,0.61,1.15,0.22,24.601,18.09,93.1,33.0,20482.0,8083,8002,8123,7874,51.2,48.4,53.0,48.4,2.671,3.004,2.844,2.857,1.75,85.8,23.5,42.7,1019.12,-27.23,1.01,1.3,18.1,30.8,25.5,0,no_anomaly,0.0,0,0,0,0,23.0224927,72.5714354,18.0,0.0
2024-09-14T14:39:08.100Z,MISSION_0047,81,0,transit,SITE_AMD_008,23.0224952,72.5714421,18.0,72.26,3.423,0.068,4.71,-0.1648,-1.23,72.2591,0.80765,0.00517,-0.00952,0.58957,0.0324,-0.0781,-9.8529,0.5706,-0.7794,0.426,0.0597,3,13,0.71,1.01,0.31,24.551,22.55,93.0,31.3,20464.0,8138,8277,8019,7986,47.8,46.9,45.5,49.3,3.114,2.908,2.773,2.753,1.86,77.9,23.5,42.0,1019.46,-29.64,-1.64,2.01,17.9,38.1,25.2,0,no_anomaly,0.0,0,0,0,0,23.0224952,72.5714421,18.0,0.0
2024-09-14T14:39:08.200Z,MISSION_0047,82,0,transit,SITE_AMD_008,23.0224917,72.5714457,18.0,72.61,3.102,0.153,5.17,-1.513,0.0282,72.6133,0.80579,-0.01079,-0.00762,0.59206,0.0641,0.0473,-9.8093,1.0328,1.7169,-0.1864,0.163,3,10,0.63,1.09,0.35,24.637,23.98,92.9,31.6,20445.0,7964,8097,8015,8085,48.4,46.3,46.3,48.6,2.851,3.021,2.83,2.958,0.42,88.3,23.1,42.0,1019.24,-30.18,-2.89,1.49,17.7,28.8,25.5,0,no_anomaly,0.0,0,0,0,0,23.0224917,72.5714457,18.0,0.0
2024-09-14T14:39:08.300Z,MISSION_0047,83,0,transit,SITE_AMD_008,23.0224909,72.571446,18.0,72.37,2.885,-0.029,5.22,1.3976,-1.0999,72.3708,0.80694,0.01551,-0.00055,0.59042,0.0089,0.0735,-9.7748,-0.5455,-0.1036,-0.0025,0.1811,3,18,0.68,0.63,0.3,24.588,17.15,92.8,31.1,20426.0,7949,7921,8019,8016,48.6,48.8,49.7,45.5,3.087,2.835,2.795,2.631,1.89,85.2,23.4,43.5,1019.33,-27.25,0.96,1.72,17.6,31.3,24.6,0,no_anomaly,0.0,0,0,0,0,23.0224909,72.571446,18.0,0.0
2024-09-14T14:39:08.400Z,MISSION_0047,84,1,transit,SITE_AMD_008,23.0224959,72.5714474,18.0,75.7,3.18,0.08,5.3,-1.1318,-1.037,75.7031,0.78959,-0.00225,-0.01321,0.61349,-0.0083,-0.0219,-9.8381,0.0911,0.0142,0.0949,0.1546,3,16,0.73,0.9,0.29,24.63,21.02,92.8,31.7,20407.0,8174,7975,7897,8088,48.4,46.1,50.8,47.1,2.644,2.815,2.774,2.825,0.69,87.1,23.6,42.9,1019.21,-26.9,-0.55,1.68,18.6,29.0,25.2,0,no_anomaly,0.0,0,0,0,0,23.0224959,72.5714474,18.0,0.0
2024-09-14T14:39:08.500Z,MISSION_0047,85,1,transit,SITE_AMD_008,23.0224922,72.5714476,18.0,75.59,3.45,0.114,5.37,-2.5821,-2.0498,75.5922,0.79012,-0.00684,-0.02794,0.61228,-0.1224,0.0648,-9.7922,-0.1001,0.4681,-0.1601,0.1551,3,15,0.82,0.96,0.33,24.577,22.87,92.7,31.6,20389.0,8091,7780,7847,8074,46.2,49.1,49.9,48.0,2.759,2.658,2.802,2.88,1.28,92.5,23.6,42.6,1019.71,-26.48,-0.02,1.45,16.2,33.0,25.8,0,no_anomaly,0.0,0,0,0,0,23.0224922,72.5714476,18.0,0.0
2024-09-14T14:39:08.600Z,MISSION_0047,86,1,transit,SITE_AMD_008,23.0224934,72.5714481,18.0,72.25,3.511,0.091,5.4,-0.6033,-0.5107,72.2461,0.80775,-0.00163,-0.0067,0.58949,0.1128,0.0107,-9.7779,0.3406,-0.0739,-0.0272,0.2032,3,16,0.56,0.81,0.24,24.626,20.27,92.6,31.7,20370.0,8137,7905,8239,8121,49.9,49.7,50.1,49.8,2.842,2.749,2.845,2.85,0.92,95.9,23.5,42.5,1019.8,-32.13,0.82,1.55,16.2,34.1,27.5,0,no_anomaly,0.0,0,0,0,0,23.0224934,72.5714481,18.0,0.0
2024-09-14T14:39:08.700Z,MISSION_0047,87,1,transit,SITE_AMD_008,23.022491,72.5714466,18.0,72.45,3.584,0.046,5.28,0.6506,-1.6463,72.4456,0.80658,0.01307,-0.00824,0.59092,-0.2131,0.1226,-9.6969,0.072,-0.0531,-0.1581,0.1372,3,14,0.88,0.81,0.24,24.577,19.55,92.5,31.5,20351.0,8112,7945,8081,7773,48.7,47.3,46.4,51.2,2.655,2.649,2.933,2.887,0.73,82.3,23.6,43.3,1019.26,-30.3,0.01,1.0,17.3,34.7,27.0,0,no_anomaly,0.0,0,0,0,0,23.022491,72.5714466,18.0,0.0
2024-09-14T14:39:08.800Z,MISSION_0047,88,1,transit,SITE_AMD_008,23.0224901,72.5714468,18.0,71.01,3.622,0.083,5.32,-0.2523,-3.0457,71.0118,0.8138,0.01364,-0.02291,0.58053,-0.0141,-0.1088,-9.8326,-0.9994,-0.3351,-0.5198,0.17,3,19,0.86,0.85,0.37,24.638,21.5,92.4,32.0,20333.0,8062,8030,8145,7875,51.9,48.7,51.3,49.0,2.934,2.927,2.811,2.513,2.58,87.3,23.3,42.6,1019.65,-29.06,1.01,1.32,15.4,27.8,26.0,0,no_anomaly,0.0,0,0,0,0,23.0224901,72.5714468,18.0,0.0
2024-09-14T14:39:08.900Z,MISSION_0047,89,1,transit,SITE_AMD_008,23.0224887,72.5714507,18.0,68.66,3.786,0.125,5.78,1.4847,-3.8402,68.6643,0.825,0.02959,-0.02036,0.56398,-0.1337,0.0092,-9.7384,-0.6717,0.5541,0.2187,0.0642,3,18,0.89,0.86,0.42,24.527,17.56,92.3,31.2,20314.0,8144,8029,7939,8078,50.4,50.3,49.7,46.9,2.73,2.935,2.581,2.904,2.01,84.6,23.3,42.7,1019.41,-35.3,1.44,1.64,16.8,34.3,25.5,0,no_anomaly,0.0,0,0,0,0,23.0224887,72.5714507,18.0,0.0
2024-09-14T14:39:09.000Z,MISSION_0047,90,1,transit,SITE_AMD_008,23.0224891,72.5714507,18.0,68.46,3.885,0.108,5.77,-3.0872,-0.6855,68.4613,0.82656,-0.01891,-0.0201,0.56218,0.0665,-0.0268,-9.7603,-0.6914,-0.1345,0.1834,0.168,3,10,0.79,0.6,0.23,24.515,20.76,92.3,31.3,20295.0,7786,7882,7941,7950,46.8,47.1,50.1,46.1,2.677,2.913,3.102,2.88,1.02,86.7,23.7,43.4,1019.74,-34.65,0.49,2.02,14.8,29.2,25.7,0,no_anomaly,0.0,0,0,0,0,23.0224891,72.5714507,18.0,0.0
2024-09-14T14:39:09.100Z,MISSION_0047,91,1,transit,SITE_AMD_008,23.0224898,72.5714567,18.0,70.28,4.125,0.096,6.42,-0.551,-4.0043,70.2799,0.81734,0.01618,-0.03134,0.57508,-0.0415,0.0099,-9.7233,-0.014,-0.295,0.0556,0.125,3,11,0.72,1.01,0.3,24.631,24.61,92.2,31.6,20276.0,7993,7837,7911,8102,50.2,52.1,49.4,47.9,3.061,2.908,2.932,2.73,0.79,84.1,23.3,43.6,1019.2,-28.88,0.41,1.52,16.1,27.5,24.4,0,no_anomaly,0.0,0,0,0,0,23.0224898,72.5714567,18.0,0.0
2024-09-14T14:39:09.200Z,MISSION_0047,92,1,transit,SITE_AMD_008,23.0224948,72.5714561,18.0,71.1,4.227,0.157,6.27,0.7249,-2.9264,71.0958,0.81325,0.01999,-0.0171,0.58131,-0.1274,0.0166,-9.8126,-1.0104,0.1137,0.3952,0.057,3,12,0.65,0.92,0.22,24.621,20.76,92.1,31.9,20258.0,7843,8091,8161,7914,49.1,48.6,49.9,46.2,2.836,3.15,2.669,2.634,1.66,80.6,23.2,42.4,1019.38,-31.76,-0.61,1.1,19.7,35.1,25.5,0,no_anomaly,0.0,0,0,0,0,23.0224948,72.5714561,18.0,0.0
2024-09-14T14:39:09.300Z,MISSION_0047,93,1,transit,SITE_AMD_008,23.022498,72.5714545,18.0,70.26,4.369,0.098,6.07,3.3084,-2.8605,70.2648,0.81681,0.03796,-0.0038,0.57564,0.2527,-0.0655,-9.7836,-0.4432,1.0729,0.0991,0.0,3,20,0.57,1.0,0.23,24.533,17.68,92.0,31.5,20239.0,8275,7815,8044,7781,47.2,50.5,49.1,50.2,2.917,2.902,2.714,2.758,1.18,86.7,23.5,42.6,1019.4,-31.66,0.1,1.1,22.1,34.0,28.1,0,no_anomaly,0.0,0,0,0,0,23.022498,72.5714545,18.0,0.0
2024-09-14T14:39:09.400Z,MISSION_0047,94,1,transit,SITE_AMD_008,23.0224967,72.5714503,18.0,71.59,4.032,0.137,5.61,-1.2392,0.7581,71.5875,0.81102,-0.01264,-0.00096,0.58488,-0.0691,0.0415,-9.8063,-0.8585,-0.6623,0.2895,0.0999,3,15,0.63,0.82,0.2,24.551,25.75,91.9,31.2,20220.0,7957,7873,7834,8104,47.6,46.1,46.8,54.3,2.92,3.111,3.118,2.716,0.38,95.8,23.3,42.7,1019.37,-29.84,0.71,1.99,16.7,29.9,27.2,0,no_anomaly,0.0,0,0,0,0,23.0224967,72.5714503,18.0,0.0
2024-09-14T14:39:09.500Z,MISSION_0047,95,1,transit,SITE_AMD_008,23.0224928,72.571455,18.0,70.72,3.888,0.125,6.17,2.7218,-2.7245,70.7205,0.81474,0.03312,-0.00564,0.57885,0.0344,0.026,-9.8129,1.4094,0.2778,0.0038,0.1609,3,19,0.85,0.98,0.37,24.556,21.19,91.8,31.4,20201.0,8249,7873,7943,8018,46.6,46.4,49.8,46.5,2.787,2.797,2.64,3.064,0.99,95.2,23.2,43.9,1018.99,-30.78,0.3,1.0,20.6,32.2,27.4,0,no_anomaly,0.0,0,0,0,0,23.0224928,72.571455,18.0,0.0
2024-09-14T14:39:09.600Z,MISSION_0047,96,1,transit,SITE_AMD_008,23.0224891,72.5714553,18.0,69.03,3.765,0.027,6.27,1.0554,-0.5222,69.0308,0.82391,0.01017,0.00146,0.56663,-0.0691,0.0524,-9.7771,0.1918,-0.3642,0.1707,0.2099,3,17,0.87,0.78,0.31,24.581,19.2,91.7,31.2,20183.0,7929,8030,8269,7974,49.8,48.5,49.0,46.4,2.681,3.052,2.668,2.795,0.83,91.9,23.5,43.5,1019.7,-27.77,-0.23,1.93,21.7,38.8,24.3,0,no_anomaly,0.0,0,0,0,0,23.0224891,72.5714553,18.0,0.0
2024-09-14T14:39:09.700Z,MISSION_0047,97,1,transit,SITE_AMD_008,23.0224883,72.5714536,18.0,66.92,3.273,-0.009,6.11,-1.3334,-3.1876,66.923,0.83406,0.00563,-0.02961,0.55086,0.0063,0.037,-9.8852,-0.3386,1.1111,-0.5572,0.1747,3,18,0.67,1.07,0.2,24.635,18.99,91.7,31.9,20164.0,7734,7912,8015,8143,50.3,49.3,50.8,48.3,2.93,2.618,2.818,2.657,0.82,74.9,23.3,43.2,1019.41,-32.56,-2.88,1.52,19.9,37.4,25.9,0,no_anomaly,0.0,0,0,0,0,23.0224883,72.5714536,18.0,0.0
2024-09-14T14:39:09.800Z,MISSION_0047,98,1,transit,SITE_AMD_008,23.0224875,72.5714464,18.0,66.99,3.335,0.102,5.35,3.1627,-0.2142,66.9863,0.8336,0.02405,0.01367,0.55167,-0.129,-0.053,-9.7552,-0.754,-0.0467,-0.644,0.1335,3,18,0.63,1.09,0.25,24.636,14.17,91.6,31.7,20145.0,7988,8044,7987,8264,44.5,49.5,45.6,46.6,2.858,3.039,2.696,2.786,0.74,77.2,23.4,42.9,1019.54,-24.91,-0.86,1.19,18.1,36.8,24.1,0,no_anomaly,0.0,0,0,0,0,23.0224875,72.5714464,18.0,0.0
2024-09-14T14:39:09.900Z,MISSION_0047,99,1,transit,SITE_AMD_008,23.0224891,72.5714439,18.0,65.64,3.183,0.171,5.04,-0.8628,-1.0401,65.6411,0.84035,-0.00141,-0.01171,0.54191,-0.0621,0.0255,-9.8158,-0.0597,-0.3817,-0.1266,0.1259,3,13,0.83,1.01,0.22,24.626,19.34,91.5,31.3,20127.0,8070,8152,7708,7910,46.7,50.5,51.9,46.8,2.565,2.695,2.763,2.857,1.86,87.0,23.4,43.6,1019.47,-30.09,2.17,1.27,15.5,35.4,23.8,0,no_anomaly,0.0,0,0,0,0,23.0224891,72.5714439,18.0,0.0
2024-09-14T14:39:10.000Z,MISSION_0047,100,1,transit,SITE_AMD_008,23.0224892,72.5714431,18.0,66.07,3.467,0.038,4.94,3.0831,-2.076,66.0678,0.83764,0.03242,-0.00052,0.54526,0.0452,-0.0193,-9.7619,0.5919,-0.3476,-0.2143,0.1652,3,14,0.71,1.13,0.48,24.582,17.16,91.4,31.8,20108.0,8094,7970,7931,7797,51.1,47.9,50.7,47.5,2.731,2.699,2.52,2.556,0.35,82.4,23.2,43.1,1019.42,-30.62,0.12,1.44,20.6,33.3,25.1,0,no_anomaly,0.0,0,0,0,0,23.0224892,72.5714431,18.0,0.0
2024-09-14T14:39:10.100Z,MISSION_0047,101,1,orbit_base,SITE_AMD_008,23.0224205,72.5714089,18.3,63.42,3.423,0.179,8.91,1.2847,-2.1287,63.4209,0.85041,0.0193,-0.00991,0.52568,-0.0532,-0.0408,-9.7891,0.9965,1.0432,-0.3164,0.0599,3,18,0.77,1.0,0.2,24.671,20.55,91.3,31.6,20089.0,7849,7783,7880,7767,47.9,51.1,50.4,47.2,2.881,2.989,2.87,2.969,0.53,87.5,23.6,43.3,1019.24,-30.71,1.87,1.6,19.6,34.1,28.0,0,no_anomaly,0.0,0,0,0,0,23.0224205,72.5714089,18.3,0.0
2024-09-14T14:39:10.200Z,MISSION_0047,102,1,orbit_base,SITE_AMD_008,23.0224203,72.5714065,18.6,67.58,3.572,-0.057,8.91,1.3824,-2.5711,67.58,0.83066,0.0225,-0.01194,0.55619,-0.0563,-0.1366,-9.9452,-0.2955,-0.1997,-0.0889,0.1248,3,18,0.79,0.79,0.32,24.548,17.24,91.2,31.6,20070.0,8280,8074,8036,7973,50.3,49.6,50.1,48.0,2.948,2.71,2.971,2.882,1.42,88.1,23.8,42.8,1019.58,-24.56,-0.14,1.0,15.4,35.5,25.5,0,no_anomaly,0.0,0,0,0,0,23.0224203,72.5714065,18.6,0.0
2024-09-14T14:39:10.300Z,MISSION_0047,103,1,orbit_base,SITE_AMD_008,23.0224201,72.5714041,18.9,69.38,3.025,0.059,8.91,-0.1774,-2.2238,69.3755,0.82213,0.00977,-0.01684,0.56897,0.1345,-0.0983,-9.7525,-0.5772,-0.0417,-0.0114,0.1097,3,18,0.75,0.77,0.42,24.675,21.77,91.1,31.9,20052.0,7961,7928,7795,8160,47.5,48.3,47.3,49.4,2.815,2.906,2.747,2.651,1.16,79.1,23.6,42.1,1019.33,-28.38,-1.13,1.36,15.6,33.5,26.4,0,no_anomaly,0.0,0,0,0,0,23.0224201,72.5714041,18.9,0.0
2024-09-14T14:39:10.400Z,MISSION_0047,104,1,orbit_base,SITE_AMD_008,23.02242,72.5714017,19.2,69.94,2.965,0.031,8.91,1.1222,-0.2688,69.9438,0.81938,0.00937,0.00369,0.57316,-0.166,-0.0611,-9.8048,0.0149,-0.4669,-0.4554,0.0699,3,19,0.68,1.08,0.43,24.633,19.81,91.1,32.8,20033.0,8076,7881,8074,8162,45.0,52.0,43.9,47.8,2.896,2.614,2.832,2.635,1.06,76.0,23.5,42.9,1019.27,-33.93,0.55,1.75,20.2,28.8,27.7,0,no_anomaly,0.0,0,0,0,0,23.02242,72.5714017,19.2,0.0
2024-09-14T14:39:10.500Z,MISSION_0047,105,1,orbit_base,SITE_AMD_008,23.02242,72.5713993,19.5,70.41,2.881,0.062,8.91,-0.3219,-2.0225,70.4073,0.81701,0.00788,-0.01604,0.57635,0.0152,-0.0324,-9.7826,-0.4447,-0.0121,-0.0616,0.0308,3,18,0.84,0.9,0.2,24.575,18.56,91.0,31.9,20014.0,7917,7807,7945,8024,49.0,47.4,50.1,47.0,2.792,2.828,2.751,2.712,1.22,77.0,23.3,43.4,1019.4,-25.14,1.12,1.74,18.6,39.2,29.2,0,no_anomaly,0.0,0,0,0,0,23.02242,72.5713993,19.5,0.0
2024-09-14T14:39:10.600Z,MISSION_0047,106,1,orbit_base,SITE_AMD_008,23.0224201,72.5713969,19.8,71.87,2.362,0.09,8.91,2.4006,-1.9055,71.8708,0.80919,0.02671,-0.00117,0.58695,-0.0068,-0.0088,-9.8304,-0.034,0.4441,0.2248,0.1142,3,15,0.84,0.97,0.5,24.49,19.73,90.9,31.5,19995.0,8137,8190,7986,8135,49.2,52.4,49.6,48.4,2.705,2.586,2.979,2.781,1.09,92.9,23.4,43.5,1019.9,-24.58,0.15,1.67,14.7,30.3,25.9,0,no_anomaly,0.0,0,0,0,0,23.0224201,72.5713969,19.8,0.0
2024-09-14T14:39:10.700Z,MISSION_0047,107,1,orbit_base,SITE_AMD_008,23.0224202,72.5713945,20.1,71.64,2.41,0.127,8.91,-1.7159,-3.6309,71.6362,0.81066,0.0064,-0.03444,0.58447,-0.0989,0.0647,-9.8355,-0.6373,-0.7039,-0.2516,0.2124,3,10,0.92,1.01,0.29,24.498,15.32,90.8,32.2,19977.0,8086,7904,8030,8006,52.0,49.9,45.1,47.3,2.6,3.025,2.981,2.951,1.09,89.8,23.0,43.0,1019.45,-29.87,-1.2,1.38,16.2,30.4,23.8,0,no_anomaly,0.0,0,0,0,0,23.0224202,72.5713945,20.1,0.0
2024-09-14T14:39:10.800Z,MISSION_0047,108,1,orbit_base,SITE_AMD_008,23.0224204,72.5713921,20.4,74.59,2.439,0.134,8.91,2.9576,-0.5559,74.589,0.79518,0.02347,0.01178,0.6058,0.1133,0.052,-9.7958,0.2664,0.2967,0.489,0.1941,3,15,0.84,0.8,0.35,24.577,21.29,90.7,32.3,19958.0,7864,8160,7782,8161,50.8,49.9,45.6,51.5,2.961,2.703,2.76,2.688,1.74,92.1,23.8,42.1,1019.46,-26.32,-0.79,1.65,16.2,35.9,24.5,0,no_anomaly,0.0,0,0,0,0,23.0224204,72.5713921,20.4,0.0
2024-09-14T14:39:10.900Z,MISSION_0047,109,1,orbit_base,SITE_AMD_008,23.0224207,72.5713898,20.7,76.11,2.466,0.12,8.91,2.1765,-1.934,76.1104,0.78697,0.02535,-0.00158,0.61647,-0.1129,-0.0818,-9.9602,-0.0419,0.1944,-0.0598,0.1035,3,12,0.74,0.88,0.32,24.556,15.86,90.6,31.3,19939.0,8089,8124,8143,8183,47.2,49.7,45.1,48.4,2.897,2.678,2.789,2.812,1.17,89.0,23.3,42.8,1019.7,-32.22,1.47,1.92,15.4,34.0,25.1,0,no_anomaly,0.0,0,0,0,0,23.0224207,72.5713898,20.7,0.0
2024-09-14T14:39:11.000Z,MISSION_0047,110,1,orbit_base,SITE_AMD_008,23.022421,72.5713874,21.0,78.95,2.545,0.069,8.91,-0.4067,-0.8764,78.9514,0.77188,0.00212,-0.00816,0.63571,-0.0908,0.0426,-9.7534,0.3544,-0.9094,-0.066,0.0971,3,14,0.53,1.04,0.2,24.543,13.31,90.5,31.6,19921.0,8089,7804,8321,7962,52.1,49.9,48.5,46.1,2.788,2.728,2.897,2.663,0.75,84.6,23.5,43.2,1019.22,-25.24,-0.84,1.18,21.4,35.6,27.2,0,no_anomaly,0.0,0,0,0,0,23.022421,72.5713874,21.0,0.0
2024-09-14T14:39:11.100Z,MISSION_0047,111,1,orbit_base,SITE_AMD_008,23.0224214,72.571385,21.3,80.87,2.833,0.136,8.91,0.0453,-3.6838,80.868,0.76075,0.02115,-0.02421,0.64825,-0.017,0.0006,-9.8228,0.9621,-0.5113,0.089,0.2165,3,11,0.62,0.91,0.24,24.401,22.44,90.5,32.4,19902.0,7968,8063,8021,7969,49.7,48.9,43.6,45.4,2.657,2.999,2.96,2.397,2.26,90.8,23.5,42.0,1019.65,-30.46,-0.91,1.35,20.8,31.6,25.4,0,no_anomaly,0.0,0,0,0,0,23.0224214,72.571385,21.3,0.0
2024-09-14T14:39:11.200Z,MISSION_0047,112,1,orbit_base,SITE_AMD_008,23.0224219,72.5713827,21.6,79.13,2.832,0.053,8.91,0.2355,0.0759,79.1322,0.77089,0.00116,0.00182,0.63697,-0.0241,0.0261,-9.7849,-0.1035,-0.5646,0.038,0.0556,3,13,0.5,0.81,0.22,24.552,20.8,90.4,32.2,19883.0,7897,8203,7967,7992,46.6,46.5,45.9,46.7,2.946,2.444,2.86,2.574,1.43,92.7,23.1,42.5,1019.25,-30.62,-1.42,1.93,17.5,35.9,23.4,0,no_anomaly,0.0,0,0,0,0,23.0224219,72.5713827,21.6,0.0
2024-09-14T14:39:11.300Z,MISSION_0047,113,1,orbit_base,SITE_AMD_008,23.0224225,72.5713803,21.9,78.47,2.884,0.107,8.91,-3.1795,-0.3776,78.4671,0.77433,-0.01941,-0.0201,0.63217,0.019,0.0142,-9.653,-0.0098,-0.5123,0.5529,0.1583,3,18,0.65,0.82,0.28,24.571,18.45,90.3,31.5,19864.0,8223,8049,8229,8117,45.1,48.0,49.2,51.6,3.124,2.472,2.779,2.875,0.87,91.4,23.4,42.8,1019.64,-30.62,0.75,1.32,20.2,31.6,28.5,0,no_anomaly,0.0,0,0,0,0,23.0224225,72.5713803,21.9,0.0
2024-09-14T14:39:11.400Z,MISSION_0047,114,1,orbit_base,SITE_AMD_008,23.0224231,72.571378,22.2,76.74,2.754,0.072,8.91,0.3714,-0.3876,76.7407,0.784,0.00464,-0.00064,0.62074,-0.0197,-0.0341,-9.8232,0.0057,-0.3678,-0.2212,0.08,3,16,0.62,0.8,0.36,24.614,22.27,90.2,31.7,19846.0,7895,8194,7982,7988,49.6,50.1,49.2,48.4,2.647,2.848,2.933,2.957,1.37,93.6,23.3,42.7,1019.61,-33.12,-0.55,1.51,17.7,31.5,27.7,0,no_anomaly,0.0,0,0,0,0,23.0224231,72.571378,22.2,0.0
2024-09-14T14:39:11.500Z,MISSION_0047,115,1,orbit_base,SITE_AMD_008,23.0224238,72.5713757,22.5,75.51,2.747,0.094,8.91,1.113,-1.645,75.5101,0.79043,0.01647,-0.0054,0.61231,-0.1326,0.0354,-9.7991,0.3865,-0.0873,-0.2684,0.1065,3,15,0.7,0.76,0.25,24.528,21.34,90.1,31.6,19827.0,8036,8056,8068,8195,47.7,45.6,50.0,48.6,2.678,3.073,2.754,2.85,1.61,82.6,23.4,43.1,1019.23,-26.91,0.46,1.59,19.9,37.2,27.0,0,no_anomaly,0.0,0,0,0,0,23.0224238,72.5713757,22.5,0.0
2024-09-14T14:39:11.600Z,MISSION_0047,116,1,orbit_base,SITE_AMD_008,23.0224245,72.5713734,22.8,77.82,2.256,0.05,8.91,-1.0122,0.3022,77.8212,0.77808,-0.00853,-0.0035,0.6281,0.0539,-0.0141,-9.7521,0.2248,-0.1867,0.3223,0.0808,3,15,0.76,0.91,0.32,24.451,20.43,90.0,32.0,19808.0,7879,7916,8008,8050,46.7,48.6,47.9,50.0,2.719,3.084,2.916,2.778,1.21,90.3,23.6,43.1,1019.51,-35.52,0.2,1.31,16.9,27.9,24.0,0,no_anomaly,0.0,0,0,0,0,23.0224245,72.5713734,22.8,0.0
2024-09-14T14:39:11.700Z,MISSION_0047,117,1,orbit_base,SITE_AMD_008,23.0224254,72.5713712,23.1,82.47,2.601,0.113,8.91,-2.7171,-2.0695,82.4749,0.75193,-0.00592,-0.0292,0.65857,-0.1349,0.0594,-9.8079,0.0458,-0.1036,-0.0991,0.06,3,14,0.69,0.6,0.31,24.617,18.14,90.0,32.1,19789.0,8132,8032,8087,7990,49.0,49.0,45.8,49.0,2.901,2.842,2.872,2.692,1.16,82.1,23.4,42.6,1019.57,-33.54,-0.64,1.74,18.6,38.9,29.7,0,no_anomaly,0.0,0,0,0,0,23.0224254,72.5713712,23.1,0.0
2024-09-14T14:39:11.800Z,MISSION_0047,118,1,orbit_base,SITE_AMD_008,23.0224263,72.571369,23.4,83.51,1.992,0.049,8.91,3.5011,-3.1417,83.5117,0.7448,0.04103,-0.0001,0.66602,-0.0529,0.0017,-9.8279,0.0814,-0.0668,0.03,0.1216,3,12,0.68,0.92,0.3,24.594,18.49,89.9,31.4,19771.0,8008,7933,8000,8184,47.3,51.2,46.6,46.9,2.871,2.902,2.584,2.736,1.41,85.8,23.5,43.0,1019.4,-31.5,-0.76,1.24,14.8,34.9,26.7,0,no_anomaly,0.0,0,0,0,0,23.0224263,72.571369,23.4,0.0
2024-09-14T14:39:11.900Z,MISSION_0047,119,1,orbit_base,SITE_AMD_008,23.0224272,72.5713668,23.7,79.79,1.929,0.073,8.91,-0.0815,-0.0653,79.7882,0.76723,-0.00018,-0.00089,0.64137,0.0883,-0.0457,-9.9293,0.1318,-0.7343,0.077,0.0929,3,14,0.77,0.67,0.3,24.5,18.53,89.8,32.3,19752.0,8220,8081,7835,7987,52.2,50.5,48.3,46.4,2.745,2.784,2.666,2.848,0.76,87.9,23.5,43.4,1019.41,-29.61,-0.82,1.53,17.4,29.2,23.1,0,no_anomaly,0.0,0,0,0,0,23.0224272,72.5713668,23.7,0.0
2024-09-14T14:39:12.000Z,MISSION_0047,120,1,orbit_base,SITE_AMD_008,23.0224283,72.5713646,24.0,80.68,2.239,0.062,8.91,1.4364,-2.5306,80.6798,0.76179,0.02384,-0.00872,0.64732,-0.0285,-0.0233,-9.8188,0.0155,0.1866,0.0322,0.1682,3,20,0.83,0.64,0.26,24.526,23.59,89.7,31.9,19733.0,8333,8009,7863,7873,46.4,50.2,45.8,49.8,2.801,2.97,2.554,2.469,1.43,85.2,23.4,42.4,1019.71,-27.25,1.76,1.69,16.9,30.1,29.1,0,no_anomaly,0.0,0,0,0,0,23.0224283,72.5713646,24.0,0.0
2024-09-14T14:39:12.100Z,MISSION_0047,121,1,orbit_base,SITE_AMD_008,23.0224294,72.5713625,24.3,80.17,2.281,0.163,8.91,-1.5086,-0.8036,80.1691,0.76507,-0.00556,-0.01384,0.64377,0.0188,0.0052,-9.8575,-0.2965,-0.3322,0.5151,0.1442,3,17,0.75,0.86,0.31,24.523,20.73,89.6,31.9,19715.0,7957,8018,7995,8199,45.9,49.5,44.8,49.9,2.87,2.891,2.473,2.75,0.69,84.7,23.4,44.1,1019.26,-30.4,-0.13,1.44,19.7,35.8,27.9,0,no_anomaly,0.0,0,0,0,0,23.0224294,72.5713625,24.3,0.0
2024-09-14T14:39:12.200Z,MISSION_0047,122,1,orbit_base,SITE_AMD_008,23.0224305,72.5713604,24.6,80.34,2.95,0.123,8.91,0.5105,-1.0307,80.3411,0.76406,0.00921,-0.004,0.64506,0.159,-0.014,-9.7862,0.1132,0.0566,-0.1105,0.1343,3,19,0.77,0.95,0.37,24.6,17.05,89.5,31.2,19696.0,7569,7971,7833,8116,46.3,48.7,48.9,44.2,2.592,2.844,2.818,2.873,1.59,83.6,23.4,43.0,1019.26,-30.65,0.66,1.5,19.6,35.9,26.5,0,no_anomaly,0.0,0,0,0,0,23.0224305,72.5713604,24.6,0.0
2024-09-14T14:39:12.300Z,MISSION_0047,123,1,orbit_base,SITE_AMD_008,23.0224317,72.5713583,24.9,80.62,3.276,0.215,8.91,0.2984,-2.3169,80.6218,0.76235,0.01506,-0.01373,0.64684,0.0023,0.0144,-9.8084,1.0506,0.6379,-0.2782,0.1796,3,19,0.63,1.02,0.36,24.441,18.4,89.4,32.0,19677.0,7975,8118,8073,8012,51.4,49.1,48.3,50.9,2.633,2.915,3.021,2.999,1.97,89.4,23.4,42.8,1019.26,-33.5,-0.53,1.73,20.3,36.2,24.4,0,no_anomaly,0.0,0,0,0,0,23.0224317,72.5713583,24.9,0.0
2024-09-14T14:39:12.400Z,MISSION_0047,124,1,orbit_base,SITE_AMD_008,23.022433,72.5713563,25.2,80.95,3.351,0.079,8.91,-1.0883,0.1994,80.9537,0.76062,-0.00835,-0.00484,0.64912,-0.1716,0.0361,-9.7543,0.5402,0.7608,-0.2085,0.1297,3,18,0.8,0.91,0.2,24.517,19.94,89.4,31.1,19658.0,8131,8155,7973,8065,48.8,51.4,49.5,48.3,2.91,2.492,2.727,2.799,1.19,80.3,23.7,43.2,1019.34,-32.77,-1.69,1.25,19.6,38.0,26.8,0,no_anomaly,0.0,0,0,0,0,23.022433,72.5713563,25.2,0.0
2024-09-14T14:39:12.500Z,MISSION_0047,125,1,orbit_base,SITE_AMD_008,23.0224344,72.5713543,25.5,84.19,3.453,-0.033,8.91,2.6014,-1.0987,84.1925,0.74165,0.02327,0.0081,0.67034,0.1078,-0.0258,-9.8328,-0.3202,-0.8568,-0.1173,0.0949,3,11,0.63,0.86,0.44,24.483,15.03,89.3,31.8,19640.0,7941,8144,8081,7866,48.2,50.2,44.4,48.6,2.94,2.96,2.962,2.857,1.13,87.6,23.2,42.6,1019.45,-27.3,-0.08,1.12,21.0,31.4,28.0,0,no_anomaly,0.0,0,0,0,0,23.0224344,72.5713543,25.5,0.0
2024-09-14T14:39:12.600Z,MISSION_0047,126,1,orbit_base,SITE_AMD_008,23.0224358,72.5713523,25.8,84.48,3.331,0.118,8.91,0.6362,-2.7907,84.4774,0.74003,0.02048,-0.0143,0.67211,-0.0844,0.007,-9.8929,-0.1304,0.0528,-0.2272,0.1066,3,12,0.86,0.99,0.27,24.537,19.01,89.2,31.0,19621.0,8319,8164,8161,8050,50.3,45.6,48.3,43.9,2.581,2.664,2.98,2.913,1.55,74.7,23.5,43.1,1019.25,-27.65,0.33,1.23,18.5,33.7,23.3,0,no_anomaly,0.0,0,0,0,0,23.0224358,72.5713523,25.8,0.0
2024-09-14T14:39:12.700Z,MISSION_0047,127,1,orbit_base,SITE_AMD_008,23.0224372,72.5713504,26.1,82.8,2.661,0.046,8.91,2.1313,-1.5129,82.7968,0.74977,0.02268,0.0024,0.6613,-0.0666,-0.0398,-9.8307,0.0987,-0.1328,-0.157,0.1403,3,14,0.66,1.06,0.22,24.534,17.54,89.1,32.9,19602.0,7957,7841,7950,7942,48.1,52.0,49.5,46.8,2.511,2.953,2.688,2.67,1.49,93.4,23.3,43.4,1019.18,-28.87,2.19,1.7,20.2,34.2,26.0,0,no_anomaly,0.0,0,0,0,0,23.0224372,72.5713504,26.1,0.0
2024-09-14T14:39:12.800Z,MISSION_0047,128,1,orbit_base,SITE_AMD_008,23.0224387,72.5713486,26.4,81.53,2.986,0.097,8.91,-0.6056,-1.4199,81.5303,0.75737,0.00409,-0.01283,0.65285,0.015,-0.0007,-9.8768,-0.6661,-0.0383,-0.1758,0.1472,3,20,0.74,0.82,0.21,24.503,21.95,89.0,32.0,19583.0,7846,8121,7987,8160,47.2,50.6,48.7,53.2,3.0,2.861,2.94,2.779,1.67,83.0,23.5,42.7,1019.41,-27.25,0.54,1.44,20.0,39.0,27.1,0,no_anomaly,0.0,0,0,0,0,23.0224387,72.5713486,26.4,0.0
2024-09-14T14:39:12.900Z,MISSION_0047,129,1,orbit_base,SITE_AMD_008,23.0224403,72.5713467,26.7,78.7,3.158,0.123,8.91,1.8388,-1.2286,78.7031,0.77302,0.0192,0.00188,0.63409,-0.018,0.1006,-9.7632,-0.6919,-0.0348,-0.2998,0.1652,3,11,0.74,1.05,0.2,24.517,23.96,88.9,31.6,19565.0,8124,7974,8177,8183,49.4,48.2,42.3,47.2,2.747,3.097,2.717,2.787,2.28,97.4,23.7,42.7,1019.47,-27.64,0.57,1.6,21.2,30.2,25.8,0,no_anomaly,0.0,0,0,0,0,23.0224403,72.5713467,26.7,0.0
2024-09-14T14:39:13.000Z,MISSION_0047,130,1,orbit_base,SITE_AMD_008,23.0224419,72.571345,27.0,77.53,2.806,0.121,8.91,-0.6482,-1.9997,77.5298,0.77965,0.00652,-0.01715,0.62594,-0.1433,0.0743,-9.7355,-0.5413,0.6176,-0.0764,0.2671,3,10,0.67,1.0,0.29,24.431,20.51,88.8,31.6,19546.0,8031,7914,8128,8113,48.5,49.0,49.0,48.4,2.811,2.811,2.962,2.78,0.99,83.5,23.6,43.1,1019.28,-28.93,0.74,1.24,14.3,32.2,25.2,0,no_anomaly,0.0,0,0,0,0,23.0224419,72.571345,27.0,0.0
