timestamp_utc,mission_id,frame_id,waypoint_id,inspection_phase,site_id,latitude_deg,longitude_deg,altitude_m,heading_deg,ground_speed_ms,vertical_speed_ms,distance_to_tower_m,roll_deg,pitch_deg,yaw_deg,quat_w,quat_x,quat_y,quat_z,accel_x_ms2,accel_y_ms2,accel_z_ms2,gyro_x_rads,gyro_y_rads,gyro_z_rads,vibration_level,gps_fix_type,gps_satellite_count,gps_hdop,gps_vdop,position_error_m,battery_voltage_v,battery_current_a,battery_remaining_pct,battery_temp_c,battery_capacity_mah,motor_fl_rpm,motor_fr_rpm,motor_rl_rpm,motor_rr_rpm,motor_fl_temp_c,motor_fr_temp_c,motor_rl_temp_c,motor_rr_temp_c,motor_fl_thrust_n,motor_fr_thrust_n,motor_rl_thrust_n,motor_rr_thrust_n,wind_speed_ms,wind_dir_deg,air_temp_c,humidity_pct,pressure_hpa,gimbal_pitch_deg,gimbal_roll_deg,zoom_factor,ir_temp_min_c,ir_temp_max_c,ir_temp_avg_c,anomaly_detected,anomaly_class,anomaly_confidence,anomaly_bbox_x,anomaly_bbox_y,anomaly_bbox_w,anomaly_bbox_h,anomaly_gps_lat,anomaly_gps_lon,anomaly_gps_alt_m,ir_temp_delta_c
2024-08-21T16:09:00.000Z,MISSION_0059,0,0,takeoff,SITE_LKN_010,26.8466977,80.9461994,1.5,114.72,0.0,0.218,0.27,0.861,-4.442,114.7216,0.53868,0.03668,-0.01458,0.84158,0.0801,0.1066,-9.8267,-0.2407,-0.7345,0.1128,0.2166,3,15,0.65,1.17,0.2,24.788,17.96,98.3,42.8,21635.0,8504,8531,8038,8503,57.8,61.2,57.4,61.2,2.65,2.513,2.619,2.625,4.84,259.7,34.7,46.4,1009.83,-28.32,-0.08,1.19,28.7,42.9,38.6,0,no_anomaly,0.0,0,0,0,0,26.8466977,80.9461994,1.5,0.0
2024-08-21T16:09:00.100Z,MISSION_0059,1,0,takeoff,SITE_LKN_010,26.8467002,80.9461982,3.0,113.3,0.0,0.122,0.2,-3.2729,-1.9437,113.3016,0.54984,-0.00153,-0.03317,0.83461,-0.1485,-0.1568,-9.7918,-0.7622,-0.473,-0.311,0.2219,3,10,0.57,0.8,0.2,24.764,18.85,98.3,42.2,21622.0,8667,8783,8454,8350,57.3,61.1,62.1,60.1,2.729,2.815,3.028,2.754,5.52,253.6,34.7,46.4,1009.19,-27.58,-0.84,1.47,30.5,40.5,36.7,0,no_anomaly,0.0,0,0,0,0,26.8467002,80.9461982,3.0,0.0
2024-08-21T16:09:00.200Z,MISSION_0059,2,0,takeoff,SITE_LKN_010,26.8467006,80.9461963,4.5,113.6,0.432,0.092,0.41,3.7552,-1.8232,113.5956,0.5468,0.03124,0.0187,0.83647,-0.039,-0.0948,-9.8343,-0.5158,-0.4598,0.0369,0.2486,3,12,0.92,0.99,0.41,24.822,18.35,98.2,42.5,21608.0,8391,8524,8281,8756,58.7,60.1,58.3,63.3,2.696,3.005,2.972,2.823,4.69,262.6,34.6,47.4,1009.07,-34.67,0.56,1.32,30.6,43.3,35.2,0,no_anomaly,0.0,0,0,0,0,26.8467006,80.9461963,4.5,0.0
2024-08-21T16:09:00.300Z,MISSION_0059,3,0,takeoff,SITE_LKN_010,26.8467016,80.9461927,5.0,111.62,0.376,0.13,0.83,-7.0517,-1.0286,111.6163,0.56134,-0.02715,-0.0559,0.82525,-0.0842,0.0412,-9.8695,-0.0047,-0.525,-0.0598,0.1718,3,19,0.6,0.81,0.26,24.793,14.96,98.2,42.5,21594.0,8474,8611,8455,8762,60.0,58.4,61.7,59.1,3.067,2.898,2.692,2.757,3.72,252.9,34.8,47.5,1009.04,-29.0,-1.34,1.64,33.8,45.1,37.1,0,no_anomaly,0.0,0,0,0,0,26.8467016,80.9461927,5.0,0.0
2024-08-21T16:09:00.400Z,MISSION_0059,4,0,takeoff,SITE_LKN_010,26.8467057,80.9461918,5.0,111.86,0.619,0.157,1.11,-1.005,-1.2629,111.8575,0.56025,0.00422,-0.01344,0.82821,-0.127,-0.0951,-9.8148,0.1379,0.0708,0.0821,0.2345,3,17,0.52,0.6,0.2,24.71,16.67,98.1,42.5,21581.0,8362,8493,8852,8363,60.1,57.0,59.3,60.3,2.536,2.97,2.787,2.957,4.99,261.5,34.7,47.0,1009.25,-30.31,1.05,1.84,34.0,42.5,39.2,0,no_anomaly,0.0,0,0,0,0,26.8467057,80.9461918,5.0,0.0
2024-08-21T16:09:00.500Z,MISSION_0059,5,0,takeoff,SITE_LKN_010,26.8467054,80.9461943,5.0,110.08,0.612,0.106,0.88,-3.5726,-0.4795,110.0789,0.57284,-0.01443,-0.02794,0.81907,-0.0757,0.0867,-9.8149,-0.4178,0.3505,0.1749,0.2194,3,14,0.84,0.76,0.22,24.699,18.0,98.0,43.0,21567.0,8741,8316,8675,8740,60.1,61.6,62.3,62.1,2.5,2.707,2.825,2.686,4.61,265.6,34.8,47.0,1009.32,-28.46,-0.02,1.46,29.5,43.5,36.0,0,no_anomaly,0.0,0,0,0,0,26.8467054,80.9461943,5.0,0.0
2024-08-21T16:09:00.600Z,MISSION_0059,6,0,takeoff,SITE_LKN_010,26.846708,80.9461965,5.0,108.14,0.899,0.221,0.97,-4.4055,-1.0912,108.143,0.58661,-0.01485,-0.0367,0.8089,0.005,0.0201,-9.8352,-0.4513,-0.135,0.3086,0.2443,3,14,0.69,0.6,0.28,24.744,19.07,98.0,41.3,21554.0,8349,8528,8387,8257,59.5,61.9,61.5,59.7,2.842,2.767,2.72,2.729,4.31,247.5,34.7,45.9,1009.03,-27.49,-1.47,1.64,26.1,39.7,38.3,0,no_anomaly,0.0,0,0,0,0,26.846708,80.9461965,5.0,0.0
2024-08-21T16:09:00.700Z,MISSION_0059,7,0,takeoff,SITE_LKN_010,26.8467104,80.9461949,5.0,106.68,0.414,0.041,1.29,0.8856,-2.6368,106.6803,0.59674,0.02307,-0.00754,0.80206,0.4162,0.0434,-9.7437,0.1212,-0.659,-0.23,0.2035,3,13,0.76,0.95,0.23,24.742,18.2,97.9,42.2,21540.0,8378,8352,8603,8271,60.2,60.6,61.0,59.5,2.991,2.642,2.901,2.911,5.0,257.7,34.7,46.1,1008.95,-24.85,-1.2,1.84,33.0,47.6,40.4,0,no_anomaly,0.0,0,0,0,0,26.8467104,80.9461949,5.0,0.0
2024-08-21T16:09:00.800Z,MISSION_0059,8,0,takeoff,SITE_LKN_010,26.8467097,80.946199,5.0,106.86,0.542,0.103,1.09,2.077,-1.5632,106.8604,0.59545,0.02175,0.00643,0.80307,0.123,-0.0587,-9.8003,0.2031,-0.3844,-0.2918,0.1132,3,10,0.7,0.87,0.31,24.687,20.87,97.8,42.8,21526.0,8582,8341,8627,8593,61.9,59.1,59.4,57.9,2.607,2.688,3.246,2.988,5.04,251.0,34.9,47.0,1009.01,-29.65,0.09,1.74,31.8,41.9,37.1,0,no_anomaly,0.0,0,0,0,0,26.8467097,80.946199,5.0,0.0
2024-08-21T16:09:00.900Z,MISSION_0059,9,0,takeoff,SITE_LKN_010,26.8467094,80.9462038,5.0,106.59,0.635,0.087,1.13,5.2467,-0.7421,106.592,0.5968,0.03254,0.03283,0.80105,-0.0269,-0.0788,-9.765,0.1536,0.1846,0.489,0.2067,3,15,0.72,1.03,0.25,24.714,17.15,97.8,43.6,21513.0,8063,8501,8590,8464,61.9,58.1,62.4,62.1,2.891,2.811,2.633,2.823,4.94,256.8,34.8,46.3,1009.31,-31.23,-2.13,1.86,30.6,45.4,39.0,0,no_anomaly,0.0,0,0,0,0,26.8467094,80.9462038,5.0,0.0
2024-08-21T16:09:01.000Z,MISSION_0059,10,0,takeoff,SITE_LKN_010,26.8467103,80.946204,5.0,107.17,0.192,0.164,1.23,-5.1705,-0.9684,107.1712,0.5933,-0.01998,-0.04131,0.80367,-0.0125,-0.023,-9.7902,-0.1695,0.6616,0.1382,0.2024,3,20,0.91,0.77,0.3,24.851,16.9,97.7,43.0,21499.0,8738,8601,8751,8363,60.6,59.3,57.3,57.2,2.857,2.919,2.853,2.838,4.38,256.5,34.9,46.0,1009.29,-32.04,0.41,1.37,32.6,42.3,39.6,0,no_anomaly,0.0,0,0,0,0,26.8467103,80.946204,5.0,0.0
2024-08-21T16:09:01.100Z,MISSION_0059,11,0,takeoff,SITE_LKN_010,26.8467129,80.9462078,5.0,107.66,0.164,0.078,1.68,-2.3724,-1.5159,107.6578,0.59024,-0.00154,-0.02452,0.80685,0.0037,-0.027,-9.8549,-0.2847,-0.6486,0.0855,0.2243,3,19,0.56,0.91,0.2,24.639,17.42,97.7,43.3,21486.0,8506,8588,8554,8630,61.7,58.1,59.7,59.5,2.942,3.241,2.937,2.989,5.03,257.0,34.8,46.2,1009.08,-31.67,-0.33,1.31,31.1,49.2,39.2,0,no_anomaly,0.0,0,0,0,0,26.8467129,80.9462078,5.0,0.0
2024-08-21T16:09:01.200Z,MISSION_0059,12,0,takeoff,SITE_LKN_010,26.8467155,80.9462103,5.0,109.2,0.045,0.121,2.07,2.5281,-3.0513,109.2032,0.57843,0.03447,0.00256,0.815,-0.1154,-0.0274,-9.807,-0.4601,-0.6316,-0.3916,0.1992,3,16,0.75,0.94,0.25,24.716,16.41,97.6,43.3,21472.0,8618,8609,8542,8511,55.9,61.6,56.9,61.8,2.793,2.846,2.81,2.891,5.26,265.0,35.0,45.7,1008.99,-34.13,-0.88,1.81,29.9,46.5,39.7,0,no_anomaly,0.0,0,0,0,0,26.8467155,80.9462103,5.0,0.0
2024-08-21T16:09:01.300Z,MISSION_0059,13,0,takeoff,SITE_LKN_010,26.8467167,80.9462053,5.0,108.28,0.438,0.074,1.95,0.729,0.8849,108.2796,0.58582,-0.00253,0.00968,0.81038,0.2244,-0.0553,-9.8441,-0.2189,-0.2079,-0.2315,0.2168,3,19,0.52,1.19,0.2,24.708,18.4,97.5,43.2,21459.0,8546,8369,8453,8585,60.1,61.9,56.6,61.1,2.786,2.717,2.625,2.936,4.76,256.3,34.7,46.2,1009.39,-31.99,-0.37,1.37,29.0,39.2,37.4,0,no_anomaly,0.0,0,0,0,0,26.8467167,80.9462053,5.0,0.0
2024-08-21T16:09:01.400Z,MISSION_0059,14,0,takeoff,SITE_LKN_010,26.8467215,80.9462093,5.0,107.48,0.574,0.159,2.61,-3.5632,-1.6464,107.4753,0.5915,-0.00681,-0.03356,0.80558,0.0585,-0.0521,-9.8649,0.5103,0.1822,0.1219,0.2021,3,14,0.62,0.87,0.32,24.669,20.25,97.5,41.6,21445.0,8569,8353,8570,8192,59.2,58.5,59.4,58.2,2.709,2.907,2.93,2.886,5.25,249.8,34.8,46.8,1009.26,-26.77,-0.29,1.44,28.5,40.8,34.7,0,no_anomaly,0.0,0,0,0,0,26.8467215,80.9462093,5.0,0.0
2024-08-21T16:09:01.500Z,MISSION_0059,15,0,takeoff,SITE_LKN_010,26.8467225,80.9462107,5.0,109.9,0.0,0.14,2.77,-4.0016,-0.8438,109.8972,0.57416,-0.01403,-0.03281,0.81797,-0.1926,0.0635,-9.8584,-0.4122,0.2048,0.3949,0.2498,3,13,0.77,0.68,0.2,24.765,19.64,97.4,43.0,21431.0,8601,8462,8406,8534,56.8,61.2,59.7,58.8,2.876,2.674,2.665,2.614,4.91,255.3,34.8,46.1,1009.01,-34.31,0.25,1.05,29.2,44.8,37.5,0,no_anomaly,0.0,0,0,0,0,26.8467225,80.9462107,5.0,0.0
2024-08-21T16:09:01.600Z,MISSION_0059,16,0,takeoff,SITE_LKN_010,26.846725,80.9462028,5.0,108.15,0.091,0.121,2.8,-1.1398,-2.4564,108.1454,0.58677,0.01152,-0.02063,0.80941,0.0384,0.0957,-9.8287,1.0474,0.0429,-0.6208,0.1586,3,15,0.59,0.74,0.26,24.789,18.91,97.4,42.9,21418.0,8124,8605,8211,8454,58.1,64.7,57.2,61.4,2.827,2.629,3.096,2.877,4.58,252.4,34.7,47.7,1009.24,-32.04,-2.11,1.13,30.4,43.9,38.7,0,no_anomaly,0.0,0,0,0,0,26.846725,80.9462028,5.0,0.0
2024-08-21T16:09:01.700Z,MISSION_0059,17,0,takeoff,SITE_LKN_010,26.8467245,80.9461982,5.0,106.27,0.0,0.112,2.74,0.0486,-4.9528,106.2733,0.59933,0.03482,-0.02558,0.79933,0.0882,-0.0137,-9.8872,-0.3454,-0.5209,-0.3216,0.2317,3,17,0.62,0.73,0.29,24.667,19.73,97.3,42.6,21404.0,8377,8461,8352,8382,59.2,59.7,62.8,60.5,2.651,2.705,2.589,2.861,4.72,264.3,34.8,46.4,1009.0,-26.79,-0.85,1.04,31.2,49.5,39.5,0,no_anomaly,0.0,0,0,0,0,26.8467245,80.9461982,5.0,0.0
2024-08-21T16:09:01.800Z,MISSION_0059,18,0,takeoff,SITE_LKN_010,26.8467255,80.9461977,5.0,108.06,0.004,0.167,2.86,-3.6423,-3.9481,108.0643,0.58757,0.00921,-0.04593,0.80781,0.0239,-0.0117,-9.778,-0.1285,0.9705,0.6402,0.207,3,13,0.76,1.25,0.5,24.769,21.39,97.2,41.6,21391.0,8334,8833,8438,8254,64.7,56.9,64.4,56.5,2.876,2.636,2.82,2.742,5.01,260.4,34.6,46.9,1009.27,-30.38,-1.29,1.74,29.9,50.0,36.9,0,no_anomaly,0.0,0,0,0,0,26.8467255,80.9461977,5.0,0.0
2024-08-21T16:09:01.900Z,MISSION_0059,19,0,takeoff,SITE_LKN_010,26.8467215,80.946199,5.0,109.29,0.17,0.129,2.39,-2.9487,1.3183,109.2897,0.57817,-0.02427,-0.01433,0.81543,-0.1413,-0.0601,-9.7763,-0.0156,0.4282,-0.1899,0.1846,3,16,0.85,0.82,0.33,24.727,23.45,97.2,42.7,21377.0,8462,8516,8315,8366,57.6,62.4,62.9,62.9,2.856,2.785,2.9,2.858,4.38,260.7,34.9,47.0,1009.11,-29.39,-0.96,1.73,30.0,43.2,35.4,0,no_anomaly,0.0,0,0,0,0,26.8467215,80.946199,5.0,0.0
2024-08-21T16:09:02.000Z,MISSION_0059,20,0,takeoff,SITE_LKN_010,26.8467185,80.9461995,5.0,109.41,0.399,0.083,2.07,1.7886,-2.1269,109.4113,0.57737,0.02416,0.00201,0.81612,-0.0571,-0.0669,-9.8541,-0.0789,-0.2519,0.1706,0.1493,3,11,0.77,0.73,0.45,24.755,19.53,97.1,43.5,21363.0,8524,8790,8339,8452,57.1,57.4,58.6,58.7,2.797,2.861,2.808,2.829,5.24,258.0,34.7,47.5,1008.93,-28.33,-0.09,1.41,32.5,45.8,41.7,0,no_anomaly,0.0,0,0,0,0,26.8467185,80.9461995,5.0,0.0
2024-08-21T16:09:02.100Z,MISSION_0059,21,0,takeoff,SITE_LKN_010,26.8467199,80.9462006,5.0,111.76,0.479,0.189,2.22,-6.3011,-0.1129,111.7585,0.56014,-0.03001,-0.04605,0.82658,0.1556,0.0737,-9.8389,0.8899,0.2175,0.7146,0.1585,3,20,0.81,0.8,0.39,24.686,17.34,97.0,42.6,21350.0,8271,8448,8691,8562,58.1,59.3,60.8,60.1,2.851,2.919,2.839,2.544,4.52,262.3,35.1,46.7,1009.52,-29.24,-1.04,1.48,29.1,50.2,40.9,0,no_anomaly,0.0,0,0,0,0,26.8467199,80.9462006,5.0,0.0
2024-08-21T16:09:02.200Z,MISSION_0059,22,0,takeoff,SITE_LKN_010,26.8467142,80.9462004,5.0,111.86,0.18,0.02,1.58,0.8411,-0.9886,111.863,0.5601,0.01126,0.00125,0.82835,-0.0974,0.0358,-9.8277,0.7842,-0.1317,-0.2025,0.1761,3,19,0.74,0.99,0.25,24.733,26.57,97.0,43.0,21336.0,8548,8583,8383,8717,61.2,59.6,60.2,57.6,2.633,2.879,2.542,2.693,4.34,253.7,34.4,46.2,1008.92,-22.68,0.55,1.72,27.3,43.7,39.2,0,no_anomaly,0.0,0,0,0,0,26.8467142,80.9462004,5.0,0.0
2024-08-21T16:09:02.300Z,MISSION_0059,23,0,takeoff,SITE_LKN_010,26.8467151,80.946201,5.0,110.81,0.0,0.144,1.68,-0.9091,-1.7274,110.8128,0.56777,0.0079,-0.01509,0.82301,-0.0542,-0.0552,-9.8467,0.4204,-0.9244,0.22,0.1719,3,20,0.75,0.72,0.22,24.769,20.78,96.9,42.9,21323.0,8471,8639,8324,8788,58.9,59.3,56.3,60.9,2.747,2.726,3.131,3.044,4.84,261.5,34.5,46.8,1009.57,-26.44,0.59,1.59,26.6,40.3,32.9,0,no_anomaly,0.0,0,0,0,0,26.8467151,80.946201,5.0,0.0
2024-08-21T16:09:02.400Z,MISSION_0059,24,0,takeoff,SITE_LKN_010,26.846713,80.946198,5.0,110.07,0.0,0.086,1.46,0.1787,-1.5436,110.0655,0.57304,0.01193,-0.00644,0.81942,0.1299,-0.09,-9.8256,0.567,0.3284,-0.4623,0.1549,3,10,0.6,1.01,0.32,24.632,17.64,96.9,42.4,21309.0,8279,8754,8195,8583,57.7,63.3,60.9,58.8,2.661,2.577,2.829,3.166,4.98,258.7,34.9,47.4,1008.65,-30.0,-0.24,2.13,29.9,43.7,36.0,0,no_anomaly,0.0,0,0,0,0,26.846713,80.946198,5.0,0.0
2024-08-21T16:09:02.500Z,MISSION_0059,25,0,takeoff,SITE_LKN_010,26.846713,80.946199,5.0,110.69,0.274,0.086,1.45,1.7007,0.1512,110.6906,0.56858,0.00735,0.01296,0.82249,-0.3259,-0.078,-9.8182,0.813,0.0807,0.1177,0.3442,3,18,0.76,0.7,0.28,24.739,17.44,96.8,43.2,21295.0,8438,8534,8495,8201,60.0,59.8,60.3,58.6,2.779,2.828,2.726,2.556,4.2,261.1,34.6,46.6,1009.33,-29.43,1.67,1.56,31.4,40.8,38.4,0,no_anomaly,0.0,0,0,0,0,26.846713,80.946199,5.0,0.0
2024-08-21T16:09:02.600Z,MISSION_0059,26,0,takeoff,SITE_LKN_010,26.8467164,80.9461948,5.0,107.83,0.415,0.119,1.92,0.5206,0.4869,107.8307,0.58898,-0.00076,0.00617,0.80812,-0.0014,-0.0794,-9.7665,1.252,-0.9462,-0.0567,0.2474,3,20,0.63,1.05,0.25,24.695,14.76,96.7,43.3,21282.0,8628,8488,8354,8493,65.6,61.0,61.5,59.0,2.65,2.677,2.865,2.744,4.51,259.4,34.5,47.1,1008.86,-31.36,0.02,1.37,29.1,40.7,38.2,0,no_anomaly,0.0,0,0,0,0,26.8467164,80.9461948,5.0,0.0
2024-08-21T16:09:02.700Z,MISSION_0059,27,0,takeoff,SITE_LKN_010,26.8467195,80.946189,5.0,109.76,0.0,0.095,2.49,-0.5562,-0.8313,109.7578,0.57531,0.00314,-0.00814,0.81789,0.0324,-0.0417,-9.7898,0.1248,-0.5769,-0.6422,0.2622,3,20,0.73,0.76,0.27,24.658,17.43,96.7,42.5,21268.0,8495,8972,8445,8428,61.7,57.9,62.9,57.9,2.84,2.857,2.839,2.63,4.78,257.7,34.9,45.9,1008.99,-31.28,-1.29,1.15,25.2,40.2,32.3,0,no_anomaly,0.0,0,0,0,0,26.8467195,80.946189,5.0,0.0
2024-08-21T16:09:02.800Z,MISSION_0059,28,0,takeoff,SITE_LKN_010,26.8467209,80.9461927,5.0,108.22,0.095,0.027,2.47,3.1462,-0.6911,108.2238,0.58584,0.02098,0.01871,0.80994,0.0272,-0.055,-9.7628,0.7521,-0.0578,-0.2083,0.2168,3,14,0.6,0.8,0.24,24.729,15.68,96.6,42.9,21255.0,8344,8543,8556,8531,58.4,61.2,60.1,55.3,2.848,2.777,3.022,2.709,4.49,257.7,35.0,46.1,1008.85,-35.84,0.89,1.49,29.9,41.7,33.5,0,no_anomaly,0.0,0,0,0,0,26.8467209,80.9461927,5.0,0.0
2024-08-21T16:09:02.900Z,MISSION_0059,29,0,takeoff,SITE_LKN_010,26.8467197,80.9461882,5.0,106.76,0.03,0.151,2.55,1.7296,-1.2981,106.7633,0.59624,0.01809,0.00536,0.80259,0.1786,0.01,-9.8161,0.4621,0.3802,0.0984,0.0936,3,18,0.76,1.21,0.32,24.708,20.78,96.6,42.3,21241.0,8247,8240,8520,8211,58.9,59.2,63.0,63.9,2.874,2.727,2.866,2.93,5.23,252.0,34.7,46.8,1009.31,-29.11,-1.55,1.54,31.0,39.9,39.1,0,no_anomaly,0.0,0,0,0,0,26.8467197,80.9461882,5.0,0.0
2024-08-21T16:09:03.000Z,MISSION_0059,30,0,takeoff,SITE_LKN_010,26.8467186,80.9461864,5.0,106.57,0.161,0.08,2.57,4.0244,-0.333,106.5714,0.59737,0.02332,0.02641,0.80119,-0.0214,0.0705,-9.9082,-0.5534,0.7849,-0.0754,0.2595,3,17,0.71,0.93,0.33,24.712,18.28,96.5,42.7,21228.0,8356,8577,8302,8489,62.2,58.5,59.4,56.6,2.801,2.731,2.848,2.802,5.09,264.5,34.6,45.7,1009.1,-28.65,1.05,1.5,27.8,47.4,37.6,0,no_anomaly,0.0,0,0,0,0,26.8467186,80.9461864,5.0,0.0
2024-08-21T16:09:03.100Z,MISSION_0059,31,0,takeoff,SITE_LKN_010,26.8467172,80.9461887,5.0,107.08,0.136,0.166,2.29,1.7761,-0.141,107.0829,0.59415,0.0102,0.01173,0.8042,-0.1908,-0.0448,-9.8555,-0.1404,0.7298,-0.3647,0.1895,3,12,0.5,1.1,0.2,24.607,15.23,96.4,43.6,21214.0,8552,8609,8538,8524,59.3,57.4,61.3,57.9,2.962,2.828,2.761,2.931,4.45,262.3,34.4,45.8,1009.44,-24.64,0.71,1.72,25.9,43.6,37.6,0,no_anomaly,0.0,0,0,0,0,26.8467172,80.9461887,5.0,0.0
2024-08-21T16:09:03.200Z,MISSION_0059,32,0,takeoff,SITE_LKN_010,26.8467126,80.9461875,5.0,107.52,0.216,0.097,1.98,4.4037,-2.9232,107.5163,0.58978,0.04326,0.01591,0.80625,-0.1602,0.0171,-9.819,0.3839,0.289,0.0852,0.252,3,11,0.7,1.1,0.27,24.727,21.18,96.4,42.2,21200.0,8481,8638,8540,8420,61.1,58.6,61.5,56.9,2.931,2.691,2.93,2.686,5.96,260.7,34.8,46.7,1008.91,-28.2,0.72,1.66,31.5,50.7,39.3,0,no_anomaly,0.0,0,0,0,0,26.8467126,80.9461875,5.0,0.0
2024-08-21T16:09:03.300Z,MISSION_0059,33,0,takeoff,SITE_LKN_010,26.8467129,80.9461881,5.0,108.36,0.0,0.026,1.96,1.348,-1.7917,108.3564,0.58501,0.01956,0.00039,0.81079,0.0097,-0.0919,-9.7607,-0.3638,-0.0335,-0.3967,0.2017,3,13,0.85,0.79,0.32,24.695,16.32,96.3,43.6,21187.0,8300,8540,8329,8600,59.0,57.2,61.5,59.0,2.715,3.067,2.803,2.914,4.14,262.8,34.8,47.6,1009.12,-34.54,0.25,1.38,29.4,42.2,36.4,0,no_anomaly,0.0,0,0,0,0,26.8467129,80.9461881,5.0,0.0
2024-08-21T16:09:03.400Z,MISSION_0059,34,0,takeoff,SITE_LKN_010,26.8467078,80.9461917,5.0,106.35,0.0,0.142,1.26,4.703,-0.8623,106.3464,0.59863,0.03061,0.02834,0.79994,-0.0382,-0.0318,-9.8685,0.354,-0.649,0.333,0.2053,3,19,0.5,0.81,0.21,24.773,16.72,96.2,42.8,21173.0,8355,8593,8730,8513,58.6,61.3,55.4,58.6,2.931,2.784,2.687,2.553,5.1,257.8,34.9,45.6,1008.77,-32.54,1.81,1.28,28.1,46.9,35.1,0,no_anomaly,0.0,0,0,0,0,26.8467078,80.9461917,5.0,0.0
2024-08-21T16:09:03.500Z,MISSION_0059,35,0,takeoff,SITE_LKN_010,26.8467104,80.9461894,5.0,107.97,0.058,0.115,1.65,-2.4191,-5.6412,107.9689,0.588,0.0274,-0.04598,0.80709,0.1507,-0.0165,-9.8091,-0.0045,-0.2131,-0.1513,0.2569,3,18,0.5,0.77,0.2,24.65,16.44,96.2,43.3,21160.0,8444,8420,8438,8428,59.6,58.5,57.5,57.4,2.523,2.9,2.843,2.918,4.42,254.4,34.7,46.0,1009.01,-30.15,-0.81,1.0,28.9,45.3,34.6,0,no_anomaly,0.0,0,0,0,0,26.8467104,80.9461894,5.0,0.0
2024-08-21T16:09:03.600Z,MISSION_0059,36,0,takeoff,SITE_LKN_010,26.8467116,80.9461889,5.0,109.87,0.0,0.08,1.79,-2.6143,-1.8394,109.8672,0.5746,3e-05,-0.02789,0.81796,0.0474,0.0037,-9.7833,-0.6003,-0.047,0.6748,0.1306,3,11,0.79,0.96,0.47,24.676,20.72,96.1,43.0,21146.0,8410,8873,8705,8593,58.6,58.7,61.1,58.9,2.47,2.657,2.653,2.7,4.24,255.4,34.7,46.5,1008.97,-34.06,-1.26,1.51,28.0,44.2,35.1,0,no_anomaly,0.0,0,0,0,0,26.8467116,80.9461889,5.0,0.0
2024-08-21T16:09:03.700Z,MISSION_0059,37,0,takeoff,SITE_LKN_010,26.8467062,80.9461868,5.0,109.74,0.145,0.138,1.63,-5.4233,-1.4099,109.7406,0.57522,-0.01717,-0.04576,0.81654,0.1205,0.012,-9.8412,-0.5091,0.9554,0.5883,0.2624,3,19,0.77,0.88,0.43,24.736,18.46,96.1,42.8,21132.0,8557,8489,8593,8234,59.1,56.9,59.2,57.3,2.806,2.495,2.889,2.494,4.76,261.2,34.8,47.0,1009.45,-31.58,-0.06,1.17,28.5,45.4,34.8,0,no_anomaly,0.0,0,0,0,0,26.8467062,80.9461868,5.0,0.0
2024-08-21T16:09:03.800Z,MISSION_0059,38,0,takeoff,SITE_LKN_010,26.8467035,80.9461821,5.0,109.97,0.0,0.186,2.03,-1.956,-3.4116,109.9688,0.57388,0.01459,-0.03105,0.81822,0.1147,-0.0718,-9.825,0.1474,0.4513,0.327,0.2417,3,11,0.79,0.9,0.2,24.685,19.32,96.0,42.9,21119.0,8323,8550,8352,8492,60.3,61.6,61.8,60.0,2.358,2.777,2.736,3.057,4.58,262.7,34.9,47.1,1008.89,-40.01,-0.62,1.81,27.3,46.1,33.6,0,no_anomaly,0.0,0,0,0,0,26.8467035,80.9461821,5.0,0.0
2024-08-21T16:09:03.900Z,MISSION_0059,39,0,takeoff,SITE_LKN_010,26.8467058,80.9461801,5.0,110.45,0.0,0.077,2.31,-5.0728,-2.4025,110.4504,0.57043,-0.00803,-0.04829,0.81989,0.0915,-0.0426,-9.8015,-0.4967,-0.6107,-0.2468,0.2801,3,16,0.93,0.86,0.23,24.601,21.28,95.9,43.6,21105.0,8393,8656,8671,8678,60.8,60.7,58.8,62.2,2.743,3.044,2.872,2.703,4.59,254.9,34.8,46.0,1009.15,-34.95,-0.9,1.34,28.9,41.7,35.6,0,no_anomaly,0.0,0,0,0,0,26.8467058,80.9461801,5.0,0.0
2024-08-21T16:09:04.000Z,MISSION_0059,40,0,takeoff,SITE_LKN_010,26.8467135,80.9461846,5.0,109.19,0.221,0.07,2.28,4.6535,-1.5537,109.1852,0.57841,0.03456,0.02524,0.81462,0.1174,0.0142,-9.8028,-0.9831,-0.7068,0.0976,0.1947,3,18,0.75,0.98,0.22,24.663,14.28,95.9,43.9,21092.0,8537,8577,8419,8226,60.6,60.3,57.3,61.3,2.906,2.827,2.767,2.927,5.31,252.1,34.8,45.9,1009.39,-27.76,1.33,1.52,32.4,50.1,41.7,0,no_anomaly,0.0,0,0,0,0,26.8467135,80.9461846,5.0,0.0
2024-08-21T16:09:04.100Z,MISSION_0059,41,0,takeoff,SITE_LKN_010,26.8467121,80.9461882,5.0,110.83,0.194,0.116,1.88,-2.7109,-1.3242,110.8337,0.56763,-0.00392,-0.02603,0.82286,-0.1116,0.0785,-9.8309,-0.3269,1.1811,-0.1883,0.1449,3,13,0.77,0.92,0.24,24.664,16.65,95.8,43.4,21078.0,8377,8503,8533,8354,59.8,60.2,58.9,56.4,2.71,2.663,3.011,3.056,4.46,259.4,34.7,47.2,1009.32,-31.59,-0.55,1.68,29.4,38.5,34.4,0,no_anomaly,0.0,0,0,0,0,26.8467121,80.9461882,5.0,0.0
2024-08-21T16:09:04.200Z,MISSION_0059,42,0,takeoff,SITE_LKN_010,26.846713,80.9461865,5.0,110.72,0.355,-0.033,2.09,-1.9484,0.1837,110.7246,0.56828,-0.01098,-0.01308,0.82266,-0.0225,-0.0774,-9.8328,0.0578,-0.1043,0.4066,0.2375,3,14,0.52,0.65,0.22,24.769,17.24,95.7,42.4,21064.0,8497,8253,8454,8347,62.7,58.1,57.4,59.8,2.489,2.847,2.837,2.54,4.54,258.7,34.6,46.7,1008.93,-30.55,-1.34,1.03,30.0,42.3,37.5,0,no_anomaly,0.0,0,0,0,0,26.846713,80.9461865,5.0,0.0
2024-08-21T16:09:04.300Z,MISSION_0059,43,0,takeoff,SITE_LKN_010,26.8467123,80.946179,5.0,110.49,0.512,0.034,2.71,-1.5358,-5.9054,110.4917,0.56982,0.03469,-0.04036,0.82005,-0.0515,-0.0711,-9.8385,-0.6987,-0.6549,0.0497,0.1838,3,14,0.88,0.92,0.4,24.778,22.64,95.7,43.5,21051.0,8680,8432,8579,8675,60.8,55.3,62.8,63.5,2.675,2.889,2.79,2.847,4.74,252.1,34.8,47.2,1009.26,-32.33,-1.03,1.61,27.3,40.4,38.6,0,no_anomaly,0.0,0,0,0,0,26.8467123,80.946179,5.0,0.0
2024-08-21T16:09:04.400Z,MISSION_0059,44,0,takeoff,SITE_LKN_010,26.8467082,80.9461809,5.0,107.02,0.212,0.058,2.32,-2.9062,-1.2762,107.0163,0.59471,-0.00613,-0.02701,0.80347,-0.0217,-0.0693,-9.7405,0.4019,-0.2083,-0.0667,0.124,3,12,0.53,1.33,0.25,24.597,16.14,95.6,42.7,21037.0,8408,8270,8707,8669,58.2,62.4,61.6,58.7,2.884,2.906,2.674,2.926,4.64,261.9,34.4,46.0,1009.06,-25.99,1.1,1.48,26.3,44.0,38.5,0,no_anomaly,0.0,0,0,0,0,26.8467082,80.9461809,5.0,0.0
2024-08-21T16:09:04.500Z,MISSION_0059,45,0,takeoff,SITE_LKN_010,26.84671,80.9461828,5.0,106.85,0.0,0.196,2.21,-1.523,-0.9471,106.8499,0.59589,-0.00128,-0.0156,0.80291,0.0061,0.0077,-9.7765,0.4158,-0.4252,0.2276,0.1252,3,17,0.74,1.1,0.32,24.669,21.92,95.6,42.7,21024.0,8327,8218,8401,8591,56.3,57.7,55.6,55.8,2.668,2.56,2.411,2.739,5.34,259.3,34.7,46.6,1009.19,-27.79,-1.18,1.64,29.9,40.7,37.4,0,no_anomaly,0.0,0,0,0,0,26.84671,80.9461828,5.0,0.0
2024-08-21T16:09:04.600Z,MISSION_0059,46,0,takeoff,SITE_LKN_010,26.8467139,80.946183,5.0,107.64,0.379,-0.035,2.44,1.7895,-3.1641,107.6387,0.58969,0.0315,-0.0037,0.80701,0.0488,0.0433,-9.8684,-0.0939,-0.7708,-0.0403,0.2187,3,20,0.69,0.71,0.37,24.746,14.36,95.5,42.5,21010.0,8441,8465,8433,8454,57.9,58.1,56.5,60.3,2.609,2.623,2.859,2.642,5.3,259.0,34.9,46.8,1009.03,-32.31,-0.76,1.71,34.1,45.4,37.7,0,no_anomaly,0.0,0,0,0,0,26.8467139,80.946183,5.0,0.0
2024-08-21T16:09:04.700Z,MISSION_0059,47,0,takeoff,SITE_LKN_010,26.8467183,80.9461845,5.0,107.37,0.357,0.152,2.67,0.1584,-2.4549,107.3734,0.59204,0.01808,-0.01157,0.80562,-0.0322,-0.0177,-9.798,0.3657,-0.7984,-0.0173,0.1993,3,16,0.86,0.86,0.38,24.607,15.86,95.4,42.2,20997.0,8621,8472,8591,8156,58.5,60.7,61.4,60.2,3.097,2.795,2.435,3.108,4.86,260.3,34.7,46.6,1009.25,-32.87,-0.91,1.11,30.6,44.7,40.3,0,no_anomaly,0.0,0,0,0,0,26.8467183,80.9461845,5.0,0.0
2024-08-21T16:09:04.800Z,MISSION_0059,48,0,takeoff,SITE_LKN_010,26.8467136,80.946181,5.0,102.23,0.66,0.077,2.61,3.2331,-2.1326,102.232,0.62698,0.03219,0.01028,0.7783,0.2564,0.0391,-9.7897,0.1363,0.7781,-0.2127,0.1233,3,20,0.75,0.97,0.24,24.705,19.21,95.4,42.5,20983.0,8397,8452,8287,8563,61.2,58.1,57.1,58.1,2.827,2.703,2.876,2.785,4.48,257.8,34.7,46.2,1008.94,-35.14,-0.31,1.66,29.2,39.3,35.9,0,no_anomaly,0.0,0,0,0,0,26.8467136,80.946181,5.0,0.0
2024-08-21T16:09:04.900Z,MISSION_0059,49,0,takeoff,SITE_LKN_010,26.8467154,80.9461824,5.0,100.82,0.519,0.111,2.6,0.4583,-2.0285,100.8221,0.63712,0.01619,-0.0082,0.77055,-0.1002,-0.0378,-9.7517,-0.2705,-0.3868,0.3006,0.2329,3,11,0.68,0.89,0.28,24.681,16.6,95.3,43.3,20969.0,8656,8468,8426,8262,59.1,62.2,59.7,63.6,2.839,2.837,2.944,2.769,4.14,261.4,34.8,46.0,1009.15,-25.23,-1.57,1.0,30.8,43.6,36.4,0,no_anomaly,0.0,0,0,0,0,26.8467154,80.9461824,5.0,0.0
2024-08-21T16:09:05.000Z,MISSION_0059,50,0,takeoff,SITE_LKN_010,26.8467153,80.9461776,5.0,101.14,0.445,0.077,3.02,0.9442,-2.1221,101.1416,0.63488,0.01953,-0.0054,0.77235,-0.0151,0.0288,-9.8648,-0.2563,-0.5131,-0.0562,0.1802,3,18,0.74,0.97,0.21,24.631,12.63,95.3,42.7,20956.0,8535,8386,8682,8667,57.9,58.9,61.7,60.9,3.033,2.831,2.8,2.913,4.92,261.0,34.6,46.7,1008.92,-28.15,-0.51,1.51,26.2,45.7,35.0,0,no_anomaly,0.0,0,0,0,0,26.8467153,80.9461776,5.0,0.0
2024-08-21T16:09:05.100Z,MISSION_0059,51,0,takeoff,SITE_LKN_010,26.846719,80.946174,5.0,101.22,0.268,0.156,3.58,-1.1942,-3.637,101.225,0.63446,0.01791,-0.02819,0.77223,-0.2242,0.0421,-9.8017,0.4504,-0.02,0.2239,0.1867,3,17,0.63,0.95,0.24,24.755,17.9,95.2,42.1,20942.0,8527,8461,8606,8402,60.3,55.7,59.8,58.4,2.976,2.744,2.942,2.701,4.14,262.4,34.6,47.0,1009.17,-38.56,-0.27,2.18,31.2,48.0,38.9,0,no_anomaly,0.0,0,0,0,0,26.846719,80.946174,5.0,0.0
2024-08-21T16:09:05.200Z,MISSION_0059,52,0,takeoff,SITE_LKN_010,26.8467183,80.9461729,5.0,102.36,0.916,0.122,3.64,-1.8674,-0.6525,102.358,0.62687,-0.00578,-0.01627,0.77893,-0.0826,0.037,-9.8438,0.1452,0.6189,0.0752,0.2075,3,15,0.97,0.95,0.51,24.625,20.89,95.1,43.3,20929.0,8460,8449,8386,8358,61.3,62.2,62.4,59.1,2.992,2.508,2.831,2.612,4.52,257.0,34.7,46.1,1009.46,-34.88,0.99,1.53,28.7,42.3,35.9,0,no_anomaly,0.0,0,0,0,0,26.8467183,80.9461729,5.0,0.0
2024-08-21T16:09:05.300Z,MISSION_0059,53,0,takeoff,SITE_LKN_010,26.8467207,80.9461714,5.0,99.84,0.703,0.13,3.93,-0.6172,-2.4809,99.8442,0.64376,0.0131,-0.01806,0.7649,-0.0415,-0.0192,-9.7162,0.8762,-0.2968,-0.4559,0.1926,3,11,0.82,1.12,0.31,24.688,21.62,95.1,42.8,20915.0,8621,8223,8417,8326,60.4,57.2,54.2,60.0,2.737,2.958,2.749,2.611,3.89,264.9,34.6,46.6,1009.22,-27.27,0.28,1.32,29.4,39.4,38.5,0,no_anomaly,0.0,0,0,0,0,26.8467207,80.9461714,5.0,0.0
2024-08-21T16:09:05.400Z,MISSION_0059,54,0,takeoff,SITE_LKN_010,26.8467201,80.9461655,5.0,99.24,0.666,0.117,4.44,4.1965,-4.3534,99.2419,0.64588,0.05262,0.00328,0.76162,0.0085,-0.0397,-9.8419,0.0546,-1.1157,0.1017,0.2162,3,20,0.75,0.64,0.49,24.68,13.14,95.0,42.5,20901.0,8249,8169,8352,8236,63.2,56.7,59.9,59.6,2.795,3.057,2.893,2.811,4.3,259.5,34.5,46.2,1009.08,-25.66,1.11,1.0,27.8,48.3,39.5,0,no_anomaly,0.0,0,0,0,0,26.8467201,80.9461655,5.0,0.0
2024-08-21T16:09:05.500Z,MISSION_0059,55,0,takeoff,SITE_LKN_010,26.8467221,80.9461658,5.0,98.13,1.725,0.165,4.53,-6.1712,-2.4937,98.1252,0.65501,-0.01885,-0.05489,0.75338,-0.0461,-0.0792,-9.8633,-0.4118,0.9494,0.4838,0.1495,3,13,0.67,0.71,0.2,24.692,16.17,94.9,43.2,20888.0,8534,8710,8433,8574,60.6,63.1,62.7,58.5,2.933,2.869,3.048,2.59,3.78,254.6,34.6,46.9,1009.1,-30.56,-1.35,1.04,28.9,48.4,35.7,0,no_anomaly,0.0,0,0,0,0,26.8467221,80.9461658,5.0,0.0
2024-08-21T16:09:05.600Z,MISSION_0059,56,0,takeoff,SITE_LKN_010,26.8467218,80.9461697,5.0,98.42,1.567,0.099,4.16,-0.5973,-0.202,98.4176,0.6533,-0.00207,-0.0051,0.75708,0.0131,-0.0107,-9.7942,0.1013,1.0664,0.2508,0.0896,3,10,0.63,0.89,0.36,24.751,19.2,94.9,43.2,20874.0,8522,8460,8557,8435,59.2,59.8,58.7,61.3,2.831,2.826,2.664,2.563,4.97,266.0,34.6,46.8,1009.05,-29.21,-0.62,2.32,31.7,47.7,38.7,0,no_anomaly,0.0,0,0,0,0,26.8467218,80.9461697,5.0,0.0
2024-08-21T16:09:05.700Z,MISSION_0059,57,0,takeoff,SITE_LKN_010,26.8467208,80.9461733,5.0,100.7,1.493,0.148,3.77,5.4663,-3.1812,100.6987,0.63611,0.05176,0.01901,0.76962,-0.0283,0.0172,-9.8133,0.4892,0.1063,-0.2436,0.174,3,14,0.71,1.03,0.2,24.563,20.76,94.8,43.1,20861.0,8579,8252,8475,8403,57.4,62.2,59.8,60.7,3.121,3.003,2.756,2.877,4.93,255.1,34.7,46.7,1008.95,-29.56,-0.03,1.31,32.3,43.6,39.4,0,no_anomaly,0.0,0,0,0,0,26.8467208,80.9461733,5.0,0.0
2024-08-21T16:09:05.800Z,MISSION_0059,58,0,takeoff,SITE_LKN_010,26.8467224,80.946173,5.0,101.22,1.603,0.073,3.9,-1.8487,-2.7993,101.218,0.63464,0.00864,-0.02796,0.77225,-0.3001,0.0016,-9.6726,0.1476,0.4753,-0.1121,0.2646,3,15,0.71,0.93,0.31,24.651,19.85,94.8,42.5,20847.0,9017,8673,8742,8541,56.7,62.7,58.6,58.8,2.616,2.676,2.561,2.753,5.25,261.1,35.0,45.7,1009.55,-34.86,-0.31,1.91,32.3,46.5,36.9,0,no_anomaly,0.0,0,0,0,0,26.8467224,80.946173,5.0,0.0
2024-08-21T16:09:05.900Z,MISSION_0059,59,0,takeoff,SITE_LKN_010,26.8467254,80.9461796,5.0,102.47,1.349,0.076,3.62,3.3167,-0.7217,102.4717,0.6257,0.02303,0.01862,0.7795,-0.0087,0.0076,-9.8429,-0.9538,-0.014,-0.2253,0.2274,3,13,0.78,0.95,0.34,24.62,24.81,94.7,42.4,20833.0,8475,8397,8497,8584,60.1,60.8,60.3,54.9,2.74,2.858,2.824,3.047,4.78,266.2,34.6,46.3,1009.03,-30.83,1.04,1.58,31.5,39.4,39.3,0,no_anomaly,0.0,0,0,0,0,26.8467254,80.9461796,5.0,0.0
2024-08-21T16:09:06.000Z,MISSION_0059,60,0,takeoff,SITE_LKN_010,26.846725,80.9461789,5.0,103.06,1.263,0.13,3.65,-1.2378,-4.9236,103.0638,0.62183,0.02692,-0.03517,0.7819,-0.0671,0.0002,-9.8687,0.1778,0.0412,0.7275,0.1591,3,15,0.92,1.0,0.46,24.688,18.19,94.6,41.9,20820.0,8712,8591,8297,8628,62.6,64.4,61.4,62.5,2.888,3.172,2.8,2.766,4.76,264.6,35.1,46.6,1008.84,-39.53,-0.92,2.07,32.7,42.8,37.1,0,no_anomaly,0.0,0,0,0,0,26.846725,80.9461789,5.0,0.0
2024-08-21T16:09:06.100Z,MISSION_0059,61,0,takeoff,SITE_LKN_010,26.846727,80.9461783,5.0,102.87,1.425,0.148,3.85,-1.8245,-2.9464,102.8685,0.62345,0.01018,-0.02847,0.78128,-0.0329,0.0265,-9.8222,0.2384,-1.3757,-0.1694,0.0742,3,17,0.75,0.83,0.41,24.581,21.98,94.6,43.0,20806.0,8489,8481,8535,8128,61.8,59.0,61.3,60.3,2.599,2.864,2.955,2.775,4.11,263.8,34.6,47.2,1009.29,-22.93,0.47,1.1,29.1,39.7,36.1,0,no_anomaly,0.0,0,0,0,0,26.846727,80.9461783,5.0,0.0
2024-08-21T16:09:06.200Z,MISSION_0059,62,0,takeoff,SITE_LKN_010,26.8467309,80.9461794,5.0,104.68,1.305,0.083,4.13,-2.7797,-1.6644,104.6809,0.611,-0.00332,-0.02807,0.79112,-0.0622,0.0862,-9.8014,-0.1312,0.9,-0.2918,0.1863,3,10,0.78,0.86,0.27,24.688,21.14,94.5,43.0,20793.0,8260,8552,8462,8190,63.6,58.1,60.1,58.5,2.702,2.953,2.661,2.823,4.72,260.2,34.5,46.1,1009.31,-32.95,0.06,1.44,31.0,42.9,38.5,0,no_anomaly,0.0,0,0,0,0,26.8467309,80.9461794,5.0,0.0
2024-08-21T16:09:06.300Z,MISSION_0059,63,0,takeoff,SITE_LKN_010,26.8467255,80.9461784,5.0,104.56,1.892,0.183,3.72,1.5121,0.4945,104.5627,0.61177,0.00466,0.01308,0.79091,-0.0782,-0.0108,-9.8571,-0.1113,0.4445,0.2125,0.2415,3,19,0.82,0.64,0.37,24.713,18.34,94.5,43.2,20779.0,8557,8417,8470,8459,59.4,57.1,62.4,59.4,3.114,2.676,2.983,2.555,4.94,265.8,34.6,47.4,1009.29,-32.32,-0.4,2.13,26.3,41.5,35.2,0,no_anomaly,0.0,0,0,0,0,26.8467255,80.9461784,5.0,0.0
2024-08-21T16:09:06.400Z,MISSION_0059,64,0,takeoff,SITE_LKN_010,26.8467281,80.9461765,5.0,104.83,2.135,0.143,4.08,0.9896,-1.4196,104.8276,0.6098,0.01508,-0.00071,0.79241,-0.0418,0.0303,-9.754,0.5427,0.166,-0.3492,0.1931,3,17,0.52,0.83,0.23,24.572,21.28,94.4,42.2,20765.0,8577,8394,8596,8457,57.0,60.9,61.3,62.7,2.759,2.629,2.861,2.844,4.14,264.6,34.6,46.4,1009.12,-33.81,0.83,1.63,26.6,46.9,38.2,0,no_anomaly,0.0,0,0,0,0,26.8467281,80.9461765,5.0,0.0
2024-08-21T16:09:06.500Z,MISSION_0059,65,0,takeoff,SITE_LKN_010,26.8467323,80.9461736,5.0,105.68,2.287,0.019,4.64,-1.464,-1.8795,105.6797,0.60408,0.00535,-0.02009,0.79665,-0.0923,-0.0338,-9.8198,-0.2381,0.2699,0.3384,0.1619,3,16,0.72,0.95,0.34,24.713,17.71,94.3,43.7,20752.0,8556,8475,8399,8491,59.2,60.6,59.7,60.0,2.717,3.102,2.603,2.656,4.48,258.4,34.7,46.6,1009.27,-28.94,-0.32,1.82,29.9,48.1,35.9,0,no_anomaly,0.0,0,0,0,0,26.8467323,80.9461736,5.0,0.0
2024-08-21T16:09:06.600Z,MISSION_0059,66,0,takeoff,SITE_LKN_010,26.8467299,80.9461715,5.0,108.54,2.104,0.048,4.6,1.329,-1.8622,108.5422,0.58368,0.01996,-7e-05,0.81174,0.1174,0.0464,-9.778,0.4307,0.1718,0.4148,0.2014,3,10,0.56,0.83,0.33,24.722,17.23,94.3,42.9,20738.0,8531,8538,8319,8472,59.6,57.3,61.3,59.4,2.945,2.736,2.86,2.993,5.34,261.2,34.7,46.8,1009.14,-27.52,-1.53,1.7,29.6,50.9,36.7,0,no_anomaly,0.0,0,0,0,0,26.8467299,80.9461715,5.0,0.0
2024-08-21T16:09:06.700Z,MISSION_0059,67,0,takeoff,SITE_LKN_010,26.846732,80.9461751,5.0,106.68,2.227,0.106,4.51,1.8054,-3.3161,106.6791,0.59638,0.03261,-0.00464,0.80202,-0.1187,0.0429,-9.8796,-0.0485,-0.4968,-0.068,0.1008,3,19,0.76,0.82,0.27,24.663,16.78,94.2,42.6,20725.0,8391,8600,8478,8579,58.0,59.7,59.1,58.9,2.866,2.817,2.912,2.83,4.19,258.3,34.6,46.7,1009.36,-34.27,1.75,1.5,30.4,44.4,36.7,0,no_anomaly,0.0,0,0,0,0,26.846732,80.9461751,5.0,0.0
2024-08-21T16:09:06.800Z,MISSION_0059,68,0,takeoff,SITE_LKN_010,26.846731,80.9461758,5.0,108.62,2.289,0.146,4.38,2.5678,-1.7402,108.6197,0.58291,0.0254,0.00934,0.81208,0.1401,0.0395,-9.7646,-0.1303,-0.5957,0.2908,0.2236,3,13,0.78,0.99,0.37,24.619,22.82,94.1,42.7,20711.0,8586,8432,8706,8382,60.4,60.3,57.0,56.2,2.693,2.854,2.574,3.099,5.21,259.9,34.4,46.1,1009.04,-29.28,2.52,1.12,30.9,49.8,35.6,0,no_anomaly,0.0,0,0,0,0,26.846731,80.9461758,5.0,0.0
2024-08-21T16:09:06.900Z,MISSION_0059,69,0,takeoff,SITE_LKN_010,26.846733,80.9461748,5.0,109.59,2.372,0.032,4.62,-1.2909,-0.168,109.5913,0.57647,-0.0053,-0.01005,0.81704,0.1436,0.0357,-9.8435,0.6041,0.2235,-0.3794,0.1451,3,16,0.81,0.96,0.2,24.572,18.37,94.1,43.1,20698.0,8291,8478,8343,8171,61.0,59.1,61.3,60.2,2.904,2.991,2.719,2.669,5.2,259.3,34.2,46.2,1008.94,-30.69,-0.41,1.18,31.1,47.5,38.1,0,no_anomaly,0.0,0,0,0,0,26.846733,80.9461748,5.0,0.0
2024-08-21T16:09:07.000Z,MISSION_0059,70,0,takeoff,SITE_LKN_010,26.8467289,80.9461717,5.0,109.4,1.698,0.104,4.51,1.7632,-3.6788,109.403,0.57707,0.03508,-0.00599,0.81592,0.0301,-0.0322,-9.7881,0.5459,0.1481,-0.083,0.1739,3,14,0.74,1.03,0.32,24.669,17.92,94.0,42.5,20684.0,8391,8364,8409,8523,57.0,57.6,60.6,58.6,2.658,2.385,2.466,2.884,4.84,259.2,35.1,46.8,1009.24,-30.86,0.42,1.17,29.2,41.2,39.5,0,no_anomaly,0.0,0,0,0,0,26.8467289,80.9461717,5.0,0.0
2024-08-21T16:09:07.100Z,MISSION_0059,71,0,takeoff,SITE_LKN_010,26.8467283,80.946176,5.0,110.61,1.908,0.074,4.13,-6.5158,-3.7044,110.612,0.56949,-0.0058,-0.06507,0.8194,-0.0035,0.0304,-9.8375,0.3901,-0.3904,-0.4245,0.0705,3,10,0.74,0.95,0.27,24.636,18.65,94.0,43.0,20670.0,8660,8567,8652,8497,62.6,60.4,57.8,58.7,2.742,2.719,2.607,2.854,5.34,260.9,34.5,47.6,1008.78,-34.99,0.39,1.52,28.0,46.8,37.0,0,no_anomaly,0.0,0,0,0,0,26.8467283,80.946176,5.0,0.0
2024-08-21T16:09:07.200Z,MISSION_0059,72,0,takeoff,SITE_LKN_010,26.8467277,80.9461783,5.0,112.25,2.218,0.081,3.91,0.1114,-5.3395,112.2521,0.55672,0.03921,-0.02516,0.82939,-0.2401,-0.0383,-9.7221,-0.1372,0.066,0.406,0.1369,3,15,0.71,0.86,0.2,24.618,19.62,93.9,43.0,20657.0,8517,8443,8688,8635,61.4,60.4,58.8,60.6,2.485,2.951,2.71,2.813,5.19,273.4,34.7,46.6,1009.51,-26.77,0.03,1.76,32.3,41.4,35.7,0,no_anomaly,0.0,0,0,0,0,26.8467277,80.9461783,5.0,0.0
2024-08-21T16:09:07.300Z,MISSION_0059,73,0,takeoff,SITE_LKN_010,26.8467277,80.9461803,5.0,113.38,2.023,0.079,3.79,-1.4138,-0.4555,113.3809,0.54916,-0.00345,-0.01249,0.83562,0.1368,0.045,-9.83,0.2746,0.0885,-0.2222,0.2228,3,10,0.93,1.18,0.47,24.586,19.36,93.8,43.7,20643.0,8336,8496,8277,8493,63.4,60.4,58.0,57.7,2.931,2.88,3.029,2.925,4.76,257.9,34.6,46.3,1009.27,-35.43,1.57,1.58,28.8,45.2,38.7,0,no_anomaly,0.0,0,0,0,0,26.8467277,80.9461803,5.0,0.0
2024-08-21T16:09:07.400Z,MISSION_0059,74,0,takeoff,SITE_LKN_010,26.8467259,80.9461803,5.0,116.88,1.987,0.083,3.63,-2.4021,-3.9882,116.8799,0.52358,0.01868,-0.03606,0.85101,-0.1836,-0.02,-9.8146,-0.4214,0.1506,0.0417,0.2736,3,19,0.55,1.2,0.21,24.736,17.86,93.8,43.4,20630.0,8732,8542,8506,8512,62.4,61.2,61.3,60.2,2.754,2.747,2.896,2.959,4.53,254.1,35.2,47.2,1009.56,-22.98,-1.81,1.42,25.4,42.3,37.3,0,no_anomaly,0.0,0,0,0,0,26.8467259,80.9461803,5.0,0.0
2024-08-21T16:09:07.500Z,MISSION_0059,75,0,transit,SITE_LKN_010,26.8467251,80.9461809,5.5,116.35,1.894,0.088,3.51,-1.5541,-1.7299,116.351,0.52738,0.00567,-0.01948,0.84938,-0.0432,0.0487,-9.8136,-0.779,0.6679,0.3971,0.2411,3,16,0.59,0.71,0.25,24.717,21.13,93.7,43.4,20616.0,8547,8670,8645,8539,60.9,60.7,59.6,58.1,2.88,2.751,2.759,2.453,4.54,260.0,34.5,46.4,1009.27,-27.75,-0.63,1.66,30.1,41.0,38.4,0,no_anomaly,0.0,0,0,0,0,26.8467251,80.9461809,5.5,0.0
2024-08-21T16:09:07.600Z,MISSION_0059,76,0,transit,SITE_LKN_010,26.8467205,80.9461812,6.0,116.54,2.229,0.216,3.09,-1.6891,-2.8291,116.5414,0.526,0.01324,-0.02551,0.85,-0.0818,-0.0533,-9.7475,-0.5977,0.1903,0.0319,0.2091,3,11,0.73,0.69,0.4,24.58,18.71,93.6,43.1,20602.0,8634,8308,8380,8445,63.0,59.0,62.9,59.7,2.527,2.751,2.815,2.787,4.72,255.0,34.2,47.3,1009.47,-31.69,0.43,1.1,29.9,42.8,38.6,0,no_anomaly,0.0,0,0,0,0,26.8467205,80.9461812,6.0,0.0
2024-08-21T16:09:07.700Z,MISSION_0059,77,0,transit,SITE_LKN_010,26.8467245,80.9461829,6.5,116.19,2.406,0.003,3.33,-0.9267,-2.9366,116.1855,0.52853,0.01748,-0.02041,0.84849,-0.0128,-0.0836,-9.7088,0.4411,-0.0609,-0.238,0.1974,3,16,0.7,0.81,0.22,24.713,19.04,93.6,43.3,20589.0,8647,8774,8383,8519,62.0,60.9,59.9,64.4,2.689,2.803,2.909,2.788,4.81,262.2,34.9,46.3,1009.1,-28.8,-1.28,2.16,32.1,49.5,38.5,0,no_anomaly,0.0,0,0,0,0,26.8467245,80.9461829,6.5,0.0
2024-08-21T16:09:07.800Z,MISSION_0059,78,0,transit,SITE_LKN_010,26.8467242,80.946179,7.0,113.8,2.563,0.133,3.57,1.2913,-2.3834,113.7968,0.54578,0.02357,-0.00192,0.8376,0.0966,0.0602,-9.8081,-0.0898,-0.0032,-0.055,0.2139,3,15,0.64,1.01,0.35,24.721,19.94,93.5,43.4,20575.0,8689,8410,8547,8362,60.9,62.7,61.4,60.8,2.866,2.803,2.917,3.068,4.84,246.3,34.8,46.9,1009.23,-34.28,0.95,1.54,29.1,49.3,40.2,0,no_anomaly,0.0,0,0,0,0,26.8467242,80.946179,7.0,0.0
2024-08-21T16:09:07.900Z,MISSION_0059,79,0,transit,SITE_LKN_010,26.8467266,80.9461799,7.5,111.21,2.478,0.067,3.71,-0.2816,-2.0095,111.21,0.56484,0.01308,-0.01193,0.82501,-0.1106,-0.0482,-9.7623,-0.0038,-0.0917,0.2381,0.2348,3,19,0.5,0.95,0.2,24.672,23.63,93.5,42.9,20562.0,8163,8083,8563,8331,58.4,63.4,61.7,61.1,2.78,2.979,2.919,2.819,4.73,253.3,34.9,46.6,1009.35,-31.81,-1.08,1.73,31.5,43.1,35.6,0,no_anomaly,0.0,0,0,0,0,26.8467266,80.9461799,7.5,0.0
2024-08-21T16:09:08.000Z,MISSION_0059,80,0,transit,SITE_LKN_010,26.8467253,80.9461782,8.0,109.36,2.437,0.2,3.72,-2.308,-1.1164,109.3625,0.57814,-0.0037,-0.02206,0.81563,-0.2417,0.0291,-9.851,0.535,0.4006,0.007,0.1835,3,12,0.75,0.87,0.24,24.571,22.22,93.4,43.4,20548.0,8392,8418,8549,8481,61.3,58.3,56.3,58.5,2.627,2.822,2.85,2.796,4.61,258.4,34.8,46.6,1009.01,-32.9,-1.19,2.05,31.7,44.2,36.5,0,no_anomaly,0.0,0,0,0,0,26.8467253,80.9461782,8.0,0.0
2024-08-21T16:09:08.100Z,MISSION_0059,81,0,transit,SITE_LKN_010,26.8467223,80.9461754,8.5,106.11,2.786,0.124,3.7,3.1222,-3.2944,106.1128,0.59993,0.03933,0.00449,0.79907,0.1037,0.0578,-9.7843,0.1005,0.1836,0.0109,0.207,3,19,0.79,0.78,0.4,24.636,21.74,93.3,43.1,20534.0,8597,8607,8096,8508,61.4,63.9,60.0,61.8,2.601,2.979,2.737,2.65,5.13,254.2,34.6,47.3,1009.07,-31.46,-0.17,1.47,29.1,45.1,33.9,0,no_anomaly,0.0,0,0,0,0,26.8467223,80.9461754,8.5,0.0
2024-08-21T16:09:08.200Z,MISSION_0059,82,0,transit,SITE_LKN_010,26.8467237,80.9461754,9.0,107.5,2.448,0.142,3.8,1.4737,-0.6865,107.5029,0.59117,0.01243,0.00683,0.80642,0.049,-0.0161,-9.7965,0.3294,0.6588,-0.6701,0.2052,3,20,0.65,0.85,0.28,24.612,23.95,93.3,42.6,20521.0,8848,8349,8528,8407,59.0,58.5,58.4,59.3,2.748,3.145,2.706,2.989,4.26,263.9,34.7,47.3,1008.95,-28.87,-0.15,1.74,32.4,46.6,36.1,0,no_anomaly,0.0,0,0,0,0,26.8467237,80.9461754,9.0,0.0
2024-08-21T16:09:08.300Z,MISSION_0059,83,0,transit,SITE_LKN_010,26.8467243,80.946178,9.5,108.44,2.611,0.135,3.64,1.3958,-4.115,108.4437,0.58387,0.03624,-0.01111,0.81096,0.2522,0.0045,-9.8307,-0.8151,-0.1292,-0.5048,0.1994,3,14,0.83,0.64,0.22,24.536,18.74,93.2,42.6,20507.0,8682,8377,8157,8693,56.4,59.3,57.6,62.0,3.171,3.032,2.852,3.002,5.11,258.9,35.0,45.8,1009.0,-32.17,0.13,1.0,31.9,47.9,37.7,0,no_anomaly,0.0,0,0,0,0,26.8467243,80.946178,9.5,0.0
2024-08-21T16:09:08.400Z,MISSION_0059,84,0,transit,SITE_LKN_010,26.8467204,80.9461883,10.0,104.75,2.708,0.075,2.62,1.469,-5.3836,104.7454,0.60932,0.04501,-0.01853,0.79143,0.0384,0.0142,-9.6747,-1.0837,0.5629,0.3066,0.2281,3,16,0.7,0.98,0.22,24.611,17.35,93.2,42.2,20494.0,8418,8450,8255,8617,58.6,57.2,59.8,62.0,2.5,2.659,2.877,2.767,4.56,261.4,34.8,46.2,1009.27,-31.06,0.15,1.26,29.5,40.6,37.4,0,no_anomaly,0.0,0,0,0,0,26.8467204,80.9461883,10.0,0.0
2024-08-21T16:09:08.500Z,MISSION_0059,85,0,transit,SITE_LKN_010,26.8467178,80.9461844,10.5,104.82,2.551,0.036,2.64,3.4743,-2.4376,104.8164,0.6091,0.03533,0.01105,0.79223,-0.12,0.0366,-9.8177,-0.0341,-0.5537,-0.0305,0.2217,3,18,0.75,0.62,0.34,24.548,19.82,93.1,43.1,20480.0,8456,8656,8892,8359,62.1,57.4,58.4,59.5,2.772,2.678,2.755,2.938,4.76,271.3,34.6,47.2,1009.19,-25.47,-0.64,1.73,33.5,49.3,39.5,0,no_anomaly,0.0,0,0,0,0,26.8467178,80.9461844,10.5,0.0
2024-08-21T16:09:08.600Z,MISSION_0059,86,0,transit,SITE_LKN_010,26.8467161,80.9461876,11.0,102.59,3.229,0.103,2.26,-3.847,-2.5824,102.59,0.62539,-0.00341,-0.04027,0.77926,0.1175,-0.0427,-9.8704,-0.3627,-0.539,-0.0404,0.1573,3,16,0.81,0.92,0.27,24.659,24.88,93.0,42.9,20467.0,8389,8567,8516,8716,59.9,58.1,60.2,62.4,2.712,2.79,2.775,2.847,4.48,264.8,34.7,46.8,1009.22,-35.02,0.31,1.28,28.3,42.9,36.9,0,no_anomaly,0.0,0,0,0,0,26.8467161,80.9461876,11.0,0.0
2024-08-21T16:09:08.700Z,MISSION_0059,87,0,transit,SITE_LKN_010,26.8467159,80.946184,11.5,102.13,3.637,0.143,2.51,-2.7747,-3.7684,102.1258,0.62856,0.01036,-0.03948,0.77669,-0.0951,-0.0604,-9.839,-0.182,0.0618,0.4572,0.2055,3,15,0.7,0.98,0.36,24.708,20.04,93.0,43.6,20453.0,8809,8365,8380,8333,57.4,61.4,58.9,62.5,2.711,2.43,2.607,2.78,5.35,262.0,34.9,47.3,1009.19,-28.95,-0.81,1.9,26.9,43.3,38.9,0,no_anomaly,0.0,0,0,0,0,26.8467159,80.946184,11.5,0.0
2024-08-21T16:09:08.800Z,MISSION_0059,88,0,transit,SITE_LKN_010,26.846713,80.9461871,12.0,102.68,4.087,0.189,2.04,0.5761,-0.8113,102.6839,0.62462,0.00867,-0.0005,0.78088,-0.2363,0.067,-9.8395,0.5198,-0.1751,-0.3009,0.2344,3,12,0.76,0.79,0.41,24.608,17.14,92.9,43.8,20439.0,8481,8407,8848,8197,61.7,62.1,57.3,62.5,2.788,2.886,2.757,2.506,5.02,255.0,34.7,45.5,1009.32,-31.6,-1.13,1.72,29.2,45.7,37.6,0,no_anomaly,0.0,0,0,0,0,26.846713,80.9461871,12.0,0.0
2024-08-21T16:09:08.900Z,MISSION_0059,89,0,transit,SITE_LKN_010,26.846713,80.9461856,12.5,104.15,3.331,-0.003,2.15,4.3225,0.7048,104.1504,0.61436,0.01833,0.03352,0.7881,0.0418,0.0816,-9.8154,-0.0945,0.9882,0.2515,0.274,3,20,0.77,0.6,0.32,24.637,15.79,92.8,42.9,20426.0,8537,8367,8151,8476,62.3,55.4,55.7,63.5,3.029,2.781,2.501,2.773,4.15,254.4,34.5,46.8,1009.03,-27.86,-0.11,1.56,29.2,47.1,35.6,0,no_anomaly,0.0,0,0,0,0,26.846713,80.9461856,12.5,0.0
2024-08-21T16:09:09.000Z,MISSION_0059,90,0,transit,SITE_LKN_010,26.8467068,80.9461817,13.0,102.35,3.372,0.154,2.18,1.4719,-3.827,102.3468,0.62623,0.03406,-0.01093,0.77882,0.0022,0.0205,-9.8403,0.3812,0.4676,0.1884,0.1227,3,11,0.72,1.04,0.28,24.649,22.0,92.8,43.1,20412.0,8326,8469,8751,8660,60.4,60.0,55.9,62.4,2.736,2.641,2.679,2.582,5.95,257.3,34.7,46.7,1009.2,-31.07,-1.53,1.75,31.1,44.2,37.2,0,no_anomaly,0.0,0,0,0,0,26.8467068,80.9461817,13.0,0.0
2024-08-21T16:09:09.100Z,MISSION_0059,91,0,transit,SITE_LKN_010,26.8467102,80.9461844,13.5,104.47,3.303,0.078,2.08,2.6177,-0.5524,104.4698,0.61217,0.0178,0.01511,0.79038,0.0018,0.0073,-9.806,0.2907,-0.5819,-0.0673,0.2721,3,13,0.61,0.97,0.23,24.587,21.32,92.7,42.9,20399.0,8697,8765,8680,8311,58.9,63.0,59.3,60.7,2.75,2.904,2.886,2.871,4.67,255.4,34.9,46.5,1009.19,-27.99,-0.79,1.44,31.6,42.0,38.5,0,no_anomaly,0.0,0,0,0,0,26.8467102,80.9461844,13.5,0.0
2024-08-21T16:09:09.200Z,MISSION_0059,92,0,transit,SITE_LKN_010,26.8467078,80.9461855,14.0,105.03,3.645,0.195,1.83,2.6758,-2.9175,105.0338,0.60769,0.0344,0.00303,0.79342,-0.1256,0.0228,-9.8367,-0.2301,0.386,-0.5668,0.2729,3,14,0.71,0.77,0.29,24.668,24.37,92.7,42.8,20385.0,8519,8386,8633,8623,62.0,62.9,57.2,60.3,2.779,2.593,2.98,2.861,4.64,257.4,34.5,46.4,1009.49,-26.96,0.71,1.1,28.7,47.6,40.5,0,no_anomaly,0.0,0,0,0,0,26.8467078,80.9461855,14.0,0.0
2024-08-21T16:09:09.300Z,MISSION_0059,93,0,transit,SITE_LKN_010,26.8467105,80.9461855,14.5,108.02,4.286,0.148,1.99,-2.2862,-1.3376,108.0188,0.58768,-0.00228,-0.023,0.80876,-0.1149,0.0376,-9.8238,-0.2443,0.6278,-0.4454,0.1725,3,19,0.81,1.13,0.37,24.636,22.22,92.6,43.1,20371.0,8325,8926,8844,8615,57.1,59.8,61.6,58.2,2.895,3.018,2.53,2.525,4.48,253.9,34.9,46.4,1008.92,-36.29,1.26,1.04,25.8,47.8,37.7,0,no_anomaly,0.0,0,0,0,0,26.8467105,80.9461855,14.5,0.0
2024-08-21T16:09:09.400Z,MISSION_0059,94,0,transit,SITE_LKN_010,26.8467089,80.9461867,15.0,106.9,4.553,0.082,1.79,-4.156,-1.6795,106.9023,0.59548,-0.00982,-0.03785,0.80242,-0.2454,-0.0577,-9.7746,0.7165,-0.7029,-0.1314,0.1631,3,12,0.69,0.94,0.3,24.596,17.39,92.5,43.2,20358.0,8611,8741,8397,8567,60.5,63.7,57.4,58.7,2.934,2.668,2.664,2.707,4.18,253.7,34.2,45.5,1009.29,-34.59,1.2,1.23,33.0,48.8,36.3,0,no_anomaly,0.0,0,0,0,0,26.8467089,80.9461867,15.0,0.0
2024-08-21T16:09:09.500Z,MISSION_0059,95,0,transit,SITE_LKN_010,26.8467105,80.9461917,15.5,106.06,4.644,0.05,1.48,0.3277,-3.4397,106.0609,0.60105,0.0257,-0.01577,0.79864,0.0518,-0.0352,-9.818,-0.7562,0.4146,-0.2182,0.1401,3,13,0.85,1.08,0.32,24.702,22.33,92.5,42.7,20344.0,8588,8554,8326,8499,58.8,59.2,64.7,61.4,2.67,2.657,2.802,2.881,4.26,257.1,34.6,46.7,1009.27,-28.71,-0.04,1.82,29.6,43.2,35.5,0,no_anomaly,0.0,0,0,0,0,26.8467105,80.9461917,15.5,0.0
2024-08-21T16:09:09.600Z,MISSION_0059,96,0,transit,SITE_LKN_010,26.8467113,80.9461872,16.0,108.11,4.557,0.082,1.9,-1.3024,-0.0283,108.1104,0.58697,-0.00647,-0.00935,0.80953,0.1102,0.015,-9.7112,-0.7287,0.1278,0.166,0.2947,3,12,0.78,0.74,0.33,24.612,16.97,92.4,43.4,20331.0,8324,8469,8804,8669,58.1,61.8,60.3,60.8,2.585,2.718,2.713,2.849,4.41,256.6,34.6,46.6,1009.13,-31.44,-0.94,1.19,31.1,41.6,39.3,0,no_anomaly,0.0,0,0,0,0,26.8467113,80.9461872,16.0,0.0
2024-08-21T16:09:09.700Z,MISSION_0059,97,0,transit,SITE_LKN_010,26.8467116,80.946189,16.5,109.54,4.523,0.058,1.78,-0.7102,-2.6307,109.5379,0.57683,0.01518,-0.0183,0.81652,-0.1102,0.053,-9.7327,0.1121,-0.5369,-0.3968,0.2145,3,15,0.69,0.76,0.21,24.554,19.5,92.4,43.6,20317.0,8494,8490,8302,8782,59.2,61.9,61.0,61.5,2.859,2.773,2.782,2.919,4.53,267.1,34.8,46.7,1008.88,-18.69,-1.26,1.8,29.8,40.7,38.5,0,no_anomaly,0.0,0,0,0,0,26.8467116,80.946189,16.5,0.0
2024-08-21T16:09:09.800Z,MISSION_0059,98,0,transit,SITE_LKN_010,26.8467059,80.9461869,17.0,108.33,4.217,0.094,1.6,-2.6405,-0.849,108.3334,0.5854,-0.00748,-0.02302,0.81039,0.1478,-0.0398,-9.756,-0.0821,0.0328,0.0405,0.1927,3,16,0.77,0.86,0.43,24.583,17.03,92.3,42.5,20303.0,8744,8321,8631,8797,58.9,56.6,57.5,58.5,2.562,2.674,2.885,3.082,4.54,259.6,34.8,46.7,1009.23,-28.07,0.92,1.69,27.5,47.3,33.0,0,no_anomaly,0.0,0,0,0,0,26.8467059,80.9461869,17.0,0.0
2024-08-21T16:09:09.900Z,MISSION_0059,99,0,transit,SITE_LKN_010,26.8467022,80.946188,17.5,110.79,4.57,0.066,1.36,0.8107,-1.9777,110.793,0.5677,0.01822,-0.00398,0.82303,0.2224,-0.0048,-9.8047,0.2133,-0.4964,0.3752,0.1163,3,10,0.56,1.02,0.2,24.621,20.71,92.2,43.4,20290.0,8612,8618,8707,8597,63.6,61.3,61.3,59.8,3.013,2.758,2.606,2.749,5.66,262.6,34.4,46.8,1009.11,-28.32,-0.52,1.35,27.1,43.7,35.4,0,no_anomaly,0.0,0,0,0,0,26.8467022,80.946188,17.5,0.0
2024-08-21T16:09:10.000Z,MISSION_0059,100,0,transit,SITE_LKN_010,26.8467023,80.9461901,18.0,113.31,4.641,0.156,1.13,4.3518,-5.5891,113.3058,0.54711,0.06154,0.0049,0.83478,0.0174,0.0566,-9.7759,1.1968,0.4414,-0.4326,0.2519,3,16,0.71,0.96,0.3,24.624,23.61,92.2,43.9,20276.0,8755,8910,8744,8451,58.7,58.2,58.1,62.3,2.903,2.916,3.04,2.809,4.66,266.7,34.6,45.6,1008.92,-29.69,0.07,1.51,30.2,47.8,37.3,0,no_anomaly,0.0,0,0,0,0,26.8467023,80.9461901,18.0,0.0
2024-08-21T16:09:10.100Z,MISSION_0059,101,0,transit,SITE_LKN_010,26.8467053,80.9461905,18.5,114.72,4.458,0.139,1.21,-3.6311,-3.0014,114.7184,0.53961,0.00496,-0.04079,0.84091,0.2152,0.0091,-9.8447,0.2119,0.2442,-0.3058,0.1853,3,13,0.7,1.03,0.37,24.5,21.84,92.1,43.2,20263.0,8614,8542,8305,8351,57.8,61.1,62.2,63.6,2.977,2.853,2.633,3.002,5.04,248.4,34.9,46.2,1009.05,-28.83,-2.9,1.52,30.1,46.5,35.9,0,no_anomaly,0.0,0,0,0,0,26.8467053,80.9461905,18.5,0.0
2024-08-21T16:09:10.200Z,MISSION_0059,102,0,transit,SITE_LKN_010,26.8467043,80.9461941,19.0,115.92,4.764,0.092,0.81,0.5039,-2.4528,115.9179,0.53032,0.02048,-0.00763,0.84752,0.2139,0.0904,-9.8007,0.5026,0.2695,0.011,0.1093,3,10,0.76,0.93,0.29,24.621,20.05,92.0,43.1,20249.0,8401,8634,8204,8560,56.2,59.9,59.8,57.3,2.778,2.689,2.775,2.839,4.86,261.0,34.5,46.6,1009.0,-32.45,0.9,1.22,31.3,47.3,42.5,0,no_anomaly,0.0,0,0,0,0,26.8467043,80.9461941,19.0,0.0
2024-08-21T16:09:10.300Z,MISSION_0059,103,0,transit,SITE_LKN_010,26.8467006,80.9461923,19.5,116.61,4.375,0.073,0.86,0.1788,-1.9257,116.6149,0.52526,0.01512,-0.0075,0.85077,0.0071,0.0211,-9.838,-0.369,0.4004,0.2718,0.3554,3,13,0.63,0.64,0.23,24.606,23.71,92.0,43.4,20236.0,8706,8603,8402,8438,59.5,63.1,62.9,56.8,2.827,2.411,2.904,2.706,5.03,265.5,34.7,46.8,1009.1,-25.82,-0.98,1.88,32.3,41.3,37.2,0,no_anomaly,0.0,0,0,0,0,26.8467006,80.9461923,19.5,0.0
2024-08-21T16:09:10.400Z,MISSION_0059,104,0,transit,SITE_LKN_010,26.8467079,80.9461917,20.0,117.83,4.585,0.125,1.27,-2.1369,-2.7934,117.8306,0.51645,0.01125,-0.02855,0.85577,-0.0097,-0.0053,-9.7832,0.1139,-0.1973,0.1131,0.0895,3,13,0.86,0.74,0.33,24.509,19.36,91.9,42.7,20222.0,8500,8508,8563,8438,61.4,58.2,60.3,60.1,2.84,2.977,2.559,2.757,4.87,257.5,34.6,46.3,1008.82,-33.75,1.0,1.15,32.5,41.4,37.1,0,no_anomaly,0.0,0,0,0,0,26.8467079,80.9461917,20.0,0.0
2024-08-21T16:09:10.500Z,MISSION_0059,105,0,transit,SITE_LKN_010,26.846709,80.9461894,20.5,117.45,4.613,0.19,1.54,-3.1943,-2.6688,117.45,0.51936,0.00543,-0.0359,0.85378,-0.0741,-0.0532,-9.8617,0.0841,-0.5223,-0.1901,0.1167,3,15,0.67,0.91,0.26,24.643,17.85,91.9,42.5,20208.0,8599,8733,8608,8608,60.9,61.6,60.5,57.3,2.922,2.791,3.04,2.921,5.19,266.3,34.2,46.5,1008.98,-28.1,-1.03,1.69,29.7,41.5,38.3,0,no_anomaly,0.0,0,0,0,0,26.846709,80.9461894,20.5,0.0
2024-08-21T16:09:10.600Z,MISSION_0059,106,0,transit,SITE_LKN_010,26.8467047,80.9461885,20.8,119.49,4.043,0.098,1.39,-0.3357,-2.8101,119.4927,0.50374,0.01971,-0.01488,0.8635,-0.2182,-0.0443,-9.7948,0.2809,0.0608,-0.031,0.1941,3,16,0.74,0.83,0.21,24.528,22.09,91.8,42.7,20195.0,8502,8497,8749,8679,60.9,61.8,61.5,59.2,2.814,2.834,2.963,2.849,4.57,257.9,34.9,46.0,1009.24,-28.94,-0.2,1.31,30.2,48.0,36.5,0,no_anomaly,0.0,0,0,0,0,26.8467047,80.9461885,20.8,0.0
2024-08-21T16:09:10.700Z,MISSION_0059,107,0,transit,SITE_LKN_010,26.846707,80.9461886,20.8,120.77,4.229,0.048,1.49,-0.423,-6.0015,120.7726,0.49364,0.04369,-0.02907,0.86808,-0.0155,0.0422,-9.8684,-0.7417,-0.368,-0.2433,0.1606,3,12,0.74,0.68,0.27,24.637,15.97,91.7,42.9,20181.0,8468,8566,8453,8836,59.2,62.8,62.2,58.2,2.619,2.724,2.912,2.53,4.54,263.0,34.5,46.7,1009.09,-31.22,-0.49,1.38,30.4,46.5,38.1,0,no_anomaly,0.0,0,0,0,0,26.846707,80.9461886,20.8,0.0
2024-08-21T16:09:10.800Z,MISSION_0059,108,0,transit,SITE_LKN_010,26.8467062,80.9461861,20.8,121.21,4.81,0.031,1.69,-3.4083,-2.9526,121.2126,0.4911,0.00785,-0.03854,0.87022,-0.0585,-0.0299,-9.879,-0.0269,0.1857,0.0904,0.3112,3,11,0.76,1.13,0.38,24.543,19.7,91.7,43.7,20168.0,8623,8459,8773,8676,58.3,61.6,59.7,57.9,2.632,2.835,2.887,2.733,5.1,253.8,34.7,45.9,1009.34,-34.18,-2.08,1.86,29.0,41.8,38.6,0,no_anomaly,0.0,0,0,0,0,26.8467062,80.9461861,20.8,0.0
2024-08-21T16:09:10.900Z,MISSION_0059,109,0,transit,SITE_LKN_010,26.8467067,80.9461874,20.8,121.75,5.087,0.039,1.59,2.036,-3.5106,121.749,0.48594,0.0354,0.00061,0.87327,-0.1978,0.0501,-9.7856,-0.0978,0.4657,-0.04,0.1815,3,10,0.8,0.82,0.3,24.593,16.86,91.6,43.1,20154.0,8769,8704,8480,8335,59.2,57.8,58.3,59.6,3.042,3.063,2.87,2.724,5.21,263.1,34.9,46.2,1008.89,-25.29,1.74,1.42,27.1,40.3,34.2,0,no_anomaly,0.0,0,0,0,0,26.8467067,80.9461874,20.8,0.0
2024-08-21T16:09:11.000Z,MISSION_0059,110,0,transit,SITE_LKN_010,26.8467052,80.9461889,20.8,122.28,4.975,0.119,1.37,0.6397,-1.1257,122.2829,0.48257,0.0113,0.00015,0.87578,-0.1988,-0.0458,-9.7661,0.7719,0.0115,-0.0238,0.1716,3,10,0.64,0.61,0.27,24.633,22.37,91.5,42.9,20140.0,8653,8373,8475,8508,60.2,62.2,61.6,57.6,2.985,2.765,2.669,2.999,5.3,257.7,34.8,46.6,1009.32,-28.49,1.09,1.49,28.0,43.1,37.0,0,no_anomaly,0.0,0,0,0,0,26.8467052,80.9461889,20.8,0.0
2024-08-21T16:09:11.100Z,MISSION_0059,111,0,transit,SITE_LKN_010,26.8467074,80.9461881,20.8,124.45,5.265,0.091,1.56,-1.2367,-0.2156,124.4454,0.46603,-0.00336,-0.01043,0.8847,-0.1019,-0.0392,-9.7998,-0.0072,0.1009,-0.0541,0.1333,3,12,0.82,0.88,0.23,24.549,16.97,91.5,43.3,20127.0,8291,8539,8517,8387,59.7,60.8,62.3,61.4,2.826,2.975,2.857,2.488,5.25,255.7,34.7,46.4,1009.21,-23.93,1.32,1.33,30.4,39.6,39.1,0,no_anomaly,0.0,0,0,0,0,26.8467074,80.9461881,20.8,0.0
2024-08-21T16:09:11.200Z,MISSION_0059,112,0,transit,SITE_LKN_010,26.8467094,80.946185,20.8,125.27,5.37,0.144,1.97,-3.7529,-2.0115,125.275,0.45981,0.00053,-0.03714,0.88724,0.2189,-0.0692,-9.7987,-0.4722,-0.0113,-0.8407,0.2172,3,19,0.66,0.78,0.23,24.513,16.68,91.4,42.5,20113.0,8563,8634,8407,8859,58.8,61.7,59.0,58.8,2.727,2.688,2.779,2.638,4.25,261.4,34.5,46.3,1009.32,-28.14,0.64,1.0,28.9,43.4,41.2,0,no_anomaly,0.0,0,0,0,0,26.8467094,80.946185,20.8,0.0
2024-08-21T16:09:11.300Z,MISSION_0059,113,0,transit,SITE_LKN_010,26.8467088,80.9461818,20.8,122.58,5.418,0.043,2.25,-0.1039,-2.5115,122.5785,0.48029,0.01879,-0.01132,0.87684,-0.1205,0.0263,-9.8157,-0.209,-0.2424,0.3572,0.2071,3,20,0.68,0.77,0.27,24.476,17.67,91.4,43.3,20100.0,8558,8457,8754,8387,61.3,61.6,61.5,61.6,2.601,2.895,2.991,2.806,4.03,264.6,34.8,47.5,1009.24,-28.73,1.13,2.02,34.1,43.9,37.0,0,no_anomaly,0.0,0,0,0,0,26.8467088,80.9461818,20.8,0.0
2024-08-21T16:09:11.400Z,MISSION_0059,114,0,transit,SITE_LKN_010,26.8467143,80.9461815,20.8,123.99,5.313,0.09,2.6,1.2612,-1.1469,123.9855,0.46943,0.014,0.00502,0.88284,-0.0243,-0.0658,-9.8541,-0.2595,-1.017,0.3277,0.2087,3,20,0.5,0.83,0.2,24.568,18.49,91.3,42.4,20086.0,8828,8585,8827,8420,58.5,60.6,60.6,60.0,2.981,2.907,2.786,2.646,4.75,252.8,34.8,45.9,1009.25,-33.54,0.13,1.32,29.4,48.9,39.7,0,no_anomaly,0.0,0,0,0,0,26.8467143,80.9461815,20.8,0.0
2024-08-21T16:09:11.500Z,MISSION_0059,115,0,transit,SITE_LKN_010,26.8467157,80.9461827,20.8,125.54,5.055,0.08,2.59,-0.1031,-2.5524,125.5381,0.45748,0.01939,-0.01099,0.88894,-0.0793,-0.0748,-9.8151,0.6458,0.0314,0.0482,0.2157,3,15,0.77,0.93,0.33,24.583,21.21,91.2,43.7,20072.0,8619,8708,8804,8720,59.0,61.3,60.3,57.1,2.776,2.995,3.001,2.667,4.86,251.8,35.0,45.9,1009.1,-31.61,-0.53,2.06,33.4,50.0,38.2,0,no_anomaly,0.0,0,0,0,0,26.8467157,80.9461827,20.8,0.0
2024-08-21T16:09:11.600Z,MISSION_0059,116,0,transit,SITE_LKN_010,26.8467167,80.9461815,20.8,125.03,5.471,0.083,2.78,5.2455,-3.3612,125.032,0.45963,0.0471,0.02706,0.88645,-0.2289,-0.0946,-9.7709,-0.1556,0.2055,0.2298,0.2057,3,16,0.75,0.82,0.25,24.525,19.56,91.2,43.5,20059.0,8430,8600,8586,8760,58.4,57.7,61.1,56.1,2.75,2.819,3.111,2.914,5.52,261.0,34.7,46.6,1009.1,-33.2,-1.61,1.0,26.9,44.3,35.0,0,no_anomaly,0.0,0,0,0,0,26.8467167,80.9461815,20.8,0.0
2024-08-21T16:09:11.700Z,MISSION_0059,117,0,transit,SITE_LKN_010,26.8467186,80.9461783,20.8,125.21,4.703,0.173,3.18,-3.5408,-2.0268,125.2101,0.46032,0.00148,-0.03556,0.88704,0.1608,0.0003,-9.8547,0.4551,-0.1283,-0.3785,0.2484,3,17,0.61,0.75,0.21,24.684,23.69,91.1,43.2,20045.0,8347,8468,8533,8630,59.6,59.6,60.8,59.9,2.777,2.791,2.908,3.016,4.87,255.3,35.2,47.0,1009.06,-28.79,-1.33,2.08,30.5,48.7,36.3,0,no_anomaly,0.0,0,0,0,0,26.8467186,80.9461783,20.8,0.0
2024-08-21T16:09:11.800Z,MISSION_0059,118,0,transit,SITE_LKN_010,26.8467164,80.9461771,20.8,123.88,4.661,0.08,3.13,-1.36,-3.7826,123.88,0.47045,0.02354,-0.02599,0.88173,0.076,-0.0791,-9.7811,0.255,-0.6536,-0.568,0.1292,3,12,0.66,0.87,0.24,24.541,18.08,91.1,44.2,20032.0,8457,8711,8713,8242,58.5,60.8,60.1,56.3,2.527,2.976,2.772,2.557,4.62,255.8,34.4,46.6,1009.1,-27.14,0.13,1.69,30.0,39.8,38.4,0,no_anomaly,0.0,0,0,0,0,26.8467164,80.9461771,20.8,0.0
2024-08-21T16:09:11.900Z,MISSION_0059,119,0,transit,SITE_LKN_010,26.8467171,80.9461815,20.8,124.05,5.108,0.083,2.8,-3.5001,-2.327,124.0513,0.46931,0.0036,-0.03649,0.88227,-0.0346,0.0406,-9.7297,-1.0755,-0.201,0.2552,0.2742,3,17,0.61,0.89,0.28,24.581,22.63,91.0,42.4,20018.0,8488,8642,8435,8416,60.1,56.4,54.9,58.0,2.807,2.619,2.652,2.937,4.72,257.3,34.7,46.6,1009.35,-25.54,0.59,1.54,28.0,42.7,34.7,0,no_anomaly,0.0,0,0,0,0,26.8467171,80.9461815,20.8,0.0
2024-08-21T16:09:12.000Z,MISSION_0059,120,0,transit,SITE_LKN_010,26.8467132,80.9461794,20.8,122.69,5.789,0.053,2.73,-0.2266,-2.8897,122.6882,0.47944,0.02118,-0.01383,0.87721,-0.0187,-0.0133,-9.8519,-0.1125,0.2756,-0.0774,0.1831,3,10,0.74,0.99,0.26,24.548,24.11,90.9,43.2,20004.0,8492,8595,8773,8489,60.3,56.2,61.0,58.9,2.946,2.845,2.86,2.909,4.91,244.9,34.8,46.6,1009.2,-34.5,-1.0,1.79,29.6,44.6,37.1,0,no_anomaly,0.0,0,0,0,0,26.8467132,80.9461794,20.8,0.0
2024-08-21T16:09:12.100Z,MISSION_0059,121,0,transit,SITE_LKN_010,26.8467102,80.9461762,20.8,119.07,5.941,0.104,2.89,3.672,-1.138,119.0656,0.50649,0.0248,0.02258,0.8616,-0.0223,0.003,-9.799,0.9948,0.1113,0.0375,0.2155,3,18,0.6,0.83,0.32,24.633,24.86,90.9,43.4,19991.0,8527,8407,8309,8482,59.5,60.1,60.7,64.6,2.727,2.71,2.6,2.575,4.78,260.1,34.7,47.3,1009.08,-30.55,0.53,1.41,26.6,42.2,38.9,0,no_anomaly,0.0,0,0,0,0,26.8467102,80.9461762,20.8,0.0
2024-08-21T16:09:12.200Z,MISSION_0059,122,0,transit,SITE_LKN_010,26.8467114,80.9461781,20.8,119.87,6.322,0.084,2.75,0.4432,-4.4234,119.8665,0.5005,0.03533,-0.01599,0.86487,-0.035,0.088,-9.884,-0.335,-0.5218,-0.5764,0.1368,3,14,0.5,0.61,0.21,24.675,25.7,90.8,42.9,19977.0,8669,8734,8507,8574,62.2,61.6,60.4,58.1,2.945,2.71,2.673,2.794,4.01,255.7,34.9,47.1,1008.89,-33.55,-2.41,1.66,29.4,45.8,38.8,0,no_anomaly,0.0,0,0,0,0,26.8467114,80.9461781,20.8,0.0
2024-08-21T16:09:12.300Z,MISSION_0059,123,0,transit,SITE_LKN_010,26.8467117,80.9461748,20.8,116.78,6.444,0.128,3.09,3.0592,-0.0799,116.7779,0.52395,0.01458,0.02237,0.85133,0.0672,0.0099,-9.7636,0.1058,-0.1336,-0.0031,0.1453,3,15,0.6,0.69,0.2,24.587,15.91,90.7,43.7,19964.0,8848,8583,8617,8480,60.5,62.5,58.6,56.8,2.549,2.858,2.507,3.068,4.83,255.8,34.9,47.3,1008.61,-26.29,0.75,1.44,27.7,40.7,37.1,0,no_anomaly,0.0,0,0,0,0,26.8467117,80.9461748,20.8,0.0
2024-08-21T16:09:12.400Z,MISSION_0059,124,0,transit,SITE_LKN_010,26.84671,80.9461738,20.8,116.47,6.67,0.11,3.13,5.9494,-3.0123,116.47,0.52439,0.04963,0.03029,0.84949,-0.074,0.1265,-9.8478,0.6736,0.3516,-0.6607,0.2064,3,20,0.54,0.73,0.25,24.589,25.45,90.7,42.6,19950.0,8717,8222,8696,8760,60.3,60.0,57.0,60.9,2.924,2.792,2.576,2.62,4.93,256.6,34.1,46.5,1008.7,-29.23,-0.34,1.96,31.9,41.3,37.8,0,no_anomaly,0.0,0,0,0,0,26.84671,80.9461738,20.8,0.0
2024-08-21T16:09:12.500Z,MISSION_0059,125,0,transit,SITE_LKN_010,26.846707,80.9461728,20.8,118.26,6.502,0.092,3.13,1.9587,-1.6521,118.2606,0.51275,0.02114,0.00727,0.85825,-0.1704,-0.1042,-9.7254,-0.0469,0.0764,0.031,0.2414,3,14,0.82,0.89,0.22,24.617,20.15,90.6,44.0,19937.0,8665,8593,8689,8612,57.0,61.2,55.9,57.0,2.846,2.715,3.003,2.881,4.25,257.5,34.3,46.7,1009.55,-26.58,-0.05,1.97,30.2,47.1,39.2,0,no_anomaly,0.0,0,0,0,0,26.846707,80.9461728,20.8,0.0
2024-08-21T16:09:12.600Z,MISSION_0059,126,0,transit,SITE_LKN_010,26.8467108,80.9461745,20.8,118.76,6.702,0.083,3.08,-0.9422,-2.5145,118.7594,0.50936,0.01469,-0.01825,0.86023,0.2442,-0.0842,-9.8161,-0.0379,0.3996,0.0185,0.2073,3,12,0.75,1.22,0.3,24.556,23.21,90.6,42.7,19923.0,8473,8765,8576,8705,57.4,61.3,60.6,60.8,2.865,2.923,2.611,2.745,5.03,264.4,34.7,47.0,1008.93,-29.01,0.84,1.88,30.9,44.0,38.9,0,no_anomaly,0.0,0,0,0,0,26.8467108,80.9461745,20.8,0.0
2024-08-21T16:09:12.700Z,MISSION_0059,127,0,transit,SITE_LKN_010,26.8467082,80.9461732,20.8,120.01,6.286,0.157,3.12,-2.8443,-1.7962,120.009,0.50005,0.00116,-0.02933,0.8655,-0.07,-0.0869,-9.7398,0.3293,0.3347,-0.6525,0.1044,3,19,0.57,1.31,0.2,24.522,23.76,90.5,42.2,19909.0,8385,8522,8677,8385,59.0,59.2,58.0,59.6,2.866,2.823,2.657,2.636,4.62,260.2,34.4,46.7,1009.26,-32.9,0.7,1.7,28.5,41.5,35.4,0,no_anomaly,0.0,0,0,0,0,26.8467082,80.9461732,20.8,0.0
2024-08-21T16:09:12.800Z,MISSION_0059,128,0,transit,SITE_LKN_010,26.8467125,80.9461719,20.8,120.16,6.421,0.04,3.42,2.7566,-2.8788,120.1623,0.49795,0.03376,0.00832,0.86651,-0.1297,0.026,-9.735,-0.1498,0.9672,0.2714,0.3212,3,13,0.75,1.03,0.2,24.498,24.07,90.4,43.2,19896.0,8502,8742,8539,8650,58.5,61.2,60.7,60.3,2.777,2.719,2.962,2.768,4.15,255.9,34.7,46.2,1009.28,-32.58,1.18,1.95,32.1,45.5,36.2,0,no_anomaly,0.0,0,0,0,0,26.8467125,80.9461719,20.8,0.0
2024-08-21T16:09:12.900Z,MISSION_0059,129,0,transit,SITE_LKN_010,26.8467148,80.9461699,20.8,118.08,6.17,0.122,3.74,-0.6986,-0.501,118.0775,0.51447,0.00061,-0.00748,0.85748,0.0373,0.0061,-9.7456,0.8311,-0.8317,0.1397,0.1896,3,11,0.69,0.92,0.23,24.628,25.31,90.4,43.1,19882.0,8617,8670,8782,8637,59.7,61.9,60.3,58.6,2.831,2.871,2.846,2.704,5.08,249.0,34.7,45.8,1009.03,-31.05,-0.53,1.61,31.4,42.0,36.8,0,no_anomaly,0.0,0,0,0,0,26.8467148,80.9461699,20.8,0.0
